"monitor_date","county","state_name","region","subregion","fips","latitude","longitude","case_count_to_date","death_count_to_date","case_count","death_count","previous_monitor_date","population_year","population","source"
"7/18/2022 12:00:00 AM","Carroll County","Georgia","South","South Atlantic","13045","33.582237","-85.080527 ","24964","468","-1","0","7/17/2022 12:00:00 AM","2019","119992","NYTIMES-USCENSUS"
"7/18/2022 12:00:00 AM","Carroll County","New Hampshire","Northeast","New England","33003","43.867774","-71.20156 ","10700","65","25","0","7/17/2022 12:00:00 AM","2019","48910","NYTIMES-USCENSUS"
"7/18/2022 12:00:00 AM","Carroll County","Virginia","South","South Atlantic","51035","36.731963","-80.727831 ","7326","150","28","0","7/17/2022 12:00:00 AM","2019","29791","NYTIMES-USCENSUS"
"7/18/2022 12:00:00 AM","Carroll County","Illinois","Midwest","East North Central","17015","42.0709","-89.924189 ","4536","50","10","0","7/17/2022 12:00:00 AM","2019","14305","NYTIMES-USCENSUS"
"7/18/2022 12:00:00 AM","Carroll County","Tennessee","South","East South Central","47017","35.965748","-88.452379 ","9482","158","0","0","7/17/2022 12:00:00 AM","2019","27767","NYTIMES-USCENSUS"
"7/18/2022 12:00:00 AM","Carroll County","Missouri","Midwest","West North Central","29033","39.427375","-93.500227 ","2291","45","0","0","7/17/2022 12:00:00 AM","2019","8679","NYTIMES-USCENSUS"
"7/18/2022 12:00:00 AM","Carroll County","Kentucky","South","East South Central","21041","38.668394","-85.124024 ","3655","48","33","0","7/17/2022 12:00:00 AM","2019","10631","NYTIMES-USCENSUS"
"7/18/2022 12:00:00 AM","Caroline County","Virginia","South","South Atlantic","51033","38.028033","-77.353736 ","7623","89","21","0","7/17/2022 12:00:00 AM","2019","30725","NYTIMES-USCENSUS"
"7/18/2022 12:00:00 AM","Carbon County","Utah","West","Mountain","49007","39.673284","-110.588484 ","5543","47","32","0","7/17/2022 12:00:00 AM","2019","20463","NYTIMES-USCENSUS"
"7/18/2022 12:00:00 AM","Carbon County","Pennsylvania","Northeast","Middle Atlantic","42025","40.918367","-75.705039 ","17123","308","0","0","7/17/2022 12:00:00 AM","2019","64182","NYTIMES-USCENSUS"
"7/18/2022 12:00:00 AM","Carbon County","Montana","West","Mountain","30009","45.224468","-109.028554 ","2185","28","0","0","7/17/2022 12:00:00 AM","2019","10725","NYTIMES-USCENSUS"
"7/18/2022 12:00:00 AM","Boone County","Kentucky","South","East South Central","21015","38.9589","-84.736371 ","42462","309","0","3","7/17/2022 12:00:00 AM","2019","133581","NYTIMES-USCENSUS"
"7/18/2022 12:00:00 AM","Boone County","Indiana","Midwest","East North Central","18011","40.050892","-86.469014 ","16246","192","30","0","7/17/2022 12:00:00 AM","2019","67843","NYTIMES-USCENSUS"
"7/18/2022 12:00:00 AM","Boone County","Iowa","Midwest","West North Central","19015","42.038642","-93.938603 ","5806","57","0","0","7/17/2022 12:00:00 AM","2019","26234","NYTIMES-USCENSUS"
"7/18/2022 12:00:00 AM","Boone County","Nebraska","Midwest","West North Central","31011","41.703934","-98.070476 ","1111","5","0","0","7/17/2022 12:00:00 AM","2019","5192","NYTIMES-USCENSUS"
"7/18/2022 12:00:00 AM","Boone County","Illinois","Midwest","East North Central","17007","42.318983","-88.824295 ","15235","132","28","0","7/17/2022 12:00:00 AM","2019","53544","NYTIMES-USCENSUS"
"7/18/2022 12:00:00 AM","Boone County","Missouri","Midwest","West North Central","29019","38.989861","-92.310202 ","48557","261","87","0","7/17/2022 12:00:00 AM","2019","180463","NYTIMES-USCENSUS"
"7/18/2022 12:00:00 AM","Boone County","West Virginia","South","South Atlantic","54005","38.022814","-81.713538 ","7209","78","25","0","7/17/2022 12:00:00 AM","2019","21457","NYTIMES-USCENSUS"
"7/18/2022 12:00:00 AM","Blount County","Tennessee","South","East South Central","47009","35.688185","-83.922973 ","41069","452","0","0","7/17/2022 12:00:00 AM","2019","133088","NYTIMES-USCENSUS"
"7/18/2022 12:00:00 AM","Blaine County","Idaho","West","Mountain","16013","43.394192","-113.955371 ","6543","29","17","0","7/17/2022 12:00:00 AM","2019","23021","NYTIMES-USCENSUS"
"7/18/2022 12:00:00 AM","Big Horn County","Wyoming","West","Mountain","56003","44.525117","-107.994848 ","2758","63","0","0","7/17/2022 12:00:00 AM","2019","11790","NYTIMES-USCENSUS"
"7/18/2022 12:00:00 AM","Bibb County","Georgia","South","South Atlantic","13021","32.808845","-83.694194 ","40128","798","6","0","7/17/2022 12:00:00 AM","2019","153159","NYTIMES-USCENSUS"
"7/18/2022 12:00:00 AM","Anderson County","South Carolina","South","South Atlantic","45007","34.521235","-82.638603 ","60384","1005","0","0","7/17/2022 12:00:00 AM","2019","202558","NYTIMES-USCENSUS"
"7/18/2022 12:00:00 AM","Anderson County","Texas","South","West South Central","48001","31.841261","-95.661727 ","9956","240","8","0","7/17/2022 12:00:00 AM","2019","57735","NYTIMES-USCENSUS"
"7/18/2022 12:00:00 AM","Anderson County","Kansas","Midwest","West North Central","20003","38.215114","-95.292046 ","2236","35","0","0","7/17/2022 12:00:00 AM","2019","7858","NYTIMES-USCENSUS"
"7/18/2022 12:00:00 AM","Anderson County","Kentucky","South","East South Central","21005","38.005396","-84.986417 ","7111","71","73","0","7/17/2022 12:00:00 AM","2019","22747","NYTIMES-USCENSUS"
"7/18/2022 12:00:00 AM","West Feliciana Parish","Louisiana","South","West South Central","22125","30.873364","-91.421776 ","3003","46","7","0","7/17/2022 12:00:00 AM","2019","15568","NYTIMES-USCENSUS"
"7/18/2022 12:00:00 AM","West Carroll Parish","Louisiana","South","West South Central","22123","32.79248","-91.451998 ","3972","67","45","0","7/17/2022 12:00:00 AM","2019","10830","NYTIMES-USCENSUS"
"7/18/2022 12:00:00 AM","West Baton Rouge Parish","Louisiana","South","West South Central","22121","30.464052","-91.309808 ","7941","91","26","0","7/17/2022 12:00:00 AM","2019","26465","NYTIMES-USCENSUS"
"7/18/2022 12:00:00 AM","Wells County","North Dakota","Midwest","West North Central","38103","47.580851","-99.682213 ","1061","12","0","0","7/17/2022 12:00:00 AM","2019","3834","NYTIMES-USCENSUS"
"7/18/2022 12:00:00 AM","Weld County","Colorado","West","Mountain","08123","40.555961","-104.383666 ","95001","715","0","-1","7/17/2022 12:00:00 AM","2019","324492","NYTIMES-USCENSUS"
"7/18/2022 12:00:00 AM","Webster Parish","Louisiana","South","West South Central","22119","32.732152","-93.339825 ","12215","188","61","0","7/17/2022 12:00:00 AM","2019","38340","NYTIMES-USCENSUS"
"7/18/2022 12:00:00 AM","Weber County","Utah","West","Mountain","49057","41.270325","-111.876883 ","77125","451","221","0","7/17/2022 12:00:00 AM","2019","260213","NYTIMES-USCENSUS"
"7/18/2022 12:00:00 AM","Webb County","Texas","South","West South Central","48479","27.760799","-99.340752 ","100995","1040","46","0","7/17/2022 12:00:00 AM","2019","276652","NYTIMES-USCENSUS"
"7/18/2022 12:00:00 AM","Weakley County","Tennessee","South","East South Central","47183","36.303596","-88.721194 ","9988","160","0","0","7/17/2022 12:00:00 AM","2019","33328","NYTIMES-USCENSUS"
"7/18/2022 12:00:00 AM","Waynesboro city","Virginia","South","South Atlantic","51820","38.067157","-78.90142 ","6448","68","18","0","7/17/2022 12:00:00 AM","2019","22630","NYTIMES-USCENSUS"
"7/18/2022 12:00:00 AM","Wayne County","Indiana","Midwest","East North Central","18177","39.863091","-85.006735 ","20051","340","57","0","7/17/2022 12:00:00 AM","2019","65884","NYTIMES-USCENSUS"
"7/18/2022 12:00:00 AM","Waushara County","Wisconsin","Midwest","East North Central","55137","44.112823","-89.239786 ","6797","87","6","0","7/17/2022 12:00:00 AM","2019","24443","NYTIMES-USCENSUS"
"7/18/2022 12:00:00 AM","Waupaca County","Wisconsin","Midwest","East North Central","55135","44.478004","-88.967005 ","14492","256","23","0","7/17/2022 12:00:00 AM","2019","50990","NYTIMES-USCENSUS"
"7/18/2022 12:00:00 AM","Waukesha County","Wisconsin","Midwest","East North Central","55133","43.018368","-88.30424 ","124343","1131","258","1","7/17/2022 12:00:00 AM","2019","404198","NYTIMES-USCENSUS"
"7/18/2022 12:00:00 AM","Watonwan County","Minnesota","Midwest","West North Central","27165","43.978109","-94.613798 ","3078","24","0","0","7/17/2022 12:00:00 AM","2019","10897","NYTIMES-USCENSUS"
"7/18/2022 12:00:00 AM","Duval County","Texas","South","West South Central","48131","27.681123","-98.497393 ","3706","70","9","0","7/17/2022 12:00:00 AM","2019","11157","NYTIMES-USCENSUS"
"7/18/2022 12:00:00 AM","Dunn County","North Dakota","Midwest","West North Central","38025","47.354557","-102.612322 ","1091","8","0","0","7/17/2022 12:00:00 AM","2019","4424","NYTIMES-USCENSUS"
"7/18/2022 12:00:00 AM","Douglas County","Kansas","Midwest","West North Central","20045","38.896417","-95.290947 ","29694","143","0","0","7/17/2022 12:00:00 AM","2019","122259","NYTIMES-USCENSUS"
"7/18/2022 12:00:00 AM","Douglas County","Washington","West","Pacific","53017","47.741763","-119.694622 ","12062","73","30","0","7/17/2022 12:00:00 AM","2019","43429","NYTIMES-USCENSUS"
"7/18/2022 12:00:00 AM","Douglas County","Wisconsin","Midwest","East North Central","55031","46.463218","-91.892477 ","12848","80","25","0","7/17/2022 12:00:00 AM","2019","43150","NYTIMES-USCENSUS"
"7/18/2022 12:00:00 AM","Douglas County","Nevada","West","Mountain","32005","38.905129","-119.609019 ","8036","93","0","0","7/17/2022 12:00:00 AM","2019","48905","NYTIMES-USCENSUS"
"7/18/2022 12:00:00 AM","Douglas County","Oregon","West","Pacific","41019","43.286328","-123.154476 ","22155","412","40","1","7/17/2022 12:00:00 AM","2019","110980","NYTIMES-USCENSUS"
"7/18/2022 12:00:00 AM","Douglas County","Illinois","Midwest","East North Central","17041","39.766078","-88.222866 ","6956","61","20","0","7/17/2022 12:00:00 AM","2019","19465","NYTIMES-USCENSUS"
"7/18/2022 12:00:00 AM","Douglas County","Nebraska","Midwest","West North Central","31055","41.297091","-96.154066 ","160853","1140","507","0","7/17/2022 12:00:00 AM","2019","571327","NYTIMES-USCENSUS"
"7/18/2022 12:00:00 AM","Douglas County","Colorado","West","Mountain","08035","39.325414","-104.925987 ","92092","481","208","2","7/17/2022 12:00:00 AM","2019","351154","NYTIMES-USCENSUS"
"7/18/2022 12:00:00 AM","Douglas County","Missouri","Midwest","West North Central","29067","36.946517","-92.515892 ","2666","81","0","0","7/17/2022 12:00:00 AM","2019","13185","NYTIMES-USCENSUS"
"7/18/2022 12:00:00 AM","Douglas County","South Dakota","Midwest","West North Central","46043","43.391506","-98.358433 ","700","16","0","0","7/17/2022 12:00:00 AM","2019","2921","NYTIMES-USCENSUS"
"7/18/2022 12:00:00 AM","Douglas County","Minnesota","Midwest","West North Central","27041","45.936835","-95.462155 ","11651","119","0","0","7/17/2022 12:00:00 AM","2019","38141","NYTIMES-USCENSUS"
"7/18/2022 12:00:00 AM","Dorchester County","Maryland","South","South Atlantic","24019","38.429196","-76.047433 ","8332","110","4","1","7/17/2022 12:00:00 AM","2019","31929","NYTIMES-USCENSUS"
"7/18/2022 12:00:00 AM","Coos County","New Hampshire","Northeast","New England","33007","44.652548","-71.289431 ","7588","120","7","0","7/17/2022 12:00:00 AM","2019","31563","NYTIMES-USCENSUS"
"7/18/2022 12:00:00 AM","Cook County","Illinois","Midwest","East North Central","17031","41.894294","-87.645455 ","1315303","15102","4315","0","7/17/2022 12:00:00 AM","2019","5150233","NYTIMES-USCENSUS"
"7/18/2022 12:00:00 AM","Comanche County","Kansas","Midwest","West North Central","20033","37.181442","-99.251293 ","450","17","0","0","7/17/2022 12:00:00 AM","2019","1700","NYTIMES-USCENSUS"
"7/18/2022 12:00:00 AM","Comanche County","Texas","South","West South Central","48093","31.951645","-98.549617 ","3785","78","2","0","7/17/2022 12:00:00 AM","2019","13635","NYTIMES-USCENSUS"
"7/18/2022 12:00:00 AM","Columbia County","Oregon","West","Pacific","41009","45.941932","-123.081079 ","9014","97","26","0","7/17/2022 12:00:00 AM","2019","52354","NYTIMES-USCENSUS"
"7/18/2022 12:00:00 AM","Columbia County","Wisconsin","Midwest","East North Central","55021","43.471882","-89.330472 ","17058","133","45","0","7/17/2022 12:00:00 AM","2019","57532","NYTIMES-USCENSUS"
"7/18/2022 12:00:00 AM","Columbia County","Georgia","South","South Atlantic","13073","33.552075","-82.249608 ","38266","394","2","0","7/17/2022 12:00:00 AM","2019","156714","NYTIMES-USCENSUS"
"7/18/2022 12:00:00 AM","Columbia County","Washington","West","Pacific","53013","46.29285","-117.911634 ","659","16","1","0","7/17/2022 12:00:00 AM","2019","3985","NYTIMES-USCENSUS"
"7/18/2022 12:00:00 AM","Columbia County","New York","Northeast","Middle Atlantic","36021","42.247696","-73.626718 ","11738","150","8","0","7/17/2022 12:00:00 AM","2019","59461","NYTIMES-USCENSUS"
"7/18/2022 12:00:00 AM","Columbia County","Arkansas","South","West South Central","05027","33.223038","-93.232843 ","5737","98","10","0","7/17/2022 12:00:00 AM","2019","23457","NYTIMES-USCENSUS"
"7/18/2022 12:00:00 AM","Columbia County","Florida","South","South Atlantic","12023","30.221651","-82.623371 ","22534","412","0","0","7/17/2022 12:00:00 AM","2019","71686","NYTIMES-USCENSUS"
"7/18/2022 12:00:00 AM","Cedar County","Nebraska","Midwest","West North Central","31027","42.60456","-97.25687 ","1539","14","0","0","7/17/2022 12:00:00 AM","2019","8402","NYTIMES-USCENSUS"
"7/18/2022 12:00:00 AM","Cedar County","Missouri","Midwest","West North Central","29039","37.733655","-93.850014 ","3133","57","0","0","7/17/2022 12:00:00 AM","2019","14349","NYTIMES-USCENSUS"
"7/18/2022 12:00:00 AM","Cass County","Iowa","Midwest","West North Central","19029","41.333824","-94.933302 ","3013","78","0","0","7/17/2022 12:00:00 AM","2019","12836","NYTIMES-USCENSUS"
"7/18/2022 12:00:00 AM","Cass County","Texas","South","West South Central","48067","33.083698","-94.357579 ","7580","197","7","0","7/17/2022 12:00:00 AM","2019","30026","NYTIMES-USCENSUS"
"7/18/2022 12:00:00 AM","Cass County","Illinois","Midwest","East North Central","17017","39.969202","-90.245704 ","4922","44","10","0","7/17/2022 12:00:00 AM","2019","12147","NYTIMES-USCENSUS"
"7/18/2022 12:00:00 AM","Cass County","Michigan","Midwest","East North Central","26027","41.917243","-86.000142 ","11672","148","0","0","7/17/2022 12:00:00 AM","2019","51787","NYTIMES-USCENSUS"
"7/18/2022 12:00:00 AM","Cass County","Minnesota","Midwest","West North Central","27021","46.951745","-94.333705 ","7499","84","0","0","7/17/2022 12:00:00 AM","2019","29779","NYTIMES-USCENSUS"
"7/18/2022 12:00:00 AM","Cass County","Nebraska","Midwest","West North Central","31025","40.909878","-96.140609 ","6452","46","0","0","7/17/2022 12:00:00 AM","2019","26248","NYTIMES-USCENSUS"
"7/18/2022 12:00:00 AM","Cass County","Missouri","Midwest","West North Central","29037","38.646474","-94.354547 ","26739","320","0","0","7/17/2022 12:00:00 AM","2019","105780","NYTIMES-USCENSUS"
"7/18/2022 12:00:00 AM","Cass County","Indiana","Midwest","East North Central","18017","40.753799","-86.355168 ","12185","168","34","0","7/17/2022 12:00:00 AM","2019","37689","NYTIMES-USCENSUS"
"7/18/2022 12:00:00 AM","Carter County","Tennessee","South","East South Central","47019","36.284744","-82.126593 ","17253","342","0","0","7/17/2022 12:00:00 AM","2019","56391","NYTIMES-USCENSUS"
"7/18/2022 12:00:00 AM","Carter County","Missouri","Midwest","West North Central","29035","36.944858","-90.945705 ","1534","24","0","0","7/17/2022 12:00:00 AM","2019","5982","NYTIMES-USCENSUS"
"7/18/2022 12:00:00 AM","Carter County","Oklahoma","South","West South Central","40019","34.251848","-97.287927 ","15045","242","0","0","7/17/2022 12:00:00 AM","2019","48111","NYTIMES-USCENSUS"
"7/18/2022 12:00:00 AM","Carroll County","Maryland","South","South Atlantic","24013","39.563328","-77.01533 ","24054","418","24","0","7/17/2022 12:00:00 AM","2019","168447","NYTIMES-USCENSUS"
"7/18/2022 12:00:00 AM","Carroll County","Ohio","Midwest","East North Central","39019","40.579884","-81.090787 ","5538","129","0","0","7/17/2022 12:00:00 AM","2019","26914","NYTIMES-USCENSUS"
"7/18/2022 12:00:00 AM","Carroll County","Indiana","Midwest","East North Central","18015","40.58498","-86.565141 ","4411","70","12","0","7/17/2022 12:00:00 AM","2019","20257","NYTIMES-USCENSUS"
"7/18/2022 12:00:00 AM","Carroll County","Iowa","Midwest","West North Central","19027","42.039502","-94.86765 ","5173","68","0","0","7/17/2022 12:00:00 AM","2019","20165","NYTIMES-USCENSUS"
"7/18/2022 12:00:00 AM","Carroll County","Arkansas","South","West South Central","05015","36.33737","-93.540972 ","6503","107","12","0","7/17/2022 12:00:00 AM","2019","28380","NYTIMES-USCENSUS"
"7/18/2022 12:00:00 AM","Somerset County","Maine","Northeast","New England","23025","45.503646","-69.95611 ","10782","114","0","0","7/17/2022 12:00:00 AM","2019","50484","NYTIMES-USCENSUS"
"7/18/2022 12:00:00 AM","Solano County","California","West","Pacific","06095","38.267226","-121.939594 ","104079","457","0","0","7/17/2022 12:00:00 AM","2019","447643","NYTIMES-USCENSUS"
"7/18/2022 12:00:00 AM","Socorro County","New Mexico","West","Mountain","35053","33.991658","-106.939136 ","4149","92","11","0","7/17/2022 12:00:00 AM","2019","16637","NYTIMES-USCENSUS"
"7/18/2022 12:00:00 AM","Snyder County","Pennsylvania","Northeast","Middle Atlantic","42109","40.755407","-77.072929 ","8513","160","0","0","7/17/2022 12:00:00 AM","2019","40372","NYTIMES-USCENSUS"
"7/18/2022 12:00:00 AM","Snohomish County","Washington","West","Pacific","53061","48.054913","-121.765038 ","179901","1209","735","2","7/17/2022 12:00:00 AM","2019","822083","NYTIMES-USCENSUS"
"7/18/2022 12:00:00 AM","Smyth County","Virginia","South","South Atlantic","51173","36.842318","-81.539786 ","9504","175","28","0","7/17/2022 12:00:00 AM","2019","30104","NYTIMES-USCENSUS"
"7/18/2022 12:00:00 AM","Smith County","Texas","South","West South Central","48423","32.377016","-95.270041 ","48575","974","74","0","7/17/2022 12:00:00 AM","2019","232751","NYTIMES-USCENSUS"
"7/18/2022 12:00:00 AM","Slope County","North Dakota","Midwest","West North Central","38087","46.445834","-103.462462 ","66","0","0","0","7/17/2022 12:00:00 AM","2019","750","NYTIMES-USCENSUS"
"7/18/2022 12:00:00 AM","Skamania County","Washington","West","Pacific","53059","46.024785","-121.953232 ","1653","12","1","0","7/17/2022 12:00:00 AM","2019","12083","NYTIMES-USCENSUS"
"7/18/2022 12:00:00 AM","Skagit County","Washington","West","Pacific","53057","48.493292","-121.81577 ","25068","215","127","1","7/17/2022 12:00:00 AM","2019","129205","NYTIMES-USCENSUS"
"7/18/2022 12:00:00 AM","Sitka City and Borough","Alaska","West","Pacific","02220","57.193204","-135.367396 ","2965","5","0","0","7/17/2022 12:00:00 AM","2019","8493","NYTIMES-USCENSUS"
"7/18/2022 12:00:00 AM","Siskiyou County","California","West","Pacific","06093","41.587986","-122.533287 ","8075","107","0","0","7/17/2022 12:00:00 AM","2019","43539","NYTIMES-USCENSUS"
"7/18/2022 12:00:00 AM","Sioux County","North Dakota","Midwest","West North Central","38085","46.110618","-101.061284 ","1420","19","0","0","7/17/2022 12:00:00 AM","2019","4230","NYTIMES-USCENSUS"
"7/18/2022 12:00:00 AM","Simpson County","Mississippi","South","East South Central","28127","31.902505","-89.917709 ","7466","150","0","0","7/17/2022 12:00:00 AM","2019","26658","NYTIMES-USCENSUS"
"7/18/2022 12:00:00 AM","Silver Bow County","Montana","West","Mountain","30093","45.896232","-112.660071 ","8981","134","0","0","7/17/2022 12:00:00 AM","2019","34915","NYTIMES-USCENSUS"
"7/18/2022 12:00:00 AM","Sierra County","New Mexico","West","Mountain","35051","33.119468","-107.188161 ","2265","79","2","0","7/17/2022 12:00:00 AM","2019","10791","NYTIMES-USCENSUS"
"7/18/2022 12:00:00 AM","Sibley County","Minnesota","Midwest","West North Central","27143","44.575734","-94.230123 ","3754","26","0","0","7/17/2022 12:00:00 AM","2019","14865","NYTIMES-USCENSUS"
"7/18/2022 12:00:00 AM","Shiawassee County","Michigan","Midwest","East North Central","26155","42.951545","-84.146352 ","19076","232","0","0","7/17/2022 12:00:00 AM","2019","68122","NYTIMES-USCENSUS"
"7/18/2022 12:00:00 AM","Sherman County","Nebraska","Midwest","West North Central","31163","41.218743","-98.972849 ","614","4","0","0","7/17/2022 12:00:00 AM","2019","3001","NYTIMES-USCENSUS"
"7/18/2022 12:00:00 AM","Ross County","Ohio","Midwest","East North Central","39141","39.323895","-83.059538 ","20634","304","0","0","7/17/2022 12:00:00 AM","2019","76666","NYTIMES-USCENSUS"
"7/18/2022 12:00:00 AM","Rosebud County","Montana","West","Mountain","30087","46.173206","-106.666792 ","2732","61","0","0","7/17/2022 12:00:00 AM","2019","8937","NYTIMES-USCENSUS"
"7/18/2022 12:00:00 AM","Roseau County","Minnesota","Midwest","West North Central","27135","48.761068","-95.821504 ","4644","45","0","0","7/17/2022 12:00:00 AM","2019","15165","NYTIMES-USCENSUS"
"7/18/2022 12:00:00 AM","Roscommon County","Michigan","Midwest","East North Central","26143","44.339517","-84.611271 ","4945","119","0","0","7/17/2022 12:00:00 AM","2019","24019","NYTIMES-USCENSUS"
"7/18/2022 12:00:00 AM","Roosevelt County","New Mexico","West","Mountain","35041","34.021207","-103.483004 ","5264","100","13","0","7/17/2022 12:00:00 AM","2019","18500","NYTIMES-USCENSUS"
"7/18/2022 12:00:00 AM","Rooks County","Kansas","Midwest","West North Central","20163","39.346006","-99.324492 ","1407","21","0","0","7/17/2022 12:00:00 AM","2019","4920","NYTIMES-USCENSUS"
"7/18/2022 12:00:00 AM","Rolette County","North Dakota","Midwest","West North Central","38079","48.768271","-99.840463 ","6681","43","0","0","7/17/2022 12:00:00 AM","2019","14176","NYTIMES-USCENSUS"
"7/18/2022 12:00:00 AM","Rogers County","Oklahoma","South","West South Central","40131","36.377794","-95.601383 ","26687","390","0","0","7/17/2022 12:00:00 AM","2019","92459","NYTIMES-USCENSUS"
"7/18/2022 12:00:00 AM","Rockwall County","Texas","South","West South Central","48397","32.899886","-96.41205 ","28310","268","25","0","7/17/2022 12:00:00 AM","2019","104915","NYTIMES-USCENSUS"
"7/18/2022 12:00:00 AM","Rockland County","New York","Northeast","Middle Atlantic","36087","41.154628","-74.024662 ","102818","911","92","0","7/17/2022 12:00:00 AM","2019","325789","NYTIMES-USCENSUS"
"7/18/2022 12:00:00 AM","Rockingham County","Virginia","South","South Atlantic","51165","38.507585","-78.885321 ","15489","236","42","0","7/17/2022 12:00:00 AM","2019","81948","NYTIMES-USCENSUS"
"7/18/2022 12:00:00 AM","Rockdale County","Georgia","South","South Atlantic","13247","33.652081","-84.02637 ","20317","329","0","0","7/17/2022 12:00:00 AM","2019","90896","NYTIMES-USCENSUS"
"7/18/2022 12:00:00 AM","Rockcastle County","Kentucky","South","East South Central","21203","37.36105","-84.314368 ","5301","63","43","0","7/17/2022 12:00:00 AM","2019","16695","NYTIMES-USCENSUS"
"7/18/2022 12:00:00 AM","Rockbridge County","Virginia","South","South Atlantic","51163","37.814517","-79.447754 ","3652","80","19","0","7/17/2022 12:00:00 AM","2019","22573","NYTIMES-USCENSUS"
"7/18/2022 12:00:00 AM","Rock Island County","Illinois","Midwest","East North Central","17161","41.468421","-90.572125 ","36465","531","108","0","7/17/2022 12:00:00 AM","2019","141879","NYTIMES-USCENSUS"
"7/18/2022 12:00:00 AM","Robeson County","North Carolina","South","South Atlantic","37155","34.63921","-79.100881 ","43915","548","0","0","7/17/2022 12:00:00 AM","2019","130625","NYTIMES-USCENSUS"
"7/18/2022 12:00:00 AM","Robertson County","Texas","South","West South Central","48395","31.025481","-96.514941 ","4784","77","7","0","7/17/2022 12:00:00 AM","2019","17074","NYTIMES-USCENSUS"
"7/18/2022 12:00:00 AM","Roberts County","Texas","South","West South Central","48393","35.838596","-100.836682 ","179","2","0","0","7/17/2022 12:00:00 AM","2019","854","NYTIMES-USCENSUS"
"7/18/2022 12:00:00 AM","Roanoke County","Virginia","South","South Atlantic","51161","37.330792","-80.191237 ","23604","287","96","0","7/17/2022 12:00:00 AM","2019","94186","NYTIMES-USCENSUS"
"7/18/2022 12:00:00 AM","Roanoke city","Virginia","South","South Atlantic","51770","37.278458","-79.958174 ","23574","382","88","0","7/17/2022 12:00:00 AM","2019","99143","NYTIMES-USCENSUS"
"7/18/2022 12:00:00 AM","Watauga County","North Carolina","South","South Atlantic","37189","36.235368","-81.709888 ","12852","69","0","0","7/17/2022 12:00:00 AM","2019","56177","NYTIMES-USCENSUS"
"7/18/2022 12:00:00 AM","Washtenaw County","Michigan","Midwest","East North Central","26161","42.252217","-83.843423 ","93184","545","259","0","7/17/2022 12:00:00 AM","2019","367601","NYTIMES-USCENSUS"
"7/18/2022 12:00:00 AM","Washoe County","Nevada","West","Mountain","32031","40.73132","-119.663269 ","116428","1252","0","0","7/17/2022 12:00:00 AM","2019","471519","NYTIMES-USCENSUS"
"7/18/2022 12:00:00 AM","Washita County","Oklahoma","South","West South Central","40149","35.289497","-98.991436 ","2717","55","0","0","7/17/2022 12:00:00 AM","2019","10916","NYTIMES-USCENSUS"
"7/18/2022 12:00:00 AM","Washington Parish","Louisiana","South","West South Central","22117","30.852144","-90.046253 ","14020","254","93","1","7/17/2022 12:00:00 AM","2019","46194","NYTIMES-USCENSUS"
"7/18/2022 12:00:00 AM","Washington County","Missouri","Midwest","West North Central","29221","37.942611","-90.897018 ","6301","143","0","0","7/17/2022 12:00:00 AM","2019","24730","NYTIMES-USCENSUS"
"7/18/2022 12:00:00 AM","Washburn County","Wisconsin","Midwest","East North Central","55129","45.892489","-91.796422 ","4355","46","13","0","7/17/2022 12:00:00 AM","2019","15720","NYTIMES-USCENSUS"
"7/18/2022 12:00:00 AM","Washakie County","Wyoming","West","Mountain","56043","43.878831","-107.669052 ","2517","44","0","0","7/17/2022 12:00:00 AM","2019","7805","NYTIMES-USCENSUS"
"7/18/2022 12:00:00 AM","Waseca County","Minnesota","Midwest","West North Central","27161","44.01846","-93.589844 ","5808","39","0","0","7/17/2022 12:00:00 AM","2019","18612","NYTIMES-USCENSUS"
"7/18/2022 12:00:00 AM","Wasco County","Oregon","West","Pacific","41065","45.164536","-121.165069 ","5876","63","9","0","7/17/2022 12:00:00 AM","2019","26682","NYTIMES-USCENSUS"
"7/18/2022 12:00:00 AM","Wasatch County","Utah","West","Mountain","49051","40.334884","-111.161568 ","11337","36","0","0","7/17/2022 12:00:00 AM","2019","34091","NYTIMES-USCENSUS"
"7/18/2022 12:00:00 AM","Warrick County","Indiana","Midwest","East North Central","18173","38.097728","-87.272049 ","21719","241","75","0","7/17/2022 12:00:00 AM","2019","62998","NYTIMES-USCENSUS"
"7/18/2022 12:00:00 AM","Toombs County","Georgia","South","South Atlantic","13279","32.117753","-82.330597 ","7324","206","0","0","7/17/2022 12:00:00 AM","2019","26830","NYTIMES-USCENSUS"
"7/18/2022 12:00:00 AM","Toole County","Montana","West","Mountain","30101","48.645125","-111.733472 ","1302","25","0","0","7/17/2022 12:00:00 AM","2019","4736","NYTIMES-USCENSUS"
"7/18/2022 12:00:00 AM","Tooele County","Utah","West","Mountain","49045","40.467753","-113.123979 ","22910","108","0","0","7/17/2022 12:00:00 AM","2019","72259","NYTIMES-USCENSUS"
"7/18/2022 12:00:00 AM","Tompkins County","New York","Northeast","Middle Atlantic","36109","42.453006","-76.473483 ","22990","89","7","0","7/17/2022 12:00:00 AM","2019","102180","NYTIMES-USCENSUS"
"7/18/2022 12:00:00 AM","Tom Green County","Texas","South","West South Central","48451","31.398823","-100.463788 ","43636","554","0","0","7/17/2022 12:00:00 AM","2019","119200","NYTIMES-USCENSUS"
"7/18/2022 12:00:00 AM","Tolland County","Connecticut","Northeast","New England","09013","41.858081","-72.340978 ","24038","285","6","0","7/17/2022 12:00:00 AM","2019","150721","NYTIMES-USCENSUS"
"7/18/2022 12:00:00 AM","Todd County","Kentucky","South","East South Central","21219","36.840338","-87.183642 ","3091","46","21","0","7/17/2022 12:00:00 AM","2019","12294","NYTIMES-USCENSUS"
"7/18/2022 12:00:00 AM","Titus County","Texas","South","West South Central","48449","33.214599","-94.966783 ","8940","129","4","0","7/17/2022 12:00:00 AM","2019","32750","NYTIMES-USCENSUS"
"7/18/2022 12:00:00 AM","Tishomingo County","Mississippi","South","East South Central","28141","34.738835","-88.234827 ","6489","122","0","0","7/17/2022 12:00:00 AM","2019","19383","NYTIMES-USCENSUS"
"7/18/2022 12:00:00 AM","Tipton County","Indiana","Midwest","East North Central","18159","40.310229","-86.056207 ","3661","88","5","0","7/17/2022 12:00:00 AM","2019","15148","NYTIMES-USCENSUS"
"7/18/2022 12:00:00 AM","Tippecanoe County","Indiana","Midwest","East North Central","18157","40.389133","-86.893554 ","54662","413","133","0","7/17/2022 12:00:00 AM","2019","195732","NYTIMES-USCENSUS"
"7/18/2022 12:00:00 AM","Tippah County","Mississippi","South","East South Central","28139","34.763618","-88.918819 ","7760","109","0","0","7/17/2022 12:00:00 AM","2019","22015","NYTIMES-USCENSUS"
"7/18/2022 12:00:00 AM","Tioga County","New York","Northeast","Middle Atlantic","36107","42.178057","-76.297456 ","12275","86","6","0","7/17/2022 12:00:00 AM","2019","48203","NYTIMES-USCENSUS"
"7/18/2022 12:00:00 AM","Tillman County","Oklahoma","South","West South Central","40141","34.371085","-98.931701 ","1578","36","0","0","7/17/2022 12:00:00 AM","2019","7250","NYTIMES-USCENSUS"
"7/18/2022 12:00:00 AM","Tillamook County","Oregon","West","Pacific","41057","45.45589","-123.759299 ","4372","65","15","0","7/17/2022 12:00:00 AM","2019","27036","NYTIMES-USCENSUS"
"7/18/2022 12:00:00 AM","Tift County","Georgia","South","South Atlantic","13277","31.457003","-83.525931 ","12161","223","0","0","7/17/2022 12:00:00 AM","2019","40644","NYTIMES-USCENSUS"
"7/18/2022 12:00:00 AM","Thurston County","Nebraska","Midwest","West North Central","31173","42.154061","-96.533943 ","1782","23","0","0","7/17/2022 12:00:00 AM","2019","7224","NYTIMES-USCENSUS"
"7/18/2022 12:00:00 AM","Thomas County","Georgia","South","South Atlantic","13275","30.864619","-83.919815 ","12596","213","-2","0","7/17/2022 12:00:00 AM","2019","44451","NYTIMES-USCENSUS"
"7/18/2022 12:00:00 AM","Thayer County","Nebraska","Midwest","West North Central","31169","40.173845","-97.596263 ","1160","8","0","0","7/17/2022 12:00:00 AM","2019","5003","NYTIMES-USCENSUS"
"7/18/2022 12:00:00 AM","Texas County","Oklahoma","South","West South Central","40139","36.746317","-101.483855 ","6163","55","0","0","7/17/2022 12:00:00 AM","2019","19983","NYTIMES-USCENSUS"
"7/18/2022 12:00:00 AM","Teton County","Idaho","West","Mountain","16081","43.760994","-111.211765 ","2812","9","4","0","7/17/2022 12:00:00 AM","2019","12142","NYTIMES-USCENSUS"
"7/18/2022 12:00:00 AM","Terry County","Texas","South","West South Central","48445","33.171229","-102.339284 ","2829","85","1","0","7/17/2022 12:00:00 AM","2019","12337","NYTIMES-USCENSUS"
"7/18/2022 12:00:00 AM","Terrell County","Georgia","South","South Atlantic","13273","31.777191","-84.439446 ","2175","68","0","0","7/17/2022 12:00:00 AM","2019","8531","NYTIMES-USCENSUS"
"7/18/2022 12:00:00 AM","Terrebonne Parish","Louisiana","South","West South Central","22109","29.33413","-90.843674 ","34128","423","112","0","7/17/2022 12:00:00 AM","2019","110461","NYTIMES-USCENSUS"
"7/18/2022 12:00:00 AM","Tensas Parish","Louisiana","South","West South Central","22107","32.001489","-91.342576 ","1060","12","4","0","7/17/2022 12:00:00 AM","2019","4334","NYTIMES-USCENSUS"
"7/18/2022 12:00:00 AM","Teller County","Colorado","West","Mountain","08119","38.869976","-105.187365 ","5411","58","17","0","7/17/2022 12:00:00 AM","2019","25388","NYTIMES-USCENSUS"
"7/18/2022 12:00:00 AM","Telfair County","Georgia","South","South Atlantic","13271","31.913641","-82.931063 ","3178","88","0","0","7/17/2022 12:00:00 AM","2019","15860","NYTIMES-USCENSUS"
"7/18/2022 12:00:00 AM","Spartanburg County","South Carolina","South","South Atlantic","45083","34.932014","-81.991624 ","99792","1556","0","0","7/17/2022 12:00:00 AM","2019","319785","NYTIMES-USCENSUS"
"7/18/2022 12:00:00 AM","Spalding County","Georgia","South","South Atlantic","13255","33.262348","-84.284905 ","16930","426","0","0","7/17/2022 12:00:00 AM","2019","66703","NYTIMES-USCENSUS"
"7/18/2022 12:00:00 AM","Southeast Fairbanks Census Area","Alaska","West","Pacific","02240","63.864997","-143.218628 ","2183","20","0","0","7/17/2022 12:00:00 AM","2019","6893","NYTIMES-USCENSUS"
"7/18/2022 12:00:00 AM","Southampton County","Virginia","South","South Atlantic","51175","36.720068","-77.103813 ","3756","96","41","0","7/17/2022 12:00:00 AM","2019","17631","NYTIMES-USCENSUS"
"7/18/2022 12:00:00 AM","Sonoma County","California","West","Pacific","06097","38.525182","-122.92611 ","104262","500","0","0","7/17/2022 12:00:00 AM","2019","494336","NYTIMES-USCENSUS"
"7/18/2022 12:00:00 AM","Newton County","Georgia","South","South Atlantic","13217","33.552751","-83.85136 ","26377","463","1","0","7/17/2022 12:00:00 AM","2019","111744","NYTIMES-USCENSUS"
"7/18/2022 12:00:00 AM","Newton County","Missouri","Midwest","West North Central","29145","36.908371","-94.335034 ","12371","208","0","0","7/17/2022 12:00:00 AM","2019","58236","NYTIMES-USCENSUS"
"7/18/2022 12:00:00 AM","Newton County","Mississippi","South","East South Central","28101","32.40197","-89.118412 ","6303","98","0","0","7/17/2022 12:00:00 AM","2019","21018","NYTIMES-USCENSUS"
"7/18/2022 12:00:00 AM","Midland County","Texas","South","West South Central","48329","31.814269","-102.002454 ","42467","498","14","0","7/17/2022 12:00:00 AM","2019","176832","NYTIMES-USCENSUS"
"7/18/2022 12:00:00 AM","Middlesex County","New Jersey","Northeast","Middle Atlantic","34023","40.439621","-74.40743 ","228315","2901","168","0","7/17/2022 12:00:00 AM","2019","825062","NYTIMES-USCENSUS"
"7/18/2022 12:00:00 AM","Middlesex County","Virginia","South","South Atlantic","51119","37.606975","-76.528082 ","2050","48","13","0","7/17/2022 12:00:00 AM","2019","10582","NYTIMES-USCENSUS"
"7/18/2022 12:00:00 AM","Middlesex County","Connecticut","Northeast","New England","09007","41.433003","-72.52278 ","33413","489","18","0","7/17/2022 12:00:00 AM","2019","162436","NYTIMES-USCENSUS"
"7/18/2022 12:00:00 AM","Miami County","Ohio","Midwest","East North Central","39109","40.053326","-84.228413 ","27263","486","0","0","7/17/2022 12:00:00 AM","2019","106987","NYTIMES-USCENSUS"
"7/18/2022 12:00:00 AM","Miami County","Indiana","Midwest","East North Central","18103","40.772883","-86.044258 ","9588","162","11","0","7/17/2022 12:00:00 AM","2019","35516","NYTIMES-USCENSUS"
"7/18/2022 12:00:00 AM","Mercer County","West Virginia","South","South Atlantic","54055","37.403448","-81.106456 ","18796","269","124","0","7/17/2022 12:00:00 AM","2019","58758","NYTIMES-USCENSUS"
"7/18/2022 12:00:00 AM","Mercer County","North Dakota","Midwest","West North Central","38057","47.307147","-101.833328 ","2690","24","0","0","7/17/2022 12:00:00 AM","2019","8187","NYTIMES-USCENSUS"
"7/18/2022 12:00:00 AM","Mercer County","Ohio","Midwest","East North Central","39107","40.535333","-84.632059 ","9938","144","0","0","7/17/2022 12:00:00 AM","2019","41172","NYTIMES-USCENSUS"
"7/18/2022 12:00:00 AM","Mercer County","Illinois","Midwest","East North Central","17131","41.205605","-90.74177 ","4347","50","3","0","7/17/2022 12:00:00 AM","2019","15437","NYTIMES-USCENSUS"
"7/18/2022 12:00:00 AM","Mercer County","Missouri","Midwest","West North Central","29129","40.421413","-93.567631 ","769","14","0","0","7/17/2022 12:00:00 AM","2019","3617","NYTIMES-USCENSUS"
"7/18/2022 12:00:00 AM","Mercer County","New Jersey","Northeast","Middle Atlantic","34021","40.282503","-74.703724 ","90887","1286","79","1","7/17/2022 12:00:00 AM","2019","367430","NYTIMES-USCENSUS"
"7/18/2022 12:00:00 AM","Mercer County","Kentucky","South","East South Central","21167","37.812085","-84.879695 ","7913","108","86","1","7/17/2022 12:00:00 AM","2019","21933","NYTIMES-USCENSUS"
"7/18/2022 12:00:00 AM","Menominee County","Michigan","Midwest","East North Central","26109","45.535568","-87.501457 ","5976","72","0","0","7/17/2022 12:00:00 AM","2019","22780","NYTIMES-USCENSUS"
"7/18/2022 12:00:00 AM","Meigs County","Ohio","Midwest","East North Central","39105","39.089807","-82.028397 ","5023","91","0","0","7/17/2022 12:00:00 AM","2019","22907","NYTIMES-USCENSUS"
"7/18/2022 12:00:00 AM","Medina County","Texas","South","West South Central","48325","29.353661","-99.111085 ","10833","200","8","0","7/17/2022 12:00:00 AM","2019","51584","NYTIMES-USCENSUS"
"7/18/2022 12:00:00 AM","Mecklenburg County","North Carolina","South","South Atlantic","37119","35.246862","-80.833832 ","310872","1670","0","0","7/17/2022 12:00:00 AM","2019","1110356","NYTIMES-USCENSUS"
"7/18/2022 12:00:00 AM","Meade County","Kentucky","South","East South Central","21163","37.967476","-86.200863 ","6196","66","75","0","7/17/2022 12:00:00 AM","2019","28572","NYTIMES-USCENSUS"
"7/18/2022 12:00:00 AM","Meade County","South Dakota","Midwest","West North Central","46093","44.605282","-102.714169 ","7401","64","0","0","7/17/2022 12:00:00 AM","2019","28332","NYTIMES-USCENSUS"
"7/18/2022 12:00:00 AM","McPherson County","Nebraska","Midwest","West North Central","31117","41.648414","-101.120851 ","69","1","0","0","7/17/2022 12:00:00 AM","2019","494","NYTIMES-USCENSUS"
"7/18/2022 12:00:00 AM","McPherson County","Kansas","Midwest","West North Central","20113","38.395812","-97.647489 ","8178","130","0","0","7/17/2022 12:00:00 AM","2019","28542","NYTIMES-USCENSUS"
"7/18/2022 12:00:00 AM","Logan County","West Virginia","South","South Atlantic","54045","37.830591","-81.940853 ","10582","190","51","0","7/17/2022 12:00:00 AM","2019","32019","NYTIMES-USCENSUS"
"7/18/2022 12:00:00 AM","Logan County","Oklahoma","South","West South Central","40083","35.914277","-97.450952 ","11525","163","0","0","7/17/2022 12:00:00 AM","2019","48011","NYTIMES-USCENSUS"
"7/18/2022 12:00:00 AM","Logan County","Arkansas","South","West South Central","05083","35.218654","-93.72091 ","5331","79","5","0","7/17/2022 12:00:00 AM","2019","21466","NYTIMES-USCENSUS"
"7/18/2022 12:00:00 AM","Logan County","Kentucky","South","East South Central","21141","36.859607","-86.881288 ","8808","129","54","0","7/17/2022 12:00:00 AM","2019","27102","NYTIMES-USCENSUS"
"7/18/2022 12:00:00 AM","Logan County","Illinois","Midwest","East North Central","17107","40.129277","-89.365309 ","10844","105","28","0","7/17/2022 12:00:00 AM","2019","28618","NYTIMES-USCENSUS"
"7/18/2022 12:00:00 AM","Logan County","Ohio","Midwest","East North Central","39091","40.387553","-83.766343 ","10814","174","0","0","7/17/2022 12:00:00 AM","2019","45672","NYTIMES-USCENSUS"
"7/18/2022 12:00:00 AM","Logan County","Colorado","West","Mountain","08075","40.728091","-103.090464 ","7861","112","24","0","7/17/2022 12:00:00 AM","2019","22409","NYTIMES-USCENSUS"
"7/18/2022 12:00:00 AM","Livingston County","Michigan","Midwest","East North Central","26093","42.602532","-83.911718 ","50462","472","0","0","7/17/2022 12:00:00 AM","2019","191995","NYTIMES-USCENSUS"
"7/18/2022 12:00:00 AM","Livingston County","Illinois","Midwest","East North Central","17105","40.894376","-88.552852 ","11650","148","21","0","7/17/2022 12:00:00 AM","2019","35648","NYTIMES-USCENSUS"
"7/18/2022 12:00:00 AM","Livingston County","Missouri","Midwest","West North Central","29117","39.778587","-93.548201 ","3899","98","0","0","7/17/2022 12:00:00 AM","2019","15227","NYTIMES-USCENSUS"
"7/18/2022 12:00:00 AM","Livingston County","New York","Northeast","Middle Atlantic","36051","42.729042","-77.778463 ","12867","121","4","0","7/17/2022 12:00:00 AM","2019","62914","NYTIMES-USCENSUS"
"7/18/2022 12:00:00 AM","Linn County","Oregon","West","Pacific","41043","44.488898","-122.537208 ","29637","285","88","3","7/17/2022 12:00:00 AM","2019","129749","NYTIMES-USCENSUS"
"7/18/2022 12:00:00 AM","Linn County","Iowa","Midwest","West North Central","19113","42.077951","-91.597674 ","56518","595","0","0","7/17/2022 12:00:00 AM","2019","226706","NYTIMES-USCENSUS"
"7/18/2022 12:00:00 AM","Linn County","Missouri","Midwest","West North Central","29115","39.86444","-93.108019 ","2726","65","0","0","7/17/2022 12:00:00 AM","2019","11920","NYTIMES-USCENSUS"
"7/18/2022 12:00:00 AM","Lincoln County","Wyoming","West","Mountain","56023","42.229993","-110.682961 ","4410","32","0","0","7/17/2022 12:00:00 AM","2019","19830","NYTIMES-USCENSUS"
"7/18/2022 12:00:00 AM","Lincoln County","Kentucky","South","East South Central","21137","37.457174","-84.658335 ","7171","139","70","0","7/17/2022 12:00:00 AM","2019","24549","NYTIMES-USCENSUS"
"7/18/2022 12:00:00 AM","Lincoln County","South Dakota","Midwest","West North Central","46083","43.27942","-96.722286 ","16028","102","0","0","7/17/2022 12:00:00 AM","2019","61128","NYTIMES-USCENSUS"
"7/18/2022 12:00:00 AM","Rockingham County","North Carolina","South","South Atlantic","37157","36.381806","-79.782754 ","23565","301","0","0","7/17/2022 12:00:00 AM","2019","91010","NYTIMES-USCENSUS"
"7/18/2022 12:00:00 AM","Rockingham County","New Hampshire","Northeast","New England","33015","42.988664","-71.09908 ","75308","568","130","0","7/17/2022 12:00:00 AM","2019","309769","NYTIMES-USCENSUS"
"7/18/2022 12:00:00 AM","Rock County","Wisconsin","Midwest","East North Central","55105","42.66988","-89.075284 ","47404","403","135","0","7/17/2022 12:00:00 AM","2019","163354","NYTIMES-USCENSUS"
"7/18/2022 12:00:00 AM","Rock County","Minnesota","Midwest","West North Central","27133","43.669587","-96.263238 ","2437","35","0","0","7/17/2022 12:00:00 AM","2019","9315","NYTIMES-USCENSUS"
"7/18/2022 12:00:00 AM","Robertson County","Tennessee","South","East South Central","47147","36.527509","-86.869354 ","22512","310","0","0","7/17/2022 12:00:00 AM","2019","71813","NYTIMES-USCENSUS"
"7/18/2022 12:00:00 AM","Roberts County","South Dakota","Midwest","West North Central","46109","45.623397","-96.947551 ","2483","53","0","0","7/17/2022 12:00:00 AM","2019","10394","NYTIMES-USCENSUS"
"7/18/2022 12:00:00 AM","Roane County","Tennessee","South","East South Central","47145","35.84725","-84.523929 ","16466","237","0","0","7/17/2022 12:00:00 AM","2019","53382","NYTIMES-USCENSUS"
"7/18/2022 12:00:00 AM","Ripley County","Indiana","Midwest","East North Central","18137","39.100226","-85.260494 ","8685","139","14","0","7/17/2022 12:00:00 AM","2019","28324","NYTIMES-USCENSUS"
"7/18/2022 12:00:00 AM","Pike County","Indiana","Midwest","East North Central","18125","38.397961","-87.232547 ","3913","50","8","0","7/17/2022 12:00:00 AM","2019","12389","NYTIMES-USCENSUS"
"7/18/2022 12:00:00 AM","Pike County","Alabama","South","East South Central","01109","31.798653","-85.941608 ","7957","134","20","0","7/17/2022 12:00:00 AM","2019","33114","NYTIMES-USCENSUS"
"7/18/2022 12:00:00 AM","Pike County","Ohio","Midwest","East North Central","39131","39.071341","-83.052911 ","8005","123","0","0","7/17/2022 12:00:00 AM","2019","27772","NYTIMES-USCENSUS"
"7/18/2022 12:00:00 AM","Pike County","Kentucky","South","East South Central","21195","37.486031","-82.410912 ","20539","320","226","3","7/17/2022 12:00:00 AM","2019","57876","NYTIMES-USCENSUS"
"7/18/2022 12:00:00 AM","Pike County","Georgia","South","South Atlantic","13231","33.081149","-84.389462 ","5728","98","0","0","7/17/2022 12:00:00 AM","2019","18962","NYTIMES-USCENSUS"
"7/18/2022 12:00:00 AM","Pike County","Illinois","Midwest","East North Central","17149","39.625106","-90.889034 ","5339","71","19","0","7/17/2022 12:00:00 AM","2019","15561","NYTIMES-USCENSUS"
"7/18/2022 12:00:00 AM","Pike County","Missouri","Midwest","West North Central","29163","39.339959","-91.171607 ","4473","64","0","0","7/17/2022 12:00:00 AM","2019","18302","NYTIMES-USCENSUS"
"7/18/2022 12:00:00 AM","Pike County","Pennsylvania","Northeast","Middle Atlantic","42103","41.325949","-75.031514 ","11273","101","0","0","7/17/2022 12:00:00 AM","2019","55809","NYTIMES-USCENSUS"
"7/18/2022 12:00:00 AM","Pike County","Arkansas","South","West South Central","05109","34.158191","-93.658659 ","2696","44","2","0","7/17/2022 12:00:00 AM","2019","10718","NYTIMES-USCENSUS"
"7/18/2022 12:00:00 AM","Pierce County","Washington","West","Pacific","53053","47.051413","-122.15324 ","218638","1456","1182","4","7/17/2022 12:00:00 AM","2019","904980","NYTIMES-USCENSUS"
"7/18/2022 12:00:00 AM","Pierce County","Georgia","South","South Atlantic","13229","31.353998","-82.21037 ","5875","132","0","0","7/17/2022 12:00:00 AM","2019","19465","NYTIMES-USCENSUS"
"7/18/2022 12:00:00 AM","Pierce County","Nebraska","Midwest","West North Central","31139","42.271413","-97.610992 ","1295","21","0","0","7/17/2022 12:00:00 AM","2019","7148","NYTIMES-USCENSUS"
"7/18/2022 12:00:00 AM","Pickens County","South Carolina","South","South Atlantic","45077","34.885368","-82.723377 ","47901","639","0","0","7/17/2022 12:00:00 AM","2019","126884","NYTIMES-USCENSUS"
"7/18/2022 12:00:00 AM","Pickens County","Georgia","South","South Atlantic","13227","34.456746","-84.490351 ","8825","171","-6","0","7/17/2022 12:00:00 AM","2019","32591","NYTIMES-USCENSUS"
"7/18/2022 12:00:00 AM","Phillips County","Kansas","Midwest","West North Central","20147","39.784506","-99.34215 ","1392","30","0","0","7/17/2022 12:00:00 AM","2019","5234","NYTIMES-USCENSUS"
"7/18/2022 12:00:00 AM","Phillips County","Arkansas","South","West South Central","05107","34.423687","-90.855593 ","5101","100","4","0","7/17/2022 12:00:00 AM","2019","17782","NYTIMES-USCENSUS"
"7/18/2022 12:00:00 AM","Phelps County","Nebraska","Midwest","West North Central","31137","40.516365","-99.406557 ","2432","14","0","0","7/17/2022 12:00:00 AM","2019","9034","NYTIMES-USCENSUS"
"7/18/2022 12:00:00 AM","Perry County","Illinois","Midwest","East North Central","17145","38.084381","-89.368525 ","7860","106","17","0","7/17/2022 12:00:00 AM","2019","20916","NYTIMES-USCENSUS"
"7/18/2022 12:00:00 AM","Perry County","Mississippi","South","East South Central","28111","31.169307","-88.988755 ","3212","64","0","0","7/17/2022 12:00:00 AM","2019","11973","NYTIMES-USCENSUS"
"7/18/2022 12:00:00 AM","Perry County","Ohio","Midwest","East North Central","39127","39.743187","-82.237952 ","8811","128","0","0","7/17/2022 12:00:00 AM","2019","36134","NYTIMES-USCENSUS"
"7/18/2022 12:00:00 AM","Perry County","Tennessee","South","East South Central","47135","35.663752","-87.869326 ","2427","56","0","0","7/17/2022 12:00:00 AM","2019","8076","NYTIMES-USCENSUS"
"7/18/2022 12:00:00 AM","Perry County","Alabama","South","East South Central","01105","32.639005","-87.293827 ","2253","47","12","0","7/17/2022 12:00:00 AM","2019","8923","NYTIMES-USCENSUS"
"7/18/2022 12:00:00 AM","Perry County","Arkansas","South","West South Central","05105","34.946363","-92.926877 ","2659","38","1","0","7/17/2022 12:00:00 AM","2019","10455","NYTIMES-USCENSUS"
"7/18/2022 12:00:00 AM","Perry County","Indiana","Midwest","East North Central","18123","38.081436","-86.62654 ","4875","69","12","0","7/17/2022 12:00:00 AM","2019","19169","NYTIMES-USCENSUS"
"7/18/2022 12:00:00 AM","Perry County","Missouri","Midwest","West North Central","29157","37.71113","-89.802125 ","5394","46","0","0","7/17/2022 12:00:00 AM","2019","19136","NYTIMES-USCENSUS"
"7/18/2022 12:00:00 AM","Perry County","Kentucky","South","East South Central","21193","37.241282","-83.217772 ","11926","185","157","1","7/17/2022 12:00:00 AM","2019","25758","NYTIMES-USCENSUS"
"7/18/2022 12:00:00 AM","Northumberland County","Pennsylvania","Northeast","Middle Atlantic","42097","40.851524","-76.709877 ","24472","547","0","0","7/17/2022 12:00:00 AM","2019","90843","NYTIMES-USCENSUS"
"7/18/2022 12:00:00 AM","Northampton County","Virginia","South","South Atlantic","51131","37.302775","-75.924018 ","2404","66","19","0","7/17/2022 12:00:00 AM","2019","11710","NYTIMES-USCENSUS"
"7/18/2022 12:00:00 AM","Northampton County","Pennsylvania","Northeast","Middle Atlantic","42095","40.752791","-75.307447 ","86699","1128","0","0","7/17/2022 12:00:00 AM","2019","305285","NYTIMES-USCENSUS"
"7/18/2022 12:00:00 AM","Noble County","Indiana","Midwest","East North Central","18113","41.404679","-85.417271 ","13697","161","39","0","7/17/2022 12:00:00 AM","2019","47744","NYTIMES-USCENSUS"
"7/18/2022 12:00:00 AM","Noble County","Oklahoma","South","West South Central","40103","36.384901","-97.236335 ","3152","41","0","0","7/17/2022 12:00:00 AM","2019","11131","NYTIMES-USCENSUS"
"7/18/2022 12:00:00 AM","Nicholas County","Kentucky","South","East South Central","21181","38.338031","-84.026223 ","2271","32","11","0","7/17/2022 12:00:00 AM","2019","7269","NYTIMES-USCENSUS"
"7/18/2022 12:00:00 AM","Newton County","Indiana","Midwest","East North Central","18111","40.962399","-87.402172 ","2739","69","8","0","7/17/2022 12:00:00 AM","2019","13984","NYTIMES-USCENSUS"
"7/18/2022 12:00:00 AM","Newton County","Texas","South","West South Central","48351","30.786718","-93.73925 ","1480","62","0","0","7/17/2022 12:00:00 AM","2019","13595","NYTIMES-USCENSUS"
"7/18/2022 12:00:00 AM","Jones County","North Carolina","South","South Atlantic","37103","35.032268","-77.356195 ","2420","39","0","0","7/17/2022 12:00:00 AM","2019","9419","NYTIMES-USCENSUS"
"7/18/2022 12:00:00 AM","Jones County","Mississippi","South","East South Central","28067","31.616601","-89.168532 ","22315","297","0","0","7/17/2022 12:00:00 AM","2019","68098","NYTIMES-USCENSUS"
"7/18/2022 12:00:00 AM","Jones County","Texas","South","West South Central","48253","32.743709","-99.87443 ","4801","93","5","0","7/17/2022 12:00:00 AM","2019","20083","NYTIMES-USCENSUS"
"7/18/2022 12:00:00 AM","Johnston County","North Carolina","South","South Atlantic","37101","35.513419","-78.367348 ","64769","461","0","0","7/17/2022 12:00:00 AM","2019","209339","NYTIMES-USCENSUS"
"7/18/2022 12:00:00 AM","Johnson County","Tennessee","South","East South Central","47091","36.453203","-81.861247 ","5362","95","0","0","7/17/2022 12:00:00 AM","2019","17788","NYTIMES-USCENSUS"
"7/18/2022 12:00:00 AM","Johnson County","Illinois","Midwest","East North Central","17087","37.460709","-88.882131 ","4775","47","14","0","7/17/2022 12:00:00 AM","2019","12417","NYTIMES-USCENSUS"
"7/18/2022 12:00:00 AM","Johnson County","Kansas","Midwest","West North Central","20091","38.883907","-94.82233 ","159075","1248","0","0","7/17/2022 12:00:00 AM","2019","602401","NYTIMES-USCENSUS"
"7/18/2022 12:00:00 AM","Johnson County","Indiana","Midwest","East North Central","18081","39.496092","-86.094264 ","44870","620","105","0","7/17/2022 12:00:00 AM","2019","158167","NYTIMES-USCENSUS"
"7/18/2022 12:00:00 AM","Johnson County","Wyoming","West","Mountain","56019","44.044048","-106.588541 ","2019","20","0","0","7/17/2022 12:00:00 AM","2019","8445","NYTIMES-USCENSUS"
"7/18/2022 12:00:00 AM","Johnson County","Iowa","Midwest","West North Central","19103","41.670668","-91.590529 ","39054","155","0","0","7/17/2022 12:00:00 AM","2019","151140","NYTIMES-USCENSUS"
"7/18/2022 12:00:00 AM","Johnson County","Arkansas","South","West South Central","05071","35.573359","-93.466322 ","7196","88","1","0","7/17/2022 12:00:00 AM","2019","26578","NYTIMES-USCENSUS"
"7/18/2022 12:00:00 AM","Johnson County","Missouri","Midwest","West North Central","29101","38.741528","-93.811863 ","12797","145","0","0","7/17/2022 12:00:00 AM","2019","54062","NYTIMES-USCENSUS"
"7/18/2022 12:00:00 AM","Johnson County","Georgia","South","South Atlantic","13167","32.694584","-82.66397 ","2331","73","0","0","7/17/2022 12:00:00 AM","2019","9643","NYTIMES-USCENSUS"
"7/18/2022 12:00:00 AM","Johnson County","Texas","South","West South Central","48251","32.379821","-97.364959 ","45976","743","37","0","7/17/2022 12:00:00 AM","2019","175817","NYTIMES-USCENSUS"
"7/18/2022 12:00:00 AM","Johnson County","Kentucky","South","East South Central","21115","37.847756","-82.830121 ","7060","125","113","0","7/17/2022 12:00:00 AM","2019","22188","NYTIMES-USCENSUS"
"7/18/2022 12:00:00 AM","Hill County","Texas","South","West South Central","48217","31.982681","-97.130668 ","9264","192","4","0","7/17/2022 12:00:00 AM","2019","36649","NYTIMES-USCENSUS"
"7/18/2022 12:00:00 AM","Highland County","Virginia","South","South Atlantic","51091","38.366243","-79.564472 ","408","7","1","0","7/17/2022 12:00:00 AM","2019","2190","NYTIMES-USCENSUS"
"7/18/2022 12:00:00 AM","Hidalgo County","New Mexico","West","Mountain","35023","31.898052","-108.751929 ","1167","16","3","0","7/17/2022 12:00:00 AM","2019","4198","NYTIMES-USCENSUS"
"7/18/2022 12:00:00 AM","Hickman County","Kentucky","South","East South Central","21105","36.675896","-88.972084 ","938","28","7","0","7/17/2022 12:00:00 AM","2019","4380","NYTIMES-USCENSUS"
"7/18/2022 12:00:00 AM","Henry County","Ohio","Midwest","East North Central","39069","41.331584","-84.0689 ","6744","108","0","0","7/17/2022 12:00:00 AM","2019","27006","NYTIMES-USCENSUS"
"7/18/2022 12:00:00 AM","Henry County","Tennessee","South","East South Central","47079","36.325295","-88.300288 ","8664","165","0","0","7/17/2022 12:00:00 AM","2019","32345","NYTIMES-USCENSUS"
"7/18/2022 12:00:00 AM","Henry County","Iowa","Midwest","West North Central","19087","40.984802","-91.547259 ","5779","76","0","0","7/17/2022 12:00:00 AM","2019","19954","NYTIMES-USCENSUS"
"7/18/2022 12:00:00 AM","Henry County","Virginia","South","South Atlantic","51089","36.620612","-79.980662 ","13379","274","30","0","7/17/2022 12:00:00 AM","2019","50557","NYTIMES-USCENSUS"
"7/18/2022 12:00:00 AM","Henry County","Alabama","South","East South Central","01067","31.516978","-85.239971 ","4948","78","28","0","7/17/2022 12:00:00 AM","2019","17205","NYTIMES-USCENSUS"
"7/18/2022 12:00:00 AM","Henry County","Indiana","Midwest","East North Central","18065","39.929591","-85.397363 ","13812","234","31","0","7/17/2022 12:00:00 AM","2019","47972","NYTIMES-USCENSUS"
"7/18/2022 12:00:00 AM","Henry County","Kentucky","South","East South Central","21103","38.451383","-85.119647 ","5347","53","48","0","7/17/2022 12:00:00 AM","2019","16126","NYTIMES-USCENSUS"
"7/18/2022 12:00:00 AM","Henry County","Illinois","Midwest","East North Central","17073","41.350021","-90.130838 ","13683","150","27","0","7/17/2022 12:00:00 AM","2019","48913","NYTIMES-USCENSUS"
"7/18/2022 12:00:00 AM","Henry County","Missouri","Midwest","West North Central","29083","38.386491","-93.792628 ","6059","88","0","0","7/17/2022 12:00:00 AM","2019","21824","NYTIMES-USCENSUS"
"7/18/2022 12:00:00 AM","Henderson County","Texas","South","West South Central","48213","32.211633","-95.853418 ","16058","428","20","0","7/17/2022 12:00:00 AM","2019","82737","NYTIMES-USCENSUS"
"7/18/2022 12:00:00 AM","Henderson County","Illinois","Midwest","East North Central","17071","40.814471","-90.941246 ","1267","28","4","0","7/17/2022 12:00:00 AM","2019","6646","NYTIMES-USCENSUS"
"7/18/2022 12:00:00 AM","Henderson County","North Carolina","South","South Atlantic","37089","35.336415","-82.479741 ","27152","327","0","0","7/17/2022 12:00:00 AM","2019","117417","NYTIMES-USCENSUS"
"7/18/2022 12:00:00 AM","Henderson County","Tennessee","South","East South Central","47077","35.653994","-88.387674 ","9456","165","0","0","7/17/2022 12:00:00 AM","2019","28117","NYTIMES-USCENSUS"
"7/18/2022 12:00:00 AM","Haywood County","Tennessee","South","East South Central","47075","35.586678","-89.282691 ","6549","103","0","0","7/17/2022 12:00:00 AM","2019","17304","NYTIMES-USCENSUS"
"7/18/2022 12:00:00 AM","Haskell County","Texas","South","West South Central","48207","33.175964","-99.730774 ","933","39","2","0","7/17/2022 12:00:00 AM","2019","5658","NYTIMES-USCENSUS"
"7/18/2022 12:00:00 AM","Haskell County","Oklahoma","South","West South Central","40061","35.232431","-95.109642 ","2892","42","0","0","7/17/2022 12:00:00 AM","2019","12627","NYTIMES-USCENSUS"
"7/18/2022 12:00:00 AM","Hart County","Georgia","South","South Atlantic","13147","34.348733","-82.96329 ","5031","104","0","0","7/17/2022 12:00:00 AM","2019","26205","NYTIMES-USCENSUS"
"7/18/2022 12:00:00 AM","Gilmer County","Georgia","South","South Atlantic","13123","34.690506","-84.454624 ","7282","180","0","0","7/17/2022 12:00:00 AM","2019","31369","NYTIMES-USCENSUS"
"7/18/2022 12:00:00 AM","Giles County","Virginia","South","South Atlantic","51071","37.318072","-80.698321 ","4369","50","19","0","7/17/2022 12:00:00 AM","2019","16720","NYTIMES-USCENSUS"
"7/18/2022 12:00:00 AM","Gibson County","Indiana","Midwest","East North Central","18051","38.317398","-87.580523 ","12381","149","33","0","7/17/2022 12:00:00 AM","2019","33659","NYTIMES-USCENSUS"
"7/18/2022 12:00:00 AM","Genesee County","Michigan","Midwest","East North Central","26049","43.021077","-83.706372 ","109610","1792","0","0","7/17/2022 12:00:00 AM","2019","405813","NYTIMES-USCENSUS"
"7/18/2022 12:00:00 AM","Garfield County","Colorado","West","Mountain","08045","39.599352","-107.90978 ","16401","95","50","0","7/17/2022 12:00:00 AM","2019","60061","NYTIMES-USCENSUS"
"7/18/2022 12:00:00 AM","Garfield County","Utah","West","Mountain","49017","37.831664","-111.450908 ","979","16","0","0","7/17/2022 12:00:00 AM","2019","5051","NYTIMES-USCENSUS"
"7/18/2022 12:00:00 AM","Garfield County","Oklahoma","South","West South Central","40047","36.378132","-97.788741 ","15615","296","0","0","7/17/2022 12:00:00 AM","2019","61056","NYTIMES-USCENSUS"
"7/18/2022 12:00:00 AM","Lincoln County","Nebraska","Midwest","West North Central","31111","41.050322","-100.744481 ","9252","120","0","0","7/17/2022 12:00:00 AM","2019","34914","NYTIMES-USCENSUS"
"7/18/2022 12:00:00 AM","Lincoln County","Maine","Northeast","New England","23015","43.994781","-69.513624 ","5988","38","0","0","7/17/2022 12:00:00 AM","2019","34634","NYTIMES-USCENSUS"
"7/18/2022 12:00:00 AM","Lincoln County","Tennessee","South","East South Central","47103","35.142784","-86.593403 ","10375","175","0","0","7/17/2022 12:00:00 AM","2019","34366","NYTIMES-USCENSUS"
"7/18/2022 12:00:00 AM","Lincoln County","Montana","West","Mountain","30053","48.552385","-115.463185 ","5054","90","0","0","7/17/2022 12:00:00 AM","2019","19980","NYTIMES-USCENSUS"
"7/18/2022 12:00:00 AM","Lincoln County","Washington","West","Pacific","53043","47.582743","-118.417692 ","2400","29","6","0","7/17/2022 12:00:00 AM","2019","10939","NYTIMES-USCENSUS"
"7/18/2022 12:00:00 AM","Lincoln County","Oklahoma","South","West South Central","40081","35.703117","-96.881392 ","8273","143","0","0","7/17/2022 12:00:00 AM","2019","34877","NYTIMES-USCENSUS"
"7/18/2022 12:00:00 AM","Lincoln County","Colorado","West","Mountain","08073","38.99374","-103.507555 ","2290","10","5","0","7/17/2022 12:00:00 AM","2019","5701","NYTIMES-USCENSUS"
"7/18/2022 12:00:00 AM","Lincoln County","Georgia","South","South Atlantic","13181","33.792151","-82.448299 ","1647","35","0","0","7/17/2022 12:00:00 AM","2019","7921","NYTIMES-USCENSUS"
"7/18/2022 12:00:00 AM","Lincoln County","Mississippi","South","East South Central","28085","31.535216","-90.453566 ","8854","158","0","0","7/17/2022 12:00:00 AM","2019","34153","NYTIMES-USCENSUS"
"7/18/2022 12:00:00 AM","Lincoln County","Minnesota","Midwest","West North Central","27081","44.408238","-96.272032 ","1260","6","0","0","7/17/2022 12:00:00 AM","2019","5639","NYTIMES-USCENSUS"
"7/18/2022 12:00:00 AM","Lincoln County","Nevada","West","Mountain","32017","37.634605","-114.863037 ","557","8","0","0","7/17/2022 12:00:00 AM","2019","5183","NYTIMES-USCENSUS"
"7/18/2022 12:00:00 AM","Lincoln County","New Mexico","West","Mountain","35027","33.740841","-105.449805 ","5770","68","35","0","7/17/2022 12:00:00 AM","2019","19572","NYTIMES-USCENSUS"
"7/18/2022 12:00:00 AM","Lincoln County","West Virginia","South","South Atlantic","54043","38.17177","-82.077623 ","5980","84","28","0","7/17/2022 12:00:00 AM","2019","20409","NYTIMES-USCENSUS"
"7/18/2022 12:00:00 AM","Lincoln County","North Carolina","South","South Atlantic","37109","35.488491","-81.226893 ","25993","184","0","0","7/17/2022 12:00:00 AM","2019","86111","NYTIMES-USCENSUS"
"7/18/2022 12:00:00 AM","Lincoln County","Wisconsin","Midwest","East North Central","55069","45.333148","-89.73224 ","7785","152","19","0","7/17/2022 12:00:00 AM","2019","27593","NYTIMES-USCENSUS"
"7/18/2022 12:00:00 AM","Lincoln County","Idaho","West","Mountain","16063","42.990782","-114.153089 ","1146","15","2","0","7/17/2022 12:00:00 AM","2019","5366","NYTIMES-USCENSUS"
"7/18/2022 12:00:00 AM","Lincoln County","Oregon","West","Pacific","41041","44.641061","-123.911212 ","8083","91","25","0","7/17/2022 12:00:00 AM","2019","49962","NYTIMES-USCENSUS"
"7/18/2022 12:00:00 AM","Lincoln County","Arkansas","South","West South Central","05079","33.956385","-91.742355 ","5049","69","0","0","7/17/2022 12:00:00 AM","2019","13024","NYTIMES-USCENSUS"
"7/18/2022 12:00:00 AM","Limestone County","Alabama","South","East South Central","01083","34.810239","-86.981399 ","26928","299","135","0","7/17/2022 12:00:00 AM","2019","98915","NYTIMES-USCENSUS"
"7/18/2022 12:00:00 AM","Liberty County","Florida","South","South Atlantic","12077","30.259849","-84.86858 ","2637","30","0","0","7/17/2022 12:00:00 AM","2019","8354","NYTIMES-USCENSUS"
"7/18/2022 12:00:00 AM","Liberty County","Texas","South","West South Central","48291","30.158508","-94.844061 ","19564","405","22","0","7/17/2022 12:00:00 AM","2019","88219","NYTIMES-USCENSUS"
"7/18/2022 12:00:00 AM","Liberty County","Montana","West","Mountain","30051","48.559654","-111.036924 ","438","4","0","0","7/17/2022 12:00:00 AM","2019","2337","NYTIMES-USCENSUS"
"7/18/2022 12:00:00 AM","Lewis County","Tennessee","South","East South Central","47101","35.523244","-87.496983 ","3667","61","0","0","7/17/2022 12:00:00 AM","2019","12268","NYTIMES-USCENSUS"
"7/18/2022 12:00:00 AM","Lewis County","Kentucky","South","East South Central","21135","38.535047","-83.370143 ","4802","89","30","1","7/17/2022 12:00:00 AM","2019","13275","NYTIMES-USCENSUS"
"7/18/2022 12:00:00 AM","Lewis County","Idaho","West","Mountain","16061","46.236328","-116.42376 ","1200","30","3","0","7/17/2022 12:00:00 AM","2019","3838","NYTIMES-USCENSUS"
"7/18/2022 12:00:00 AM","Lewis County","Missouri","Midwest","West North Central","29111","40.084559","-91.728803 ","2938","43","0","0","7/17/2022 12:00:00 AM","2019","9776","NYTIMES-USCENSUS"
"7/18/2022 12:00:00 AM","Lewis County","West Virginia","South","South Atlantic","54041","38.988877","-80.495477 ","5941","89","28","0","7/17/2022 12:00:00 AM","2019","15907","NYTIMES-USCENSUS"
"7/18/2022 12:00:00 AM","Lewis County","New York","Northeast","Middle Atlantic","36049","43.782681","-75.44414 ","6629","51","1","1","7/17/2022 12:00:00 AM","2019","26296","NYTIMES-USCENSUS"
"7/18/2022 12:00:00 AM","Leon County","Florida","South","South Atlantic","12073","30.45931","-84.2778 ","96702","683","0","0","7/17/2022 12:00:00 AM","2019","293582","NYTIMES-USCENSUS"
"7/18/2022 12:00:00 AM","Lee County","Florida","South","South Atlantic","12071","26.563273","-81.984182 ","211155","2218","0","0","7/17/2022 12:00:00 AM","2019","770577","NYTIMES-USCENSUS"
"7/18/2022 12:00:00 AM","Lee County","Kentucky","South","East South Central","21129","37.608116","-83.719248 ","3010","56","17","0","7/17/2022 12:00:00 AM","2019","7403","NYTIMES-USCENSUS"
"7/18/2022 12:00:00 AM","Lee County","Mississippi","South","East South Central","28081","34.29237","-88.682439 ","28471","303","0","0","7/17/2022 12:00:00 AM","2019","85436","NYTIMES-USCENSUS"
"7/18/2022 12:00:00 AM","Lee County","Virginia","South","South Atlantic","51105","36.701721","-83.130112 ","6505","94","29","0","7/17/2022 12:00:00 AM","2019","23423","NYTIMES-USCENSUS"
"7/18/2022 12:00:00 AM","Lee County","Alabama","South","East South Central","01081","32.604064","-85.353048 ","40485","342","167","0","7/17/2022 12:00:00 AM","2019","164542","NYTIMES-USCENSUS"
"7/18/2022 12:00:00 AM","Lee County","Texas","South","West South Central","48287","30.321498","-96.976823 ","4543","60","3","0","7/17/2022 12:00:00 AM","2019","17239","NYTIMES-USCENSUS"
"7/18/2022 12:00:00 AM","Lee County","Illinois","Midwest","East North Central","17103","41.747447","-89.299362 ","9805","119","27","0","7/17/2022 12:00:00 AM","2019","34096","NYTIMES-USCENSUS"
"7/18/2022 12:00:00 AM","Lee County","Georgia","South","South Atlantic","13177","31.818419","-84.146681 ","7796","106","1","0","7/17/2022 12:00:00 AM","2019","29992","NYTIMES-USCENSUS"
"7/18/2022 12:00:00 AM","Lee County","South Carolina","South","South Atlantic","45061","34.15864","-80.251209 ","4541","96","0","0","7/17/2022 12:00:00 AM","2019","16828","NYTIMES-USCENSUS"
"7/18/2022 12:00:00 AM","Lee County","North Carolina","South","South Atlantic","37105","35.476336","-79.172117 ","17177","152","0","0","7/17/2022 12:00:00 AM","2019","61779","NYTIMES-USCENSUS"
"7/18/2022 12:00:00 AM","Lee County","Arkansas","South","West South Central","05077","34.779505","-90.779717 ","3031","62","0","0","7/17/2022 12:00:00 AM","2019","8857","NYTIMES-USCENSUS"
"7/18/2022 12:00:00 AM","Kendall County","Texas","South","West South Central","48259","29.943525","-98.709269 ","8868","123","12","0","7/17/2022 12:00:00 AM","2019","47431","NYTIMES-USCENSUS"
"7/18/2022 12:00:00 AM","Kane County","Illinois","Midwest","East North Central","17089","41.939594","-88.42804 ","142878","1196","454","0","7/17/2022 12:00:00 AM","2019","532403","NYTIMES-USCENSUS"
"7/18/2022 12:00:00 AM","Jones County","Georgia","South","South Atlantic","13169","33.021664","-83.562196 ","5363","109","-1","0","7/17/2022 12:00:00 AM","2019","28735","NYTIMES-USCENSUS"
"7/18/2022 12:00:00 AM","DuPage County","Illinois","Midwest","East North Central","17043","41.852058","-88.086039 ","248364","1831","862","0","7/17/2022 12:00:00 AM","2019","922921","NYTIMES-USCENSUS"
"7/18/2022 12:00:00 AM","Dunn County","Wisconsin","Midwest","East North Central","55033","44.947751","-91.897645 ","14202","76","35","0","7/17/2022 12:00:00 AM","2019","45368","NYTIMES-USCENSUS"
"7/18/2022 12:00:00 AM","Dunklin County","Missouri","Midwest","West North Central","29069","36.153025","-90.062254 ","8369","128","0","0","7/17/2022 12:00:00 AM","2019","29131","NYTIMES-USCENSUS"
"7/18/2022 12:00:00 AM","Dukes County","Massachusetts","Northeast","New England","25007","41.38097","-70.701499 ","3966","0","0","0","7/17/2022 12:00:00 AM","2019","17332","NYTIMES-USCENSUS"
"7/18/2022 12:00:00 AM","Duchesne County","Utah","West","Mountain","49013","40.289393","-110.429584 ","4627","27","0","0","7/17/2022 12:00:00 AM","2019","19938","NYTIMES-USCENSUS"
"7/18/2022 12:00:00 AM","Dubuque County","Iowa","Midwest","West North Central","19061","42.463481","-90.878771 ","27763","300","0","0","7/17/2022 12:00:00 AM","2019","97311","NYTIMES-USCENSUS"
"7/18/2022 12:00:00 AM","Dubois County","Indiana","Midwest","East North Central","18037","38.373344","-86.873385 ","13239","165","12","0","7/17/2022 12:00:00 AM","2019","42736","NYTIMES-USCENSUS"
"7/18/2022 12:00:00 AM","Drew County","Arkansas","South","West South Central","05043","33.587242","-91.722778 ","4882","71","3","0","7/17/2022 12:00:00 AM","2019","18219","NYTIMES-USCENSUS"
"7/18/2022 12:00:00 AM","Douglas County","Georgia","South","South Atlantic","13097","33.701242","-84.767314 ","37687","413","2","0","7/17/2022 12:00:00 AM","2019","146343","NYTIMES-USCENSUS"
"7/18/2022 12:00:00 AM","Dougherty County","Georgia","South","South Atlantic","13095","31.532588","-84.20904 ","21099","508","-1","0","7/17/2022 12:00:00 AM","2019","87956","NYTIMES-USCENSUS"
"7/18/2022 12:00:00 AM","Dorchester County","South Carolina","South","South Atlantic","45035","33.082186","-80.404697 ","60489","505","0","0","7/17/2022 12:00:00 AM","2019","162809","NYTIMES-USCENSUS"
"7/18/2022 12:00:00 AM","Door County","Wisconsin","Midwest","East North Central","55029","45.093417","-87.048683 ","7611","73","21","0","7/17/2022 12:00:00 AM","2019","27668","NYTIMES-USCENSUS"
"7/18/2022 12:00:00 AM","Dooly County","Georgia","South","South Atlantic","13093","32.151995","-83.807167 ","2486","69","0","0","7/17/2022 12:00:00 AM","2019","13390","NYTIMES-USCENSUS"
"7/18/2022 12:00:00 AM","Donley County","Texas","South","West South Central","48129","34.955036","-100.815846 ","1180","26","0","0","7/17/2022 12:00:00 AM","2019","3278","NYTIMES-USCENSUS"
"7/18/2022 12:00:00 AM","Doniphan County","Kansas","Midwest","West North Central","20043","39.788502","-95.147225 ","2547","34","0","0","7/17/2022 12:00:00 AM","2019","7600","NYTIMES-USCENSUS"
"7/18/2022 12:00:00 AM","Cottonwood County","Minnesota","Midwest","West North Central","27033","44.010639","-95.183152 ","3351","41","0","0","7/17/2022 12:00:00 AM","2019","11196","NYTIMES-USCENSUS"
"7/18/2022 12:00:00 AM","Cotton County","Oklahoma","South","West South Central","40033","34.290676","-98.373438 ","1490","32","0","0","7/17/2022 12:00:00 AM","2019","5666","NYTIMES-USCENSUS"
"7/18/2022 12:00:00 AM","Cottle County","Texas","South","West South Central","48101","34.091906","-100.276442 ","336","9","0","0","7/17/2022 12:00:00 AM","2019","1398","NYTIMES-USCENSUS"
"7/18/2022 12:00:00 AM","Costilla County","Colorado","West","Mountain","08023","37.277547","-105.42894 ","817","18","4","0","7/17/2022 12:00:00 AM","2019","3887","NYTIMES-USCENSUS"
"7/18/2022 12:00:00 AM","Coshocton County","Ohio","Midwest","East North Central","39031","40.29671","-81.930109 ","8417","161","0","0","7/17/2022 12:00:00 AM","2019","36600","NYTIMES-USCENSUS"
"7/18/2022 12:00:00 AM","Coryell County","Texas","South","West South Central","48099","31.391177","-97.798022 ","18618","214","16","0","7/17/2022 12:00:00 AM","2019","75951","NYTIMES-USCENSUS"
"7/18/2022 12:00:00 AM","Cortland County","New York","Northeast","Middle Atlantic","36023","42.594039","-76.07624 ","11756","124","4","0","7/17/2022 12:00:00 AM","2019","47581","NYTIMES-USCENSUS"
"7/18/2022 12:00:00 AM","Corson County","South Dakota","Midwest","West North Central","46031","45.685671","-101.179665 ","1083","17","0","0","7/17/2022 12:00:00 AM","2019","4086","NYTIMES-USCENSUS"
"7/18/2022 12:00:00 AM","Copiah County","Mississippi","South","East South Central","28029","31.866915","-90.448758 ","7888","121","0","0","7/17/2022 12:00:00 AM","2019","28065","NYTIMES-USCENSUS"
"7/18/2022 12:00:00 AM","Coosa County","Alabama","South","East South Central","01037","32.931445","-86.243482 ","3171","59","13","0","7/17/2022 12:00:00 AM","2019","10663","NYTIMES-USCENSUS"
"7/18/2022 12:00:00 AM","Coos County","Oregon","West","Pacific","41011","43.18591","-124.094133 ","12293","162","59","0","7/17/2022 12:00:00 AM","2019","64487","NYTIMES-USCENSUS"
"7/18/2022 12:00:00 AM","Cooper County","Missouri","Midwest","West North Central","29053","38.847093","-92.810069 ","4251","78","0","0","7/17/2022 12:00:00 AM","2019","17709","NYTIMES-USCENSUS"
"7/18/2022 12:00:00 AM","Cooke County","Texas","South","West South Central","48097","33.639196","-97.210343 ","7685","134","6","0","7/17/2022 12:00:00 AM","2019","41257","NYTIMES-USCENSUS"
"7/18/2022 12:00:00 AM","Cook County","Georgia","South","South Atlantic","13075","31.152516","-83.429445 ","5117","75","0","0","7/17/2022 12:00:00 AM","2019","17270","NYTIMES-USCENSUS"
"7/18/2022 12:00:00 AM","Conway County","Arkansas","South","West South Central","05029","35.265702","-92.689248 ","5737","65","2","0","7/17/2022 12:00:00 AM","2019","20846","NYTIMES-USCENSUS"
"7/18/2022 12:00:00 AM","Converse County","Wyoming","West","Mountain","56009","42.984623","-105.524752 ","3277","55","0","0","7/17/2022 12:00:00 AM","2019","13822","NYTIMES-USCENSUS"
"7/18/2022 12:00:00 AM","Contra Costa County","California","West","Pacific","06013","37.919479","-121.951543 ","246540","1356","0","0","7/17/2022 12:00:00 AM","2019","1153526","NYTIMES-USCENSUS"
"7/18/2022 12:00:00 AM","Conejos County","Colorado","West","Mountain","08021","37.213406","-106.176447 ","2022","57","4","0","7/17/2022 12:00:00 AM","2019","8205","NYTIMES-USCENSUS"
"7/18/2022 12:00:00 AM","Conecuh County","Alabama","South","East South Central","01035","31.430926","-86.988722 ","3088","70","22","0","7/17/2022 12:00:00 AM","2019","12067","NYTIMES-USCENSUS"
"7/18/2022 12:00:00 AM","Concordia Parish","Louisiana","South","West South Central","22029","31.469805","-91.626315 ","5447","89","15","0","7/17/2022 12:00:00 AM","2019","19259","NYTIMES-USCENSUS"
"7/18/2022 12:00:00 AM","Concho County","Texas","South","West South Central","48095","31.318883","-99.863649 ","1162","11","0","0","7/17/2022 12:00:00 AM","2019","2726","NYTIMES-USCENSUS"
"7/18/2022 12:00:00 AM","Comanche County","Oklahoma","South","West South Central","40031","34.662625","-98.476586 ","34165","402","0","0","7/17/2022 12:00:00 AM","2019","120749","NYTIMES-USCENSUS"
"7/18/2022 12:00:00 AM","Comal County","Texas","South","West South Central","48091","29.812377","-98.258129 ","37704","561","35","0","7/17/2022 12:00:00 AM","2019","156209","NYTIMES-USCENSUS"
"7/18/2022 12:00:00 AM","Colusa County","California","West","Pacific","06011","39.177739","-122.237563 ","4815","22","0","0","7/17/2022 12:00:00 AM","2019","21547","NYTIMES-USCENSUS"
"7/18/2022 12:00:00 AM","Columbus County","North Carolina","South","South Atlantic","37047","34.261602","-78.639308 ","16638","271","0","0","7/17/2022 12:00:00 AM","2019","55508","NYTIMES-USCENSUS"
"7/18/2022 12:00:00 AM","Columbiana County","Ohio","Midwest","East North Central","39029","40.770073","-80.778455 ","25780","489","0","0","7/17/2022 12:00:00 AM","2019","101883","NYTIMES-USCENSUS"
"7/18/2022 12:00:00 AM","Columbia County","Pennsylvania","Northeast","Middle Atlantic","42037","41.045517","-76.40426 ","16447","253","0","0","7/17/2022 12:00:00 AM","2019","64964","NYTIMES-USCENSUS"
"7/18/2022 12:00:00 AM","Hartford County","Connecticut","Northeast","New England","09003","41.806053","-72.732916 ","203418","3205","104","0","7/17/2022 12:00:00 AM","2019","891720","NYTIMES-USCENSUS"
"7/18/2022 12:00:00 AM","Hart County","Kentucky","South","East South Central","21099","37.305827","-85.878443 ","5703","106","28","1","7/17/2022 12:00:00 AM","2019","19035","NYTIMES-USCENSUS"
"7/18/2022 12:00:00 AM","Gladwin County","Michigan","Midwest","East North Central","26051","43.98975","-84.389816 ","5878","116","0","0","7/17/2022 12:00:00 AM","2019","25449","NYTIMES-USCENSUS"
"7/18/2022 12:00:00 AM","Glades County","Florida","South","South Atlantic","12043","26.95481","-81.19082 ","2110","36","0","0","7/17/2022 12:00:00 AM","2019","13811","NYTIMES-USCENSUS"
"7/18/2022 12:00:00 AM","Glacier County","Montana","West","Mountain","30035","48.705671","-112.990502 ","4182","75","0","0","7/17/2022 12:00:00 AM","2019","13753","NYTIMES-USCENSUS"
"7/18/2022 12:00:00 AM","Gilpin County","Colorado","West","Mountain","08047","39.861156","-105.528878 ","1076","5","3","0","7/17/2022 12:00:00 AM","2019","6243","NYTIMES-USCENSUS"
"7/18/2022 12:00:00 AM","Gilmer County","West Virginia","South","South Atlantic","54021","38.915867","-80.849413 ","2248","19","4","0","7/17/2022 12:00:00 AM","2019","7823","NYTIMES-USCENSUS"
"7/18/2022 12:00:00 AM","Gillespie County","Texas","South","West South Central","48171","30.325093","-98.94185 ","5694","109","10","0","7/17/2022 12:00:00 AM","2019","26988","NYTIMES-USCENSUS"
"7/18/2022 12:00:00 AM","Giles County","Tennessee","South","East South Central","47055","35.202723","-87.035319 ","9831","196","0","0","7/17/2022 12:00:00 AM","2019","29464","NYTIMES-USCENSUS"
"7/18/2022 12:00:00 AM","Gilchrist County","Florida","South","South Atlantic","12041","29.723456","-82.795801 ","4942","99","0","0","7/17/2022 12:00:00 AM","2019","18582","NYTIMES-USCENSUS"
"7/18/2022 12:00:00 AM","Gila County","Arizona","West","Mountain","04007","33.789618","-110.81187 ","18183","387","0","0","7/17/2022 12:00:00 AM","2019","54018","NYTIMES-USCENSUS"
"7/18/2022 12:00:00 AM","Gibson County","Tennessee","South","East South Central","47053","35.991632","-88.933812 ","18350","264","0","0","7/17/2022 12:00:00 AM","2019","49133","NYTIMES-USCENSUS"
"7/18/2022 12:00:00 AM","Georgetown County","South Carolina","South","South Atlantic","45043","33.417531","-79.296333 ","16921","229","0","0","7/17/2022 12:00:00 AM","2019","62680","NYTIMES-USCENSUS"
"7/18/2022 12:00:00 AM","George County","Mississippi","South","East South Central","28039","30.855431","-88.642268 ","7574","88","0","0","7/17/2022 12:00:00 AM","2019","24500","NYTIMES-USCENSUS"
"7/18/2022 12:00:00 AM","Gentry County","Missouri","Midwest","West North Central","29075","40.208127","-94.405321 ","2268","32","0","0","7/17/2022 12:00:00 AM","2019","6571","NYTIMES-USCENSUS"
"7/18/2022 12:00:00 AM","Geneva County","Alabama","South","East South Central","01061","31.092382","-85.821022 ","6869","165","24","0","7/17/2022 12:00:00 AM","2019","26271","NYTIMES-USCENSUS"
"7/18/2022 12:00:00 AM","Genesee County","New York","Northeast","Middle Atlantic","36037","43.00091","-78.192778 ","14970","194","7","1","7/17/2022 12:00:00 AM","2019","57280","NYTIMES-USCENSUS"
"7/18/2022 12:00:00 AM","Gem County","Idaho","West","Mountain","16045","44.061473","-116.398784 ","3844","80","1","0","7/17/2022 12:00:00 AM","2019","18112","NYTIMES-USCENSUS"
"7/18/2022 12:00:00 AM","Geauga County","Ohio","Midwest","East North Central","39055","41.499322","-81.173505 ","17334","270","0","0","7/17/2022 12:00:00 AM","2019","93649","NYTIMES-USCENSUS"
"7/18/2022 12:00:00 AM","Geary County","Kansas","Midwest","West North Central","20061","39.002139","-96.7681 ","9674","78","0","0","7/17/2022 12:00:00 AM","2019","31670","NYTIMES-USCENSUS"
"7/18/2022 12:00:00 AM","Gates County","North Carolina","South","South Atlantic","37073","36.442135","-76.702355 ","2047","20","0","0","7/17/2022 12:00:00 AM","2019","11562","NYTIMES-USCENSUS"
"7/18/2022 12:00:00 AM","Gaston County","North Carolina","South","South Atlantic","37071","35.293344","-81.177256 ","70076","871","0","0","7/17/2022 12:00:00 AM","2019","224529","NYTIMES-USCENSUS"
"7/18/2022 12:00:00 AM","Gasconade County","Missouri","Midwest","West North Central","29073","38.441183","-91.50578 ","3572","104","0","0","7/17/2022 12:00:00 AM","2019","14706","NYTIMES-USCENSUS"
"7/18/2022 12:00:00 AM","Garza County","Texas","South","West South Central","48169","33.183792","-101.301134 ","1318","29","0","0","7/17/2022 12:00:00 AM","2019","6229","NYTIMES-USCENSUS"
"7/18/2022 12:00:00 AM","Garvin County","Oklahoma","South","West South Central","40049","34.70935","-97.312723 ","7333","149","0","0","7/17/2022 12:00:00 AM","2019","27711","NYTIMES-USCENSUS"
"7/18/2022 12:00:00 AM","Garrett County","Maryland","South","South Atlantic","24023","39.547299","-79.274619 ","6128","115","8","0","7/17/2022 12:00:00 AM","2019","29014","NYTIMES-USCENSUS"
"7/18/2022 12:00:00 AM","Garrard County","Kentucky","South","East South Central","21079","37.630162","-84.545856 ","5080","80","39","0","7/17/2022 12:00:00 AM","2019","17666","NYTIMES-USCENSUS"
"7/18/2022 12:00:00 AM","Garland County","Arkansas","South","West South Central","05051","34.578852","-93.146932 ","24427","516","18","0","7/17/2022 12:00:00 AM","2019","99386","NYTIMES-USCENSUS"
"7/18/2022 12:00:00 AM","Garfield County","Nebraska","Midwest","West North Central","31071","41.906868","-98.951231 ","412","2","0","0","7/17/2022 12:00:00 AM","2019","1969","NYTIMES-USCENSUS"
"7/18/2022 12:00:00 AM","Garden County","Nebraska","Midwest","West North Central","31069","41.633364","-102.302985 ","394","1","0","0","7/17/2022 12:00:00 AM","2019","1837","NYTIMES-USCENSUS"
"7/18/2022 12:00:00 AM","Galveston County","Texas","South","West South Central","48167","29.233453","-94.888456 ","106925","861","207","0","7/17/2022 12:00:00 AM","2019","342139","NYTIMES-USCENSUS"
"7/18/2022 12:00:00 AM","Eau Claire County","Wisconsin","Midwest","East North Central","55035","44.726355","-91.286414 ","32855","194","79","0","7/17/2022 12:00:00 AM","2019","104646","NYTIMES-USCENSUS"
"7/18/2022 12:00:00 AM","Eaton County","Michigan","Midwest","East North Central","26045","42.58953","-84.84645 ","29500","419","0","0","7/17/2022 12:00:00 AM","2019","110268","NYTIMES-USCENSUS"
"7/18/2022 12:00:00 AM","Eastland County","Texas","South","West South Central","48133","32.324645","-98.83656 ","2905","113","0","0","7/17/2022 12:00:00 AM","2019","18360","NYTIMES-USCENSUS"
"7/18/2022 12:00:00 AM","East Feliciana Parish","Louisiana","South","West South Central","22037","30.839784","-91.043434 ","7571","170","10","0","7/17/2022 12:00:00 AM","2019","19135","NYTIMES-USCENSUS"
"7/18/2022 12:00:00 AM","East Carroll Parish","Louisiana","South","West South Central","22035","32.73017","-91.234141 ","2731","38","16","0","7/17/2022 12:00:00 AM","2019","6861","NYTIMES-USCENSUS"
"7/18/2022 12:00:00 AM","East Baton Rouge Parish","Louisiana","South","West South Central","22033","30.54393","-91.093131 ","121359","1358","468","0","7/17/2022 12:00:00 AM","2019","440059","NYTIMES-USCENSUS"
"7/18/2022 12:00:00 AM","Early County","Georgia","South","South Atlantic","13099","31.324191","-84.906723 ","2907","65","0","0","7/17/2022 12:00:00 AM","2019","10190","NYTIMES-USCENSUS"
"7/18/2022 12:00:00 AM","Eagle County","Colorado","West","Mountain","08037","39.626992","-106.695169 ","17465","36","28","0","7/17/2022 12:00:00 AM","2019","55127","NYTIMES-USCENSUS"
"7/18/2022 12:00:00 AM","Dyer County","Tennessee","South","East South Central","47045","36.054196","-89.398306 ","13474","212","0","0","7/17/2022 12:00:00 AM","2019","37159","NYTIMES-USCENSUS"
"7/18/2022 12:00:00 AM","Duval County","Florida","South","South Atlantic","12031","30.335245","-81.648113 ","279854","3477","0","0","7/17/2022 12:00:00 AM","2019","957755","NYTIMES-USCENSUS"
"7/18/2022 12:00:00 AM","Dutchess County","New York","Northeast","Middle Atlantic","36027","41.75477","-73.740041 ","72491","671","47","0","7/17/2022 12:00:00 AM","2019","294218","NYTIMES-USCENSUS"
"7/18/2022 12:00:00 AM","Durham County","North Carolina","South","South Atlantic","37063","36.033828","-78.878125 ","86528","345","224","0","7/17/2022 12:00:00 AM","2019","321488","NYTIMES-USCENSUS"
"7/18/2022 12:00:00 AM","Duplin County","North Carolina","South","South Atlantic","37061","34.934403","-77.933543 ","17569","250","0","0","7/17/2022 12:00:00 AM","2019","58741","NYTIMES-USCENSUS"
"7/18/2022 12:00:00 AM","Bledsoe County","Tennessee","South","East South Central","47007","35.593561","-85.20591 ","4777","61","0","0","7/17/2022 12:00:00 AM","2019","15064","NYTIMES-USCENSUS"
"7/18/2022 12:00:00 AM","Bleckley County","Georgia","South","South Atlantic","13023","32.435403","-83.331717 ","3503","100","0","0","7/17/2022 12:00:00 AM","2019","12873","NYTIMES-USCENSUS"
"7/18/2022 12:00:00 AM","Blanco County","Texas","South","West South Central","48031","30.266456","-98.399217 ","2787","34","5","0","7/17/2022 12:00:00 AM","2019","11931","NYTIMES-USCENSUS"
"7/18/2022 12:00:00 AM","Blair County","Pennsylvania","Northeast","Middle Atlantic","42013","40.498683","-78.309597 ","31158","637","0","0","7/17/2022 12:00:00 AM","2019","121829","NYTIMES-USCENSUS"
"7/18/2022 12:00:00 AM","Blaine County","Oklahoma","South","West South Central","40011","35.877795","-98.429031 ","2527","44","0","0","7/17/2022 12:00:00 AM","2019","9429","NYTIMES-USCENSUS"
"7/18/2022 12:00:00 AM","Bladen County","North Carolina","South","South Atlantic","37017","34.591938","-78.539489 ","10052","133","0","0","7/17/2022 12:00:00 AM","2019","32722","NYTIMES-USCENSUS"
"7/18/2022 12:00:00 AM","Blackford County","Indiana","Midwest","East North Central","18009","40.472672","-85.32373 ","3281","69","5","0","7/17/2022 12:00:00 AM","2019","11758","NYTIMES-USCENSUS"
"7/18/2022 12:00:00 AM","Black Hawk County","Iowa","Midwest","West North Central","19013","42.471132","-92.3076 ","34626","492","0","0","7/17/2022 12:00:00 AM","2019","131228","NYTIMES-USCENSUS"
"7/18/2022 12:00:00 AM","Bingham County","Idaho","West","Mountain","16011","43.216357","-112.399206 ","10253","161","21","0","7/17/2022 12:00:00 AM","2019","46811","NYTIMES-USCENSUS"
"7/18/2022 12:00:00 AM","Big Stone County","Minnesota","Midwest","West North Central","27011","45.419925","-96.402226 ","1478","9","0","0","7/17/2022 12:00:00 AM","2019","4991","NYTIMES-USCENSUS"
"7/18/2022 12:00:00 AM","Big Horn County","Montana","West","Mountain","30003","45.407868","-107.518162 ","5113","100","0","0","7/17/2022 12:00:00 AM","2019","13319","NYTIMES-USCENSUS"
"7/18/2022 12:00:00 AM","Bienville Parish","Louisiana","South","West South Central","22013","32.340952","-93.041151 ","4266","112","13","0","7/17/2022 12:00:00 AM","2019","13241","NYTIMES-USCENSUS"
"7/18/2022 12:00:00 AM","Bexar County","Texas","South","West South Central","48029","29.448671","-98.520147 ","611668","6195","989","0","7/17/2022 12:00:00 AM","2019","2003554","NYTIMES-USCENSUS"
"7/18/2022 12:00:00 AM","Bethel Census Area","Alaska","West","Pacific","02050","60.929141","-160.152625 ","10900","42","0","0","7/17/2022 12:00:00 AM","2019","18386","NYTIMES-USCENSUS"
"7/18/2022 12:00:00 AM","Arenac County","Michigan","Midwest","East North Central","26011","44.036833","-83.740675 ","3430","71","0","0","7/17/2022 12:00:00 AM","2019","14883","NYTIMES-USCENSUS"
"7/18/2022 12:00:00 AM","Archuleta County","Colorado","West","Mountain","08007","37.202395","-107.050863 ","3124","16","7","0","7/17/2022 12:00:00 AM","2019","14029","NYTIMES-USCENSUS"
"7/18/2022 12:00:00 AM","Archer County","Texas","South","West South Central","48009","33.616305","-98.687267 ","2353","28","4","0","7/17/2022 12:00:00 AM","2019","8553","NYTIMES-USCENSUS"
"7/18/2022 12:00:00 AM","Arapahoe County","Colorado","West","Mountain","08005","39.644554","-104.331706 ","179432","1332","477","2","7/17/2022 12:00:00 AM","2019","656590","NYTIMES-USCENSUS"
"7/18/2022 12:00:00 AM","Aransas County","Texas","South","West South Central","48007","28.122621","-96.967501 ","4660","88","29","0","7/17/2022 12:00:00 AM","2019","23510","NYTIMES-USCENSUS"
"7/18/2022 12:00:00 AM","Appomattox County","Virginia","South","South Atlantic","51011","37.370725","-78.81094 ","4184","54","13","0","7/17/2022 12:00:00 AM","2019","15911","NYTIMES-USCENSUS"
"7/18/2022 12:00:00 AM","Appling County","Georgia","South","South Atlantic","13001","31.739712","-82.290103 ","4889","132","0","0","7/17/2022 12:00:00 AM","2019","18386","NYTIMES-USCENSUS"
"7/18/2022 12:00:00 AM","Appanoose County","Iowa","Midwest","West North Central","19007","40.744249","-92.873065 ","3004","70","0","0","7/17/2022 12:00:00 AM","2019","12426","NYTIMES-USCENSUS"
"7/18/2022 12:00:00 AM","Apache County","Arizona","West","Mountain","04001","35.385084","-109.490172 ","28113","618","0","0","7/17/2022 12:00:00 AM","2019","71887","NYTIMES-USCENSUS"
"7/18/2022 12:00:00 AM","Antrim County","Michigan","Midwest","East North Central","26009","45.005455","-85.175639 ","4744","70","0","0","7/17/2022 12:00:00 AM","2019","23324","NYTIMES-USCENSUS"
"7/18/2022 12:00:00 AM","Antelope County","Nebraska","Midwest","West North Central","31003","42.183225","-98.058037 ","1135","14","0","0","7/17/2022 12:00:00 AM","2019","6298","NYTIMES-USCENSUS"
"7/18/2022 12:00:00 AM","Anson County","North Carolina","South","South Atlantic","37007","34.974972","-80.109763 ","7013","101","0","0","7/17/2022 12:00:00 AM","2019","24446","NYTIMES-USCENSUS"
"7/18/2022 12:00:00 AM","Anoka County","Minnesota","Midwest","West North Central","27003","45.27411","-93.242723 ","106254","810","0","0","7/17/2022 12:00:00 AM","2019","356921","NYTIMES-USCENSUS"
"7/18/2022 12:00:00 AM","Anne Arundel County","Maryland","South","South Atlantic","24003","38.991617","-76.560894 ","102446","1126","183","2","7/17/2022 12:00:00 AM","2019","579234","NYTIMES-USCENSUS"
"7/18/2022 12:00:00 AM","Angelina County","Texas","South","West South Central","48005","31.251896","-94.611134 ","15930","484","21","0","7/17/2022 12:00:00 AM","2019","86715","NYTIMES-USCENSUS"
"7/18/2022 12:00:00 AM","Androscoggin County","Maine","Northeast","New England","23001","44.167681","-70.207435 ","24560","294","0","0","7/17/2022 12:00:00 AM","2019","108277","NYTIMES-USCENSUS"
"7/18/2022 12:00:00 AM","Andrews County","Texas","South","West South Central","48003","32.312258","-102.640206 ","4076","72","1","0","7/17/2022 12:00:00 AM","2019","18705","NYTIMES-USCENSUS"
"7/18/2022 12:00:00 AM","Andrew County","Missouri","Midwest","West North Central","29003","39.988863","-94.803551 ","5027","59","0","0","7/17/2022 12:00:00 AM","2019","17712","NYTIMES-USCENSUS"
"7/18/2022 12:00:00 AM","Anderson County","Tennessee","South","East South Central","47001","36.116731","-84.195418 ","23251","349","0","0","7/17/2022 12:00:00 AM","2019","76978","NYTIMES-USCENSUS"
"7/18/2022 12:00:00 AM","Amite County","Mississippi","South","East South Central","28005","31.203933","-90.795542 ","3434","69","0","0","7/17/2022 12:00:00 AM","2019","12297","NYTIMES-USCENSUS"
"7/18/2022 12:00:00 AM","Amherst County","Virginia","South","South Atlantic","51009","37.629304","-79.154667 ","7998","93","31","0","7/17/2022 12:00:00 AM","2019","31605","NYTIMES-USCENSUS"
"7/18/2022 12:00:00 AM","Amelia County","Virginia","South","South Atlantic","51007","37.331927","-77.977462 ","2900","59","11","0","7/17/2022 12:00:00 AM","2019","13145","NYTIMES-USCENSUS"
"7/18/2022 12:00:00 AM","Amador County","California","West","Pacific","06005","38.443549","-120.653858 ","10239","87","0","0","7/17/2022 12:00:00 AM","2019","39752","NYTIMES-USCENSUS"
"7/18/2022 12:00:00 AM","Alpine County","California","West","Pacific","06003","38.621783","-119.798352 ","131","0","0","0","7/17/2022 12:00:00 AM","2019","1129","NYTIMES-USCENSUS"
"7/18/2022 12:00:00 AM","Alpena County","Michigan","Midwest","East North Central","26007","44.894954","-83.426574 ","5939","142","0","0","7/17/2022 12:00:00 AM","2019","28405","NYTIMES-USCENSUS"
"7/18/2022 12:00:00 AM","Allendale County","South Carolina","South","South Atlantic","45005","32.979757","-81.363265 ","2161","24","0","0","7/17/2022 12:00:00 AM","2019","8688","NYTIMES-USCENSUS"
"7/18/2022 12:00:00 AM","Allen Parish","Louisiana","South","West South Central","22003","30.652744","-92.819605 ","8264","143","19","0","7/17/2022 12:00:00 AM","2019","25627","NYTIMES-USCENSUS"
"7/18/2022 12:00:00 AM","Colquitt County","Georgia","South","South Atlantic","13071","31.189707","-83.769773 ","12199","249","0","0","7/17/2022 12:00:00 AM","2019","45600","NYTIMES-USCENSUS"
"7/18/2022 12:00:00 AM","Colorado County","Texas","South","West South Central","48089","29.596296","-96.508935 ","4016","66","6","0","7/17/2022 12:00:00 AM","2019","21493","NYTIMES-USCENSUS"
"7/18/2022 12:00:00 AM","Cerro Gordo County","Iowa","Midwest","West North Central","19033","43.074975","-93.250965 ","11583","171","0","0","7/17/2022 12:00:00 AM","2019","42450","NYTIMES-USCENSUS"
"7/18/2022 12:00:00 AM","Centre County","Pennsylvania","Northeast","Middle Atlantic","42027","40.909128","-77.847877 ","38260","361","0","0","7/17/2022 12:00:00 AM","2019","162385","NYTIMES-USCENSUS"
"7/18/2022 12:00:00 AM","Cedar County","Iowa","Midwest","West North Central","19031","41.77236","-91.132611 ","4420","36","0","0","7/17/2022 12:00:00 AM","2019","18627","NYTIMES-USCENSUS"
"7/18/2022 12:00:00 AM","Cecil County","Maryland","South","South Atlantic","24015","39.562354","-75.941585 ","17246","262","12","0","7/17/2022 12:00:00 AM","2019","102855","NYTIMES-USCENSUS"
"7/18/2022 12:00:00 AM","Cayuga County","New York","Northeast","Middle Atlantic","36011","43.008546","-76.574587 ","17983","161","7","0","7/17/2022 12:00:00 AM","2019","76576","NYTIMES-USCENSUS"
"7/18/2022 12:00:00 AM","Cattaraugus County","New York","Northeast","Middle Atlantic","36009","42.239099","-78.662332 ","17000","226","3","0","7/17/2022 12:00:00 AM","2019","76117","NYTIMES-USCENSUS"
"7/18/2022 12:00:00 AM","Catron County","New Mexico","West","Mountain","35003","33.901621","-108.391928 ","444","20","1","3","7/17/2022 12:00:00 AM","2019","3527","NYTIMES-USCENSUS"
"7/18/2022 12:00:00 AM","Catoosa County","Georgia","South","South Atlantic","13047","34.900212","-85.139385 ","15460","180","-1","0","7/17/2022 12:00:00 AM","2019","67580","NYTIMES-USCENSUS"
"7/18/2022 12:00:00 AM","Catawba County","North Carolina","South","South Atlantic","37035","35.661883","-81.214906 ","50901","616","0","0","7/17/2022 12:00:00 AM","2019","159551","NYTIMES-USCENSUS"
"7/18/2022 12:00:00 AM","Catahoula Parish","Louisiana","South","West South Central","22025","31.666517","-91.846703 ","2821","57","14","0","7/17/2022 12:00:00 AM","2019","9494","NYTIMES-USCENSUS"
"7/18/2022 12:00:00 AM","Caswell County","North Carolina","South","South Atlantic","37033","36.394298","-79.339609 ","5771","53","0","0","7/17/2022 12:00:00 AM","2019","22604","NYTIMES-USCENSUS"
"7/18/2022 12:00:00 AM","Castro County","Texas","South","West South Central","48069","34.533621","-102.258786 ","2384","47","0","0","7/17/2022 12:00:00 AM","2019","7530","NYTIMES-USCENSUS"
"7/18/2022 12:00:00 AM","Cassia County","Idaho","West","Mountain","16031","42.282313","-113.626328 ","5127","53","-2","0","7/17/2022 12:00:00 AM","2019","24030","NYTIMES-USCENSUS"
"7/18/2022 12:00:00 AM","Cass County","North Dakota","Midwest","West North Central","38017","46.927003","-97.252375 ","63065","333","0","0","7/17/2022 12:00:00 AM","2019","181923","NYTIMES-USCENSUS"
"7/18/2022 12:00:00 AM","Casey County","Kentucky","South","East South Central","21045","37.321962","-84.92822 ","4381","76","26","0","7/17/2022 12:00:00 AM","2019","16159","NYTIMES-USCENSUS"
"7/18/2022 12:00:00 AM","Cascade County","Montana","West","Mountain","30013","47.316575","-111.350262 ","26544","348","0","0","7/17/2022 12:00:00 AM","2019","81366","NYTIMES-USCENSUS"
"7/18/2022 12:00:00 AM","Carver County","Minnesota","Midwest","West North Central","27019","44.82132","-93.800091 ","29047","120","0","0","7/17/2022 12:00:00 AM","2019","105089","NYTIMES-USCENSUS"
"7/18/2022 12:00:00 AM","Carteret County","North Carolina","South","South Atlantic","37031","34.858343","-76.53586 ","15681","134","0","0","7/17/2022 12:00:00 AM","2019","69473","NYTIMES-USCENSUS"
"7/18/2022 12:00:00 AM","Carter County","Kentucky","South","East South Central","21043","38.314094","-83.038988 ","9409","109","105","0","7/17/2022 12:00:00 AM","2019","26797","NYTIMES-USCENSUS"
"7/18/2022 12:00:00 AM","Carson County","Texas","South","West South Central","48065","35.405496","-101.355356 ","1573","37","0","0","7/17/2022 12:00:00 AM","2019","5926","NYTIMES-USCENSUS"
"7/18/2022 12:00:00 AM","Carson City","Nevada","West","Mountain","32510","39.15306","-119.747368 ","15976","224","0","0","7/17/2022 12:00:00 AM","2019","55916","NYTIMES-USCENSUS"
"7/18/2022 12:00:00 AM","Carroll County","Mississippi","South","East South Central","28015","33.440795","-89.918887 ","2716","55","0","0","7/17/2022 12:00:00 AM","2019","9947","NYTIMES-USCENSUS"
"7/18/2022 12:00:00 AM","Caroline County","Maryland","South","South Atlantic","24011","38.871531","-75.831662 ","6484","81","5","0","7/17/2022 12:00:00 AM","2019","33406","NYTIMES-USCENSUS"
"7/18/2022 12:00:00 AM","Carlton County","Minnesota","Midwest","West North Central","27017","46.603818","-92.671044 ","9918","102","0","0","7/17/2022 12:00:00 AM","2019","35871","NYTIMES-USCENSUS"
"7/18/2022 12:00:00 AM","Carlisle County","Kentucky","South","East South Central","21039","36.85718","-88.976614 ","1157","20","11","0","7/17/2022 12:00:00 AM","2019","4760","NYTIMES-USCENSUS"
"7/18/2022 12:00:00 AM","Caribou County","Idaho","West","Mountain","16029","42.786072","-111.544273 ","1528","29","2","0","7/17/2022 12:00:00 AM","2019","7155","NYTIMES-USCENSUS"
"7/18/2022 12:00:00 AM","Carbon County","Wyoming","West","Mountain","56007","41.70359","-106.933153 ","4869","52","0","0","7/17/2022 12:00:00 AM","2019","14800","NYTIMES-USCENSUS"
"7/18/2022 12:00:00 AM","Cape May County","New Jersey","Northeast","Middle Atlantic","34009","39.085841","-74.846354 ","25275","311","29","0","7/17/2022 12:00:00 AM","2019","92039","NYTIMES-USCENSUS"
"7/18/2022 12:00:00 AM","Cape Girardeau County","Missouri","Midwest","West North Central","29031","37.384141","-89.685658 ","20037","247","0","0","7/17/2022 12:00:00 AM","2019","78871","NYTIMES-USCENSUS"
"7/18/2022 12:00:00 AM","Bossier Parish","Louisiana","South","West South Central","22015","32.698481","-93.626561 ","42352","498","167","0","7/17/2022 12:00:00 AM","2019","127039","NYTIMES-USCENSUS"
"7/18/2022 12:00:00 AM","Bosque County","Texas","South","West South Central","48035","31.900819","-97.637641 ","4281","70","2","0","7/17/2022 12:00:00 AM","2019","18685","NYTIMES-USCENSUS"
"7/18/2022 12:00:00 AM","Boone County","Arkansas","South","West South Central","05009","36.304299","-93.079236 ","9961","182","4","1","7/17/2022 12:00:00 AM","2019","37432","NYTIMES-USCENSUS"
"7/18/2022 12:00:00 AM","Bonneville County","Idaho","West","Mountain","16019","43.395171","-111.621878 ","32281","289","73","0","7/17/2022 12:00:00 AM","2019","119062","NYTIMES-USCENSUS"
"7/18/2022 12:00:00 AM","Bonner County","Idaho","West","Mountain","16017","48.316796","-116.612362 ","9378","190","9","0","7/17/2022 12:00:00 AM","2019","45739","NYTIMES-USCENSUS"
"7/18/2022 12:00:00 AM","Bond County","Illinois","Midwest","East North Central","17005","38.885924","-89.436592 ","4659","37","10","0","7/17/2022 12:00:00 AM","2019","16426","NYTIMES-USCENSUS"
"7/18/2022 12:00:00 AM","Bon Homme County","South Dakota","Midwest","West North Central","46009","42.985799","-97.884199 ","2323","39","0","0","7/17/2022 12:00:00 AM","2019","6901","NYTIMES-USCENSUS"
"7/18/2022 12:00:00 AM","Bollinger County","Missouri","Midwest","West North Central","29017","37.318427","-90.024645 ","2769","43","0","0","7/17/2022 12:00:00 AM","2019","12133","NYTIMES-USCENSUS"
"7/18/2022 12:00:00 AM","Bolivar County","Mississippi","South","East South Central","28011","33.799139","-90.88412 ","9923","180","0","0","7/17/2022 12:00:00 AM","2019","30628","NYTIMES-USCENSUS"
"7/18/2022 12:00:00 AM","Blue Earth County","Minnesota","Midwest","West North Central","27013","44.03371","-94.064012 ","19163","105","0","0","7/17/2022 12:00:00 AM","2019","67653","NYTIMES-USCENSUS"
"7/18/2022 12:00:00 AM","Blount County","Alabama","South","East South Central","01009","33.977358","-86.56644 ","15747","247","48","0","7/17/2022 12:00:00 AM","2019","57826","NYTIMES-USCENSUS"
"7/18/2022 12:00:00 AM","Northwest Arctic Borough","Alaska","West","Pacific","02188","67.005066","-160.021086 ","5120","14","0","0","7/17/2022 12:00:00 AM","2019","7621","NYTIMES-USCENSUS"
"7/18/2022 12:00:00 AM","Northumberland County","Virginia","South","South Atlantic","51133","37.856974","-76.379687 ","2354","44","13","0","7/17/2022 12:00:00 AM","2019","12095","NYTIMES-USCENSUS"
"7/18/2022 12:00:00 AM","Northampton County","North Carolina","South","South Atlantic","37131","36.421774","-77.398352 ","4755","87","0","0","7/17/2022 12:00:00 AM","2019","19483","NYTIMES-USCENSUS"
"7/18/2022 12:00:00 AM","North Slope Borough","Alaska","West","Pacific","02185","69.449343","-153.47283 ","4831","14","0","0","7/17/2022 12:00:00 AM","2019","9832","NYTIMES-USCENSUS"
"7/18/2022 12:00:00 AM","Norman County","Minnesota","Midwest","West North Central","27107","47.329453","-96.463776 ","1586","14","0","0","7/17/2022 12:00:00 AM","2019","6375","NYTIMES-USCENSUS"
"7/18/2022 12:00:00 AM","Norfolk County","Massachusetts","Northeast","New England","25021","42.171738","-71.18111 ","152950","1977","0","0","7/17/2022 12:00:00 AM","2019","706775","NYTIMES-USCENSUS"
"7/18/2022 12:00:00 AM","Norfolk city","Virginia","South","South Atlantic","51710","36.923015","-76.244641 ","46959","482","154","0","7/17/2022 12:00:00 AM","2019","242742","NYTIMES-USCENSUS"
"7/18/2022 12:00:00 AM","Nome Census Area","Alaska","West","Pacific","02180","64.783686","-164.188912 ","6360","5","0","0","7/17/2022 12:00:00 AM","2019","10004","NYTIMES-USCENSUS"
"7/18/2022 12:00:00 AM","Nolan County","Texas","South","West South Central","48353","32.312338","-100.418108 ","3192","99","1","0","7/17/2022 12:00:00 AM","2019","14714","NYTIMES-USCENSUS"
"7/18/2022 12:00:00 AM","Nodaway County","Missouri","Midwest","West North Central","29147","40.361136","-94.883146 ","6360","46","5","0","7/17/2022 12:00:00 AM","2019","22092","NYTIMES-USCENSUS"
"7/18/2022 12:00:00 AM","Nobles County","Minnesota","Midwest","West North Central","27105","43.677686","-95.763132 ","7164","60","0","0","7/17/2022 12:00:00 AM","2019","21629","NYTIMES-USCENSUS"
