"monitor_date","county","state_name","region","subregion","fips","latitude","longitude","case_count_to_date","death_count_to_date","case_count","death_count","previous_monitor_date","population_year","population","source"
"10/19/2022 12:00:00 AM","Tuscarawas County","Ohio","Midwest","East North Central","39157","40.44749","-81.471105 ","23786","519","0","0","10/18/2022 12:00:00 AM","2019","91987","NYTIMES-USCENSUS"
"10/19/2022 12:00:00 AM","Tuscaloosa County","Alabama","South","East South Central","01125","33.29022","-87.522783 ","66022","826","0","0","10/18/2022 12:00:00 AM","2019","209355","NYTIMES-USCENSUS"
"10/19/2022 12:00:00 AM","Turner County","South Dakota","Midwest","West North Central","46125","43.30867","-97.150185 ","2120","63","0","0","10/18/2022 12:00:00 AM","2019","8384","NYTIMES-USCENSUS"
"10/19/2022 12:00:00 AM","Tuolumne County","California","West","Pacific","06109","38.021434","-119.964733 ","16826","198","0","0","10/18/2022 12:00:00 AM","2019","54478","NYTIMES-USCENSUS"
"10/19/2022 12:00:00 AM","Tunica County","Mississippi","South","East South Central","28143","34.652201","-90.37177 ","2874","48","0","0","10/18/2022 12:00:00 AM","2019","9632","NYTIMES-USCENSUS"
"10/19/2022 12:00:00 AM","Tulsa County","Oklahoma","South","West South Central","40143","36.120318","-95.941813 ","198176","2254","0","0","10/18/2022 12:00:00 AM","2019","651552","NYTIMES-USCENSUS"
"10/19/2022 12:00:00 AM","Tulare County","California","West","Pacific","06107","36.228834","-118.781055 ","158409","1538","0","0","10/18/2022 12:00:00 AM","2019","466195","NYTIMES-USCENSUS"
"10/19/2022 12:00:00 AM","Tucker County","West Virginia","South","South Atlantic","54093","39.111175","-79.559968 ","2299","38","3","0","10/18/2022 12:00:00 AM","2019","6839","NYTIMES-USCENSUS"
"10/19/2022 12:00:00 AM","Trumbull County","Ohio","Midwest","East North Central","39155","41.306374","-80.7704 ","49014","977","0","0","10/18/2022 12:00:00 AM","2019","197974","NYTIMES-USCENSUS"
"10/19/2022 12:00:00 AM","Trousdale County","Tennessee","South","East South Central","47169","36.39303","-86.156691 ","4538","47","7","0","10/18/2022 12:00:00 AM","2019","11284","NYTIMES-USCENSUS"
"10/19/2022 12:00:00 AM","Troup County","Georgia","South","South Atlantic","13285","33.034482","-85.02836 ","17959","403","22","2","10/18/2022 12:00:00 AM","2019","69922","NYTIMES-USCENSUS"
"10/19/2022 12:00:00 AM","Tripp County","South Dakota","Midwest","West North Central","46123","43.349729","-99.876219 ","1569","27","1","0","10/18/2022 12:00:00 AM","2019","5441","NYTIMES-USCENSUS"
"10/19/2022 12:00:00 AM","Trinity County","Texas","South","West South Central","48455","31.096675","-95.151687 ","3095","75","0","0","10/18/2022 12:00:00 AM","2019","14651","NYTIMES-USCENSUS"
"10/19/2022 12:00:00 AM","Trimble County","Kentucky","South","East South Central","21223","38.62004","-85.351208 ","2543","45","0","0","10/18/2022 12:00:00 AM","2019","8471","NYTIMES-USCENSUS"
"10/19/2022 12:00:00 AM","Trigg County","Kentucky","South","East South Central","21221","36.807681","-87.858652 ","4796","47","0","0","10/18/2022 12:00:00 AM","2019","14651","NYTIMES-USCENSUS"
"10/19/2022 12:00:00 AM","Treutlen County","Georgia","South","South Atlantic","13283","32.409586","-82.570882 ","1797","68","2","0","10/18/2022 12:00:00 AM","2019","6901","NYTIMES-USCENSUS"
"10/19/2022 12:00:00 AM","Trempealeau County","Wisconsin","Midwest","East North Central","55121","44.30305","-91.358867 ","9480","67","3","0","10/18/2022 12:00:00 AM","2019","29649","NYTIMES-USCENSUS"
"10/19/2022 12:00:00 AM","Trego County","Kansas","Midwest","West North Central","20195","38.921302","-99.865423 ","854","13","2","0","10/18/2022 12:00:00 AM","2019","2803","NYTIMES-USCENSUS"
"10/19/2022 12:00:00 AM","Travis County","Texas","South","West South Central","48453","30.239513","-97.69127 ","277113","1799","130","0","10/18/2022 12:00:00 AM","2019","1273954","NYTIMES-USCENSUS"
"10/19/2022 12:00:00 AM","Traverse County","Minnesota","Midwest","West North Central","27155","45.769935","-96.474832 ","961","11","0","0","10/18/2022 12:00:00 AM","2019","3259","NYTIMES-USCENSUS"
"10/19/2022 12:00:00 AM","Transylvania County","North Carolina","South","South Atlantic","37175","35.210103","-82.816666 ","7675","84","0","0","10/18/2022 12:00:00 AM","2019","34385","NYTIMES-USCENSUS"
"10/19/2022 12:00:00 AM","Traill County","North Dakota","Midwest","West North Central","38097","47.446215","-97.164754 ","2357","26","0","0","10/18/2022 12:00:00 AM","2019","8036","NYTIMES-USCENSUS"
"10/19/2022 12:00:00 AM","Towns County","Georgia","South","South Atlantic","13281","34.902529","-83.732264 ","2736","118","10","0","10/18/2022 12:00:00 AM","2019","12037","NYTIMES-USCENSUS"
"10/19/2022 12:00:00 AM","Torrance County","New Mexico","West","Mountain","35057","34.554978","-105.890557 ","3559","59","1","0","10/18/2022 12:00:00 AM","2019","15461","NYTIMES-USCENSUS"
"10/19/2022 12:00:00 AM","Stanly County","North Carolina","South","South Atlantic","37167","35.310449","-80.254374 ","22453","282","0","0","10/18/2022 12:00:00 AM","2019","62806","NYTIMES-USCENSUS"
"10/19/2022 12:00:00 AM","Stanley County","South Dakota","Midwest","West North Central","46117","44.413984","-100.747822 ","696","8","0","0","10/18/2022 12:00:00 AM","2019","3098","NYTIMES-USCENSUS"
"10/19/2022 12:00:00 AM","Stanislaus County","California","West","Pacific","06099","37.562316","-121.002831 ","159602","1782","0","0","10/18/2022 12:00:00 AM","2019","550660","NYTIMES-USCENSUS"
"10/19/2022 12:00:00 AM","Stafford County","Kansas","Midwest","West North Central","20185","38.03563","-98.719889 ","1320","31","2","1","10/18/2022 12:00:00 AM","2019","4156","NYTIMES-USCENSUS"
"10/19/2022 12:00:00 AM","St. Tammany Parish","Louisiana","South","West South Central","22103","30.410022","-89.951962 ","86216","911","42","0","10/18/2022 12:00:00 AM","2019","260419","NYTIMES-USCENSUS"
"10/19/2022 12:00:00 AM","St. Mary's County","Maryland","South","South Atlantic","24037","38.223077","-76.534487 ","22821","234","14","1","10/18/2022 12:00:00 AM","2019","113510","NYTIMES-USCENSUS"
"10/19/2022 12:00:00 AM","St. Mary Parish","Louisiana","South","West South Central","22101","29.629349","-91.463804 ","14667","281","2","0","10/18/2022 12:00:00 AM","2019","49348","NYTIMES-USCENSUS"
"10/19/2022 12:00:00 AM","St. Martin Parish","Louisiana","South","West South Central","22099","30.121433","-91.611481 ","14542","197","2","0","10/18/2022 12:00:00 AM","2019","53431","NYTIMES-USCENSUS"
"10/19/2022 12:00:00 AM","St. Lucie County","Florida","South","South Atlantic","12111","27.379814","-80.443536 ","90837","1349","0","0","10/18/2022 12:00:00 AM","2019","328297","NYTIMES-USCENSUS"
"10/19/2022 12:00:00 AM","St. Louis County","Missouri","Midwest","West North Central","29189","38.640688","-90.446073 ","273092","3546","0","0","10/18/2022 12:00:00 AM","2019","994205","NYTIMES-USCENSUS"
"10/19/2022 12:00:00 AM","St. Louis city","Missouri","Midwest","West North Central","29510","38.635699","-90.244582 ","70946","823","0","0","10/18/2022 12:00:00 AM","2019","300576","NYTIMES-USCENSUS"
"10/19/2022 12:00:00 AM","St. Lawrence County","New York","Northeast","Middle Atlantic","36089","44.488112","-75.074311 ","25172","209","27","0","10/18/2022 12:00:00 AM","2019","107740","NYTIMES-USCENSUS"
"10/19/2022 12:00:00 AM","St. Landry Parish","Louisiana","South","West South Central","22097","30.583441","-91.989274 ","26167","426","8","0","10/18/2022 12:00:00 AM","2019","82124","NYTIMES-USCENSUS"
"10/19/2022 12:00:00 AM","St. Joseph County","Michigan","Midwest","East North Central","26149","41.911488","-85.52287 ","15421","223","0","0","10/18/2022 12:00:00 AM","2019","60964","NYTIMES-USCENSUS"
"10/19/2022 12:00:00 AM","St. Johns County","Florida","South","South Atlantic","12109","29.890487","-81.40004 ","74282","645","0","0","10/18/2022 12:00:00 AM","2019","264672","NYTIMES-USCENSUS"
"10/19/2022 12:00:00 AM","St. John the Baptist Parish","Louisiana","South","West South Central","22095","30.144068","-90.49096 ","12550","187","5","0","10/18/2022 12:00:00 AM","2019","42837","NYTIMES-USCENSUS"
"10/19/2022 12:00:00 AM","St. James Parish","Louisiana","South","West South Central","22093","30.024777","-90.793956 ","6940","78","1","0","10/18/2022 12:00:00 AM","2019","21096","NYTIMES-USCENSUS"
"10/19/2022 12:00:00 AM","St. Helena Parish","Louisiana","South","West South Central","22091","30.822539","-90.708307 ","2137","25","0","0","10/18/2022 12:00:00 AM","2019","10132","NYTIMES-USCENSUS"
"10/19/2022 12:00:00 AM","Adams County","Mississippi","South","East South Central","28001","31.486224","-91.351797 ","8304","149","0","0","10/18/2022 12:00:00 AM","2019","30693","NYTIMES-USCENSUS"
"10/19/2022 12:00:00 AM","Adams County","Wisconsin","Midwest","East North Central","55001","43.973757","-89.767228 ","5474","66","5","0","10/18/2022 12:00:00 AM","2019","20220","NYTIMES-USCENSUS"
"10/19/2022 12:00:00 AM","Adams County","Iowa","Midwest","West North Central","19003","41.021656","-94.696906 ","901","14","3","0","10/18/2022 12:00:00 AM","2019","3602","NYTIMES-USCENSUS"
"10/19/2022 12:00:00 AM","Adams County","Idaho","West","Mountain","16003","44.877004","-116.461624 ","770","16","0","0","10/18/2022 12:00:00 AM","2019","4294","NYTIMES-USCENSUS"
"10/19/2022 12:00:00 AM","Adams County","Illinois","Midwest","East North Central","17001","39.986052","-91.194961 ","25991","249","0","0","10/18/2022 12:00:00 AM","2019","65435","NYTIMES-USCENSUS"
"10/19/2022 12:00:00 AM","Adams County","Pennsylvania","Northeast","Middle Atlantic","42001","39.869471","-77.21773 ","29137","396","106","1","10/18/2022 12:00:00 AM","2019","103009","NYTIMES-USCENSUS"
"10/19/2022 12:00:00 AM","Adams County","Ohio","Midwest","East North Central","39001","38.834468","-83.478082 ","8315","156","0","0","10/18/2022 12:00:00 AM","2019","27698","NYTIMES-USCENSUS"
"10/19/2022 12:00:00 AM","Adams County","Washington","West","Pacific","53001","47.011238","-118.512861 ","5532","43","2","0","10/18/2022 12:00:00 AM","2019","19983","NYTIMES-USCENSUS"
"10/19/2022 12:00:00 AM","Adams County","Colorado","West","Mountain","08001","39.874325","-104.331872 ","160695","1464","125","0","10/18/2022 12:00:00 AM","2019","517421","NYTIMES-USCENSUS"
"10/19/2022 12:00:00 AM","Adams County","Nebraska","Midwest","West North Central","31001","40.520632","-98.500044 ","7281","90","0","0","10/18/2022 12:00:00 AM","2019","31363","NYTIMES-USCENSUS"
"10/19/2022 12:00:00 AM","Adair County","Missouri","Midwest","West North Central","29001","40.190666","-92.603592 ","6328","69","0","0","10/18/2022 12:00:00 AM","2019","25343","NYTIMES-USCENSUS"
"10/19/2022 12:00:00 AM","Adair County","Oklahoma","South","West South Central","40001","35.898043","-94.651026 ","9297","78","0","0","10/18/2022 12:00:00 AM","2019","22194","NYTIMES-USCENSUS"
"10/19/2022 12:00:00 AM","Adair County","Iowa","Midwest","West North Central","19001","41.328528","-94.478164 ","1756","51","1","0","10/18/2022 12:00:00 AM","2019","7152","NYTIMES-USCENSUS"
"10/19/2022 12:00:00 AM","Williamsburg County","South Carolina","South","South Atlantic","45089","33.626462","-79.716474 ","9726","150","0","0","10/18/2022 12:00:00 AM","2019","30368","NYTIMES-USCENSUS"
"10/19/2022 12:00:00 AM","Williamsburg city","Virginia","South","South Atlantic","51830","37.269481","-76.708193 ","2145","23","3","0","10/18/2022 12:00:00 AM","2019","14954","NYTIMES-USCENSUS"
"10/19/2022 12:00:00 AM","Williams County","North Dakota","Midwest","West North Central","38105","48.355765","-103.501333 ","11690","68","0","0","10/18/2022 12:00:00 AM","2019","37589","NYTIMES-USCENSUS"
"10/19/2022 12:00:00 AM","Willacy County","Texas","South","West South Central","48489","26.481861","-97.594731 ","8327","136","6","0","10/18/2022 12:00:00 AM","2019","21358","NYTIMES-USCENSUS"
"10/19/2022 12:00:00 AM","Will County","Illinois","Midwest","East North Central","17197","41.448474","-87.978456 ","201388","1701","33","1","10/18/2022 12:00:00 AM","2019","690743","NYTIMES-USCENSUS"
"10/19/2022 12:00:00 AM","Wilkinson County","Georgia","South","South Atlantic","13319","32.804266","-83.175512 ","2565","63","1","0","10/18/2022 12:00:00 AM","2019","8954","NYTIMES-USCENSUS"
"10/19/2022 12:00:00 AM","Wilkin County","Minnesota","Midwest","West North Central","27167","46.362335","-96.476657 ","1843","23","0","0","10/18/2022 12:00:00 AM","2019","6207","NYTIMES-USCENSUS"
"10/19/2022 12:00:00 AM","Wilkes County","North Carolina","South","South Atlantic","37193","36.208883","-81.166095 ","21107","288","0","0","10/18/2022 12:00:00 AM","2019","68412","NYTIMES-USCENSUS"
"10/19/2022 12:00:00 AM","Wilcox County","Alabama","South","East South Central","01131","31.990082","-87.304935 ","3445","48","0","0","10/18/2022 12:00:00 AM","2019","10373","NYTIMES-USCENSUS"
"10/19/2022 12:00:00 AM","Wilbarger County","Texas","South","West South Central","48487","34.08492","-99.24244 ","3965","90","0","0","10/18/2022 12:00:00 AM","2019","12769","NYTIMES-USCENSUS"
"10/19/2022 12:00:00 AM","Wicomico County","Maryland","South","South Atlantic","24045","38.36737","-75.632083 ","23255","346","13","0","10/18/2022 12:00:00 AM","2019","103609","NYTIMES-USCENSUS"
"10/19/2022 12:00:00 AM","Wichita County","Texas","South","West South Central","48485","33.988212","-98.70801 ","38070","704","82","1","10/18/2022 12:00:00 AM","2019","132230","NYTIMES-USCENSUS"
"10/19/2022 12:00:00 AM","Whitman County","Washington","West","Pacific","53075","46.905944","-117.53539 ","9821","98","1","0","10/18/2022 12:00:00 AM","2019","50104","NYTIMES-USCENSUS"
"10/19/2022 12:00:00 AM","Whitley County","Indiana","Midwest","East North Central","18183","41.136426","-85.501892 ","10764","86","23","0","10/18/2022 12:00:00 AM","2019","33964","NYTIMES-USCENSUS"
"10/19/2022 12:00:00 AM","Whitfield County","Georgia","South","South Atlantic","13313","34.801726","-84.968541 ","37975","471","-10","0","10/18/2022 12:00:00 AM","2019","104628","NYTIMES-USCENSUS"
"10/19/2022 12:00:00 AM","Whiteside County","Illinois","Midwest","East North Central","17195","41.750673","-89.911005 ","18386","281","2","0","10/18/2022 12:00:00 AM","2019","55175","NYTIMES-USCENSUS"
"10/19/2022 12:00:00 AM","White Pine County","Nevada","West","Mountain","32033","39.418176","-114.900565 ","1728","23","1","0","10/18/2022 12:00:00 AM","2019","9580","NYTIMES-USCENSUS"
"10/19/2022 12:00:00 AM","White County","Arkansas","South","West South Central","05145","35.255118","-91.753034 ","25694","326","25","0","10/18/2022 12:00:00 AM","2019","78753","NYTIMES-USCENSUS"
"10/19/2022 12:00:00 AM","Wheatland County","Montana","West","Mountain","30107","46.496967","-109.857684 ","428","14","0","0","10/18/2022 12:00:00 AM","2019","2126","NYTIMES-USCENSUS"
"10/19/2022 12:00:00 AM","Whatcom County","Washington","West","Pacific","53073","48.842653","-121.836432 ","46948","335","36","1","10/18/2022 12:00:00 AM","2019","229247","NYTIMES-USCENSUS"
"10/19/2022 12:00:00 AM","Wharton County","Texas","South","West South Central","48481","29.27848","-96.229674 ","10905","224","7","0","10/18/2022 12:00:00 AM","2019","41556","NYTIMES-USCENSUS"
"10/19/2022 12:00:00 AM","Wexford County","Michigan","Midwest","East North Central","26165","44.331375","-85.570046 ","8252","120","0","0","10/18/2022 12:00:00 AM","2019","33631","NYTIMES-USCENSUS"
"10/19/2022 12:00:00 AM","Wetzel County","West Virginia","South","South Atlantic","54103","39.59818","-80.635399 ","5198","91","1","0","10/18/2022 12:00:00 AM","2019","15065","NYTIMES-USCENSUS"
"10/19/2022 12:00:00 AM","Weston County","Wyoming","West","Mountain","56045","43.846213","-104.57002 ","1821","21","0","0","10/18/2022 12:00:00 AM","2019","6927","NYTIMES-USCENSUS"
"10/19/2022 12:00:00 AM","Westmoreland County","Virginia","South","South Atlantic","51193","38.109311","-76.803933 ","3883","57","1","0","10/18/2022 12:00:00 AM","2019","18015","NYTIMES-USCENSUS"
"10/19/2022 12:00:00 AM","Westchester County","New York","Northeast","Middle Atlantic","36119","41.152686","-73.745753 ","309063","2847","230","1","10/18/2022 12:00:00 AM","2019","967506","NYTIMES-USCENSUS"
"10/19/2022 12:00:00 AM","Tyler County","Texas","South","West South Central","48457","30.769295","-94.375656 ","4717","88","16","0","10/18/2022 12:00:00 AM","2019","21672","NYTIMES-USCENSUS"
"10/19/2022 12:00:00 AM","Twin Falls County","Idaho","West","Mountain","16083","42.352309","-114.665639 ","27354","307","35","0","10/18/2022 12:00:00 AM","2019","86878","NYTIMES-USCENSUS"
"10/19/2022 12:00:00 AM","Twiggs County","Georgia","South","South Atlantic","13289","32.665847","-83.425879 ","1766","73","-1","0","10/18/2022 12:00:00 AM","2019","8120","NYTIMES-USCENSUS"
"10/19/2022 12:00:00 AM","Tuscola County","Michigan","Midwest","East North Central","26157","43.487902","-83.436618 ","14940","298","0","0","10/18/2022 12:00:00 AM","2019","52245","NYTIMES-USCENSUS"
"10/19/2022 12:00:00 AM","Powhatan County","Virginia","South","South Atlantic","51145","37.549404","-77.912855 ","6038","68","10","0","10/18/2022 12:00:00 AM","2019","29652","NYTIMES-USCENSUS"
"10/19/2022 12:00:00 AM","Poweshiek County","Iowa","Midwest","West North Central","19157","41.684642","-92.522934 ","4373","63","12","0","10/18/2022 12:00:00 AM","2019","18504","NYTIMES-USCENSUS"
"10/19/2022 12:00:00 AM","Power County","Idaho","West","Mountain","16077","42.694126","-112.844407 ","1626","21","1","0","10/18/2022 12:00:00 AM","2019","7681","NYTIMES-USCENSUS"
"10/19/2022 12:00:00 AM","Potter County","Pennsylvania","Northeast","Middle Atlantic","42105","41.748587","-77.894436 ","3673","97","23","0","10/18/2022 12:00:00 AM","2019","16526","NYTIMES-USCENSUS"
"10/19/2022 12:00:00 AM","Pottawattamie County","Iowa","Midwest","West North Central","19155","41.340184","-95.544905 ","26798","333","49","1","10/18/2022 12:00:00 AM","2019","93206","NYTIMES-USCENSUS"
"10/19/2022 12:00:00 AM","Pottawatomie County","Kansas","Midwest","West North Central","20149","39.382187","-96.337113 ","6645","69","19","0","10/18/2022 12:00:00 AM","2019","24383","NYTIMES-USCENSUS"
"10/19/2022 12:00:00 AM","Posey County","Indiana","Midwest","East North Central","18129","38.027614","-87.868653 ","7421","60","12","0","10/18/2022 12:00:00 AM","2019","25427","NYTIMES-USCENSUS"
"10/19/2022 12:00:00 AM","Portsmouth city","Virginia","South","South Atlantic","51740","36.859339","-76.356973 ","24634","351","22","0","10/18/2022 12:00:00 AM","2019","94398","NYTIMES-USCENSUS"
"10/19/2022 12:00:00 AM","Porter County","Indiana","Midwest","East North Central","18127","41.509914","-87.071313 ","44672","592","74","2","10/18/2022 12:00:00 AM","2019","170389","NYTIMES-USCENSUS"
"10/19/2022 12:00:00 AM","Portage County","Wisconsin","Midwest","East North Central","55097","44.476246","-89.49807 ","21492","166","17","0","10/18/2022 12:00:00 AM","2019","70772","NYTIMES-USCENSUS"
"10/19/2022 12:00:00 AM","Poquoson city","Virginia","South","South Atlantic","51735","37.12836","-76.303534 ","2756","31","1","0","10/18/2022 12:00:00 AM","2019","12271","NYTIMES-USCENSUS"
"10/19/2022 12:00:00 AM","Pope County","Illinois","Midwest","East North Central","17151","37.417169","-88.542374 ","1143","9","0","0","10/18/2022 12:00:00 AM","2019","4177","NYTIMES-USCENSUS"
"10/19/2022 12:00:00 AM","Pontotoc County","Oklahoma","South","West South Central","40123","34.721415","-96.69178 ","14991","159","0","0","10/18/2022 12:00:00 AM","2019","38284","NYTIMES-USCENSUS"
"10/19/2022 12:00:00 AM","Pondera County","Montana","West","Mountain","30073","48.228604","-112.220761 ","1384","9","0","0","10/18/2022 12:00:00 AM","2019","5911","NYTIMES-USCENSUS"
"10/19/2022 12:00:00 AM","Polk County","Nebraska","Midwest","West North Central","31143","41.187925","-97.570663 ","1274","26","0","0","10/18/2022 12:00:00 AM","2019","5213","NYTIMES-USCENSUS"
"10/19/2022 12:00:00 AM","Pointe Coupee Parish","Louisiana","South","West South Central","22077","30.708319","-91.604621 ","7439","96","2","0","10/18/2022 12:00:00 AM","2019","21730","NYTIMES-USCENSUS"
"10/19/2022 12:00:00 AM","Poinsett County","Arkansas","South","West South Central","05111","35.56887","-90.681104 ","9408","136","7","0","10/18/2022 12:00:00 AM","2019","23528","NYTIMES-USCENSUS"
"10/19/2022 12:00:00 AM","Pocahontas County","Iowa","Midwest","West North Central","19151","42.734033","-94.678279 ","1836","27","14","0","10/18/2022 12:00:00 AM","2019","6619","NYTIMES-USCENSUS"
"10/19/2022 12:00:00 AM","Plymouth County","Massachusetts","Northeast","New England","25023","41.987196","-70.741942 ","134556","1782","0","0","10/18/2022 12:00:00 AM","2019","521202","NYTIMES-USCENSUS"
"10/19/2022 12:00:00 AM","Plumas County","California","West","Pacific","06063","39.992295","-120.824371 ","4114","13","0","0","10/18/2022 12:00:00 AM","2019","18807","NYTIMES-USCENSUS"
"10/19/2022 12:00:00 AM","Pleasants County","West Virginia","South","South Atlantic","54073","39.368133","-81.161172 ","2375","38","0","0","10/18/2022 12:00:00 AM","2019","7460","NYTIMES-USCENSUS"
"10/19/2022 12:00:00 AM","Platte County","Wyoming","West","Mountain","56031","42.131593","-104.953963 ","2169","43","0","0","10/18/2022 12:00:00 AM","2019","8393","NYTIMES-USCENSUS"
"10/19/2022 12:00:00 AM","Ontonagon County","Michigan","Midwest","East North Central","26131","46.835325","-89.276912 ","1237","43","0","0","10/18/2022 12:00:00 AM","2019","5720","NYTIMES-USCENSUS"
"10/19/2022 12:00:00 AM","Ontario County","New York","Northeast","Middle Atlantic","36069","42.856357","-77.303497 ","24494","199","17","0","10/18/2022 12:00:00 AM","2019","109777","NYTIMES-USCENSUS"
"10/19/2022 12:00:00 AM","Onslow County","North Carolina","South","South Atlantic","37133","34.763109","-77.499469 ","61920","416","0","0","10/18/2022 12:00:00 AM","2019","197938","NYTIMES-USCENSUS"
"10/19/2022 12:00:00 AM","Onondaga County","New York","Northeast","Middle Atlantic","36067","43.006516","-76.196134 ","135849","1139","86","1","10/18/2022 12:00:00 AM","2019","460528","NYTIMES-USCENSUS"
"10/19/2022 12:00:00 AM","Oneida County","New York","Northeast","Middle Atlantic","36065","43.242727","-75.434282 ","65437","838","58","0","10/18/2022 12:00:00 AM","2019","228671","NYTIMES-USCENSUS"
"10/19/2022 12:00:00 AM","Olmsted County","Minnesota","Midwest","West North Central","27109","43.999499","-92.410098 ","50195","203","0","0","10/18/2022 12:00:00 AM","2019","158293","NYTIMES-USCENSUS"
"10/19/2022 12:00:00 AM","Oliver County","North Dakota","Midwest","West North Central","38065","47.118079","-101.33142 ","362","5","0","0","10/18/2022 12:00:00 AM","2019","1959","NYTIMES-USCENSUS"
"10/19/2022 12:00:00 AM","Oldham County","Kentucky","South","East South Central","21185","38.400127","-85.45615 ","21724","156","0","0","10/18/2022 12:00:00 AM","2019","66799","NYTIMES-USCENSUS"
"10/19/2022 12:00:00 AM","Oktibbeha County","Mississippi","South","East South Central","28105","33.422313","-88.876151 ","12927","168","0","0","10/18/2022 12:00:00 AM","2019","49587","NYTIMES-USCENSUS"
"10/19/2022 12:00:00 AM","Okmulgee County","Oklahoma","South","West South Central","40111","35.6435","-95.965947 ","10986","203","0","0","10/18/2022 12:00:00 AM","2019","38465","NYTIMES-USCENSUS"
"10/19/2022 12:00:00 AM","Oklahoma County","Oklahoma","South","West South Central","40109","35.554611","-97.409401 ","230968","2572","0","0","10/18/2022 12:00:00 AM","2019","797434","NYTIMES-USCENSUS"
"10/19/2022 12:00:00 AM","Okfuskee County","Oklahoma","South","West South Central","40107","35.466804","-96.327762 ","3987","64","0","0","10/18/2022 12:00:00 AM","2019","11993","NYTIMES-USCENSUS"
"10/19/2022 12:00:00 AM","Okeechobee County","Florida","South","South Atlantic","12093","27.385592","-80.887388 ","12034","192","0","0","10/18/2022 12:00:00 AM","2019","42168","NYTIMES-USCENSUS"
"10/19/2022 12:00:00 AM","Okanogan County","Washington","West","Pacific","53047","48.548453","-119.742235 ","10049","135","18","0","10/18/2022 12:00:00 AM","2019","42243","NYTIMES-USCENSUS"
"10/19/2022 12:00:00 AM","Okaloosa County","Florida","South","South Atlantic","12091","30.614325","-86.59108 ","59234","736","0","0","10/18/2022 12:00:00 AM","2019","210738","NYTIMES-USCENSUS"
"10/19/2022 12:00:00 AM","Ohio County","Kentucky","South","East South Central","21183","37.477859","-86.844871 ","8569","113","0","0","10/18/2022 12:00:00 AM","2019","23994","NYTIMES-USCENSUS"
"10/19/2022 12:00:00 AM","Oglethorpe County","Georgia","South","South Atlantic","13221","33.866806","-83.074081 ","3624","62","10","0","10/18/2022 12:00:00 AM","2019","15259","NYTIMES-USCENSUS"
"10/19/2022 12:00:00 AM","Ogle County","Illinois","Midwest","East North Central","17141","42.041884","-89.320176 ","16311","141","1","1","10/18/2022 12:00:00 AM","2019","50643","NYTIMES-USCENSUS"
"10/19/2022 12:00:00 AM","Oglala Lakota County","South Dakota","Midwest","West North Central","46102","43.333393","-102.561486 ","4649","61","23","0","10/18/2022 12:00:00 AM","2019","14177","NYTIMES-USCENSUS"
"10/19/2022 12:00:00 AM","Ogemaw County","Michigan","Midwest","East North Central","26129","44.33328","-84.128073 ","4820","112","0","0","10/18/2022 12:00:00 AM","2019","20997","NYTIMES-USCENSUS"
"10/19/2022 12:00:00 AM","St. Francois County","Missouri","Midwest","West North Central","29187","37.810707","-90.473868 ","22056","314","0","0","10/18/2022 12:00:00 AM","2019","67215","NYTIMES-USCENSUS"
"10/19/2022 12:00:00 AM","St. Francis County","Arkansas","South","West South Central","05123","35.022838","-90.751506 ","8228","104","5","0","10/18/2022 12:00:00 AM","2019","24994","NYTIMES-USCENSUS"
"10/19/2022 12:00:00 AM","St. Croix County","Wisconsin","Midwest","East North Central","55109","45.028959","-92.447284 ","29116","157","24","0","10/18/2022 12:00:00 AM","2019","90687","NYTIMES-USCENSUS"
"10/19/2022 12:00:00 AM","St. Clair County","Missouri","Midwest","West North Central","29185","38.04223","-93.77656 ","2440","42","0","0","10/18/2022 12:00:00 AM","2019","9397","NYTIMES-USCENSUS"
"10/19/2022 12:00:00 AM","St. Charles Parish","Louisiana","South","West South Central","22089","29.905722","-90.357855 ","16261","152","4","0","10/18/2022 12:00:00 AM","2019","53100","NYTIMES-USCENSUS"
"10/19/2022 12:00:00 AM","St. Charles County","Missouri","Midwest","West North Central","29183","38.781102","-90.674915 ","121664","998","60","0","10/18/2022 12:00:00 AM","2019","402022","NYTIMES-USCENSUS"
"10/19/2022 12:00:00 AM","St. Bernard Parish","Louisiana","South","West South Central","22087","29.91811","-89.263494 ","13416","117","5","0","10/18/2022 12:00:00 AM","2019","47244","NYTIMES-USCENSUS"
"10/19/2022 12:00:00 AM","Spotsylvania County","Virginia","South","South Atlantic","51177","38.182431","-77.657226 ","33045","321","14","0","10/18/2022 12:00:00 AM","2019","136215","NYTIMES-USCENSUS"
"10/19/2022 12:00:00 AM","Spink County","South Dakota","Midwest","West North Central","46115","44.923772","-98.339615 ","1592","36","3","0","10/18/2022 12:00:00 AM","2019","6376","NYTIMES-USCENSUS"
"10/19/2022 12:00:00 AM","Spencer County","Indiana","Midwest","East North Central","18147","38.009697","-87.010375 ","5792","62","5","0","10/18/2022 12:00:00 AM","2019","20277","NYTIMES-USCENSUS"
"10/19/2022 12:00:00 AM","San Juan County","Washington","West","Pacific","53055","48.50719","-123.103769 ","1850","3","2","0","10/18/2022 12:00:00 AM","2019","17582","NYTIMES-USCENSUS"
"10/19/2022 12:00:00 AM","San Joaquin County","California","West","Pacific","06077","37.934982","-121.272244 ","212375","2322","0","0","10/18/2022 12:00:00 AM","2019","762148","NYTIMES-USCENSUS"
"10/19/2022 12:00:00 AM","San Jacinto County","Texas","South","West South Central","48407","30.574388","-95.163136 ","6481","107","5","1","10/18/2022 12:00:00 AM","2019","28859","NYTIMES-USCENSUS"
"10/19/2022 12:00:00 AM","San Francisco County","California","West","Pacific","06075","37.727239","-123.032229 ","191598","1048","0","0","10/18/2022 12:00:00 AM","2019","881549","NYTIMES-USCENSUS"
"10/19/2022 12:00:00 AM","San Diego County","California","West","Pacific","06073","33.023604","-116.776117 ","998800","5507","0","0","10/18/2022 12:00:00 AM","2019","3338330","NYTIMES-USCENSUS"
"10/19/2022 12:00:00 AM","San Bernardino County","California","West","Pacific","06071","34.856661","-116.181571 ","703279","8148","0","0","10/18/2022 12:00:00 AM","2019","2180085","NYTIMES-USCENSUS"
"10/19/2022 12:00:00 AM","San Benito County","California","West","Pacific","06069","36.611651","-121.085811 ","17201","107","0","0","10/18/2022 12:00:00 AM","2019","62808","NYTIMES-USCENSUS"
"10/19/2022 12:00:00 AM","San Augustine County","Texas","South","West South Central","48405","31.382449","-94.16318 ","1168","45","0","0","10/18/2022 12:00:00 AM","2019","8237","NYTIMES-USCENSUS"
"10/19/2022 12:00:00 AM","Sampson County","North Carolina","South","South Atlantic","37163","34.989298","-78.371261 ","22034","199","0","0","10/18/2022 12:00:00 AM","2019","63531","NYTIMES-USCENSUS"
"10/19/2022 12:00:00 AM","Saluda County","South Carolina","South","South Atlantic","45081","34.005278","-81.727903 ","4372","82","0","0","10/18/2022 12:00:00 AM","2019","20473","NYTIMES-USCENSUS"
"10/19/2022 12:00:00 AM","Salt Lake County","Utah","West","Mountain","49035","40.667883","-111.92424 ","391343","1734","0","0","10/18/2022 12:00:00 AM","2019","1160437","NYTIMES-USCENSUS"
"10/19/2022 12:00:00 AM","Saline County","Arkansas","South","West South Central","05125","34.648525","-92.674463 ","35213","372","28","1","10/18/2022 12:00:00 AM","2019","122437","NYTIMES-USCENSUS"
"10/19/2022 12:00:00 AM","Salem County","New Jersey","Northeast","Middle Atlantic","34033","39.573828","-75.357356 ","17093","259","9","0","10/18/2022 12:00:00 AM","2019","62385","NYTIMES-USCENSUS"
"10/19/2022 12:00:00 AM","Salem city","Virginia","South","South Atlantic","51775","37.285333","-80.055241 ","6820","106","5","0","10/18/2022 12:00:00 AM","2019","25301","NYTIMES-USCENSUS"
"10/19/2022 12:00:00 AM","Saguache County","Colorado","West","Mountain","08109","38.031651","-106.234666 ","1426","12","4","0","10/18/2022 12:00:00 AM","2019","6824","NYTIMES-USCENSUS"
"10/19/2022 12:00:00 AM","Saginaw County","Michigan","Midwest","East North Central","26145","43.328267","-84.05541 ","59098","1019","0","0","10/18/2022 12:00:00 AM","2019","190539","NYTIMES-USCENSUS"
"10/19/2022 12:00:00 AM","Sagadahoc County","Maine","Northeast","New England","23023","43.916845","-69.844227 ","6473","41","19","0","10/18/2022 12:00:00 AM","2019","35856","NYTIMES-USCENSUS"
"10/19/2022 12:00:00 AM","Sacramento County","California","West","Pacific","06067","38.450136","-121.344329 ","381406","3495","0","8","10/18/2022 12:00:00 AM","2019","1552058","NYTIMES-USCENSUS"
"10/19/2022 12:00:00 AM","Sac County","Iowa","Midwest","West North Central","19161","42.387526","-95.105224 ","2751","41","18","0","10/18/2022 12:00:00 AM","2019","9721","NYTIMES-USCENSUS"
"10/19/2022 12:00:00 AM","Sabine Parish","Louisiana","South","West South Central","22085","31.560402","-93.559579 ","7688","122","0","0","10/18/2022 12:00:00 AM","2019","23884","NYTIMES-USCENSUS"
"10/19/2022 12:00:00 AM","Sabine County","Texas","South","West South Central","48403","31.3433","-93.851913 ","1469","90","1","0","10/18/2022 12:00:00 AM","2019","10542","NYTIMES-USCENSUS"
"10/19/2022 12:00:00 AM","Rutland County","Vermont","Northeast","New England","50021","43.580858","-73.038202 ","15864","81","95","1","10/18/2022 12:00:00 AM","2019","58191","NYTIMES-USCENSUS"
"10/19/2022 12:00:00 AM","Rutherford County","North Carolina","South","South Atlantic","37161","35.402747","-81.919582 ","20219","417","0","0","10/18/2022 12:00:00 AM","2019","67029","NYTIMES-USCENSUS"
"10/19/2022 12:00:00 AM","Russell County","Virginia","South","South Atlantic","51167","36.93342","-82.095934 ","8593","125","12","0","10/18/2022 12:00:00 AM","2019","26586","NYTIMES-USCENSUS"
"10/19/2022 12:00:00 AM","Rusk County","Wisconsin","Midwest","East North Central","55107","45.472734","-91.136745 ","3986","61","1","0","10/18/2022 12:00:00 AM","2019","14178","NYTIMES-USCENSUS"
"10/19/2022 12:00:00 AM","Runnels County","Texas","South","West South Central","48399","31.845119","-99.982715 ","2627","69","1","0","10/18/2022 12:00:00 AM","2019","10264","NYTIMES-USCENSUS"
"10/19/2022 12:00:00 AM","Rowan County","North Carolina","South","South Atlantic","37159","35.641355","-80.521721 ","48205","616","0","0","10/18/2022 12:00:00 AM","2019","142088","NYTIMES-USCENSUS"
"10/19/2022 12:00:00 AM","Routt County","Colorado","West","Mountain","08107","40.483664","-106.987702 ","7531","33","3","0","10/18/2022 12:00:00 AM","2019","25638","NYTIMES-USCENSUS"
"10/19/2022 12:00:00 AM","Presidio County","Texas","South","West South Central","48377","30.005891","-104.261619 ","1121","40","1","0","10/18/2022 12:00:00 AM","2019","6704","NYTIMES-USCENSUS"
"10/19/2022 12:00:00 AM","Prentiss County","Mississippi","South","East South Central","28117","34.620566","-88.522184 ","9511","109","0","0","10/18/2022 12:00:00 AM","2019","25126","NYTIMES-USCENSUS"
"10/19/2022 12:00:00 AM","Preble County","Ohio","Midwest","East North Central","39135","39.73881","-84.644758 ","10853","204","0","0","10/18/2022 12:00:00 AM","2019","40882","NYTIMES-USCENSUS"
"10/19/2022 12:00:00 AM","Pratt County","Kansas","Midwest","West North Central","20151","37.647594","-98.74012 ","2109","35","3","0","10/18/2022 12:00:00 AM","2019","9164","NYTIMES-USCENSUS"
"10/19/2022 12:00:00 AM","Grant County","Oklahoma","South","West South Central","40053","36.788254","-97.788151 ","1208","17","0","0","10/18/2022 12:00:00 AM","2019","4333","NYTIMES-USCENSUS"
"10/19/2022 12:00:00 AM","Grant County","Washington","West","Pacific","53025","47.213633","-119.467788 ","31363","265","0","0","10/18/2022 12:00:00 AM","2019","97733","NYTIMES-USCENSUS"
"10/19/2022 12:00:00 AM","Grant County","Indiana","Midwest","East North Central","18053","40.515758","-85.654946 ","19669","374","27","0","10/18/2022 12:00:00 AM","2019","65769","NYTIMES-USCENSUS"
"10/19/2022 12:00:00 AM","Grant County","Minnesota","Midwest","West North Central","27051","45.930743","-96.010699 ","1676","13","0","0","10/18/2022 12:00:00 AM","2019","5972","NYTIMES-USCENSUS"
"10/19/2022 12:00:00 AM","Grand County","Utah","West","Mountain","49019","38.974326","-109.57345 ","2667","6","0","0","10/18/2022 12:00:00 AM","2019","9754","NYTIMES-USCENSUS"
"10/19/2022 12:00:00 AM","Graham County","North Carolina","South","South Atlantic","37075","35.348364","-83.830915 ","2760","31","0","0","10/18/2022 12:00:00 AM","2019","8441","NYTIMES-USCENSUS"
"10/19/2022 12:00:00 AM","Grady County","Oklahoma","South","West South Central","40051","35.021058","-97.88689 ","15778","253","0","0","10/18/2022 12:00:00 AM","2019","55834","NYTIMES-USCENSUS"
"10/19/2022 12:00:00 AM","Gloucester County","New Jersey","Northeast","Middle Atlantic","34015","39.722875","-75.145679 ","84699","1012","67","0","10/18/2022 12:00:00 AM","2019","291636","NYTIMES-USCENSUS"
"10/19/2022 12:00:00 AM","Essex County","New York","Northeast","Middle Atlantic","36031","44.109601","-73.778431 ","7178","69","6","0","10/18/2022 12:00:00 AM","2019","36885","NYTIMES-USCENSUS"
"10/19/2022 12:00:00 AM","Essex County","Vermont","Northeast","New England","50009","44.724021","-71.732736 ","1418","4","4","0","10/18/2022 12:00:00 AM","2019","6163","NYTIMES-USCENSUS"
"10/19/2022 12:00:00 AM","Essex County","Massachusetts","Northeast","New England","25009","42.642708","-70.864909 ","240895","2924","0","0","10/18/2022 12:00:00 AM","2019","789034","NYTIMES-USCENSUS"
"10/19/2022 12:00:00 AM","Essex County","New Jersey","Northeast","Middle Atlantic","34013","40.7874","-74.246292 ","266432","3679","172","1","10/18/2022 12:00:00 AM","2019","798975","NYTIMES-USCENSUS"
"10/19/2022 12:00:00 AM","Escambia County","Alabama","South","East South Central","01053","31.122287","-87.16841 ","11588","177","0","0","10/18/2022 12:00:00 AM","2019","36633","NYTIMES-USCENSUS"
"10/19/2022 12:00:00 AM","Erie County","Pennsylvania","Northeast","Middle Atlantic","42049","42.117952","-80.096386 ","67510","835","314","6","10/18/2022 12:00:00 AM","2019","269728","NYTIMES-USCENSUS"
"10/19/2022 12:00:00 AM","Erie County","New York","Northeast","Middle Atlantic","36029","42.752759","-78.778192 ","255086","2781","219","1","10/18/2022 12:00:00 AM","2019","918702","NYTIMES-USCENSUS"
"10/19/2022 12:00:00 AM","Emmet County","Michigan","Midwest","East North Central","26047","45.590094","-84.986822 ","7308","101","0","0","10/18/2022 12:00:00 AM","2019","33415","NYTIMES-USCENSUS"
"10/19/2022 12:00:00 AM","Elmore County","Alabama","South","East South Central","01051","32.597229","-86.142735 ","27766","358","0","0","10/18/2022 12:00:00 AM","2019","81209","NYTIMES-USCENSUS"
"10/19/2022 12:00:00 AM","Ellis County","Texas","South","West South Central","48139","32.346878","-96.79694 ","55263","603","26","1","10/18/2022 12:00:00 AM","2019","184826","NYTIMES-USCENSUS"
"10/19/2022 12:00:00 AM","Elk County","Pennsylvania","Northeast","Middle Atlantic","42047","41.427332","-78.653937 ","8163","111","36","0","10/18/2022 12:00:00 AM","2019","29910","NYTIMES-USCENSUS"
"10/19/2022 12:00:00 AM","Elbert County","Colorado","West","Mountain","08039","39.315157","-104.114076 ","5579","45","6","0","10/18/2022 12:00:00 AM","2019","26729","NYTIMES-USCENSUS"
"10/19/2022 12:00:00 AM","El Paso County","Colorado","West","Mountain","08041","38.827383","-104.527472 ","223738","1805","117","0","10/18/2022 12:00:00 AM","2019","720403","NYTIMES-USCENSUS"
"10/19/2022 12:00:00 AM","Effingham County","Illinois","Midwest","East North Central","17049","39.047945","-88.592849 ","12170","154","2","0","10/18/2022 12:00:00 AM","2019","34008","NYTIMES-USCENSUS"
"10/19/2022 12:00:00 AM","Edwards County","Kansas","Midwest","West North Central","20047","37.883595","-99.304746 ","635","16","1","0","10/18/2022 12:00:00 AM","2019","2798","NYTIMES-USCENSUS"
"10/19/2022 12:00:00 AM","Eddy County","North Dakota","Midwest","West North Central","38027","47.723436","-98.900474 ","848","6","0","0","10/18/2022 12:00:00 AM","2019","2287","NYTIMES-USCENSUS"
"10/19/2022 12:00:00 AM","Custer County","Colorado","West","Mountain","08027","38.101996","-105.373512 ","787","22","3","0","10/18/2022 12:00:00 AM","2019","5068","NYTIMES-USCENSUS"
"10/19/2022 12:00:00 AM","Custer County","Nebraska","Midwest","West North Central","31041","41.393893","-99.726866 ","2208","38","0","0","10/18/2022 12:00:00 AM","2019","10777","NYTIMES-USCENSUS"
"10/19/2022 12:00:00 AM","Custer County","Oklahoma","South","West South Central","40039","35.645601","-98.997386 ","9073","172","0","0","10/18/2022 12:00:00 AM","2019","29003","NYTIMES-USCENSUS"
"10/19/2022 12:00:00 AM","Curry County","New Mexico","West","Mountain","35009","34.572984","-103.346055 ","14544","231","3","0","10/18/2022 12:00:00 AM","2019","48954","NYTIMES-USCENSUS"
"10/19/2022 12:00:00 AM","Cumberland County","New Jersey","Northeast","Middle Atlantic","34011","39.328434","-75.121628 ","48019","643","34","0","10/18/2022 12:00:00 AM","2019","149527","NYTIMES-USCENSUS"
"10/19/2022 12:00:00 AM","Cumberland County","Tennessee","South","East South Central","47035","35.952398","-84.994761 ","18486","339","54","1","10/18/2022 12:00:00 AM","2019","60520","NYTIMES-USCENSUS"
"10/19/2022 12:00:00 AM","Cumberland County","Illinois","Midwest","East North Central","17035","39.273121","-88.240619 ","3810","51","1","0","10/18/2022 12:00:00 AM","2019","10766","NYTIMES-USCENSUS"
"10/19/2022 12:00:00 AM","Cumberland County","Kentucky","South","East South Central","21057","36.782372","-85.388484 ","2588","33","0","0","10/18/2022 12:00:00 AM","2019","6614","NYTIMES-USCENSUS"
"10/19/2022 12:00:00 AM","Cumberland County","Maine","Northeast","New England","23005","43.808348","-70.330375 ","61654","432","109","2","10/18/2022 12:00:00 AM","2019","295003","NYTIMES-USCENSUS"
"10/19/2022 12:00:00 AM","Cumberland County","Virginia","South","South Atlantic","51049","37.520189","-78.252836 ","1685","29","0","0","10/18/2022 12:00:00 AM","2019","9932","NYTIMES-USCENSUS"
"10/19/2022 12:00:00 AM","Cumberland County","North Carolina","South","South Atlantic","37051","35.050192","-78.828719 ","107033","711","0","0","10/18/2022 12:00:00 AM","2019","335509","NYTIMES-USCENSUS"
"10/19/2022 12:00:00 AM","Crook County","Wyoming","West","Mountain","56011","44.589266","-104.567298 ","1510","30","0","0","10/18/2022 12:00:00 AM","2019","7584","NYTIMES-USCENSUS"
"10/19/2022 12:00:00 AM","Madison County","Georgia","South","South Atlantic","13195","34.128526","-83.203737 ","7665","119","10","0","10/18/2022 12:00:00 AM","2019","29880","NYTIMES-USCENSUS"
"10/19/2022 12:00:00 AM","Macon County","Georgia","South","South Atlantic","13193","32.362686","-84.051231 ","2554","52","8","0","10/18/2022 12:00:00 AM","2019","12947","NYTIMES-USCENSUS"
"10/19/2022 12:00:00 AM","Macon County","Illinois","Midwest","East North Central","17115","39.860237","-88.961529 ","36869","370","8","0","10/18/2022 12:00:00 AM","2019","104009","NYTIMES-USCENSUS"
"10/19/2022 12:00:00 AM","Macon County","North Carolina","South","South Atlantic","37113","35.152959","-83.421901 ","9199","132","0","0","10/18/2022 12:00:00 AM","2019","35858","NYTIMES-USCENSUS"
"10/19/2022 12:00:00 AM","Macon County","Missouri","Midwest","West North Central","29121","39.829795","-92.56434 ","4068","64","0","0","10/18/2022 12:00:00 AM","2019","15117","NYTIMES-USCENSUS"
"10/19/2022 12:00:00 AM","Macon County","Alabama","South","East South Central","01087","32.387027","-85.692887 ","4806","89","0","0","10/18/2022 12:00:00 AM","2019","18068","NYTIMES-USCENSUS"
"10/19/2022 12:00:00 AM","Lyon County","Kansas","Midwest","West North Central","20111","38.455403","-96.161641 ","11338","128","19","0","10/18/2022 12:00:00 AM","2019","33195","NYTIMES-USCENSUS"
"10/19/2022 12:00:00 AM","Lyon County","Iowa","Midwest","West North Central","19119","43.38358","-96.207201 ","2983","52","3","0","10/18/2022 12:00:00 AM","2019","11755","NYTIMES-USCENSUS"
"10/19/2022 12:00:00 AM","Lyon County","Kentucky","South","East South Central","21143","37.023976","-88.083391 ","3471","39","0","0","10/18/2022 12:00:00 AM","2019","8210","NYTIMES-USCENSUS"
"10/19/2022 12:00:00 AM","Lyon County","Nevada","West","Mountain","32019","39.022213","-119.197425 ","11620","181","17","0","10/18/2022 12:00:00 AM","2019","57510","NYTIMES-USCENSUS"
"10/19/2022 12:00:00 AM","Lucas County","Iowa","Midwest","West North Central","19117","41.033344","-93.331467 ","2039","33","2","0","10/18/2022 12:00:00 AM","2019","8600","NYTIMES-USCENSUS"
"10/19/2022 12:00:00 AM","Lowndes County","Mississippi","South","East South Central","28087","33.471424","-88.439723 ","20083","247","0","0","10/18/2022 12:00:00 AM","2019","58595","NYTIMES-USCENSUS"
"10/19/2022 12:00:00 AM","Lowndes County","Georgia","South","South Atlantic","13185","30.833145","-83.268995 ","35458","421","24","0","10/18/2022 12:00:00 AM","2019","117406","NYTIMES-USCENSUS"
"10/19/2022 12:00:00 AM","Louisa County","Virginia","South","South Atlantic","51109","37.972704","-77.959795 ","8275","92","5","0","10/18/2022 12:00:00 AM","2019","37591","NYTIMES-USCENSUS"
"10/19/2022 12:00:00 AM","Kiowa County","Kansas","Midwest","West North Central","20097","37.561231","-99.286539 ","721","8","5","0","10/18/2022 12:00:00 AM","2019","2475","NYTIMES-USCENSUS"
"10/19/2022 12:00:00 AM","Kiowa County","Oklahoma","South","West South Central","40075","34.921489","-98.981617 ","2210","55","0","0","10/18/2022 12:00:00 AM","2019","8708","NYTIMES-USCENSUS"
"10/19/2022 12:00:00 AM","King County","Washington","West","Pacific","53033","47.490552","-121.833977 ","521622","3229","505","4","10/18/2022 12:00:00 AM","2019","2252782","NYTIMES-USCENSUS"
"10/19/2022 12:00:00 AM","Kent County","Rhode Island","Northeast","New England","44003","41.675118","-71.580282 ","59411","528","0","0","10/18/2022 12:00:00 AM","2019","164292","NYTIMES-USCENSUS"
"10/19/2022 12:00:00 AM","Kent County","Delaware","South","South Atlantic","10001","39.097088","-75.502982 ","60701","701","36","0","10/18/2022 12:00:00 AM","2019","180786","NYTIMES-USCENSUS"
"10/19/2022 12:00:00 AM","Kent County","Maryland","South","South Atlantic","24029","39.241279","-76.125987 ","3729","73","1","0","10/18/2022 12:00:00 AM","2019","19422","NYTIMES-USCENSUS"
"10/19/2022 12:00:00 AM","Howard County","Missouri","Midwest","West North Central","29089","39.143365","-92.695926 ","2806","31","0","0","10/18/2022 12:00:00 AM","2019","10001","NYTIMES-USCENSUS"
"10/19/2022 12:00:00 AM","Howard County","Nebraska","Midwest","West North Central","31093","41.216851","-98.513342 ","1272","24","0","0","10/18/2022 12:00:00 AM","2019","6445","NYTIMES-USCENSUS"
"10/19/2022 12:00:00 AM","Howard County","Arkansas","South","West South Central","05061","34.083064","-93.990931 ","4409","57","2","1","10/18/2022 12:00:00 AM","2019","13202","NYTIMES-USCENSUS"
"10/19/2022 12:00:00 AM","Howard County","Texas","South","West South Central","48227","32.30343","-101.438721 ","7524","191","5","0","10/18/2022 12:00:00 AM","2019","36664","NYTIMES-USCENSUS"
"10/19/2022 12:00:00 AM","Howard County","Maryland","South","South Atlantic","24027","39.252264","-76.924406 ","58707","408","39","0","10/18/2022 12:00:00 AM","2019","325690","NYTIMES-USCENSUS"
"10/19/2022 12:00:00 AM","Howard County","Iowa","Midwest","West North Central","19089","43.365312","-92.321908 ","2250","37","3","0","10/18/2022 12:00:00 AM","2019","9158","NYTIMES-USCENSUS"
"10/19/2022 12:00:00 AM","Houston County","Georgia","South","South Atlantic","13153","32.458287","-83.662522 ","46933","525","35","1","10/18/2022 12:00:00 AM","2019","157863","NYTIMES-USCENSUS"
"10/19/2022 12:00:00 AM","Houston County","Texas","South","West South Central","48225","31.323036","-95.4216 ","4752","114","4","0","10/18/2022 12:00:00 AM","2019","22968","NYTIMES-USCENSUS"
"10/19/2022 12:00:00 AM","Houston County","Tennessee","South","East South Central","47083","36.285782","-87.705598 ","2914","63","9","1","10/18/2022 12:00:00 AM","2019","8201","NYTIMES-USCENSUS"
"10/19/2022 12:00:00 AM","Houston County","Alabama","South","East South Central","01069","31.158183","-85.296411 ","30402","525","0","0","10/18/2022 12:00:00 AM","2019","105882","NYTIMES-USCENSUS"
"10/19/2022 12:00:00 AM","Hopkins County","Kentucky","South","East South Central","21107","37.31107","-87.542196 ","18364","273","0","0","10/18/2022 12:00:00 AM","2019","44686","NYTIMES-USCENSUS"
"10/19/2022 12:00:00 AM","Holt County","Nebraska","Midwest","West North Central","31089","42.459287","-98.784766 ","2414","22","0","0","10/18/2022 12:00:00 AM","2019","10067","NYTIMES-USCENSUS"
"10/19/2022 12:00:00 AM","Holmes County","Florida","South","South Atlantic","12059","30.862007","-85.815939 ","6099","103","0","0","10/18/2022 12:00:00 AM","2019","19617","NYTIMES-USCENSUS"
"10/19/2022 12:00:00 AM","Holmes County","Ohio","Midwest","East North Central","39075","40.565597","-81.930001 ","5605","188","0","0","10/18/2022 12:00:00 AM","2019","43960","NYTIMES-USCENSUS"
"10/19/2022 12:00:00 AM","Hillsborough County","New Hampshire","Northeast","New England","33011","42.911532","-71.723055 ","114011","970","136","1","10/18/2022 12:00:00 AM","2019","417025","NYTIMES-USCENSUS"
"10/19/2022 12:00:00 AM","Grant County","Wisconsin","Midwest","East North Central","55043","42.870028","-90.694229 ","14678","155","4","0","10/18/2022 12:00:00 AM","2019","51439","NYTIMES-USCENSUS"
"10/19/2022 12:00:00 AM","Grant County","West Virginia","South","South Atlantic","54023","39.105988","-79.195064 ","4478","60","2","0","10/18/2022 12:00:00 AM","2019","11568","NYTIMES-USCENSUS"
"10/19/2022 12:00:00 AM","Grant County","Arkansas","South","West South Central","05053","34.285568","-92.422979 ","5004","64","1","0","10/18/2022 12:00:00 AM","2019","18265","NYTIMES-USCENSUS"
"10/19/2022 12:00:00 AM","Grant County","North Dakota","Midwest","West North Central","38037","46.357827","-101.639049 ","525","11","0","0","10/18/2022 12:00:00 AM","2019","2274","NYTIMES-USCENSUS"
"10/19/2022 12:00:00 AM","Grant County","New Mexico","West","Mountain","35017","32.732087","-108.381504 ","8719","106","18","0","10/18/2022 12:00:00 AM","2019","26998","NYTIMES-USCENSUS"
"10/19/2022 12:00:00 AM","Grant County","Kansas","Midwest","West North Central","20067","37.547537","-101.299362 ","2663","40","0","0","10/18/2022 12:00:00 AM","2019","7150","NYTIMES-USCENSUS"
"10/19/2022 12:00:00 AM","Grant County","South Dakota","Midwest","West North Central","46051","45.172637","-96.772261 ","2257","51","9","0","10/18/2022 12:00:00 AM","2019","7052","NYTIMES-USCENSUS"
"10/19/2022 12:00:00 AM","Grant County","Oregon","West","Pacific","41023","44.496326","-119.014057 ","2171","25","20","0","10/18/2022 12:00:00 AM","2019","7199","NYTIMES-USCENSUS"
"10/19/2022 12:00:00 AM","Brown County","Texas","South","West South Central","48049","31.764137","-98.998456 ","13904","233","13","0","10/18/2022 12:00:00 AM","2019","37864","NYTIMES-USCENSUS"
"10/19/2022 12:00:00 AM","Brown County","Ohio","Midwest","East North Central","39015","38.931377","-83.866772 ","13084","191","0","0","10/18/2022 12:00:00 AM","2019","43432","NYTIMES-USCENSUS"
"10/19/2022 12:00:00 AM","Brown County","Indiana","Midwest","East North Central","18013","39.195113","-86.230121 ","2887","63","1","0","10/18/2022 12:00:00 AM","2019","15092","NYTIMES-USCENSUS"
"10/19/2022 12:00:00 AM","Brown County","South Dakota","Midwest","West North Central","46013","45.589254","-98.352175 ","11366","124","52","0","10/18/2022 12:00:00 AM","2019","38839","NYTIMES-USCENSUS"
"10/19/2022 12:00:00 AM","Brown County","Minnesota","Midwest","West North Central","27015","44.246541","-94.733647 ","7561","84","0","0","10/18/2022 12:00:00 AM","2019","25008","NYTIMES-USCENSUS"
"10/19/2022 12:00:00 AM","Brown County","Wisconsin","Midwest","East North Central","55009","44.474024","-87.99613 ","97832","596","68","0","10/18/2022 12:00:00 AM","2019","264542","NYTIMES-USCENSUS"
"10/19/2022 12:00:00 AM","Boone County","Missouri","Midwest","West North Central","29019","38.989861","-92.310202 ","52361","275","19","0","10/18/2022 12:00:00 AM","2019","180463","NYTIMES-USCENSUS"
"10/19/2022 12:00:00 AM","Boone County","Nebraska","Midwest","West North Central","31011","41.703934","-98.070476 ","1193","11","0","0","10/18/2022 12:00:00 AM","2019","5192","NYTIMES-USCENSUS"
"10/19/2022 12:00:00 AM","Boone County","Kentucky","South","East South Central","21015","38.9589","-84.736371 ","46270","330","0","0","10/18/2022 12:00:00 AM","2019","133581","NYTIMES-USCENSUS"
"10/19/2022 12:00:00 AM","Boone County","Iowa","Midwest","West North Central","19015","42.038642","-93.938603 ","6226","64","7","0","10/18/2022 12:00:00 AM","2019","26234","NYTIMES-USCENSUS"
"10/19/2022 12:00:00 AM","Boone County","Arkansas","South","West South Central","05009","36.304299","-93.079236 ","10667","193","11","0","10/18/2022 12:00:00 AM","2019","37432","NYTIMES-USCENSUS"
"10/19/2022 12:00:00 AM","Boone County","Illinois","Midwest","East North Central","17007","42.318983","-88.824295 ","16475","133","0","0","10/18/2022 12:00:00 AM","2019","53544","NYTIMES-USCENSUS"
"10/19/2022 12:00:00 AM","Boone County","Indiana","Midwest","East North Central","18011","40.050892","-86.469014 ","16900","197","18","0","10/18/2022 12:00:00 AM","2019","67843","NYTIMES-USCENSUS"
"10/19/2022 12:00:00 AM","Blount County","Alabama","South","East South Central","01009","33.977358","-86.56644 ","17256","258","0","0","10/18/2022 12:00:00 AM","2019","57826","NYTIMES-USCENSUS"
"10/19/2022 12:00:00 AM","Blaine County","Idaho","West","Mountain","16013","43.394192","-113.955371 ","6924","32","9","0","10/18/2022 12:00:00 AM","2019","23021","NYTIMES-USCENSUS"
"10/19/2022 12:00:00 AM","Blaine County","Oklahoma","South","West South Central","40011","35.877795","-98.429031 ","2738","48","0","0","10/18/2022 12:00:00 AM","2019","9429","NYTIMES-USCENSUS"
"10/19/2022 12:00:00 AM","Big Horn County","Wyoming","West","Mountain","56003","44.525117","-107.994848 ","2933","64","0","0","10/18/2022 12:00:00 AM","2019","11790","NYTIMES-USCENSUS"
"10/19/2022 12:00:00 AM","Berrien County","Michigan","Midwest","East North Central","26021","41.791382","-86.742543 ","39742","631","0","0","10/18/2022 12:00:00 AM","2019","153401","NYTIMES-USCENSUS"
"10/19/2022 12:00:00 AM","Berkeley County","West Virginia","South","South Atlantic","54003","39.447938","-78.037754 ","42295","324","19","0","10/18/2022 12:00:00 AM","2019","119171","NYTIMES-USCENSUS"
"10/19/2022 12:00:00 AM","Benton County","Mississippi","South","East South Central","28009","34.809593","-89.200213 ","2635","50","0","0","10/18/2022 12:00:00 AM","2019","8259","NYTIMES-USCENSUS"
"10/19/2022 12:00:00 AM","Benton County","Indiana","Midwest","East North Central","18007","40.600939","-87.314786 ","2809","24","7","0","10/18/2022 12:00:00 AM","2019","8748","NYTIMES-USCENSUS"
"10/19/2022 12:00:00 AM","Benton County","Minnesota","Midwest","West North Central","27009","45.701225","-94.00144 ","16055","189","0","0","10/18/2022 12:00:00 AM","2019","40889","NYTIMES-USCENSUS"
"10/19/2022 12:00:00 AM","Benton County","Washington","West","Pacific","53005","46.228125","-119.516659 ","59931","514","29","2","10/18/2022 12:00:00 AM","2019","204390","NYTIMES-USCENSUS"
"10/19/2022 12:00:00 AM","Benton County","Arkansas","South","West South Central","05007","36.337819","-94.256298 ","74045","930","27","2","10/18/2022 12:00:00 AM","2019","279141","NYTIMES-USCENSUS"
"10/19/2022 12:00:00 AM","Benton County","Missouri","Midwest","West North Central","29015","38.301036","-93.287942 ","5063","110","0","0","10/18/2022 12:00:00 AM","2019","19443","NYTIMES-USCENSUS"
"10/19/2022 12:00:00 AM","Benton County","Tennessee","South","East South Central","47005","36.070948","-88.071232 ","5239","100","8","0","10/18/2022 12:00:00 AM","2019","16160","NYTIMES-USCENSUS"
"10/19/2022 12:00:00 AM","Benton County","Iowa","Midwest","West North Central","19011","42.092547","-92.05763 ","6812","80","12","0","10/18/2022 12:00:00 AM","2019","25645","NYTIMES-USCENSUS"
"10/19/2022 12:00:00 AM","Bell County","Texas","South","West South Central","48027","31.04275","-97.481268 ","80291","930","30","0","10/18/2022 12:00:00 AM","2019","362924","NYTIMES-USCENSUS"
"10/19/2022 12:00:00 AM","Bedford County","Tennessee","South","East South Central","47003","35.51366","-86.458294 ","17018","244","20","0","10/18/2022 12:00:00 AM","2019","49713","NYTIMES-USCENSUS"
"10/19/2022 12:00:00 AM","Bedford County","Virginia","South","South Atlantic","51019","37.312257","-79.527223 ","20461","263","14","0","10/18/2022 12:00:00 AM","2019","78997","NYTIMES-USCENSUS"
"10/19/2022 12:00:00 AM","Beaver County","Oklahoma","South","West South Central","40007","36.748334","-100.483056 ","1124","11","0","0","10/18/2022 12:00:00 AM","2019","5311","NYTIMES-USCENSUS"
"10/19/2022 12:00:00 AM","Beaver County","Pennsylvania","Northeast","Middle Atlantic","42007","40.68414","-80.350721 ","46590","785","166","4","10/18/2022 12:00:00 AM","2019","163929","NYTIMES-USCENSUS"
"10/19/2022 12:00:00 AM","Beaufort County","South Carolina","South","South Atlantic","45013","32.358112","-80.689422 ","50607","396","0","0","10/18/2022 12:00:00 AM","2019","192122","NYTIMES-USCENSUS"
"10/19/2022 12:00:00 AM","Allen County","Indiana","Midwest","East North Central","18003","41.091909","-85.071791 ","117060","1234","229","2","10/18/2022 12:00:00 AM","2019","379299","NYTIMES-USCENSUS"
"10/19/2022 12:00:00 AM","Allen County","Ohio","Midwest","East North Central","39003","40.771627","-84.106103 ","31253","489","0","0","10/18/2022 12:00:00 AM","2019","102351","NYTIMES-USCENSUS"
"10/19/2022 12:00:00 AM","Alleghany County","North Carolina","South","South Atlantic","37005","36.489356","-81.132299 ","3443","18","0","0","10/18/2022 12:00:00 AM","2019","11137","NYTIMES-USCENSUS"
"10/19/2022 12:00:00 AM","Allegany County","Maryland","South","South Atlantic","24001","39.612313","-78.703104 ","20334","378","9","0","10/18/2022 12:00:00 AM","2019","70416","NYTIMES-USCENSUS"
"10/19/2022 12:00:00 AM","Alexander County","North Carolina","South","South Atlantic","37003","35.920951","-81.177467 ","12000","152","0","0","10/18/2022 12:00:00 AM","2019","37497","NYTIMES-USCENSUS"
"10/19/2022 12:00:00 AM","Albany County","Wyoming","West","Mountain","56001","41.665514","-105.721883 ","11217","52","0","0","10/18/2022 12:00:00 AM","2019","38880","NYTIMES-USCENSUS"
"10/19/2022 12:00:00 AM","Adams County","Indiana","Midwest","East North Central","18001","40.745733","-84.93613 ","8136","118","19","0","10/18/2022 12:00:00 AM","2019","35777","NYTIMES-USCENSUS"
"10/19/2022 12:00:00 AM","Crittenden County","Arkansas","South","West South Central","05035","35.197559","-90.30512 ","15949","236","3","0","10/18/2022 12:00:00 AM","2019","47955","NYTIMES-USCENSUS"
"10/19/2022 12:00:00 AM","Crawford County","Wisconsin","Midwest","East North Central","55023","43.242768","-90.935185 ","5121","31","3","0","10/18/2022 12:00:00 AM","2019","16131","NYTIMES-USCENSUS"
"10/19/2022 12:00:00 AM","Crawford County","Arkansas","South","West South Central","05033","35.583011","-94.236219 ","17911","272","4","0","10/18/2022 12:00:00 AM","2019","63257","NYTIMES-USCENSUS"
"10/19/2022 12:00:00 AM","Crawford County","Ohio","Midwest","East North Central","39033","40.848524","-82.924783 ","13315","220","0","0","10/18/2022 12:00:00 AM","2019","41494","NYTIMES-USCENSUS"
"10/19/2022 12:00:00 AM","Crawford County","Michigan","Midwest","East North Central","26039","44.680175","-84.611343 ","3064","36","0","0","10/18/2022 12:00:00 AM","2019","14029","NYTIMES-USCENSUS"
"10/19/2022 12:00:00 AM","Crawford County","Indiana","Midwest","East North Central","18025","38.289433","-86.440871 ","2878","41","5","0","10/18/2022 12:00:00 AM","2019","10577","NYTIMES-USCENSUS"
"10/19/2022 12:00:00 AM","Crawford County","Georgia","South","South Atlantic","13079","32.709428","-83.979187 ","2107","63","-1","0","10/18/2022 12:00:00 AM","2019","12404","NYTIMES-USCENSUS"
"10/19/2022 12:00:00 AM","Crawford County","Kansas","Midwest","West North Central","20037","37.505821","-94.853897 ","14126","139","50","0","10/18/2022 12:00:00 AM","2019","38818","NYTIMES-USCENSUS"
"10/19/2022 12:00:00 AM","Crawford County","Iowa","Midwest","West North Central","19047","42.043119","-95.38909 ","4831","55","15","0","10/18/2022 12:00:00 AM","2019","16820","NYTIMES-USCENSUS"
"10/19/2022 12:00:00 AM","Crawford County","Pennsylvania","Northeast","Middle Atlantic","42039","41.687876","-80.107795 ","23369","343","136","1","10/18/2022 12:00:00 AM","2019","84629","NYTIMES-USCENSUS"
"10/19/2022 12:00:00 AM","Crawford County","Missouri","Midwest","West North Central","29055","37.966559","-91.313936 ","6114","111","0","0","10/18/2022 12:00:00 AM","2019","23920","NYTIMES-USCENSUS"
"10/19/2022 12:00:00 AM","Craig County","Virginia","South","South Atlantic","51045","37.473603","-80.231051 ","1357","25","7","0","10/18/2022 12:00:00 AM","2019","5131","NYTIMES-USCENSUS"
"10/19/2022 12:00:00 AM","Covington County","Mississippi","South","East South Central","28031","31.633331","-89.548897 ","8133","117","0","0","10/18/2022 12:00:00 AM","2019","18636","NYTIMES-USCENSUS"
"10/19/2022 12:00:00 AM","Chesterfield County","Virginia","South","South Atlantic","51041","37.378434","-77.585847 ","91973","828","60","1","10/18/2022 12:00:00 AM","2019","352802","NYTIMES-USCENSUS"
"10/19/2022 12:00:00 AM","Chester County","Tennessee","South","East South Central","47023","35.420253","-88.611353 ","6581","101","14","0","10/18/2022 12:00:00 AM","2019","17297","NYTIMES-USCENSUS"
"10/19/2022 12:00:00 AM","Chester County","Pennsylvania","Northeast","Middle Atlantic","42029","39.974029","-75.749751 ","110276","1244","347","4","10/18/2022 12:00:00 AM","2019","524989","NYTIMES-USCENSUS"
"10/19/2022 12:00:00 AM","Cherokee County","Kansas","Midwest","West North Central","20021","37.169392","-94.845698 ","6971","96","17","0","10/18/2022 12:00:00 AM","2019","19939","NYTIMES-USCENSUS"
"10/19/2022 12:00:00 AM","Cherokee County","Alabama","South","East South Central","01019","34.069515","-85.654242 ","6029","87","0","0","10/18/2022 12:00:00 AM","2019","26196","NYTIMES-USCENSUS"
"10/19/2022 12:00:00 AM","Cherokee County","South Carolina","South","South Atlantic","45021","35.049796","-81.607647 ","17198","326","0","0","10/18/2022 12:00:00 AM","2019","57300","NYTIMES-USCENSUS"
"10/19/2022 12:00:00 AM","Cherokee County","Iowa","Midwest","West North Central","19035","42.742737","-95.633262 ","3407","70","7","1","10/18/2022 12:00:00 AM","2019","11235","NYTIMES-USCENSUS"
"10/19/2022 12:00:00 AM","Cherokee County","North Carolina","South","South Atlantic","37039","35.13715","-84.061449 ","8202","134","0","0","10/18/2022 12:00:00 AM","2019","28612","NYTIMES-USCENSUS"
"10/19/2022 12:00:00 AM","Cherokee County","Oklahoma","South","West South Central","40021","35.904367","-94.996796 ","16450","157","0","0","10/18/2022 12:00:00 AM","2019","48657","NYTIMES-USCENSUS"
"10/19/2022 12:00:00 AM","Cherokee County","Texas","South","West South Central","48073","31.843881","-95.156343 ","9206","257","7","0","10/18/2022 12:00:00 AM","2019","52646","NYTIMES-USCENSUS"
"10/19/2022 12:00:00 AM","Chautauqua County","Kansas","Midwest","West North Central","20019","37.154259","-96.245396 ","952","20","3","0","10/18/2022 12:00:00 AM","2019","3250","NYTIMES-USCENSUS"
"10/19/2022 12:00:00 AM","Chatham County","Georgia","South","South Atlantic","13051","31.980404","-81.085184 ","75745","972","51","5","10/18/2022 12:00:00 AM","2019","289430","NYTIMES-USCENSUS"
"10/19/2022 12:00:00 AM","Chase County","Nebraska","Midwest","West North Central","31029","40.53039","-101.694192 ","872","9","0","0","10/18/2022 12:00:00 AM","2019","3924","NYTIMES-USCENSUS"
"10/19/2022 12:00:00 AM","Charlotte County","Florida","South","South Atlantic","12015","26.906396","-82.003657 ","45071","908","0","0","10/18/2022 12:00:00 AM","2019","188910","NYTIMES-USCENSUS"
"10/19/2022 12:00:00 AM","Champaign County","Ohio","Midwest","East North Central","39021","40.132775","-83.767604 ","10086","154","0","0","10/18/2022 12:00:00 AM","2019","38885","NYTIMES-USCENSUS"
"10/19/2022 12:00:00 AM","Chambers County","Alabama","South","East South Central","01017","32.915504","-85.394032 ","10008","169","0","0","10/18/2022 12:00:00 AM","2019","33254","NYTIMES-USCENSUS"
"10/19/2022 12:00:00 AM","Butler County","Nebraska","Midwest","West North Central","31023","41.226072","-97.132039 ","2130","18","0","0","10/18/2022 12:00:00 AM","2019","8016","NYTIMES-USCENSUS"
"10/19/2022 12:00:00 AM","Butler County","Alabama","South","East South Central","01013","31.751667","-86.681969 ","6055","130","0","0","10/18/2022 12:00:00 AM","2019","19448","NYTIMES-USCENSUS"
"10/19/2022 12:00:00 AM","Butler County","Kentucky","South","East South Central","21031","37.207013","-86.682471 ","4426","55","0","0","10/18/2022 12:00:00 AM","2019","12879","NYTIMES-USCENSUS"
"10/19/2022 12:00:00 AM","Butler County","Iowa","Midwest","West North Central","19023","42.734757","-92.780153 ","3616","57","2","0","10/18/2022 12:00:00 AM","2019","14439","NYTIMES-USCENSUS"
"10/19/2022 12:00:00 AM","Butler County","Missouri","Midwest","West North Central","29023","36.71518","-90.40313 ","11700","177","0","0","10/18/2022 12:00:00 AM","2019","42478","NYTIMES-USCENSUS"
"10/19/2022 12:00:00 AM","Butler County","Ohio","Midwest","East North Central","39017","39.439747","-84.565734 ","108904","1205","0","0","10/18/2022 12:00:00 AM","2019","383134","NYTIMES-USCENSUS"
"10/19/2022 12:00:00 AM","Butler County","Kansas","Midwest","West North Central","20015","37.773649","-96.83884 ","21315","228","38","0","10/18/2022 12:00:00 AM","2019","66911","NYTIMES-USCENSUS"
"10/19/2022 12:00:00 AM","Burke County","North Dakota","Midwest","West North Central","38013","48.786453","-102.520087 ","467","3","0","0","10/18/2022 12:00:00 AM","2019","2115","NYTIMES-USCENSUS"
"10/19/2022 12:00:00 AM","Burke County","North Carolina","South","South Atlantic","37023","35.746182","-81.70618 ","29517","347","0","0","10/18/2022 12:00:00 AM","2019","90485","NYTIMES-USCENSUS"
"10/19/2022 12:00:00 AM","Buffalo County","Wisconsin","Midwest","East North Central","55011","44.385633","-91.761294 ","4021","12","3","0","10/18/2022 12:00:00 AM","2019","13031","NYTIMES-USCENSUS"
"10/19/2022 12:00:00 AM","Buffalo County","Nebraska","Midwest","West North Central","31019","40.855265","-99.074984 ","13332","145","0","0","10/18/2022 12:00:00 AM","2019","49659","NYTIMES-USCENSUS"
"10/19/2022 12:00:00 AM","Buchanan County","Virginia","South","South Atlantic","51027","37.26812","-82.038151 ","5797","134","3","0","10/18/2022 12:00:00 AM","2019","21004","NYTIMES-USCENSUS"
"10/19/2022 12:00:00 AM","Buchanan County","Missouri","Midwest","West North Central","29021","39.660369","-94.808173 ","27987","333","0","0","10/18/2022 12:00:00 AM","2019","87364","NYTIMES-USCENSUS"
"10/19/2022 12:00:00 AM","Bryan County","Georgia","South","South Atlantic","13029","32.017969","-81.438543 ","10647","102","7","0","10/18/2022 12:00:00 AM","2019","39627","NYTIMES-USCENSUS"
"10/19/2022 12:00:00 AM","Brunswick County","Virginia","South","South Atlantic","51025","36.764204","-77.861483 ","3774","52","2","0","10/18/2022 12:00:00 AM","2019","16231","NYTIMES-USCENSUS"
"10/19/2022 12:00:00 AM","Brown County","Illinois","Midwest","East North Central","17009","39.962069","-90.750309 ","2684","23","0","0","10/18/2022 12:00:00 AM","2019","6578","NYTIMES-USCENSUS"
"10/19/2022 12:00:00 AM","Chattahoochee County","Georgia","South","South Atlantic","13053","32.347445","-84.788021 ","7759","22","62","0","10/18/2022 12:00:00 AM","2019","10907","NYTIMES-USCENSUS"
"10/19/2022 12:00:00 AM","Chatham County","North Carolina","South","South Atlantic","37037","35.704994","-79.251454 ","16403","126","0","0","10/18/2022 12:00:00 AM","2019","74470","NYTIMES-USCENSUS"
"10/19/2022 12:00:00 AM","Chase County","Kansas","Midwest","West North Central","20017","38.299475","-96.594029 ","756","9","2","0","10/18/2022 12:00:00 AM","2019","2648","NYTIMES-USCENSUS"
"10/19/2022 12:00:00 AM","Charlton County","Georgia","South","South Atlantic","13049","30.779904","-82.139644 ","3341","64","1","0","10/18/2022 12:00:00 AM","2019","13392","NYTIMES-USCENSUS"
"10/19/2022 12:00:00 AM","Charlottesville city","Virginia","South","South Atlantic","51540","38.037658","-78.485381 ","11931","82","8","0","10/18/2022 12:00:00 AM","2019","47266","NYTIMES-USCENSUS"
"10/19/2022 12:00:00 AM","Charlotte County","Virginia","South","South Atlantic","51037","37.009042","-78.658568 ","3086","48","0","0","10/18/2022 12:00:00 AM","2019","11880","NYTIMES-USCENSUS"
"10/19/2022 12:00:00 AM","Charlevoix County","Michigan","Midwest","East North Central","26029","45.618554","-85.543684 ","5662","65","0","0","10/18/2022 12:00:00 AM","2019","26143","NYTIMES-USCENSUS"
"10/19/2022 12:00:00 AM","Charleston County","South Carolina","South","South Atlantic","45019","32.800458","-79.94248 ","131472","986","0","0","10/18/2022 12:00:00 AM","2019","411406","NYTIMES-USCENSUS"
"10/19/2022 12:00:00 AM","Charles Mix County","South Dakota","Midwest","West North Central","46023","43.206185","-98.595143 ","3336","36","26","0","10/18/2022 12:00:00 AM","2019","9292","NYTIMES-USCENSUS"
"10/19/2022 12:00:00 AM","Charles County","Maryland","South","South Atlantic","24017","38.472853","-77.015427 ","35545","384","25","0","10/18/2022 12:00:00 AM","2019","163257","NYTIMES-USCENSUS"
"10/19/2022 12:00:00 AM","Charles City County","Virginia","South","South Atlantic","51036","37.361054","-77.05417 ","1501","31","1","0","10/18/2022 12:00:00 AM","2019","6963","NYTIMES-USCENSUS"
"10/19/2022 12:00:00 AM","Chariton County","Missouri","Midwest","West North Central","29041","39.517968","-92.96162 ","1912","40","0","0","10/18/2022 12:00:00 AM","2019","7426","NYTIMES-USCENSUS"
"10/19/2022 12:00:00 AM","Champaign County","Illinois","Midwest","East North Central","17019","40.138985","-88.196975 ","80668","313","36","0","10/18/2022 12:00:00 AM","2019","209689","NYTIMES-USCENSUS"
"10/19/2022 12:00:00 AM","Chambers County","Texas","South","West South Central","48071","29.696374","-94.669445 ","14024","115","0","0","10/18/2022 12:00:00 AM","2019","43837","NYTIMES-USCENSUS"
"10/19/2022 12:00:00 AM","Chaffee County","Colorado","West","Mountain","08015","38.734599","-106.300025 ","5472","56","2","0","10/18/2022 12:00:00 AM","2019","20356","NYTIMES-USCENSUS"
"10/19/2022 12:00:00 AM","Butler County","Pennsylvania","Northeast","Middle Atlantic","42019","40.913847","-79.918978 ","52190","792","171","1","10/18/2022 12:00:00 AM","2019","187853","NYTIMES-USCENSUS"
"10/19/2022 12:00:00 AM","Burt County","Nebraska","Midwest","West North Central","31021","41.854179","-96.337746 ","1445","22","0","0","10/18/2022 12:00:00 AM","2019","6459","NYTIMES-USCENSUS"
"10/19/2022 12:00:00 AM","Burnett County","Wisconsin","Midwest","East North Central","55013","45.866897","-92.37573 ","4778","45","8","0","10/18/2022 12:00:00 AM","2019","15414","NYTIMES-USCENSUS"
"10/19/2022 12:00:00 AM","Burnet County","Texas","South","West South Central","48053","30.78963","-98.201187 ","12870","175","10","0","10/18/2022 12:00:00 AM","2019","48155","NYTIMES-USCENSUS"
"10/19/2022 12:00:00 AM","Burlington County","New Jersey","Northeast","Middle Atlantic","34005","39.875786","-74.663006 ","129409","1302","61","0","10/18/2022 12:00:00 AM","2019","445349","NYTIMES-USCENSUS"
"10/19/2022 12:00:00 AM","Burleson County","Texas","South","West South Central","48051","30.493487","-96.622091 ","5740","68","1","0","10/18/2022 12:00:00 AM","2019","18443","NYTIMES-USCENSUS"
"10/19/2022 12:00:00 AM","Burleigh County","North Dakota","Midwest","West North Central","38015","46.978829","-100.469533 ","39013","303","0","0","10/18/2022 12:00:00 AM","2019","95626","NYTIMES-USCENSUS"
"10/19/2022 12:00:00 AM","Burke County","Georgia","South","South Atlantic","13033","33.060181","-82.000164 ","6047","118","14","0","10/18/2022 12:00:00 AM","2019","22383","NYTIMES-USCENSUS"
"10/19/2022 12:00:00 AM","Bureau County","Illinois","Midwest","East North Central","17011","41.401304","-89.528377 ","9628","142","2","0","10/18/2022 12:00:00 AM","2019","32628","NYTIMES-USCENSUS"
"10/19/2022 12:00:00 AM","Buncombe County","North Carolina","South","South Atlantic","37021","35.609371","-82.530423 ","65476","656","0","0","10/18/2022 12:00:00 AM","2019","261191","NYTIMES-USCENSUS"
"10/19/2022 12:00:00 AM","Bullock County","Alabama","South","East South Central","01011","32.101759","-85.717261 ","2813","54","0","0","10/18/2022 12:00:00 AM","2019","10101","NYTIMES-USCENSUS"
"10/19/2022 12:00:00 AM","Bulloch County","Georgia","South","South Atlantic","13031","32.394481","-81.741618 ","17388","277","-5","1","10/18/2022 12:00:00 AM","2019","79608","NYTIMES-USCENSUS"
"10/19/2022 12:00:00 AM","Bullitt County","Kentucky","South","East South Central","21029","37.969945","-85.702635 ","26754","242","0","0","10/18/2022 12:00:00 AM","2019","81676","NYTIMES-USCENSUS"
"10/19/2022 12:00:00 AM","Buffalo County","South Dakota","Midwest","West North Central","46017","44.044306","-99.203998 ","656","18","1","0","10/18/2022 12:00:00 AM","2019","1962","NYTIMES-USCENSUS"
"10/19/2022 12:00:00 AM","Buena Vista County","Iowa","Midwest","West North Central","19021","42.741522","-95.141432 ","6756","62","15","1","10/18/2022 12:00:00 AM","2019","19620","NYTIMES-USCENSUS"
"10/19/2022 12:00:00 AM","Buena Vista city","Virginia","South","South Atlantic","51530","37.729345","-79.358134 ","2136","45","-2","0","10/18/2022 12:00:00 AM","2019","6478","NYTIMES-USCENSUS"
"10/19/2022 12:00:00 AM","Bucks County","Pennsylvania","Northeast","Middle Atlantic","42017","40.336887","-75.10706 ","145301","2035","547","7","10/18/2022 12:00:00 AM","2019","628270","NYTIMES-USCENSUS"
"10/19/2022 12:00:00 AM","Buckingham County","Virginia","South","South Atlantic","51029","37.573928","-78.529169 ","4694","61","3","0","10/18/2022 12:00:00 AM","2019","17148","NYTIMES-USCENSUS"
"10/19/2022 12:00:00 AM","Buchanan County","Iowa","Midwest","West North Central","19019","42.470328","-91.838666 ","5263","65","13","0","10/18/2022 12:00:00 AM","2019","21175","NYTIMES-USCENSUS"
"10/19/2022 12:00:00 AM","Bryan County","Oklahoma","South","West South Central","40013","33.964004","-96.265135 ","15945","139","0","0","10/18/2022 12:00:00 AM","2019","47995","NYTIMES-USCENSUS"
"10/19/2022 12:00:00 AM","Brunswick County","North Carolina","South","South Atlantic","37019","34.038754","-78.227765 ","37786","360","0","0","10/18/2022 12:00:00 AM","2019","142820","NYTIMES-USCENSUS"
"10/19/2022 12:00:00 AM","Brule County","South Dakota","Midwest","West North Central","46015","43.729873","-99.092909 ","1605","26","1","0","10/18/2022 12:00:00 AM","2019","5297","NYTIMES-USCENSUS"
"10/19/2022 12:00:00 AM","Brown County","Kansas","Midwest","West North Central","20013","39.825931","-95.569905 ","3036","51","3","0","10/18/2022 12:00:00 AM","2019","9564","NYTIMES-USCENSUS"
"10/19/2022 12:00:00 AM","Broward County","Florida","South","South Atlantic","12011","26.193535","-80.476683 ","732065","6416","0","0","10/18/2022 12:00:00 AM","2019","1952778","NYTIMES-USCENSUS"
"10/19/2022 12:00:00 AM","Broomfield County","Colorado","West","Mountain","08014","39.953593","-105.050787 ","17272","123","6","0","10/18/2022 12:00:00 AM","2019","70465","NYTIMES-USCENSUS"
"10/19/2022 12:00:00 AM","Broome County","New York","Northeast","Middle Atlantic","36007","42.161977","-75.830283 ","55158","558","58","0","10/18/2022 12:00:00 AM","2019","190488","NYTIMES-USCENSUS"
"10/19/2022 12:00:00 AM","Brooks County","Georgia","South","South Atlantic","13027","30.822934","-83.581905 ","3894","95","2","0","10/18/2022 12:00:00 AM","2019","15457","NYTIMES-USCENSUS"
"10/19/2022 12:00:00 AM","Brookings County","South Dakota","Midwest","West North Central","46011","44.376675","-96.797797 ","8968","59","10","0","10/18/2022 12:00:00 AM","2019","35077","NYTIMES-USCENSUS"
"10/19/2022 12:00:00 AM","Brooke County","West Virginia","South","South Atlantic","54009","40.272645","-80.578691 ","5987","107","14","0","10/18/2022 12:00:00 AM","2019","21939","NYTIMES-USCENSUS"
"10/19/2022 12:00:00 AM","Echols County","Georgia","South","South Atlantic","13101","30.714008","-82.897376 ","1026","12","1","0","10/18/2022 12:00:00 AM","2019","4006","NYTIMES-USCENSUS"
"10/19/2022 12:00:00 AM","Dade County","Georgia","South","South Atlantic","13083","34.852424","-85.506201 ","3856","36","2","0","10/18/2022 12:00:00 AM","2019","16116","NYTIMES-USCENSUS"
"10/19/2022 12:00:00 AM","Cuyahoga County","Ohio","Midwest","East North Central","39035","41.555037","-81.604957 ","322632","3961","0","0","10/18/2022 12:00:00 AM","2019","1235072","NYTIMES-USCENSUS"
"10/19/2022 12:00:00 AM","Custer County","Idaho","West","Mountain","16037","44.273351","-114.252267 ","681","9","0","0","10/18/2022 12:00:00 AM","2019","4315","NYTIMES-USCENSUS"
"10/19/2022 12:00:00 AM","Curry County","Oregon","West","Pacific","41015","42.466439","-124.210929 ","4382","65","9","0","10/18/2022 12:00:00 AM","2019","22925","NYTIMES-USCENSUS"
"10/19/2022 12:00:00 AM","Currituck County","North Carolina","South","South Atlantic","37053","36.372174","-75.941224 ","5856","40","0","0","10/18/2022 12:00:00 AM","2019","27763","NYTIMES-USCENSUS"
"10/19/2022 12:00:00 AM","Cuming County","Nebraska","Midwest","West North Central","31039","41.915865","-96.788517 ","1957","21","0","0","10/18/2022 12:00:00 AM","2019","8846","NYTIMES-USCENSUS"
"10/19/2022 12:00:00 AM","Cumberland County","Pennsylvania","Northeast","Middle Atlantic","42041","40.164805","-77.263442 ","59087","936","190","4","10/18/2022 12:00:00 AM","2019","253370","NYTIMES-USCENSUS"
"10/19/2022 12:00:00 AM","Culpeper County","Virginia","South","South Atlantic","51047","38.48593","-77.956476 ","13450","165","4","0","10/18/2022 12:00:00 AM","2019","52605","NYTIMES-USCENSUS"
"10/19/2022 12:00:00 AM","Cullman County","Alabama","South","East South Central","01043","34.131923","-86.869267 ","29483","382","0","0","10/18/2022 12:00:00 AM","2019","83768","NYTIMES-USCENSUS"
"10/19/2022 12:00:00 AM","Crowley County","Colorado","West","Mountain","08025","38.30618","-103.772736 ","3480","31","2","0","10/18/2022 12:00:00 AM","2019","6061","NYTIMES-USCENSUS"
"10/19/2022 12:00:00 AM","Crow Wing County","Minnesota","Midwest","West North Central","27035","46.491653","-94.070718 ","18234","175","0","0","10/18/2022 12:00:00 AM","2019","65055","NYTIMES-USCENSUS"
"10/19/2022 12:00:00 AM","Cross County","Arkansas","South","West South Central","05037","35.285692","-90.763984 ","5493","96","0","0","10/18/2022 12:00:00 AM","2019","16419","NYTIMES-USCENSUS"
"10/19/2022 12:00:00 AM","Crosby County","Texas","South","West South Central","48107","33.609144","-101.29871 ","2157","46","1","0","10/18/2022 12:00:00 AM","2019","5737","NYTIMES-USCENSUS"
"10/19/2022 12:00:00 AM","Crook County","Oregon","West","Pacific","41013","44.163054","-120.371585 ","7476","90","45","0","10/18/2022 12:00:00 AM","2019","24404","NYTIMES-USCENSUS"
"10/19/2022 12:00:00 AM","Crockett County","Tennessee","South","East South Central","47033","35.818795","-89.132494 ","5951","89","10","0","10/18/2022 12:00:00 AM","2019","14230","NYTIMES-USCENSUS"
"10/19/2022 12:00:00 AM","Crittenden County","Kentucky","South","East South Central","21055","37.358149","-88.10501 ","2651","53","0","0","10/18/2022 12:00:00 AM","2019","8806","NYTIMES-USCENSUS"
"10/19/2022 12:00:00 AM","Crisp County","Georgia","South","South Atlantic","13081","31.920268","-83.75653 ","5413","142","5","0","10/18/2022 12:00:00 AM","2019","22372","NYTIMES-USCENSUS"
"10/19/2022 12:00:00 AM","Crenshaw County","Alabama","South","East South Central","01041","31.730311","-86.320038 ","4403","107","0","0","10/18/2022 12:00:00 AM","2019","13772","NYTIMES-USCENSUS"
"10/19/2022 12:00:00 AM","Creek County","Oklahoma","South","West South Central","40037","35.907398","-96.380177 ","21001","343","0","0","10/18/2022 12:00:00 AM","2019","71522","NYTIMES-USCENSUS"
"10/19/2022 12:00:00 AM","Crawford County","Illinois","Midwest","East North Central","17033","39.002787","-87.760619 ","7409","64","3","0","10/18/2022 12:00:00 AM","2019","18667","NYTIMES-USCENSUS"
"10/19/2022 12:00:00 AM","Craven County","North Carolina","South","South Atlantic","37049","35.116829","-77.08132 ","29960","232","0","0","10/18/2022 12:00:00 AM","2019","102139","NYTIMES-USCENSUS"
"10/19/2022 12:00:00 AM","Crane County","Texas","South","West South Central","48103","31.422796","-102.487774 ","1451","24","0","0","10/18/2022 12:00:00 AM","2019","4797","NYTIMES-USCENSUS"
"10/19/2022 12:00:00 AM","Craighead County","Arkansas","South","West South Central","05031","35.827729","-90.631421 ","44028","363","17","0","10/18/2022 12:00:00 AM","2019","110332","NYTIMES-USCENSUS"
"10/19/2022 12:00:00 AM","Craig County","Oklahoma","South","West South Central","40035","36.76389","-95.201553 ","5561","55","0","0","10/18/2022 12:00:00 AM","2019","14142","NYTIMES-USCENSUS"
"10/19/2022 12:00:00 AM","Cowlitz County","Washington","West","Pacific","53015","46.196785","-122.67846 ","26227","379","17","-1","10/18/2022 12:00:00 AM","2019","110593","NYTIMES-USCENSUS"
"10/19/2022 12:00:00 AM","Cowley County","Kansas","Midwest","West North Central","20035","37.234507","-96.837247 ","11868","173","17","0","10/18/2022 12:00:00 AM","2019","34908","NYTIMES-USCENSUS"
"10/19/2022 12:00:00 AM","Coweta County","Georgia","South","South Atlantic","13077","33.352897","-84.762138 ","38866","513","65","0","10/18/2022 12:00:00 AM","2019","148509","NYTIMES-USCENSUS"
"10/19/2022 12:00:00 AM","Covington County","Alabama","South","East South Central","01039","31.243987","-86.448721 ","10959","250","0","0","10/18/2022 12:00:00 AM","2019","37049","NYTIMES-USCENSUS"
"10/19/2022 12:00:00 AM","Covington city","Virginia","South","South Atlantic","51580","37.78106","-79.985434 ","1735","30","4","0","10/18/2022 12:00:00 AM","2019","5538","NYTIMES-USCENSUS"
"10/19/2022 12:00:00 AM","Chesterfield County","South Carolina","South","South Atlantic","45025","34.637018","-80.159227 ","13934","203","0","0","10/18/2022 12:00:00 AM","2019","45650","NYTIMES-USCENSUS"
"10/19/2022 12:00:00 AM","Chester County","South Carolina","South","South Atlantic","45023","34.689342","-81.161249 ","11731","157","0","0","10/18/2022 12:00:00 AM","2019","32244","NYTIMES-USCENSUS"
"10/19/2022 12:00:00 AM","Cheshire County","New Hampshire","Northeast","New England","33005","42.92546","-72.248183 ","17873","125","15","0","10/18/2022 12:00:00 AM","2019","76085","NYTIMES-USCENSUS"
"10/19/2022 12:00:00 AM","Chesapeake city","Virginia","South","South Atlantic","51550","36.679376","-76.301788 ","59743","539","20","1","10/18/2022 12:00:00 AM","2019","244835","NYTIMES-USCENSUS"
"10/19/2022 12:00:00 AM","Cherry County","Nebraska","Midwest","West North Central","31031","42.571323","-101.047653 ","606","13","0","0","10/18/2022 12:00:00 AM","2019","5689","NYTIMES-USCENSUS"
"10/19/2022 12:00:00 AM","Cherokee County","Georgia","South","South Atlantic","13057","34.244317","-84.475057 ","72490","669","55","1","10/18/2022 12:00:00 AM","2019","258773","NYTIMES-USCENSUS"
"10/19/2022 12:00:00 AM","Chenango County","New York","Northeast","Middle Atlantic","36017","42.478024","-75.602241 ","11161","127","5","0","10/18/2022 12:00:00 AM","2019","47207","NYTIMES-USCENSUS"
"10/19/2022 12:00:00 AM","Chemung County","New York","Northeast","Middle Atlantic","36015","42.148697","-76.752471 ","25121","244","13","0","10/18/2022 12:00:00 AM","2019","83456","NYTIMES-USCENSUS"
"10/19/2022 12:00:00 AM","Chelan County","Washington","West","Pacific","53007","47.860974","-120.619041 ","23386","188","10","0","10/18/2022 12:00:00 AM","2019","77200","NYTIMES-USCENSUS"
"10/19/2022 12:00:00 AM","Cheboygan County","Michigan","Midwest","East North Central","26031","45.476022","-84.495431 ","5471","122","0","0","10/18/2022 12:00:00 AM","2019","25276","NYTIMES-USCENSUS"
"10/19/2022 12:00:00 AM","Cheatham County","Tennessee","South","East South Central","47021","36.255169","-87.100808 ","12345","135","24","0","10/18/2022 12:00:00 AM","2019","40667","NYTIMES-USCENSUS"
"10/19/2022 12:00:00 AM","Chaves County","New Mexico","West","Mountain","35005","33.361604","-104.469837 ","24177","356","4","0","10/18/2022 12:00:00 AM","2019","64615","NYTIMES-USCENSUS"
"10/19/2022 12:00:00 AM","Chautauqua County","New York","Northeast","Middle Atlantic","36013","42.304216","-79.407595 ","27997","319","21","0","10/18/2022 12:00:00 AM","2019","126903","NYTIMES-USCENSUS"
"10/19/2022 12:00:00 AM","Chattooga County","Georgia","South","South Atlantic","13055","34.474178","-85.345289 ","7428","145","4","0","10/18/2022 12:00:00 AM","2019","24789","NYTIMES-USCENSUS"
"10/19/2022 12:00:00 AM","Beltrami County","Minnesota","Midwest","West North Central","27007","47.879508","-95.00505 ","13530","132","0","0","10/18/2022 12:00:00 AM","2019","47188","NYTIMES-USCENSUS"
"10/19/2022 12:00:00 AM","Belmont County","Ohio","Midwest","East North Central","39013","40.017682","-80.967727 ","18127","321","0","0","10/18/2022 12:00:00 AM","2019","67006","NYTIMES-USCENSUS"
"10/19/2022 12:00:00 AM","Bell County","Kentucky","South","East South Central","21013","36.728928","-83.680718 ","10478","165","0","0","10/18/2022 12:00:00 AM","2019","26032","NYTIMES-USCENSUS"
"10/19/2022 12:00:00 AM","Belknap County","New Hampshire","Northeast","New England","33001","43.519109","-71.425366 ","16269","194","29","0","10/18/2022 12:00:00 AM","2019","61303","NYTIMES-USCENSUS"
"10/19/2022 12:00:00 AM","Bee County","Texas","South","West South Central","48025","28.416077","-97.742586 ","9545","155","0","0","10/18/2022 12:00:00 AM","2019","32565","NYTIMES-USCENSUS"
"10/19/2022 12:00:00 AM","Bedford County","Pennsylvania","Northeast","Middle Atlantic","42009","39.998634","-78.494747 ","12276","283","35","0","10/18/2022 12:00:00 AM","2019","47888","NYTIMES-USCENSUS"
"10/19/2022 12:00:00 AM","Beckham County","Oklahoma","South","West South Central","40009","35.270601","-99.690057 ","6703","108","0","0","10/18/2022 12:00:00 AM","2019","21859","NYTIMES-USCENSUS"
"10/19/2022 12:00:00 AM","Becker County","Minnesota","Midwest","West North Central","27005","46.937629","-95.741757 ","9980","99","0","0","10/18/2022 12:00:00 AM","2019","34423","NYTIMES-USCENSUS"
"10/19/2022 12:00:00 AM","Beaverhead County","Montana","West","Mountain","30001","45.133863","-112.892869 ","2387","30","0","0","10/18/2022 12:00:00 AM","2019","9453","NYTIMES-USCENSUS"
"10/19/2022 12:00:00 AM","Beauregard Parish","Louisiana","South","West South Central","22011","30.645018","-93.340253 ","10655","144","3","0","10/18/2022 12:00:00 AM","2019","37497","NYTIMES-USCENSUS"
"10/19/2022 12:00:00 AM","Beaufort County","North Carolina","South","South Atlantic","37013","35.482313","-76.842014 ","15138","180","0","0","10/18/2022 12:00:00 AM","2019","46994","NYTIMES-USCENSUS"
"10/19/2022 12:00:00 AM","Beadle County","South Dakota","Midwest","West North Central","46005","44.418265","-98.279422 ","5200","63","11","0","10/18/2022 12:00:00 AM","2019","18453","NYTIMES-USCENSUS"
"10/19/2022 12:00:00 AM","Allen County","Kentucky","South","East South Central","21003","36.75077","-86.192458 ","7898","119","0","0","10/18/2022 12:00:00 AM","2019","21315","NYTIMES-USCENSUS"
"10/19/2022 12:00:00 AM","Allegheny County","Pennsylvania","Northeast","Middle Atlantic","42003","40.469757","-79.980451 ","321509","3583","950","16","10/18/2022 12:00:00 AM","2019","1216045","NYTIMES-USCENSUS"
"10/19/2022 12:00:00 AM","Alleghany County","Virginia","South","South Atlantic","51005","37.787905","-80.008669 ","4154","108","-1","0","10/18/2022 12:00:00 AM","2019","14860","NYTIMES-USCENSUS"
"10/19/2022 12:00:00 AM","Allegany County","New York","Northeast","Middle Atlantic","36003","42.247853","-78.026153 ","10258","163","2","0","10/18/2022 12:00:00 AM","2019","46091","NYTIMES-USCENSUS"
"10/19/2022 12:00:00 AM","Allegan County","Michigan","Midwest","East North Central","26005","42.421251","-86.261403 ","30916","382","0","0","10/18/2022 12:00:00 AM","2019","118081","NYTIMES-USCENSUS"
"10/19/2022 12:00:00 AM","Allamakee County","Iowa","Midwest","West North Central","19005","43.274964","-91.382751 ","3111","63","5","1","10/18/2022 12:00:00 AM","2019","13687","NYTIMES-USCENSUS"
"10/19/2022 12:00:00 AM","Alfalfa County","Oklahoma","South","West South Central","40003","36.729703","-98.323445 ","1819","17","0","0","10/18/2022 12:00:00 AM","2019","5702","NYTIMES-USCENSUS"
"10/19/2022 12:00:00 AM","Alexandria city","Virginia","South","South Atlantic","51510","38.819251","-77.08367 ","42066","209","-1","0","10/18/2022 12:00:00 AM","2019","159428","NYTIMES-USCENSUS"
"10/19/2022 12:00:00 AM","Alexander County","Illinois","Midwest","East North Central","17003","37.183658","-89.349516 ","1502","16","0","0","10/18/2022 12:00:00 AM","2019","5761","NYTIMES-USCENSUS"
"10/19/2022 12:00:00 AM","Alcorn County","Mississippi","South","East South Central","28003","34.886569","-88.581109 ","11954","163","0","0","10/18/2022 12:00:00 AM","2019","36953","NYTIMES-USCENSUS"
"10/19/2022 12:00:00 AM","Alcona County","Michigan","Midwest","East North Central","26001","44.657509","-83.29458 ","1868","74","0","0","10/18/2022 12:00:00 AM","2019","10405","NYTIMES-USCENSUS"
"10/19/2022 12:00:00 AM","Albemarle County","Virginia","South","South Atlantic","51003","38.024184","-78.553506 ","23212","191","7","0","10/18/2022 12:00:00 AM","2019","109330","NYTIMES-USCENSUS"
"10/19/2022 12:00:00 AM","Albany County","New York","Northeast","Middle Atlantic","36001","42.58824","-73.97401 ","74056","562","78","0","10/18/2022 12:00:00 AM","2019","305506","NYTIMES-USCENSUS"
"10/19/2022 12:00:00 AM","Alamosa County","Colorado","West","Mountain","08003","37.568442","-105.788041 ","5476","64","4","0","10/18/2022 12:00:00 AM","2019","16233","NYTIMES-USCENSUS"
"10/19/2022 12:00:00 AM","Alameda County","California","West","Pacific","06001","37.647139","-121.912488 ","368334","2027","0","0","10/18/2022 12:00:00 AM","2019","1671329","NYTIMES-USCENSUS"
"10/19/2022 12:00:00 AM","Alamance County","North Carolina","South","South Atlantic","37001","36.043954","-79.400573 ","56878","529","0","0","10/18/2022 12:00:00 AM","2019","169509","NYTIMES-USCENSUS"
"10/19/2022 12:00:00 AM","Alachua County","Florida","South","South Atlantic","12001","29.67574","-82.357221 ","84134","762","0","0","10/18/2022 12:00:00 AM","2019","269043","NYTIMES-USCENSUS"
"10/19/2022 12:00:00 AM","Aitkin County","Minnesota","Midwest","West North Central","27001","46.602446","-93.41976 ","3479","63","0","0","10/18/2022 12:00:00 AM","2019","15886","NYTIMES-USCENSUS"
"10/19/2022 12:00:00 AM","Aiken County","South Carolina","South","South Atlantic","45003","33.550013","-81.632983 ","48590","445","0","0","10/18/2022 12:00:00 AM","2019","170872","NYTIMES-USCENSUS"
"10/19/2022 12:00:00 AM","Addison County","Vermont","Northeast","New England","50001","44.031248","-73.141581 ","6605","22","29","0","10/18/2022 12:00:00 AM","2019","36777","NYTIMES-USCENSUS"
"10/19/2022 12:00:00 AM","Adair County","Kentucky","South","East South Central","21001","37.105559","-85.28138 ","7223","112","0","0","10/18/2022 12:00:00 AM","2019","19202","NYTIMES-USCENSUS"
"10/19/2022 12:00:00 AM","Ada County","Idaho","West","Mountain","16001","43.451477","-116.244376 ","153287","1086","204","1","10/18/2022 12:00:00 AM","2019","481587","NYTIMES-USCENSUS"
"10/19/2022 12:00:00 AM","Accomack County","Virginia","South","South Atlantic","51001","37.765944","-75.757807 ","8278","113","11","0","10/18/2022 12:00:00 AM","2019","32316","NYTIMES-USCENSUS"
"10/19/2022 12:00:00 AM","Acadia Parish","Louisiana","South","West South Central","22001","30.291497","-92.411037 ","18245","301","4","0","10/18/2022 12:00:00 AM","2019","62045","NYTIMES-USCENSUS"
"10/19/2022 12:00:00 AM","Abbeville County","South Carolina","South","South Atlantic","45001","34.229041","-82.454058 ","7285","70","0","0","10/18/2022 12:00:00 AM","2019","24527","NYTIMES-USCENSUS"
"10/19/2022 12:00:00 AM","Bossier Parish","Louisiana","South","West South Central","22015","32.698481","-93.626561 ","47131","522","22","0","10/18/2022 12:00:00 AM","2019","127039","NYTIMES-USCENSUS"
"10/19/2022 12:00:00 AM","Bosque County","Texas","South","West South Central","48035","31.900819","-97.637641 ","4689","74","1","1","10/18/2022 12:00:00 AM","2019","18685","NYTIMES-USCENSUS"
"10/19/2022 12:00:00 AM","Boone County","West Virginia","South","South Atlantic","54005","38.022814","-81.713538 ","8182","95","1","0","10/18/2022 12:00:00 AM","2019","21457","NYTIMES-USCENSUS"
"10/19/2022 12:00:00 AM","Bonneville County","Idaho","West","Mountain","16019","43.395171","-111.621878 ","33974","293","75","0","10/18/2022 12:00:00 AM","2019","119062","NYTIMES-USCENSUS"
"10/19/2022 12:00:00 AM","Bonner County","Idaho","West","Mountain","16017","48.316796","-116.612362 ","9931","193","15","0","10/18/2022 12:00:00 AM","2019","45739","NYTIMES-USCENSUS"
"10/19/2022 12:00:00 AM","Bond County","Illinois","Midwest","East North Central","17005","38.885924","-89.436592 ","4971","37","1","0","10/18/2022 12:00:00 AM","2019","16426","NYTIMES-USCENSUS"
"10/19/2022 12:00:00 AM","Bon Homme County","South Dakota","Midwest","West North Central","46009","42.985799","-97.884199 ","2412","41","1","0","10/18/2022 12:00:00 AM","2019","6901","NYTIMES-USCENSUS"
"10/19/2022 12:00:00 AM","Bollinger County","Missouri","Midwest","West North Central","29017","37.318427","-90.024645 ","3013","44","0","0","10/18/2022 12:00:00 AM","2019","12133","NYTIMES-USCENSUS"
"10/19/2022 12:00:00 AM","Bolivar County","Mississippi","South","East South Central","28011","33.799139","-90.88412 ","10713","187","0","0","10/18/2022 12:00:00 AM","2019","30628","NYTIMES-USCENSUS"
"10/19/2022 12:00:00 AM","Blue Earth County","Minnesota","Midwest","West North Central","27013","44.03371","-94.064012 ","20267","110","0","0","10/18/2022 12:00:00 AM","2019","67653","NYTIMES-USCENSUS"
"10/19/2022 12:00:00 AM","Blount County","Tennessee","South","East South Central","47009","35.688185","-83.922973 ","45850","486","149","1","10/18/2022 12:00:00 AM","2019","133088","NYTIMES-USCENSUS"
"10/19/2022 12:00:00 AM","Bledsoe County","Tennessee","South","East South Central","47007","35.593561","-85.20591 ","5137","62","5","0","10/18/2022 12:00:00 AM","2019","15064","NYTIMES-USCENSUS"
"10/19/2022 12:00:00 AM","Bleckley County","Georgia","South","South Atlantic","13023","32.435403","-83.331717 ","3753","107","2","0","10/18/2022 12:00:00 AM","2019","12873","NYTIMES-USCENSUS"
"10/19/2022 12:00:00 AM","Blanco County","Texas","South","West South Central","48031","30.266456","-98.399217 ","2996","35","0","0","10/18/2022 12:00:00 AM","2019","11931","NYTIMES-USCENSUS"
"10/19/2022 12:00:00 AM","Blair County","Pennsylvania","Northeast","Middle Atlantic","42013","40.498683","-78.309597 ","33488","653","113","2","10/18/2022 12:00:00 AM","2019","121829","NYTIMES-USCENSUS"
"10/19/2022 12:00:00 AM","Bladen County","North Carolina","South","South Atlantic","37017","34.591938","-78.539489 ","11065","142","0","0","10/18/2022 12:00:00 AM","2019","32722","NYTIMES-USCENSUS"
"10/19/2022 12:00:00 AM","Blackford County","Indiana","Midwest","East North Central","18009","40.472672","-85.32373 ","3480","73","5","0","10/18/2022 12:00:00 AM","2019","11758","NYTIMES-USCENSUS"
"10/19/2022 12:00:00 AM","Black Hawk County","Iowa","Midwest","West North Central","19013","42.471132","-92.3076 ","37049","505","65","1","10/18/2022 12:00:00 AM","2019","131228","NYTIMES-USCENSUS"
"10/19/2022 12:00:00 AM","Bingham County","Idaho","West","Mountain","16011","43.216357","-112.399206 ","10770","168","3","0","10/18/2022 12:00:00 AM","2019","46811","NYTIMES-USCENSUS"
"10/19/2022 12:00:00 AM","Big Stone County","Minnesota","Midwest","West North Central","27011","45.419925","-96.402226 ","1609","9","0","0","10/18/2022 12:00:00 AM","2019","4991","NYTIMES-USCENSUS"
"10/19/2022 12:00:00 AM","Big Horn County","Montana","West","Mountain","30003","45.407868","-107.518162 ","5468","102","0","0","10/18/2022 12:00:00 AM","2019","13319","NYTIMES-USCENSUS"
"10/19/2022 12:00:00 AM","Bienville Parish","Louisiana","South","West South Central","22013","32.340952","-93.041151 ","4708","115","1","0","10/18/2022 12:00:00 AM","2019","13241","NYTIMES-USCENSUS"
"10/19/2022 12:00:00 AM","Bibb County","Georgia","South","South Atlantic","13021","32.808845","-83.694194 ","43218","813","28","2","10/18/2022 12:00:00 AM","2019","153159","NYTIMES-USCENSUS"
"10/19/2022 12:00:00 AM","Bexar County","Texas","South","West South Central","48029","29.448671","-98.520147 ","662592","6344","313","1","10/18/2022 12:00:00 AM","2019","2003554","NYTIMES-USCENSUS"
"10/19/2022 12:00:00 AM","Bethel Census Area","Alaska","West","Pacific","02050","60.929141","-160.152625 ","12178","45","22","0","10/18/2022 12:00:00 AM","2019","18386","NYTIMES-USCENSUS"
"10/19/2022 12:00:00 AM","Bertie County","North Carolina","South","South Atlantic","37015","36.059043","-76.962364 ","5062","75","0","0","10/18/2022 12:00:00 AM","2019","18947","NYTIMES-USCENSUS"
"10/19/2022 12:00:00 AM","Berrien County","Georgia","South","South Atlantic","13019","31.288652","-83.22787 ","5589","92","5","0","10/18/2022 12:00:00 AM","2019","19397","NYTIMES-USCENSUS"
"10/19/2022 12:00:00 AM","Bernalillo County","New Mexico","West","Mountain","35001","35.053628","-106.66908 ","181844","2104","109","1","10/18/2022 12:00:00 AM","2019","679121","NYTIMES-USCENSUS"
"10/19/2022 12:00:00 AM","Berkshire County","Massachusetts","Northeast","New England","25003","42.371493","-73.217928 ","32315","415","0","0","10/18/2022 12:00:00 AM","2019","124944","NYTIMES-USCENSUS"
"10/19/2022 12:00:00 AM","Berks County","Pennsylvania","Northeast","Middle Atlantic","42011","40.413957","-75.92686 ","118280","1676","371","4","10/18/2022 12:00:00 AM","2019","421164","NYTIMES-USCENSUS"
"10/19/2022 12:00:00 AM","Berkeley County","South Carolina","South","South Atlantic","45015","33.2077","-79.953655 ","62483","461","0","0","10/18/2022 12:00:00 AM","2019","227907","NYTIMES-USCENSUS"
"10/19/2022 12:00:00 AM","Bergen County","New Jersey","Northeast","Middle Atlantic","34003","40.959698","-74.074727 ","292765","3581","280","2","10/18/2022 12:00:00 AM","2019","932202","NYTIMES-USCENSUS"
"10/19/2022 12:00:00 AM","Benzie County","Michigan","Midwest","East North Central","26019","44.636844","-86.231999 ","3968","75","0","0","10/18/2022 12:00:00 AM","2019","17766","NYTIMES-USCENSUS"
"10/19/2022 12:00:00 AM","Benton County","Oregon","West","Pacific","41003","44.493882","-123.424664 ","20666","86","81","1","10/18/2022 12:00:00 AM","2019","93053","NYTIMES-USCENSUS"
"10/19/2022 12:00:00 AM","Bent County","Colorado","West","Mountain","08011","37.931891","-103.077584 ","2832","49","1","0","10/18/2022 12:00:00 AM","2019","5577","NYTIMES-USCENSUS"
"10/19/2022 12:00:00 AM","Benson County","North Dakota","Midwest","West North Central","38005","48.071743","-99.351152 ","2177","23","0","0","10/18/2022 12:00:00 AM","2019","6832","NYTIMES-USCENSUS"
"10/19/2022 12:00:00 AM","Bennington County","Vermont","Northeast","New England","50003","43.035325","-73.11146 ","11654","79","70","1","10/18/2022 12:00:00 AM","2019","35470","NYTIMES-USCENSUS"
"10/19/2022 12:00:00 AM","Benewah County","Idaho","West","Mountain","16009","47.218451","-116.633541 ","2670","42","1","0","10/18/2022 12:00:00 AM","2019","9298","NYTIMES-USCENSUS"
"10/19/2022 12:00:00 AM","Ben Hill County","Georgia","South","South Atlantic","13017","31.740772","-83.147197 ","4864","122","37","0","10/18/2022 12:00:00 AM","2019","16700","NYTIMES-USCENSUS"
"10/19/2022 12:00:00 AM","Luzerne County","Pennsylvania","Northeast","Middle Atlantic","42079","41.173078","-75.976053 ","87785","1491","415","5","10/18/2022 12:00:00 AM","2019","317417","NYTIMES-USCENSUS"
"10/19/2022 12:00:00 AM","Lunenburg County","Virginia","South","South Atlantic","51111","36.945555","-78.240528 ","3083","43","3","0","10/18/2022 12:00:00 AM","2019","12196","NYTIMES-USCENSUS"
"10/19/2022 12:00:00 AM","Luna County","New Mexico","West","Mountain","35029","32.184523","-107.747191 ","7669","147","1","0","10/18/2022 12:00:00 AM","2019","23709","NYTIMES-USCENSUS"
"10/19/2022 12:00:00 AM","Lumpkin County","Georgia","South","South Atlantic","13187","34.56814","-83.998925 ","8445","136","13","0","10/18/2022 12:00:00 AM","2019","33610","NYTIMES-USCENSUS"
"10/19/2022 12:00:00 AM","Luce County","Michigan","Midwest","East North Central","26095","46.510988","-85.517552 ","2475","18","0","0","10/18/2022 12:00:00 AM","2019","6229","NYTIMES-USCENSUS"
"10/19/2022 12:00:00 AM","Lucas County","Ohio","Midwest","East North Central","39095","41.682321","-83.468903 ","118595","1470","0","0","10/18/2022 12:00:00 AM","2019","428348","NYTIMES-USCENSUS"
"10/19/2022 12:00:00 AM","Lubbock County","Texas","South","West South Central","48303","33.611469","-101.819944 ","106226","1362","34","0","10/18/2022 12:00:00 AM","2019","310569","NYTIMES-USCENSUS"
"10/19/2022 12:00:00 AM","Lowndes County","Alabama","South","East South Central","01085","32.147888","-86.650586 ","3073","80","0","0","10/18/2022 12:00:00 AM","2019","9726","NYTIMES-USCENSUS"
"10/19/2022 12:00:00 AM","Love County","Oklahoma","South","West South Central","40085","33.957804","-97.245093 ","3625","43","0","0","10/18/2022 12:00:00 AM","2019","10253","NYTIMES-USCENSUS"
"10/19/2022 12:00:00 AM","Loup County","Nebraska","Midwest","West North Central","31115","41.903183","-99.509852 ","92","0","0","0","10/18/2022 12:00:00 AM","2019","664","NYTIMES-USCENSUS"
"10/19/2022 12:00:00 AM","Louisa County","Iowa","Midwest","West North Central","19115","41.218211","-91.256994 ","2804","65","5","0","10/18/2022 12:00:00 AM","2019","11035","NYTIMES-USCENSUS"
