"monitor_date","county","state_name","region","subregion","fips","latitude","longitude","case_count_to_date","death_count_to_date","case_count","death_count","previous_monitor_date","population_year","population","source"
"10/4/2021 12:00:00 AM","Kalkaska County","Michigan","Midwest","East North Central","26079","44.678881","-85.088992 ","1546","30","30","0","10/3/2021 12:00:00 AM","2019","18038","NYTIMES-USCENSUS"
"10/4/2021 12:00:00 AM","Maverick County","Texas","South","West South Central","48323","28.729787","-100.316678 ","12538","392","1","0","10/3/2021 12:00:00 AM","2019","58722","NYTIMES-USCENSUS"
"10/4/2021 12:00:00 AM","Ida County","Iowa","Midwest","West North Central","19093","42.39186","-95.507421 ","1128","39","0","0","10/3/2021 12:00:00 AM","2019","6860","NYTIMES-USCENSUS"
"10/4/2021 12:00:00 AM","Sussex County","New Jersey","Northeast","Middle Atlantic","34037","41.137461","-74.691914 ","16299","320","31","1","10/3/2021 12:00:00 AM","2019","140488","NYTIMES-USCENSUS"
"10/4/2021 12:00:00 AM","Catron County","New Mexico","West","Mountain","35003","33.901621","-108.391928 ","145","7","1","0","10/3/2021 12:00:00 AM","2019","3527","NYTIMES-USCENSUS"
"10/4/2021 12:00:00 AM","Wilson County","Texas","South","West South Central","48493","29.173883","-98.086734 ","7058","121","12","1","10/3/2021 12:00:00 AM","2019","51070","NYTIMES-USCENSUS"
"10/4/2021 12:00:00 AM","Teller County","Colorado","West","Mountain","08119","38.869976","-105.187365 ","2498","24","31","0","10/3/2021 12:00:00 AM","2019","25388","NYTIMES-USCENSUS"
"10/4/2021 12:00:00 AM","Ben Hill County","Georgia","South","South Atlantic","13017","31.740772","-83.147197 ","3178","96","4","2","10/3/2021 12:00:00 AM","2019","16700","NYTIMES-USCENSUS"
"10/4/2021 12:00:00 AM","Mason County","Kentucky","South","East South Central","21161","38.594137","-83.828125 ","2417","57","12","1","10/3/2021 12:00:00 AM","2019","17070","NYTIMES-USCENSUS"
"10/4/2021 12:00:00 AM","Cheyenne County","Nebraska","Midwest","West North Central","31033","41.214236","-103.011929 ","1122","19","20","0","10/3/2021 12:00:00 AM","2019","8910","NYTIMES-USCENSUS"
"10/4/2021 12:00:00 AM","Decatur County","Indiana","Midwest","East North Central","18031","39.30598","-85.499831 ","4065","105","44","0","10/3/2021 12:00:00 AM","2019","26559","NYTIMES-USCENSUS"
"10/4/2021 12:00:00 AM","Roanoke County","Virginia","South","South Atlantic","51161","37.330792","-80.191237 ","11078","157","152","1","10/3/2021 12:00:00 AM","2019","94186","NYTIMES-USCENSUS"
"10/4/2021 12:00:00 AM","Logan County","Colorado","West","Mountain","08075","40.728091","-103.090464 ","4448","78","19","3","10/3/2021 12:00:00 AM","2019","22409","NYTIMES-USCENSUS"
"10/4/2021 12:00:00 AM","Greenwood County","South Carolina","South","South Atlantic","45047","34.155796","-82.127876 ","11613","199","187","1","10/3/2021 12:00:00 AM","2019","70811","NYTIMES-USCENSUS"
"10/4/2021 12:00:00 AM","Jerauld County","South Dakota","Midwest","West North Central","46073","44.06341","-98.62317 ","293","17","1","0","10/3/2021 12:00:00 AM","2019","2013","NYTIMES-USCENSUS"
"10/4/2021 12:00:00 AM","Cumberland County","North Carolina","South","South Atlantic","37051","35.050192","-78.828719 ","42750","440","403","0","10/3/2021 12:00:00 AM","2019","335509","NYTIMES-USCENSUS"
"10/4/2021 12:00:00 AM","Virginia Beach city","Virginia","South","South Atlantic","51810","36.779525","-76.029142 ","47869","500","379","6","10/3/2021 12:00:00 AM","2019","449974","NYTIMES-USCENSUS"
"10/4/2021 12:00:00 AM","Audubon County","Iowa","Midwest","West North Central","19009","41.679178","-94.904312 ","615","14","0","0","10/3/2021 12:00:00 AM","2019","5496","NYTIMES-USCENSUS"
"10/4/2021 12:00:00 AM","Northumberland County","Pennsylvania","Northeast","Middle Atlantic","42097","40.851524","-76.709877 ","11605","391","49","0","10/3/2021 12:00:00 AM","2019","90843","NYTIMES-USCENSUS"
"10/4/2021 12:00:00 AM","Reeves County","Texas","South","West South Central","48389","31.308366","-103.712706 ","3343","49","0","0","10/3/2021 12:00:00 AM","2019","15976","NYTIMES-USCENSUS"
"10/4/2021 12:00:00 AM","Montezuma County","Colorado","West","Mountain","08083","37.338025","-108.595786 ","2694","33","32","0","10/3/2021 12:00:00 AM","2019","26183","NYTIMES-USCENSUS"
"10/4/2021 12:00:00 AM","Hampton city","Virginia","South","South Atlantic","51650","37.047961","-76.297293 ","14397","217","118","0","10/3/2021 12:00:00 AM","2019","134510","NYTIMES-USCENSUS"
"10/4/2021 12:00:00 AM","Butler County","Nebraska","Midwest","West North Central","31023","41.226072","-97.132039 ","1022","13","3","0","10/3/2021 12:00:00 AM","2019","8016","NYTIMES-USCENSUS"
"10/4/2021 12:00:00 AM","Alcona County","Michigan","Midwest","East North Central","26001","44.657509","-83.29458 ","958","39","16","0","10/3/2021 12:00:00 AM","2019","10405","NYTIMES-USCENSUS"
"10/4/2021 12:00:00 AM","Osage County","Kansas","Midwest","West North Central","20139","38.650215","-95.708255 ","1906","34","14","0","10/3/2021 12:00:00 AM","2019","15949","NYTIMES-USCENSUS"
"10/4/2021 12:00:00 AM","Davis County","Iowa","Midwest","West North Central","19051","40.748089","-92.410345 ","1081","25","0","0","10/3/2021 12:00:00 AM","2019","9000","NYTIMES-USCENSUS"
"10/4/2021 12:00:00 AM","Morrison County","Minnesota","Midwest","West North Central","27097","46.020484","-94.266619 ","4980","63","27","0","10/3/2021 12:00:00 AM","2019","33386","NYTIMES-USCENSUS"
"10/4/2021 12:00:00 AM","Poquoson city","Virginia","South","South Atlantic","51735","37.12836","-76.303534 ","1240","18","19","0","10/3/2021 12:00:00 AM","2019","12271","NYTIMES-USCENSUS"
"10/4/2021 12:00:00 AM","Mason County","Washington","West","Pacific","53045","47.350832","-123.173103 ","5064","57","124","0","10/3/2021 12:00:00 AM","2019","66768","NYTIMES-USCENSUS"
"10/4/2021 12:00:00 AM","Muhlenberg County","Kentucky","South","East South Central","21177","37.213816","-87.134092 ","5258","85","50","0","10/3/2021 12:00:00 AM","2019","30622","NYTIMES-USCENSUS"
"10/4/2021 12:00:00 AM","Archer County","Texas","South","West South Central","48009","33.616305","-98.687267 ","1100","15","0","0","10/3/2021 12:00:00 AM","2019","8553","NYTIMES-USCENSUS"
"10/4/2021 12:00:00 AM","Pocahontas County","Iowa","Midwest","West North Central","19151","42.734033","-94.678279 ","1044","23","0","0","10/3/2021 12:00:00 AM","2019","6619","NYTIMES-USCENSUS"
"10/4/2021 12:00:00 AM","Todd County","Kentucky","South","East South Central","21219","36.840338","-87.183642 ","1617","30","12","0","10/3/2021 12:00:00 AM","2019","12294","NYTIMES-USCENSUS"
"10/4/2021 12:00:00 AM","Love County","Oklahoma","South","West South Central","40085","33.957804","-97.245093 ","1919","26","0","0","10/3/2021 12:00:00 AM","2019","10253","NYTIMES-USCENSUS"
"10/4/2021 12:00:00 AM","Waynesboro city","Virginia","South","South Atlantic","51820","38.067157","-78.90142 ","3298","42","27","0","10/3/2021 12:00:00 AM","2019","22630","NYTIMES-USCENSUS"
"10/4/2021 12:00:00 AM","Concho County","Texas","South","West South Central","48095","31.318883","-99.863649 ","689","10","0","0","10/3/2021 12:00:00 AM","2019","2726","NYTIMES-USCENSUS"
"10/4/2021 12:00:00 AM","Saline County","Kansas","Midwest","West North Central","20169","38.791804","-97.651478 ","7982","168","34","0","10/3/2021 12:00:00 AM","2019","54224","NYTIMES-USCENSUS"
"10/4/2021 12:00:00 AM","Denver County","Colorado","West","Mountain","08031","39.76185","-104.881105 ","86475","909","440","1","10/3/2021 12:00:00 AM","2019","727211","NYTIMES-USCENSUS"
"10/4/2021 12:00:00 AM","Lyon County","Nevada","West","Mountain","32019","39.022213","-119.197425 ","6032","93","17","0","10/3/2021 12:00:00 AM","2019","57510","NYTIMES-USCENSUS"
"10/4/2021 12:00:00 AM","Wayne County","Georgia","South","South Atlantic","13305","31.547845","-81.912376 ","5800","157","25","1","10/3/2021 12:00:00 AM","2019","29927","NYTIMES-USCENSUS"
"10/4/2021 12:00:00 AM","Chesterfield County","Virginia","South","South Atlantic","51041","37.378434","-77.585847 ","37559","507","321","3","10/3/2021 12:00:00 AM","2019","352802","NYTIMES-USCENSUS"
"10/4/2021 12:00:00 AM","Jackson County","Missouri","Midwest","West North Central","29095","39.005364","-94.343211 ","54203","645","56","0","10/3/2021 12:00:00 AM","2019","703011","NYTIMES-USCENSUS"
"10/4/2021 12:00:00 AM","Latimer County","Oklahoma","South","West South Central","40077","34.875137","-95.272262 ","1409","14","0","0","10/3/2021 12:00:00 AM","2019","10073","NYTIMES-USCENSUS"
"10/4/2021 12:00:00 AM","Sherman County","Nebraska","Midwest","West North Central","31163","41.218743","-98.972849 ","315","4","3","0","10/3/2021 12:00:00 AM","2019","3001","NYTIMES-USCENSUS"
"10/4/2021 12:00:00 AM","Sarpy County","Nebraska","Midwest","West North Central","31153","41.115064","-96.109125 ","27163","155","134","0","10/3/2021 12:00:00 AM","2019","187196","NYTIMES-USCENSUS"
"10/4/2021 12:00:00 AM","New Madrid County","Missouri","Midwest","West North Central","29143","36.594261","-89.655948 ","3223","53","8","0","10/3/2021 12:00:00 AM","2019","17076","NYTIMES-USCENSUS"
"10/4/2021 12:00:00 AM","Lunenburg County","Virginia","South","South Atlantic","51111","36.945555","-78.240528 ","1008","19","8","0","10/3/2021 12:00:00 AM","2019","12196","NYTIMES-USCENSUS"
"10/4/2021 12:00:00 AM","Falls Church city","Virginia","South","South Atlantic","51610","38.884722","-77.175603 ","524","8","5","0","10/3/2021 12:00:00 AM","2019","14617","NYTIMES-USCENSUS"
"10/4/2021 12:00:00 AM","Hemphill County","Texas","South","West South Central","48211","35.815956","-100.27921 ","676","3","0","0","10/3/2021 12:00:00 AM","2019","3819","NYTIMES-USCENSUS"
"10/4/2021 12:00:00 AM","Dodge County","Nebraska","Midwest","West North Central","31053","41.577008","-96.645852 ","5583","83","32","0","10/3/2021 12:00:00 AM","2019","36565","NYTIMES-USCENSUS"
"10/4/2021 12:00:00 AM","Dawson County","Nebraska","Midwest","West North Central","31047","40.86784","-99.815583 ","3449","31","20","0","10/3/2021 12:00:00 AM","2019","23595","NYTIMES-USCENSUS"
"10/4/2021 12:00:00 AM","Madison County","North Carolina","South","South Atlantic","37115","35.864206","-82.712631 ","2627","55","39","0","10/3/2021 12:00:00 AM","2019","21755","NYTIMES-USCENSUS"
"10/4/2021 12:00:00 AM","Lincoln County","Oregon","West","Pacific","41041","44.641061","-123.911212 ","2980","31","27","0","10/3/2021 12:00:00 AM","2019","49962","NYTIMES-USCENSUS"
"10/4/2021 12:00:00 AM","Hampshire County","West Virginia","South","South Atlantic","54027","39.312139","-78.611989 ","2838","43","6","0","10/3/2021 12:00:00 AM","2019","23175","NYTIMES-USCENSUS"
"10/4/2021 12:00:00 AM","Washington County","Missouri","Midwest","West North Central","29221","37.942611","-90.897018 ","3833","63","2","0","10/3/2021 12:00:00 AM","2019","24730","NYTIMES-USCENSUS"
"10/4/2021 12:00:00 AM","Sunflower County","Mississippi","South","East South Central","28133","33.605529","-90.59509 ","4185","104","4","0","10/3/2021 12:00:00 AM","2019","25110","NYTIMES-USCENSUS"
"10/4/2021 12:00:00 AM","Adams County","Indiana","Midwest","East North Central","18001","40.745733","-84.93613 ","4662","70","40","0","10/3/2021 12:00:00 AM","2019","35777","NYTIMES-USCENSUS"
"10/4/2021 12:00:00 AM","Phillips County","Kansas","Midwest","West North Central","20147","39.784506","-99.34215 ","801","26","1","0","10/3/2021 12:00:00 AM","2019","5234","NYTIMES-USCENSUS"
"10/4/2021 12:00:00 AM","Barren County","Kentucky","South","East South Central","21009","36.962805","-85.932108 ","7658","120","39","0","10/3/2021 12:00:00 AM","2019","44249","NYTIMES-USCENSUS"
"10/4/2021 12:00:00 AM","Adams County","Washington","West","Pacific","53001","47.011238","-118.512861 ","3073","27","30","0","10/3/2021 12:00:00 AM","2019","19983","NYTIMES-USCENSUS"
"10/4/2021 12:00:00 AM","San Luis Obispo County","California","West","Pacific","06079","35.388189","-120.448897 ","29225","325","150","1","10/3/2021 12:00:00 AM","2019","283111","NYTIMES-USCENSUS"
"10/4/2021 12:00:00 AM","Pulaski County","Virginia","South","South Atlantic","51155","37.063385","-80.713444 ","3793","77","59","1","10/3/2021 12:00:00 AM","2019","34027","NYTIMES-USCENSUS"
"10/4/2021 12:00:00 AM","Turner County","Georgia","South","South Atlantic","13287","31.7248","-83.620319 ","1663","48","2","0","10/3/2021 12:00:00 AM","2019","7985","NYTIMES-USCENSUS"
"10/4/2021 12:00:00 AM","Lewis County","Missouri","Midwest","West North Central","29111","40.084559","-91.728803 ","1604","22","0","0","10/3/2021 12:00:00 AM","2019","9776","NYTIMES-USCENSUS"
"10/4/2021 12:00:00 AM","Surry County","Virginia","South","South Atlantic","51181","37.119761","-76.880172 ","564","10","0","0","10/3/2021 12:00:00 AM","2019","6422","NYTIMES-USCENSUS"
"10/4/2021 12:00:00 AM","Collin County","Texas","South","West South Central","48085","33.194494","-96.579428 ","125057","1036","230","1","10/3/2021 12:00:00 AM","2019","1034730","NYTIMES-USCENSUS"
"10/4/2021 12:00:00 AM","Randolph County","Arkansas","South","West South Central","05121","36.341298","-91.028441 ","3181","51","2","0","10/3/2021 12:00:00 AM","2019","17958","NYTIMES-USCENSUS"
"10/4/2021 12:00:00 AM","Roseau County","Minnesota","Midwest","West North Central","27135","48.761068","-95.821504 ","2446","24","4","0","10/3/2021 12:00:00 AM","2019","15165","NYTIMES-USCENSUS"
"10/4/2021 12:00:00 AM","Cass County","Indiana","Midwest","East North Central","18017","40.753799","-86.355168 ","7330","120","29","0","10/3/2021 12:00:00 AM","2019","37689","NYTIMES-USCENSUS"
"10/4/2021 12:00:00 AM","Bay County","Michigan","Midwest","East North Central","26017","43.699711","-83.978701 ","13327","370","189","0","10/3/2021 12:00:00 AM","2019","103126","NYTIMES-USCENSUS"
"10/4/2021 12:00:00 AM","Tallahatchie County","Mississippi","South","East South Central","28135","33.954529","-90.172243 ","2231","50","5","0","10/3/2021 12:00:00 AM","2019","13809","NYTIMES-USCENSUS"
"10/4/2021 12:00:00 AM","Cumberland County","Virginia","South","South Atlantic","51049","37.520189","-78.252836 ","684","13","9","0","10/3/2021 12:00:00 AM","2019","9932","NYTIMES-USCENSUS"
"10/4/2021 12:00:00 AM","Person County","North Carolina","South","South Atlantic","37145","36.38635","-78.965623 ","4933","86","52","1","10/3/2021 12:00:00 AM","2019","39490","NYTIMES-USCENSUS"
"10/4/2021 12:00:00 AM","Apache County","Arizona","West","Mountain","04001","35.385084","-109.490172 ","13181","474","9","0","10/3/2021 12:00:00 AM","2019","71887","NYTIMES-USCENSUS"
"10/4/2021 12:00:00 AM","Jefferson County","Illinois","Midwest","East North Central","17081","38.30078","-88.92421 ","6287","139","47","1","10/3/2021 12:00:00 AM","2019","37684","NYTIMES-USCENSUS"
"10/4/2021 12:00:00 AM","Geneva County","Alabama","South","East South Central","01061","31.092382","-85.821022 ","4500","121","2","0","10/3/2021 12:00:00 AM","2019","26271","NYTIMES-USCENSUS"
"10/4/2021 12:00:00 AM","Clinch County","Georgia","South","South Atlantic","13065","30.917653","-82.702614 ","1471","34","22","1","10/3/2021 12:00:00 AM","2019","6618","NYTIMES-USCENSUS"
"10/4/2021 12:00:00 AM","Dawson County","Texas","South","West South Central","48115","32.742528","-101.948771 ","2061","75","0","0","10/3/2021 12:00:00 AM","2019","12728","NYTIMES-USCENSUS"
"10/4/2021 12:00:00 AM","Linn County","Oregon","West","Pacific","41043","44.488898","-122.537208 ","11640","99","233","2","10/3/2021 12:00:00 AM","2019","129749","NYTIMES-USCENSUS"
"10/4/2021 12:00:00 AM","Crawford County","Illinois","Midwest","East North Central","17033","39.002787","-87.760619 ","3195","46","14","0","10/3/2021 12:00:00 AM","2019","18667","NYTIMES-USCENSUS"
"10/4/2021 12:00:00 AM","Marion County","Oregon","West","Pacific","41047","44.900898","-122.57626 ","34748","411","332","0","10/3/2021 12:00:00 AM","2019","347818","NYTIMES-USCENSUS"
"10/4/2021 12:00:00 AM","Winneshiek County","Iowa","Midwest","West North Central","19191","43.292989","-91.850788 ","2235","37","0","0","10/3/2021 12:00:00 AM","2019","19991","NYTIMES-USCENSUS"
"10/4/2021 12:00:00 AM","Marshall County","Mississippi","South","East South Central","28093","34.76619","-89.504231 ","6259","128","30","0","10/3/2021 12:00:00 AM","2019","35294","NYTIMES-USCENSUS"
"10/4/2021 12:00:00 AM","Franklin County","Ohio","Midwest","East North Central","39049","39.969875","-83.009086 ","157634","1602","338","0","10/3/2021 12:00:00 AM","2019","1316756","NYTIMES-USCENSUS"
"10/4/2021 12:00:00 AM","Sibley County","Minnesota","Midwest","West North Central","27143","44.575734","-94.230123 ","1876","12","8","0","10/3/2021 12:00:00 AM","2019","14865","NYTIMES-USCENSUS"
"10/4/2021 12:00:00 AM","Stearns County","Minnesota","Midwest","West North Central","27145","45.555235","-94.610482 ","26392","247","158","3","10/3/2021 12:00:00 AM","2019","161075","NYTIMES-USCENSUS"
"10/4/2021 12:00:00 AM","Sheboygan County","Wisconsin","Midwest","East North Central","55117","43.741232","-87.731516 ","17126","174","41","0","10/3/2021 12:00:00 AM","2019","115340","NYTIMES-USCENSUS"
"10/4/2021 12:00:00 AM","Simpson County","Mississippi","South","East South Central","28127","31.902505","-89.917709 ","4371","115","5","0","10/3/2021 12:00:00 AM","2019","26658","NYTIMES-USCENSUS"
"10/4/2021 12:00:00 AM","Beltrami County","Minnesota","Midwest","West North Central","27007","47.879508","-95.00505 ","5738","72","63","0","10/3/2021 12:00:00 AM","2019","47188","NYTIMES-USCENSUS"
"10/4/2021 12:00:00 AM","Cowlitz County","Washington","West","Pacific","53015","46.196785","-122.67846 ","12369","198","148","6","10/3/2021 12:00:00 AM","2019","110593","NYTIMES-USCENSUS"
"10/4/2021 12:00:00 AM","Warren County","Indiana","Midwest","East North Central","18171","40.352498","-87.375163 ","1176","18","0","0","10/3/2021 12:00:00 AM","2019","8265","NYTIMES-USCENSUS"
"10/4/2021 12:00:00 AM","Walworth County","South Dakota","Midwest","West North Central","46129","45.427605","-100.027856 ","845","17","3","0","10/3/2021 12:00:00 AM","2019","5435","NYTIMES-USCENSUS"
"10/4/2021 12:00:00 AM","Jackson County","Georgia","South","South Atlantic","13157","34.130905","-83.562557 ","14334","190","98","1","10/3/2021 12:00:00 AM","2019","72977","NYTIMES-USCENSUS"
"10/4/2021 12:00:00 AM","Edwards County","Illinois","Midwest","East North Central","17047","38.417095","-88.047941 ","1002","17","3","0","10/3/2021 12:00:00 AM","2019","6395","NYTIMES-USCENSUS"
"10/4/2021 12:00:00 AM","Henry County","Virginia","South","South Atlantic","51089","36.620612","-79.980662 ","6023","143","56","3","10/3/2021 12:00:00 AM","2019","50557","NYTIMES-USCENSUS"
"10/4/2021 12:00:00 AM","Macon County","Illinois","Midwest","East North Central","17115","39.860237","-88.961529 ","14907","258","95","0","10/3/2021 12:00:00 AM","2019","104009","NYTIMES-USCENSUS"
"10/4/2021 12:00:00 AM","Schuyler County","New York","Northeast","Middle Atlantic","36097","42.419776","-76.938603 ","1376","16","2","0","10/3/2021 12:00:00 AM","2019","17807","NYTIMES-USCENSUS"
"10/4/2021 12:00:00 AM","Sequoyah County","Oklahoma","South","West South Central","40135","35.502435","-94.750757 ","6462","73","0","0","10/3/2021 12:00:00 AM","2019","41569","NYTIMES-USCENSUS"
"10/4/2021 12:00:00 AM","Wasatch County","Utah","West","Mountain","49051","40.334884","-111.161568 ","5741","27","17","0","10/3/2021 12:00:00 AM","2019","34091","NYTIMES-USCENSUS"
"10/4/2021 12:00:00 AM","Lake County","Illinois","Midwest","East North Central","17097","42.185968","-87.805939 ","78468","1142","321","4","10/3/2021 12:00:00 AM","2019","696535","NYTIMES-USCENSUS"
"10/4/2021 12:00:00 AM","Jefferson County","Pennsylvania","Northeast","Middle Atlantic","42065","41.138028","-79.012419 ","4301","107","23","1","10/3/2021 12:00:00 AM","2019","43425","NYTIMES-USCENSUS"
"10/4/2021 12:00:00 AM","Collingsworth County","Texas","South","West South Central","48087","34.963358","-100.272135 ","383","9","0","0","10/3/2021 12:00:00 AM","2019","2920","NYTIMES-USCENSUS"
"10/4/2021 12:00:00 AM","Wheeler County","Texas","South","West South Central","48483","35.392593","-100.253107 ","739","12","0","0","10/3/2021 12:00:00 AM","2019","5056","NYTIMES-USCENSUS"
"10/4/2021 12:00:00 AM","Baker County","Georgia","South","South Atlantic","13007","31.31958","-84.454881 ","363","14","1","0","10/3/2021 12:00:00 AM","2019","3038","NYTIMES-USCENSUS"
"10/4/2021 12:00:00 AM","Blackford County","Indiana","Midwest","East North Central","18009","40.472672","-85.32373 ","1784","37","16","1","10/3/2021 12:00:00 AM","2019","11758","NYTIMES-USCENSUS"
"10/4/2021 12:00:00 AM","Collier County","Florida","South","South Atlantic","12021","26.118786","-81.400955 ","55729","773","0","0","10/3/2021 12:00:00 AM","2019","384902","NYTIMES-USCENSUS"
"10/4/2021 12:00:00 AM","Jefferson Parish","Louisiana","South","West South Central","22051","29.5033","-90.036231 ","68664","1134","141","4","10/3/2021 12:00:00 AM","2019","432493","NYTIMES-USCENSUS"
"10/4/2021 12:00:00 AM","Kingfisher County","Oklahoma","South","West South Central","40073","35.949436","-97.934557 ","2507","44","0","0","10/3/2021 12:00:00 AM","2019","15765","NYTIMES-USCENSUS"
"10/4/2021 12:00:00 AM","Sandoval County","New Mexico","West","Mountain","35043","35.685091","-106.883119 ","15025","264","99","0","10/3/2021 12:00:00 AM","2019","146748","NYTIMES-USCENSUS"
"10/4/2021 12:00:00 AM","Walton County","Florida","South","South Atlantic","12131","30.571247","-86.162798 ","11692","154","0","0","10/3/2021 12:00:00 AM","2019","74071","NYTIMES-USCENSUS"
"10/4/2021 12:00:00 AM","Richland County","Wisconsin","Midwest","East North Central","55103","43.376199","-90.435693 ","1873","22","38","0","10/3/2021 12:00:00 AM","2019","17252","NYTIMES-USCENSUS"
"10/4/2021 12:00:00 AM","Mayes County","Oklahoma","South","West South Central","40097","36.303804","-95.235638 ","6415","99","0","0","10/3/2021 12:00:00 AM","2019","41100","NYTIMES-USCENSUS"
"10/4/2021 12:00:00 AM","Toole County","Montana","West","Mountain","30101","48.645125","-111.733472 ","910","11","5","0","10/3/2021 12:00:00 AM","2019","4736","NYTIMES-USCENSUS"
"10/4/2021 12:00:00 AM","Washington County","Kansas","Midwest","West North Central","20201","39.776714","-97.095611 ","711","15","4","0","10/3/2021 12:00:00 AM","2019","5406","NYTIMES-USCENSUS"
"10/4/2021 12:00:00 AM","Sumter County","Alabama","South","East South Central","01119","32.597481","-88.200057 ","1256","37","0","0","10/3/2021 12:00:00 AM","2019","12427","NYTIMES-USCENSUS"
"10/4/2021 12:00:00 AM","Tipton County","Tennessee","South","East South Central","47167","35.498763","-89.747145 ","11024","126","53","1","10/3/2021 12:00:00 AM","2019","61599","NYTIMES-USCENSUS"
"10/4/2021 12:00:00 AM","Owsley County","Kentucky","South","East South Central","21189","37.423622","-83.691637 ","919","16","12","0","10/3/2021 12:00:00 AM","2019","4415","NYTIMES-USCENSUS"
"10/4/2021 12:00:00 AM","Los Alamos County","New Mexico","West","Mountain","35028","35.870047","-106.307968 ","682","9","14","0","10/3/2021 12:00:00 AM","2019","19369","NYTIMES-USCENSUS"
"10/4/2021 12:00:00 AM","Ohio County","Kentucky","South","East South Central","21183","37.477859","-86.844871 ","4138","74","29","0","10/3/2021 12:00:00 AM","2019","23994","NYTIMES-USCENSUS"
"10/4/2021 12:00:00 AM","Cedar County","Nebraska","Midwest","West North Central","31027","42.60456","-97.25687 ","895","11","5","0","10/3/2021 12:00:00 AM","2019","8402","NYTIMES-USCENSUS"
"10/4/2021 12:00:00 AM","Kossuth County","Iowa","Midwest","West North Central","19109","43.212356","-94.213965 ","2625","71","0","0","10/3/2021 12:00:00 AM","2019","14813","NYTIMES-USCENSUS"
"10/4/2021 12:00:00 AM","Otsego County","New York","Northeast","Middle Atlantic","36077","42.629776","-75.028841 ","4319","51","9","0","10/3/2021 12:00:00 AM","2019","59493","NYTIMES-USCENSUS"
"10/4/2021 12:00:00 AM","St. James Parish","Louisiana","South","West South Central","22093","30.024777","-90.793956 ","3400","70","2","2","10/3/2021 12:00:00 AM","2019","21096","NYTIMES-USCENSUS"
"10/4/2021 12:00:00 AM","Abbeville County","South Carolina","South","South Atlantic","45001","34.229041","-82.454058 ","3662","47","39","1","10/3/2021 12:00:00 AM","2019","24527","NYTIMES-USCENSUS"
"10/4/2021 12:00:00 AM","Union County","Pennsylvania","Northeast","Middle Atlantic","42119","40.962179","-77.055475 ","6915","95","15","0","10/3/2021 12:00:00 AM","2019","44923","NYTIMES-USCENSUS"
"10/4/2021 12:00:00 AM","Golden Valley County","Montana","West","Mountain","30037","46.380624","-109.174586 ","67","3","0","0","10/3/2021 12:00:00 AM","2019","821","NYTIMES-USCENSUS"
"10/4/2021 12:00:00 AM","Jim Wells County","Texas","South","West South Central","48249","27.733516","-98.090814 ","6954","163","0","0","10/3/2021 12:00:00 AM","2019","40482","NYTIMES-USCENSUS"
"10/4/2021 12:00:00 AM","Wyoming County","New York","Northeast","Middle Atlantic","36121","42.701363","-78.228567 ","4085","55","6","0","10/3/2021 12:00:00 AM","2019","39859","NYTIMES-USCENSUS"
"10/4/2021 12:00:00 AM","Davidson County","North Carolina","South","South Atlantic","37057","35.795131","-80.207107 ","24767","274","178","6","10/3/2021 12:00:00 AM","2019","167609","NYTIMES-USCENSUS"
"10/4/2021 12:00:00 AM","Frontier County","Nebraska","Midwest","West North Central","31063","40.530947","-100.406683 ","331","1","4","0","10/3/2021 12:00:00 AM","2019","2627","NYTIMES-USCENSUS"
"10/4/2021 12:00:00 AM","Le Sueur County","Minnesota","Midwest","West North Central","27079","44.373424","-93.730143 ","3593","30","16","0","10/3/2021 12:00:00 AM","2019","28887","NYTIMES-USCENSUS"
"10/4/2021 12:00:00 AM","Woodward County","Oklahoma","South","West South Central","40153","36.425619","-99.273661 ","3582","40","0","0","10/3/2021 12:00:00 AM","2019","20211","NYTIMES-USCENSUS"
"10/4/2021 12:00:00 AM","Washakie County","Wyoming","West","Mountain","56043","43.878831","-107.669052 ","1421","27","24","0","10/3/2021 12:00:00 AM","2019","7805","NYTIMES-USCENSUS"
"10/4/2021 12:00:00 AM","Day County","South Dakota","Midwest","West North Central","46037","45.355161","-97.58143 ","779","30","0","0","10/3/2021 12:00:00 AM","2019","5424","NYTIMES-USCENSUS"
"10/4/2021 12:00:00 AM","Whitley County","Indiana","Midwest","East North Central","18183","41.136426","-85.501892 ","5445","55","34","0","10/3/2021 12:00:00 AM","2019","33964","NYTIMES-USCENSUS"
"10/4/2021 12:00:00 AM","Owen County","Indiana","Midwest","East North Central","18119","39.317339","-86.838845 ","2995","68","25","0","10/3/2021 12:00:00 AM","2019","20799","NYTIMES-USCENSUS"
"10/4/2021 12:00:00 AM","Lake County","Montana","West","Mountain","30047","47.642901","-114.083687 ","3288","53","58","0","10/3/2021 12:00:00 AM","2019","30458","NYTIMES-USCENSUS"
"10/4/2021 12:00:00 AM","Tripp County","South Dakota","Midwest","West North Central","46123","43.349729","-99.876219 ","826","18","0","0","10/3/2021 12:00:00 AM","2019","5441","NYTIMES-USCENSUS"
"10/4/2021 12:00:00 AM","Klickitat County","Washington","West","Pacific","53039","45.870446","-120.779305 ","1691","15","27","0","10/3/2021 12:00:00 AM","2019","22425","NYTIMES-USCENSUS"
"10/4/2021 12:00:00 AM","Jefferson County","New York","Northeast","Middle Atlantic","36045","43.996389","-76.052968 ","7967","71","20","0","10/3/2021 12:00:00 AM","2019","109834","NYTIMES-USCENSUS"
"10/4/2021 12:00:00 AM","Kent County","Rhode Island","Northeast","New England","44003","41.675118","-71.580282 ","21591","383","0","0","10/3/2021 12:00:00 AM","2019","164292","NYTIMES-USCENSUS"
"10/4/2021 12:00:00 AM","Vigo County","Indiana","Midwest","East North Central","18167","39.429143","-87.390375 ","16826","297","68","3","10/3/2021 12:00:00 AM","2019","107038","NYTIMES-USCENSUS"
"10/4/2021 12:00:00 AM","Perry County","Tennessee","South","East South Central","47135","35.663752","-87.869326 ","1547","33","7","1","10/3/2021 12:00:00 AM","2019","8076","NYTIMES-USCENSUS"
"10/4/2021 12:00:00 AM","San Juan County","Washington","West","Pacific","53055","48.50719","-123.103769 ","297","0","4","0","10/3/2021 12:00:00 AM","2019","17582","NYTIMES-USCENSUS"
"10/4/2021 12:00:00 AM","Runnels County","Texas","South","West South Central","48399","31.845119","-99.982715 ","1650","52","0","0","10/3/2021 12:00:00 AM","2019","10264","NYTIMES-USCENSUS"
"10/4/2021 12:00:00 AM","Lamoille County","Vermont","Northeast","New England","50015","44.611192","-72.632659 ","1129","5","4","0","10/3/2021 12:00:00 AM","2019","25362","NYTIMES-USCENSUS"
"10/4/2021 12:00:00 AM","North Slope Borough","Alaska","West","Pacific","02185","69.449343","-153.47283 ","2411","5","81","0","10/3/2021 12:00:00 AM","2019","9832","NYTIMES-USCENSUS"
"10/4/2021 12:00:00 AM","Rusk County","Wisconsin","Midwest","East North Central","55107","45.472734","-91.136745 ","2026","31","38","0","10/3/2021 12:00:00 AM","2019","14178","NYTIMES-USCENSUS"
"10/4/2021 12:00:00 AM","East Carroll Parish","Louisiana","South","West South Central","22035","32.73017","-91.234141 ","1532","30","5","0","10/3/2021 12:00:00 AM","2019","6861","NYTIMES-USCENSUS"
"10/4/2021 12:00:00 AM","Andrews County","Texas","South","West South Central","48003","32.312258","-102.640206 ","2688","52","0","0","10/3/2021 12:00:00 AM","2019","18705","NYTIMES-USCENSUS"
"10/4/2021 12:00:00 AM","Presque Isle County","Michigan","Midwest","East North Central","26141","45.252397","-83.432283 ","1260","35","18","0","10/3/2021 12:00:00 AM","2019","12592","NYTIMES-USCENSUS"
"10/4/2021 12:00:00 AM","Monroe County","Alabama","South","East South Central","01099","31.580332","-87.383266 ","3241","58","0","0","10/3/2021 12:00:00 AM","2019","20733","NYTIMES-USCENSUS"
"10/4/2021 12:00:00 AM","Grant County","Kansas","Midwest","West North Central","20067","37.547537","-101.299362 ","1170","25","19","0","10/3/2021 12:00:00 AM","2019","7150","NYTIMES-USCENSUS"
"10/4/2021 12:00:00 AM","Hillsborough County","New Hampshire","Northeast","New England","33011","42.911532","-71.723055 ","42765","665","354","0","10/3/2021 12:00:00 AM","2019","417025","NYTIMES-USCENSUS"
"10/4/2021 12:00:00 AM","DeKalb County","Missouri","Midwest","West North Central","29063","39.894665","-94.40719 ","1426","33","5","0","10/3/2021 12:00:00 AM","2019","12547","NYTIMES-USCENSUS"
"10/4/2021 12:00:00 AM","Hockley County","Texas","South","West South Central","48219","33.605932","-102.343398 ","4046","127","0","0","10/3/2021 12:00:00 AM","2019","23021","NYTIMES-USCENSUS"
"10/4/2021 12:00:00 AM","Fayette County","Tennessee","South","East South Central","47047","35.196993","-89.413803 ","7107","97","36","0","10/3/2021 12:00:00 AM","2019","41133","NYTIMES-USCENSUS"
"10/4/2021 12:00:00 AM","Ontario County","New York","Northeast","Middle Atlantic","36069","42.856357","-77.303497 ","8885","102","14","0","10/3/2021 12:00:00 AM","2019","109777","NYTIMES-USCENSUS"
"10/4/2021 12:00:00 AM","Columbia County","Arkansas","South","West South Central","05027","33.223038","-93.232843 ","3305","66","0","0","10/3/2021 12:00:00 AM","2019","23457","NYTIMES-USCENSUS"
"10/4/2021 12:00:00 AM","Chittenden County","Vermont","Northeast","New England","50007","44.463329","-73.06941 ","10278","120","49","0","10/3/2021 12:00:00 AM","2019","163774","NYTIMES-USCENSUS"
"10/4/2021 12:00:00 AM","Bastrop County","Texas","South","West South Central","48021","30.100772","-97.310639 ","13961","150","47","0","10/3/2021 12:00:00 AM","2019","88723","NYTIMES-USCENSUS"
"10/4/2021 12:00:00 AM","Cass County","Minnesota","Midwest","West North Central","27021","46.951745","-94.333705 ","3763","40","30","1","10/3/2021 12:00:00 AM","2019","29779","NYTIMES-USCENSUS"
"10/4/2021 12:00:00 AM","Monona County","Iowa","Midwest","West North Central","19133","42.049432","-95.956566 ","1017","34","0","0","10/3/2021 12:00:00 AM","2019","8615","NYTIMES-USCENSUS"
"10/4/2021 12:00:00 AM","Maui County","Hawaii","West","Pacific","15009","20.855931","-156.60155 ","9531","89","16","2","10/3/2021 12:00:00 AM","2019","167417","NYTIMES-USCENSUS"
"10/4/2021 12:00:00 AM","Charlevoix County","Michigan","Midwest","East North Central","26029","45.618554","-85.543684 ","2219","29","49","0","10/3/2021 12:00:00 AM","2019","26143","NYTIMES-USCENSUS"
"10/4/2021 12:00:00 AM","Rolette County","North Dakota","Midwest","West North Central","38079","48.768271","-99.840463 ","2593","30","10","0","10/3/2021 12:00:00 AM","2019","14176","NYTIMES-USCENSUS"
"10/4/2021 12:00:00 AM","Citrus County","Florida","South","South Atlantic","12017","28.850292","-82.595552 ","20018","733","0","0","10/3/2021 12:00:00 AM","2019","149657","NYTIMES-USCENSUS"
"10/4/2021 12:00:00 AM","Dane County","Wisconsin","Midwest","East North Central","55025","43.067468","-89.417852 ","55114","358","325","1","10/3/2021 12:00:00 AM","2019","546695","NYTIMES-USCENSUS"
"10/4/2021 12:00:00 AM","Stutsman County","North Dakota","Midwest","West North Central","38093","46.972223","-98.956123 ","4108","82","4","0","10/3/2021 12:00:00 AM","2019","20704","NYTIMES-USCENSUS"
"10/4/2021 12:00:00 AM","Trimble County","Kentucky","South","East South Central","21223","38.62004","-85.351208 ","1119","10","10","1","10/3/2021 12:00:00 AM","2019","8471","NYTIMES-USCENSUS"
"10/4/2021 12:00:00 AM","Jay County","Indiana","Midwest","East North Central","18075","40.434956","-85.002331 ","2707","43","36","0","10/3/2021 12:00:00 AM","2019","20436","NYTIMES-USCENSUS"
"10/4/2021 12:00:00 AM","Johnson County","Missouri","Midwest","West North Central","29101","38.741528","-93.811863 ","6881","69","10","0","10/3/2021 12:00:00 AM","2019","54062","NYTIMES-USCENSUS"
"10/4/2021 12:00:00 AM","Ouachita County","Arkansas","South","West South Central","05103","33.591168","-92.878413 ","3361","76","0","1","10/3/2021 12:00:00 AM","2019","23382","NYTIMES-USCENSUS"
"10/4/2021 12:00:00 AM","Mills County","Iowa","Midwest","West North Central","19129","41.033703","-95.619101 ","1914","25","0","0","10/3/2021 12:00:00 AM","2019","15109","NYTIMES-USCENSUS"
"10/4/2021 12:00:00 AM","Clinton County","Illinois","Midwest","East North Central","17027","38.606295","-89.426228 ","6936","109","34","0","10/3/2021 12:00:00 AM","2019","37562","NYTIMES-USCENSUS"
"10/4/2021 12:00:00 AM","Custer County","Oklahoma","South","West South Central","40039","35.645601","-98.997386 ","4742","111","0","0","10/3/2021 12:00:00 AM","2019","29003","NYTIMES-USCENSUS"
"10/4/2021 12:00:00 AM","Steele County","Minnesota","Midwest","West North Central","27147","44.015261","-93.220453 ","5406","21","32","0","10/3/2021 12:00:00 AM","2019","36649","NYTIMES-USCENSUS"
"10/4/2021 12:00:00 AM","Harrison County","Texas","South","West South Central","48203","32.547991","-94.374434 ","8871","161","0","0","10/3/2021 12:00:00 AM","2019","66553","NYTIMES-USCENSUS"
"10/4/2021 12:00:00 AM","Nash County","North Carolina","South","South Atlantic","37127","35.965945","-77.987555 ","14824","222","124","1","10/3/2021 12:00:00 AM","2019","94298","NYTIMES-USCENSUS"
"10/4/2021 12:00:00 AM","Fresno County","California","West","Pacific","06019","36.761006","-119.655019 ","140650","1978","915","14","10/3/2021 12:00:00 AM","2019","999101","NYTIMES-USCENSUS"
"10/4/2021 12:00:00 AM","Lee County","Alabama","South","East South Central","01081","32.604064","-85.353048 ","22920","228","10","0","10/3/2021 12:00:00 AM","2019","164542","NYTIMES-USCENSUS"
"10/4/2021 12:00:00 AM","Clackamas County","Oregon","West","Pacific","41005","45.160493","-122.195127 ","28169","279","260","0","10/3/2021 12:00:00 AM","2019","418187","NYTIMES-USCENSUS"
"10/4/2021 12:00:00 AM","Emery County","Utah","West","Mountain","49015","39.009025","-110.7211 ","1283","16","0","0","10/3/2021 12:00:00 AM","2019","10012","NYTIMES-USCENSUS"
"10/4/2021 12:00:00 AM","Uintah County","Utah","West","Mountain","49047","40.125887","-109.517748 ","4607","39","40","0","10/3/2021 12:00:00 AM","2019","35734","NYTIMES-USCENSUS"
"10/4/2021 12:00:00 AM","Ouachita Parish","Louisiana","South","West South Central","22073","32.480932","-92.151581 ","30656","570","109","2","10/3/2021 12:00:00 AM","2019","153279","NYTIMES-USCENSUS"
"10/4/2021 12:00:00 AM","Carson City","Nevada","West","Mountain","32510","39.15306","-119.747368 ","8366","146","38","0","10/3/2021 12:00:00 AM","2019","55916","NYTIMES-USCENSUS"
"10/4/2021 12:00:00 AM","Marion County","Arkansas","South","West South Central","05089","36.266664","-92.678577 ","2094","55","3","0","10/3/2021 12:00:00 AM","2019","16694","NYTIMES-USCENSUS"
"10/4/2021 12:00:00 AM","Oscoda County","Michigan","Midwest","East North Central","26135","44.687257","-84.126905 ","839","32","8","0","10/3/2021 12:00:00 AM","2019","8241","NYTIMES-USCENSUS"
"10/4/2021 12:00:00 AM","Chesapeake city","Virginia","South","South Atlantic","51550","36.679376","-76.301788 ","27554","340","209","3","10/3/2021 12:00:00 AM","2019","244835","NYTIMES-USCENSUS"
"10/4/2021 12:00:00 AM","Holt County","Nebraska","Midwest","West North Central","31089","42.459287","-98.784766 ","1109","15","7","0","10/3/2021 12:00:00 AM","2019","10067","NYTIMES-USCENSUS"
"10/4/2021 12:00:00 AM","McCracken County","Kentucky","South","East South Central","21145","37.054111","-88.712454 ","9634","160","46","2","10/3/2021 12:00:00 AM","2019","65418","NYTIMES-USCENSUS"
"10/4/2021 12:00:00 AM","Cameron County","Texas","South","West South Central","48061","26.102923","-97.478958 ","63896","1908","0","3","10/3/2021 12:00:00 AM","2019","423163","NYTIMES-USCENSUS"
"10/4/2021 12:00:00 AM","Green County","Kentucky","South","East South Central","21087","37.278065","-85.537925 ","2299","29","0","0","10/3/2021 12:00:00 AM","2019","10941","NYTIMES-USCENSUS"
"10/4/2021 12:00:00 AM","Hennepin County","Minnesota","Midwest","West North Central","27053","45.006121","-93.475228 ","145674","1881","441","2","10/3/2021 12:00:00 AM","2019","1265843","NYTIMES-USCENSUS"
"10/4/2021 12:00:00 AM","Bladen County","North Carolina","South","South Atlantic","37017","34.591938","-78.539489 ","5319","92","24","0","10/3/2021 12:00:00 AM","2019","32722","NYTIMES-USCENSUS"
"10/4/2021 12:00:00 AM","Blanco County","Texas","South","West South Central","48031","30.266456","-98.399217 ","1265","27","10","0","10/3/2021 12:00:00 AM","2019","11931","NYTIMES-USCENSUS"
"10/4/2021 12:00:00 AM","Izard County","Arkansas","South","West South Central","05065","36.094879","-91.913625 ","2399","55","1","0","10/3/2021 12:00:00 AM","2019","13629","NYTIMES-USCENSUS"
"10/4/2021 12:00:00 AM","Palo Pinto County","Texas","South","West South Central","48363","32.752204","-98.317967 ","4523","107","0","0","10/3/2021 12:00:00 AM","2019","29189","NYTIMES-USCENSUS"
"10/4/2021 12:00:00 AM","Mahaska County","Iowa","Midwest","West North Central","19123","41.330797","-92.636366 ","2941","56","0","0","10/3/2021 12:00:00 AM","2019","22095","NYTIMES-USCENSUS"
"10/4/2021 12:00:00 AM","Calhoun County","South Carolina","South","South Atlantic","45017","33.67478","-80.780347 ","1710","51","5","1","10/3/2021 12:00:00 AM","2019","14553","NYTIMES-USCENSUS"
"10/4/2021 12:00:00 AM","Saline County","Illinois","Midwest","East North Central","17165","37.751508","-88.545024 ","4244","84","21","0","10/3/2021 12:00:00 AM","2019","23491","NYTIMES-USCENSUS"
"10/4/2021 12:00:00 AM","Madison County","Alabama","South","East South Central","01089","34.764238","-86.55108 ","51090","649","49","0","10/3/2021 12:00:00 AM","2019","372909","NYTIMES-USCENSUS"
"10/4/2021 12:00:00 AM","Harvey County","Kansas","Midwest","West North Central","20079","38.050144","-97.436706 ","4685","78","24","0","10/3/2021 12:00:00 AM","2019","34429","NYTIMES-USCENSUS"
"10/4/2021 12:00:00 AM","Wheeler County","Georgia","South","South Atlantic","13309","32.105258","-82.733849 ","937","33","0","0","10/3/2021 12:00:00 AM","2019","7855","NYTIMES-USCENSUS"
"10/4/2021 12:00:00 AM","O'Brien County","Iowa","Midwest","West North Central","19141","43.083746","-95.625624 ","2156","63","0","0","10/3/2021 12:00:00 AM","2019","13753","NYTIMES-USCENSUS"
"10/4/2021 12:00:00 AM","Newton County","Texas","South","West South Central","48351","30.786718","-93.73925 ","931","47","0","0","10/3/2021 12:00:00 AM","2019","13595","NYTIMES-USCENSUS"
"10/4/2021 12:00:00 AM","Jackson County","Wisconsin","Midwest","East North Central","55053","44.32459","-90.79951 ","3191","31","15","0","10/3/2021 12:00:00 AM","2019","20643","NYTIMES-USCENSUS"
"10/4/2021 12:00:00 AM","Oglala Lakota County","South Dakota","Midwest","West North Central","46102","43.333393","-102.561486 ","2317","52","6","0","10/3/2021 12:00:00 AM","2019","14177","NYTIMES-USCENSUS"
"10/4/2021 12:00:00 AM","Oneida County","New York","Northeast","Middle Atlantic","36065","43.242727","-75.434282 ","26983","566","44","0","10/3/2021 12:00:00 AM","2019","228671","NYTIMES-USCENSUS"
"10/4/2021 12:00:00 AM","Lewis and Clark County","Montana","West","Mountain","30049","47.132013","-112.373367 ","9382","102","141","0","10/3/2021 12:00:00 AM","2019","69432","NYTIMES-USCENSUS"
"10/4/2021 12:00:00 AM","Tulsa County","Oklahoma","South","West South Central","40143","36.120318","-95.941813 ","102751","1440","0","0","10/3/2021 12:00:00 AM","2019","651552","NYTIMES-USCENSUS"
"10/4/2021 12:00:00 AM","Lincoln County","Colorado","West","Mountain","08073","38.99374","-103.507555 ","1232","6","3","0","10/3/2021 12:00:00 AM","2019","5701","NYTIMES-USCENSUS"
"10/4/2021 12:00:00 AM","Adams County","Nebraska","Midwest","West North Central","31001","40.520632","-98.500044 ","3737","54","21","0","10/3/2021 12:00:00 AM","2019","31363","NYTIMES-USCENSUS"
"10/4/2021 12:00:00 AM","Franklin County","Pennsylvania","Northeast","Middle Atlantic","42055","39.926772","-77.724521 ","20104","420","63","0","10/3/2021 12:00:00 AM","2019","155027","NYTIMES-USCENSUS"
"10/4/2021 12:00:00 AM","Orleans Parish","Louisiana","South","West South Central","22071","30.05342","-89.934502 ","46003","972","91","3","10/3/2021 12:00:00 AM","2019","390144","NYTIMES-USCENSUS"
"10/4/2021 12:00:00 AM","Washington County","Oklahoma","South","West South Central","40147","36.704403","-95.906253 ","8159","171","0","0","10/3/2021 12:00:00 AM","2019","51527","NYTIMES-USCENSUS"
"10/4/2021 12:00:00 AM","Indian River County","Florida","South","South Atlantic","12061","27.700528","-80.574789 ","21802","515","0","0","10/3/2021 12:00:00 AM","2019","159923","NYTIMES-USCENSUS"
"10/4/2021 12:00:00 AM","Ford County","Illinois","Midwest","East North Central","17053","40.596539","-88.224588 ","2383","66","11","0","10/3/2021 12:00:00 AM","2019","12961","NYTIMES-USCENSUS"
"10/4/2021 12:00:00 AM","Kittson County","Minnesota","Midwest","West North Central","27069","48.77604","-96.780349 ","563","22","0","0","10/3/2021 12:00:00 AM","2019","4298","NYTIMES-USCENSUS"
"10/4/2021 12:00:00 AM","Yates County","New York","Northeast","Middle Atlantic","36123","42.638237","-77.104324 ","1459","26","3","0","10/3/2021 12:00:00 AM","2019","24913","NYTIMES-USCENSUS"
"10/4/2021 12:00:00 AM","Clarke County","Iowa","Midwest","West North Central","19039","41.029726","-93.785259 ","1344","27","0","0","10/3/2021 12:00:00 AM","2019","9395","NYTIMES-USCENSUS"
"10/4/2021 12:00:00 AM","Sedgwick County","Kansas","Midwest","West North Central","20173","37.681045","-97.461054 ","77281","936","433","0","10/3/2021 12:00:00 AM","2019","516042","NYTIMES-USCENSUS"
"10/4/2021 12:00:00 AM","Hardeman County","Texas","South","West South Central","48197","34.289904","-99.745697 ","442","13","0","0","10/3/2021 12:00:00 AM","2019","3933","NYTIMES-USCENSUS"
"10/4/2021 12:00:00 AM","Androscoggin County","Maine","Northeast","New England","23001","44.167681","-70.207435 ","9796","93","0","0","10/3/2021 12:00:00 AM","2019","108277","NYTIMES-USCENSUS"
"10/4/2021 12:00:00 AM","Miami County","Ohio","Midwest","East North Central","39109","40.053326","-84.228413 ","14632","271","70","0","10/3/2021 12:00:00 AM","2019","106987","NYTIMES-USCENSUS"
"10/4/2021 12:00:00 AM","Umatilla County","Oregon","West","Pacific","41059","45.5912","-118.73388 ","13596","129","80","0","10/3/2021 12:00:00 AM","2019","77950","NYTIMES-USCENSUS"
"10/4/2021 12:00:00 AM","Calhoun County","Georgia","South","South Atlantic","13037","31.521279","-84.62629 ","832","20","0","0","10/3/2021 12:00:00 AM","2019","6189","NYTIMES-USCENSUS"
"10/4/2021 12:00:00 AM","Mercer County","Ohio","Midwest","East North Central","39107","40.535333","-84.632059 ","5836","91","13","0","10/3/2021 12:00:00 AM","2019","41172","NYTIMES-USCENSUS"
"10/4/2021 12:00:00 AM","Summit County","Ohio","Midwest","East North Central","39153","41.121847","-81.534928 ","58506","1067","158","0","10/3/2021 12:00:00 AM","2019","541013","NYTIMES-USCENSUS"
"10/4/2021 12:00:00 AM","Craven County","North Carolina","South","South Atlantic","37049","35.116829","-77.08132 ","13702","149","123","1","10/3/2021 12:00:00 AM","2019","102139","NYTIMES-USCENSUS"
"10/4/2021 12:00:00 AM","Gilmer County","Georgia","South","South Atlantic","13123","34.690506","-84.454624 ","4463","124","26","1","10/3/2021 12:00:00 AM","2019","31369","NYTIMES-USCENSUS"
"10/4/2021 12:00:00 AM","New Haven County","Connecticut","Northeast","New England","09009","41.349718","-72.900203 ","103016","2212","276","-2","10/3/2021 12:00:00 AM","2019","854757","NYTIMES-USCENSUS"
"10/4/2021 12:00:00 AM","Vermilion Parish","Louisiana","South","West South Central","22113","29.789722","-92.291568 ","9969","179","24","0","10/3/2021 12:00:00 AM","2019","59511","NYTIMES-USCENSUS"
"10/4/2021 12:00:00 AM","Sully County","South Dakota","Midwest","West North Central","46119","44.722325","-100.131399 ","151","3","0","0","10/3/2021 12:00:00 AM","2019","1391","NYTIMES-USCENSUS"
"10/4/2021 12:00:00 AM","Gray County","Kansas","Midwest","West North Central","20069","37.744513","-100.451716 ","776","14","2","0","10/3/2021 12:00:00 AM","2019","5988","NYTIMES-USCENSUS"
"10/4/2021 12:00:00 AM","Van Wert County","Ohio","Midwest","East North Central","39161","40.85552","-84.585775 ","3380","73","19","0","10/3/2021 12:00:00 AM","2019","28275","NYTIMES-USCENSUS"
"10/4/2021 12:00:00 AM","Jackson County","Illinois","Midwest","East North Central","17077","37.786096","-89.381212 ","7911","103","35","1","10/3/2021 12:00:00 AM","2019","56750","NYTIMES-USCENSUS"
"10/4/2021 12:00:00 AM","Scotland County","Missouri","Midwest","West North Central","29199","40.447686","-92.142824 ","333","4","0","0","10/3/2021 12:00:00 AM","2019","4902","NYTIMES-USCENSUS"
"10/4/2021 12:00:00 AM","Hubbard County","Minnesota","Midwest","West North Central","27057","47.095551","-94.91329 ","2593","41","39","0","10/3/2021 12:00:00 AM","2019","21491","NYTIMES-USCENSUS"
"10/4/2021 12:00:00 AM","Finney County","Kansas","Midwest","West North Central","20055","38.049808","-100.739967 ","7095","79","17","0","10/3/2021 12:00:00 AM","2019","36467","NYTIMES-USCENSUS"
"10/4/2021 12:00:00 AM","Tate County","Mississippi","South","East South Central","28137","34.649553","-89.943105 ","4477","106","26","0","10/3/2021 12:00:00 AM","2019","28321","NYTIMES-USCENSUS"
"10/4/2021 12:00:00 AM","Hall County","Nebraska","Midwest","West North Central","31079","40.866027","-98.502664 ","9441","120","36","0","10/3/2021 12:00:00 AM","2019","61353","NYTIMES-USCENSUS"
"10/4/2021 12:00:00 AM","Union County","South Carolina","South","South Atlantic","45087","34.690397","-81.615896 ","4261","95","57","1","10/3/2021 12:00:00 AM","2019","27316","NYTIMES-USCENSUS"
"10/4/2021 12:00:00 AM","Montgomery County","Pennsylvania","Northeast","Middle Atlantic","42091","40.209999","-75.370201 ","81411","1794","216","0","10/3/2021 12:00:00 AM","2019","830915","NYTIMES-USCENSUS"
"10/4/2021 12:00:00 AM","Mason County","West Virginia","South","South Atlantic","54053","38.770914","-82.029007 ","3329","49","6","0","10/3/2021 12:00:00 AM","2019","26516","NYTIMES-USCENSUS"
"10/4/2021 12:00:00 AM","Allamakee County","Iowa","Midwest","West North Central","19005","43.274964","-91.382751 ","1846","52","0","0","10/3/2021 12:00:00 AM","2019","13687","NYTIMES-USCENSUS"
"10/4/2021 12:00:00 AM","Benton County","Indiana","Midwest","East North Central","18007","40.600939","-87.314786 ","1473","16","14","0","10/3/2021 12:00:00 AM","2019","8748","NYTIMES-USCENSUS"
"10/4/2021 12:00:00 AM","Petersburg Borough","Alaska","West","Pacific","02195","57.112458","-133.008598 ","257","2","14","0","10/3/2021 12:00:00 AM","2019","3266","NYTIMES-USCENSUS"
"10/4/2021 12:00:00 AM","Kings County","California","West","Pacific","06031","36.072478","-119.81553 ","31456","300","284","-1","10/3/2021 12:00:00 AM","2019","152940","NYTIMES-USCENSUS"
"10/4/2021 12:00:00 AM","Stephenson County","Illinois","Midwest","East North Central","17177","42.349726","-89.665994 ","5646","110","45","0","10/3/2021 12:00:00 AM","2019","44498","NYTIMES-USCENSUS"
"10/4/2021 12:00:00 AM","Wabasha County","Minnesota","Midwest","West North Central","27157","44.289634","-92.233454 ","2622","5","12","0","10/3/2021 12:00:00 AM","2019","21627","NYTIMES-USCENSUS"
"10/4/2021 12:00:00 AM","Crawford County","Missouri","Midwest","West North Central","29055","37.966559","-91.313936 ","3488","56","2","0","10/3/2021 12:00:00 AM","2019","23920","NYTIMES-USCENSUS"
"10/4/2021 12:00:00 AM","Sumner County","Tennessee","South","East South Central","47165","36.472423","-86.458405 ","33318","402","146","0","10/3/2021 12:00:00 AM","2019","191283","NYTIMES-USCENSUS"
"10/4/2021 12:00:00 AM","Allegany County","Maryland","South","South Atlantic","24001","39.612313","-78.703104 ","9113","236","77","1","10/3/2021 12:00:00 AM","2019","70416","NYTIMES-USCENSUS"
"10/4/2021 12:00:00 AM","Ionia County","Michigan","Midwest","East North Central","26067","42.94465","-85.073766 ","10861","94","134","2","10/3/2021 12:00:00 AM","2019","64697","NYTIMES-USCENSUS"
"10/4/2021 12:00:00 AM","Comal County","Texas","South","West South Central","48091","29.812377","-98.258129 ","18594","427","0","0","10/3/2021 12:00:00 AM","2019","156209","NYTIMES-USCENSUS"
"10/4/2021 12:00:00 AM","Kay County","Oklahoma","South","West South Central","40071","36.814885","-97.143862 ","6792","146","0","0","10/3/2021 12:00:00 AM","2019","43538","NYTIMES-USCENSUS"
"10/4/2021 12:00:00 AM","Osage County","Missouri","Midwest","West North Central","29151","38.464253","-91.859504 ","2094","22","0","0","10/3/2021 12:00:00 AM","2019","13615","NYTIMES-USCENSUS"
"10/4/2021 12:00:00 AM","Grundy County","Missouri","Midwest","West North Central","29079","40.112541","-93.565054 ","1530","47","3","0","10/3/2021 12:00:00 AM","2019","9850","NYTIMES-USCENSUS"
"10/4/2021 12:00:00 AM","McIntosh County","North Dakota","Midwest","West North Central","38051","46.108682","-99.416487 ","429","8","0","0","10/3/2021 12:00:00 AM","2019","2497","NYTIMES-USCENSUS"
"10/4/2021 12:00:00 AM","Bullock County","Alabama","South","East South Central","01011","32.101759","-85.717261 ","1507","44","0","0","10/3/2021 12:00:00 AM","2019","10101","NYTIMES-USCENSUS"
"10/4/2021 12:00:00 AM","Monroe County","Wisconsin","Midwest","East North Central","55081","43.945175","-90.619969 ","5945","54","86","0","10/3/2021 12:00:00 AM","2019","46253","NYTIMES-USCENSUS"
"10/4/2021 12:00:00 AM","Geauga County","Ohio","Midwest","East North Central","39055","41.499322","-81.173505 ","8461","158","21","0","10/3/2021 12:00:00 AM","2019","93649","NYTIMES-USCENSUS"
"10/4/2021 12:00:00 AM","Baltimore city","Maryland","South","South Atlantic","24510","39.300032","-76.610476 ","59588","1314","129","0","10/3/2021 12:00:00 AM","2019","593490","NYTIMES-USCENSUS"
"10/4/2021 12:00:00 AM","Charlotte County","Virginia","South","South Atlantic","51037","37.009042","-78.658568 ","1181","24","11","0","10/3/2021 12:00:00 AM","2019","11880","NYTIMES-USCENSUS"
"10/4/2021 12:00:00 AM","Fairfax County","Virginia","South","South Atlantic","51059","38.82952","-77.273252 ","88852","1153","388","1","10/3/2021 12:00:00 AM","2019","1147532","NYTIMES-USCENSUS"
"10/4/2021 12:00:00 AM","Monroe County","Arkansas","South","West South Central","05095","34.679512","-91.20331 ","1173","22","0","1","10/3/2021 12:00:00 AM","2019","6701","NYTIMES-USCENSUS"
"10/4/2021 12:00:00 AM","Pottawattamie County","Iowa","Midwest","West North Central","19155","41.340184","-95.544905 ","13607","190","0","0","10/3/2021 12:00:00 AM","2019","93206","NYTIMES-USCENSUS"
"10/4/2021 12:00:00 AM","Pottawatomie County","Oklahoma","South","West South Central","40125","35.211391","-96.957004 ","10975","158","0","0","10/3/2021 12:00:00 AM","2019","72592","NYTIMES-USCENSUS"
"10/4/2021 12:00:00 AM","Licking County","Ohio","Midwest","East North Central","39089","40.091505","-82.483435 ","22052","259","65","0","10/3/2021 12:00:00 AM","2019","176862","NYTIMES-USCENSUS"
"10/4/2021 12:00:00 AM","Pickaway County","Ohio","Midwest","East North Central","39129","39.648947","-83.052827 ","10925","131","29","0","10/3/2021 12:00:00 AM","2019","58457","NYTIMES-USCENSUS"
"10/4/2021 12:00:00 AM","Eastland County","Texas","South","West South Central","48133","32.324645","-98.83656 ","2008","72","0","0","10/3/2021 12:00:00 AM","2019","18360","NYTIMES-USCENSUS"
"10/4/2021 12:00:00 AM","White County","Georgia","South","South Atlantic","13311","34.644182","-83.743 ","4731","117","10","1","10/3/2021 12:00:00 AM","2019","30798","NYTIMES-USCENSUS"
"10/4/2021 12:00:00 AM","Brown County","Minnesota","Midwest","West North Central","27015","44.246541","-94.733647 ","3741","44","34","0","10/3/2021 12:00:00 AM","2019","25008","NYTIMES-USCENSUS"
"10/4/2021 12:00:00 AM","Rockingham County","New Hampshire","Northeast","New England","33015","42.988664","-71.09908 ","29252","289","240","0","10/3/2021 12:00:00 AM","2019","309769","NYTIMES-USCENSUS"
"10/4/2021 12:00:00 AM","Grand Traverse County","Michigan","Midwest","East North Central","26055","44.718688","-85.553848 ","8097","111","97","3","10/3/2021 12:00:00 AM","2019","93088","NYTIMES-USCENSUS"
"10/4/2021 12:00:00 AM","Dodge County","Minnesota","Midwest","West North Central","27039","44.020706","-92.869353 ","2561","6","17","1","10/3/2021 12:00:00 AM","2019","20934","NYTIMES-USCENSUS"
"10/4/2021 12:00:00 AM","Kankakee County","Illinois","Midwest","East North Central","17091","41.13951","-87.861117 ","17325","247","131","2","10/3/2021 12:00:00 AM","2019","109862","NYTIMES-USCENSUS"
"10/4/2021 12:00:00 AM","Lackawanna County","Pennsylvania","Northeast","Middle Atlantic","42069","41.440284","-75.609666 ","21443","507","81","0","10/3/2021 12:00:00 AM","2019","209674","NYTIMES-USCENSUS"
"10/4/2021 12:00:00 AM","Mitchell County","Kansas","Midwest","West North Central","20123","39.393026","-98.207362 ","716","16","2","0","10/3/2021 12:00:00 AM","2019","5979","NYTIMES-USCENSUS"
"10/4/2021 12:00:00 AM","Polk County","Nebraska","Midwest","West North Central","31143","41.187925","-97.570663 ","726","18","10","0","10/3/2021 12:00:00 AM","2019","5213","NYTIMES-USCENSUS"
"10/4/2021 12:00:00 AM","Noble County","Oklahoma","South","West South Central","40103","36.384901","-97.236335 ","1820","27","0","0","10/3/2021 12:00:00 AM","2019","11131","NYTIMES-USCENSUS"
"10/4/2021 12:00:00 AM","Pend Oreille County","Washington","West","Pacific","53051","48.543825","-117.232191 ","1360","19","22","0","10/3/2021 12:00:00 AM","2019","13724","NYTIMES-USCENSUS"
"10/4/2021 12:00:00 AM","Gwinnett County","Georgia","South","South Atlantic","13135","33.958756","-84.025735 ","128988","1355","1096","5","10/3/2021 12:00:00 AM","2019","936250","NYTIMES-USCENSUS"
"10/4/2021 12:00:00 AM","Atlantic County","New Jersey","Northeast","Middle Atlantic","34001","39.469355","-74.633759 ","37965","742","69","2","10/3/2021 12:00:00 AM","2019","263670","NYTIMES-USCENSUS"
"10/4/2021 12:00:00 AM","Delaware County","Oklahoma","South","West South Central","40041","36.393437","-94.808189 ","7008","126","0","0","10/3/2021 12:00:00 AM","2019","43009","NYTIMES-USCENSUS"
"10/4/2021 12:00:00 AM","Fulton County","Illinois","Midwest","East North Central","17057","40.46524","-90.202269 ","5031","78","31","0","10/3/2021 12:00:00 AM","2019","34340","NYTIMES-USCENSUS"
"10/4/2021 12:00:00 AM","Pike County","Georgia","South","South Atlantic","13231","33.081149","-84.389462 ","3724","64","7","1","10/3/2021 12:00:00 AM","2019","18962","NYTIMES-USCENSUS"
"10/4/2021 12:00:00 AM","Santa Barbara County","California","West","Pacific","06083","34.536677","-120.038364 ","44175","511","127","3","10/3/2021 12:00:00 AM","2019","446499","NYTIMES-USCENSUS"
"10/4/2021 12:00:00 AM","Cuming County","Nebraska","Midwest","West North Central","31039","41.915865","-96.788517 ","1124","15","3","0","10/3/2021 12:00:00 AM","2019","8846","NYTIMES-USCENSUS"
"10/4/2021 12:00:00 AM","DeKalb County","Georgia","South","South Atlantic","13089","33.770661","-84.226343 ","89382","1220","657","12","10/3/2021 12:00:00 AM","2019","759297","NYTIMES-USCENSUS"
"10/4/2021 12:00:00 AM","Carroll County","Indiana","Midwest","East North Central","18015","40.58498","-86.565141 ","2515","33","15","0","10/3/2021 12:00:00 AM","2019","20257","NYTIMES-USCENSUS"
"10/4/2021 12:00:00 AM","Wyandotte County","Kansas","Midwest","West North Central","20209","39.115384","-94.763087 ","27315","363","76","0","10/3/2021 12:00:00 AM","2019","165429","NYTIMES-USCENSUS"
"10/4/2021 12:00:00 AM","Jasper County","Texas","South","West South Central","48241","30.752932","-94.022294 ","3927","135","18","0","10/3/2021 12:00:00 AM","2019","35529","NYTIMES-USCENSUS"
"10/4/2021 12:00:00 AM","Fleming County","Kentucky","South","East South Central","21069","38.367848","-83.699205 ","2013","29","11","0","10/3/2021 12:00:00 AM","2019","14581","NYTIMES-USCENSUS"
"10/4/2021 12:00:00 AM","Crow Wing County","Minnesota","Midwest","West North Central","27035","46.491653","-94.070718 ","8543","104","90","0","10/3/2021 12:00:00 AM","2019","65055","NYTIMES-USCENSUS"
"10/4/2021 12:00:00 AM","Davidson County","Tennessee","South","East South Central","47037","36.169129","-86.78479 ","129061","1101","725","4","10/3/2021 12:00:00 AM","2019","694144","NYTIMES-USCENSUS"
"10/4/2021 12:00:00 AM","Spencer County","Indiana","Midwest","East North Central","18147","38.009697","-87.010375 ","3293","37","19","0","10/3/2021 12:00:00 AM","2019","20277","NYTIMES-USCENSUS"
"10/4/2021 12:00:00 AM","Campbell County","Virginia","South","South Atlantic","51031","37.210152","-79.095428 ","6734","127","51","0","10/3/2021 12:00:00 AM","2019","54885","NYTIMES-USCENSUS"
"10/4/2021 12:00:00 AM","Rowan County","Kentucky","South","East South Central","21205","38.204266","-83.428079 ","3267","26","39","0","10/3/2021 12:00:00 AM","2019","24460","NYTIMES-USCENSUS"
"10/4/2021 12:00:00 AM","Wayne County","Kentucky","South","East South Central","21231","36.800772","-84.82659 ","3314","57","0","0","10/3/2021 12:00:00 AM","2019","20333","NYTIMES-USCENSUS"
"10/4/2021 12:00:00 AM","Hunterdon County","New Jersey","Northeast","Middle Atlantic","34019","40.565283","-74.911969 ","11471","187","21","0","10/3/2021 12:00:00 AM","2019","124371","NYTIMES-USCENSUS"
"10/4/2021 12:00:00 AM","Harrison County","Kentucky","South","East South Central","21097","38.444578","-84.334131 ","3033","30","24","1","10/3/2021 12:00:00 AM","2019","18886","NYTIMES-USCENSUS"
"10/4/2021 12:00:00 AM","Orange County","New York","Northeast","Middle Atlantic","36071","41.40241","-74.306252 ","55744","763","70","0","10/3/2021 12:00:00 AM","2019","384940","NYTIMES-USCENSUS"
"10/4/2021 12:00:00 AM","Glades County","Florida","South","South Atlantic","12043","26.95481","-81.19082 ","1395","24","0","0","10/3/2021 12:00:00 AM","2019","13811","NYTIMES-USCENSUS"
"10/4/2021 12:00:00 AM","Taos County","New Mexico","West","Mountain","35055","36.577183","-105.638878 ","2237","62","12","1","10/3/2021 12:00:00 AM","2019","32723","NYTIMES-USCENSUS"
"10/4/2021 12:00:00 AM","Newton County","Missouri","Midwest","West North Central","29145","36.908371","-94.335034 ","7607","117","3","0","10/3/2021 12:00:00 AM","2019","58236","NYTIMES-USCENSUS"
"10/4/2021 12:00:00 AM","Klamath County","Oregon","West","Pacific","41035","42.683761","-121.646168 ","7084","97","57","0","10/3/2021 12:00:00 AM","2019","68238","NYTIMES-USCENSUS"
"10/4/2021 12:00:00 AM","Montmorency County","Michigan","Midwest","East North Central","26119","45.024134","-84.130107 ","802","24","12","0","10/3/2021 12:00:00 AM","2019","9328","NYTIMES-USCENSUS"
"10/4/2021 12:00:00 AM","Steele County","North Dakota","Midwest","West North Central","38091","47.451062","-97.71892 ","233","2","0","0","10/3/2021 12:00:00 AM","2019","1890","NYTIMES-USCENSUS"
"10/4/2021 12:00:00 AM","Garfield County","Colorado","West","Mountain","08045","39.599352","-107.90978 ","7332","59","69","0","10/3/2021 12:00:00 AM","2019","60061","NYTIMES-USCENSUS"
"10/4/2021 12:00:00 AM","McLennan County","Texas","South","West South Central","48309","31.549596","-97.201511 ","40750","662","0","2","10/3/2021 12:00:00 AM","2019","256623","NYTIMES-USCENSUS"
"10/4/2021 12:00:00 AM","Nottoway County","Virginia","South","South Atlantic","51135","37.141167","-78.053866 ","2488","60","14","0","10/3/2021 12:00:00 AM","2019","15232","NYTIMES-USCENSUS"
"10/4/2021 12:00:00 AM","Pulaski County","Missouri","Midwest","West North Central","29169","37.824835","-92.207022 ","5000","74","2","0","10/3/2021 12:00:00 AM","2019","52607","NYTIMES-USCENSUS"
"10/4/2021 12:00:00 AM","East Baton Rouge Parish","Louisiana","South","West South Central","22033","30.54393","-91.093131 ","62790","1131","115","4","10/3/2021 12:00:00 AM","2019","440059","NYTIMES-USCENSUS"
"10/4/2021 12:00:00 AM","Warrick County","Indiana","Midwest","East North Central","18173","38.097728","-87.272049 ","10964","185","54","3","10/3/2021 12:00:00 AM","2019","62998","NYTIMES-USCENSUS"
"10/4/2021 12:00:00 AM","Tompkins County","New York","Northeast","Middle Atlantic","36109","42.453006","-76.473483 ","6202","59","5","0","10/3/2021 12:00:00 AM","2019","102180","NYTIMES-USCENSUS"
"10/4/2021 12:00:00 AM","Wood County","West Virginia","South","South Atlantic","54107","39.211602","-81.516234 ","11994","212","36","3","10/3/2021 12:00:00 AM","2019","83518","NYTIMES-USCENSUS"
"10/4/2021 12:00:00 AM","Liberty County","Florida","South","South Atlantic","12077","30.259849","-84.86858 ","1787","19","0","0","10/3/2021 12:00:00 AM","2019","8354","NYTIMES-USCENSUS"
"10/4/2021 12:00:00 AM","Coryell County","Texas","South","West South Central","48099","31.391177","-97.798022 ","10341","145","17","0","10/3/2021 12:00:00 AM","2019","75951","NYTIMES-USCENSUS"
"10/4/2021 12:00:00 AM","Colfax County","New Mexico","West","Mountain","35007","36.612964","-104.64011 ","1324","47","6","0","10/3/2021 12:00:00 AM","2019","11941","NYTIMES-USCENSUS"
"10/4/2021 12:00:00 AM","Laurens County","Georgia","South","South Atlantic","13175","32.39322","-82.926317 ","8924","223","23","2","10/3/2021 12:00:00 AM","2019","47546","NYTIMES-USCENSUS"
"10/4/2021 12:00:00 AM","Choctaw County","Alabama","South","East South Central","01023","31.990954","-88.248889 ","778","27","1","0","10/3/2021 12:00:00 AM","2019","12589","NYTIMES-USCENSUS"
"10/4/2021 12:00:00 AM","Freeborn County","Minnesota","Midwest","West North Central","27047","43.674202","-93.350289 ","4541","42","34","0","10/3/2021 12:00:00 AM","2019","30281","NYTIMES-USCENSUS"
"10/4/2021 12:00:00 AM","Nassau County","Florida","South","South Atlantic","12089","30.605963","-81.765087 ","14801","230","0","0","10/3/2021 12:00:00 AM","2019","88625","NYTIMES-USCENSUS"
"10/4/2021 12:00:00 AM","Sweetwater County","Wyoming","West","Mountain","56037","41.660328","-108.875677 ","7015","65","56","0","10/3/2021 12:00:00 AM","2019","42343","NYTIMES-USCENSUS"
"10/4/2021 12:00:00 AM","Morehouse Parish","Louisiana","South","West South Central","22067","32.820008","-91.800399 ","4374","112","7","2","10/3/2021 12:00:00 AM","2019","24874","NYTIMES-USCENSUS"
"10/4/2021 12:00:00 AM","Johnson County","Georgia","South","South Atlantic","13167","32.694584","-82.66397 ","1525","57","3","0","10/3/2021 12:00:00 AM","2019","9643","NYTIMES-USCENSUS"
"10/4/2021 12:00:00 AM","Rush County","Indiana","Midwest","East North Central","18139","39.622362","-85.466529 ","2543","32","25","1","10/3/2021 12:00:00 AM","2019","16581","NYTIMES-USCENSUS"
"10/4/2021 12:00:00 AM","Summers County","West Virginia","South","South Atlantic","54089","37.655999","-80.856325 ","1335","27","2","0","10/3/2021 12:00:00 AM","2019","12573","NYTIMES-USCENSUS"
"10/4/2021 12:00:00 AM","Mason County","Illinois","Midwest","East North Central","17125","40.236993","-89.913575 ","2066","52","11","0","10/3/2021 12:00:00 AM","2019","13359","NYTIMES-USCENSUS"
"10/4/2021 12:00:00 AM","Rockcastle County","Kentucky","South","East South Central","21203","37.36105","-84.314368 ","2988","28","35","1","10/3/2021 12:00:00 AM","2019","16695","NYTIMES-USCENSUS"
"10/4/2021 12:00:00 AM","Perry County","Pennsylvania","Northeast","Middle Atlantic","42099","40.39778","-77.266328 ","4837","109","18","0","10/3/2021 12:00:00 AM","2019","46272","NYTIMES-USCENSUS"
"10/4/2021 12:00:00 AM","Marinette County","Wisconsin","Midwest","East North Central","55075","45.346899","-87.991198 ","5912","78","39","0","10/3/2021 12:00:00 AM","2019","40350","NYTIMES-USCENSUS"
"10/4/2021 12:00:00 AM","Taylor County","Florida","South","South Atlantic","12123","29.967146","-83.639573 ","4495","75","0","0","10/3/2021 12:00:00 AM","2019","21569","NYTIMES-USCENSUS"
"10/4/2021 12:00:00 AM","Grant County","Washington","West","Pacific","53025","47.213633","-119.467788 ","15876","166","178","0","10/3/2021 12:00:00 AM","2019","97733","NYTIMES-USCENSUS"
"10/4/2021 12:00:00 AM","St. Bernard Parish","Louisiana","South","West South Central","22087","29.91811","-89.263494 ","6776","96","21","0","10/3/2021 12:00:00 AM","2019","47244","NYTIMES-USCENSUS"
"10/4/2021 12:00:00 AM","Cumberland County","Kentucky","South","East South Central","21057","36.782372","-85.388484 ","1109","19","0","0","10/3/2021 12:00:00 AM","2019","6614","NYTIMES-USCENSUS"
"10/4/2021 12:00:00 AM","Edmunds County","South Dakota","Midwest","West North Central","46045","45.41168","-99.205362 ","561","14","-1","0","10/3/2021 12:00:00 AM","2019","3829","NYTIMES-USCENSUS"
"10/4/2021 12:00:00 AM","Monroe County","New York","Northeast","Middle Atlantic","36055","43.250347","-77.700518 ","80575","1165","135","3","10/3/2021 12:00:00 AM","2019","741770","NYTIMES-USCENSUS"
"10/4/2021 12:00:00 AM","McDonald County","Missouri","Midwest","West North Central","29119","36.627955","-94.343716 ","3894","54","0","0","10/3/2021 12:00:00 AM","2019","22837","NYTIMES-USCENSUS"
"10/4/2021 12:00:00 AM","Atascosa County","Texas","South","West South Central","48013","28.891478","-98.535381 ","8273","193","2","0","10/3/2021 12:00:00 AM","2019","51153","NYTIMES-USCENSUS"
"10/4/2021 12:00:00 AM","Pine County","Minnesota","Midwest","West North Central","27115","46.10094","-92.763094 ","3968","29","17","0","10/3/2021 12:00:00 AM","2019","29579","NYTIMES-USCENSUS"
"10/4/2021 12:00:00 AM","Van Buren County","Arkansas","South","West South Central","05141","35.582953","-92.515976 ","2121","37","0","0","10/3/2021 12:00:00 AM","2019","16545","NYTIMES-USCENSUS"
"10/4/2021 12:00:00 AM","Slope County","North Dakota","Midwest","West North Central","38087","46.445834","-103.462462 ","39","0","0","0","10/3/2021 12:00:00 AM","2019","750","NYTIMES-USCENSUS"
"10/4/2021 12:00:00 AM","Garrard County","Kentucky","South","East South Central","21079","37.630162","-84.545856 ","2614","42","55","0","10/3/2021 12:00:00 AM","2019","17666","NYTIMES-USCENSUS"
"10/4/2021 12:00:00 AM","Webster County","Iowa","Midwest","West North Central","19187","42.433579","-94.175831 ","6646","106","0","0","10/3/2021 12:00:00 AM","2019","35904","NYTIMES-USCENSUS"
"10/4/2021 12:00:00 AM","Roanoke city","Virginia","South","South Atlantic","51770","37.278458","-79.958174 ","11409","216","129","0","10/3/2021 12:00:00 AM","2019","99143","NYTIMES-USCENSUS"
"10/4/2021 12:00:00 AM","Johnson County","Wyoming","West","Mountain","56019","44.044048","-106.588541 ","1093","13","13","0","10/3/2021 12:00:00 AM","2019","8445","NYTIMES-USCENSUS"
"10/4/2021 12:00:00 AM","Randolph County","Indiana","Midwest","East North Central","18135","40.164079","-85.00579 ","3322","95","34","1","10/3/2021 12:00:00 AM","2019","24665","NYTIMES-USCENSUS"
"10/4/2021 12:00:00 AM","Johnson County","Texas","South","West South Central","48251","32.379821","-97.364959 ","26560","488","0","0","10/3/2021 12:00:00 AM","2019","175817","NYTIMES-USCENSUS"
"10/4/2021 12:00:00 AM","Greene County","Arkansas","South","West South Central","05055","36.120607","-90.566346 ","9742","116","10","0","10/3/2021 12:00:00 AM","2019","45325","NYTIMES-USCENSUS"
"10/4/2021 12:00:00 AM","Braxton County","West Virginia","South","South Atlantic","54007","38.69933","-80.73166 ","1943","15","6","1","10/3/2021 12:00:00 AM","2019","13957","NYTIMES-USCENSUS"
"10/4/2021 12:00:00 AM","Wilson County","North Carolina","South","South Atlantic","37195","35.700357","-77.921598 ","12724","220","71","6","10/3/2021 12:00:00 AM","2019","81801","NYTIMES-USCENSUS"
"10/4/2021 12:00:00 AM","Washburn County","Wisconsin","Midwest","East North Central","55129","45.892489","-91.796422 ","2043","25","27","0","10/3/2021 12:00:00 AM","2019","15720","NYTIMES-USCENSUS"
"10/4/2021 12:00:00 AM","Lonoke County","Arkansas","South","West South Central","05085","34.755114","-91.894132 ","11662","171","3","0","10/3/2021 12:00:00 AM","2019","73309","NYTIMES-USCENSUS"
"10/4/2021 12:00:00 AM","Warren County","Georgia","South","South Atlantic","13301","33.419169","-82.688012 ","749","23","4","0","10/3/2021 12:00:00 AM","2019","5254","NYTIMES-USCENSUS"
"10/4/2021 12:00:00 AM","Hamilton County","Iowa","Midwest","West North Central","19079","42.390789","-93.70913 ","2222","53","0","0","10/3/2021 12:00:00 AM","2019","14773","NYTIMES-USCENSUS"
"10/4/2021 12:00:00 AM","Prince William County","Virginia","South","South Atlantic","51153","38.701119","-77.479579 ","52972","543","270","2","10/3/2021 12:00:00 AM","2019","470335","NYTIMES-USCENSUS"
"10/4/2021 12:00:00 AM","Lycoming County","Pennsylvania","Northeast","Middle Atlantic","42081","41.343882","-77.055262 ","14729","323","64","0","10/3/2021 12:00:00 AM","2019","113299","NYTIMES-USCENSUS"
"10/4/2021 12:00:00 AM","Defiance County","Ohio","Midwest","East North Central","39039","41.321679","-84.486433 ","5758","101","7","0","10/3/2021 12:00:00 AM","2019","38087","NYTIMES-USCENSUS"
"10/4/2021 12:00:00 AM","Edmonson County","Kentucky","South","East South Central","21061","37.227514","-86.218015 ","1474","28","8","0","10/3/2021 12:00:00 AM","2019","12150","NYTIMES-USCENSUS"
"10/4/2021 12:00:00 AM","Des Moines County","Iowa","Midwest","West North Central","19057","40.915339","-91.186925 ","6367","87","0","0","10/3/2021 12:00:00 AM","2019","38967","NYTIMES-USCENSUS"
"10/4/2021 12:00:00 AM","Dallas County","Alabama","South","East South Central","01047","32.333526","-87.11436 ","4760","190","0","0","10/3/2021 12:00:00 AM","2019","37196","NYTIMES-USCENSUS"
"10/4/2021 12:00:00 AM","Hardin County","Tennessee","South","East South Central","47071","35.201893","-88.185696 ","5381","80","28","0","10/3/2021 12:00:00 AM","2019","25652","NYTIMES-USCENSUS"
"10/4/2021 12:00:00 AM","Tulare County","California","West","Pacific","06107","36.228834","-118.781055 ","76525","924","613","16","10/3/2021 12:00:00 AM","2019","466195","NYTIMES-USCENSUS"
"10/4/2021 12:00:00 AM","Lake County","South Dakota","Midwest","West North Central","46079","44.02845","-97.123223 ","1523","20","7","0","10/3/2021 12:00:00 AM","2019","12797","NYTIMES-USCENSUS"
"10/4/2021 12:00:00 AM","Smith County","Texas","South","West South Central","48423","32.377016","-95.270041 ","34714","684","0","1","10/3/2021 12:00:00 AM","2019","232751","NYTIMES-USCENSUS"
"10/4/2021 12:00:00 AM","Hot Springs County","Wyoming","West","Mountain","56017","43.720209","-108.435076 ","825","7","7","0","10/3/2021 12:00:00 AM","2019","4413","NYTIMES-USCENSUS"
"10/4/2021 12:00:00 AM","Jones County","Texas","South","West South Central","48253","32.743709","-99.87443 ","3150","68","0","1","10/3/2021 12:00:00 AM","2019","20083","NYTIMES-USCENSUS"
"10/4/2021 12:00:00 AM","Glenn County","California","West","Pacific","06021","39.602546","-122.4017 ","4204","38","32","0","10/3/2021 12:00:00 AM","2019","28393","NYTIMES-USCENSUS"
"10/4/2021 12:00:00 AM","Coffee County","Georgia","South","South Atlantic","13069","31.549245","-82.84494 ","7742","206","35","0","10/3/2021 12:00:00 AM","2019","43273","NYTIMES-USCENSUS"
"10/4/2021 12:00:00 AM","Fort Bend County","Texas","South","West South Central","48157","29.526602","-95.771015 ","95871","899","195","9","10/3/2021 12:00:00 AM","2019","811688","NYTIMES-USCENSUS"
"10/4/2021 12:00:00 AM","Cooke County","Texas","South","West South Central","48097","33.639196","-97.210343 ","4910","88","0","0","10/3/2021 12:00:00 AM","2019","41257","NYTIMES-USCENSUS"
"10/4/2021 12:00:00 AM","Lake County","Michigan","Midwest","East North Central","26085","43.995187","-85.8114 ","836","19","9","0","10/3/2021 12:00:00 AM","2019","11853","NYTIMES-USCENSUS"
"10/4/2021 12:00:00 AM","Lenawee County","Michigan","Midwest","East North Central","26091","41.896022","-84.074356 ","13135","194","149","2","10/3/2021 12:00:00 AM","2019","98451","NYTIMES-USCENSUS"
"10/4/2021 12:00:00 AM","Covington city","Virginia","South","South Atlantic","51580","37.78106","-79.985434 ","731","15","6","1","10/3/2021 12:00:00 AM","2019","5538","NYTIMES-USCENSUS"
"10/4/2021 12:00:00 AM","Atchison County","Missouri","Midwest","West North Central","29005","40.431846","-95.437555 ","631","6","0","0","10/3/2021 12:00:00 AM","2019","5143","NYTIMES-USCENSUS"
"10/4/2021 12:00:00 AM","Breckinridge County","Kentucky","South","East South Central","21027","37.777988","-86.432919 ","2573","26","23","0","10/3/2021 12:00:00 AM","2019","20477","NYTIMES-USCENSUS"
"10/4/2021 12:00:00 AM","Adair County","Iowa","Midwest","West North Central","19001","41.328528","-94.478164 ","990","34","0","0","10/3/2021 12:00:00 AM","2019","7152","NYTIMES-USCENSUS"
"10/4/2021 12:00:00 AM","Leslie County","Kentucky","South","East South Central","21131","37.087846","-83.388617 ","2047","15","25","2","10/3/2021 12:00:00 AM","2019","9877","NYTIMES-USCENSUS"
"10/4/2021 12:00:00 AM","Henry County","Missouri","Midwest","West North Central","29083","38.386491","-93.792628 ","3137","49","1","0","10/3/2021 12:00:00 AM","2019","21824","NYTIMES-USCENSUS"
"10/4/2021 12:00:00 AM","Nemaha County","Kansas","Midwest","West North Central","20131","39.791043","-96.005381 ","1845","56","8","0","10/3/2021 12:00:00 AM","2019","10231","NYTIMES-USCENSUS"
"10/4/2021 12:00:00 AM","Caldwell County","Kentucky","South","East South Central","21033","37.148642","-87.870509 ","2137","45","13","0","10/3/2021 12:00:00 AM","2019","12747","NYTIMES-USCENSUS"
"10/4/2021 12:00:00 AM","Jefferson County","Colorado","West","Mountain","08059","39.579511","-105.245462 ","58795","871","425","3","10/3/2021 12:00:00 AM","2019","582881","NYTIMES-USCENSUS"
"10/4/2021 12:00:00 AM","Steuben County","New York","Northeast","Middle Atlantic","36101","42.266725","-77.385525 ","9145","165","35","0","10/3/2021 12:00:00 AM","2019","95379","NYTIMES-USCENSUS"
"10/4/2021 12:00:00 AM","Edwards County","Kansas","Midwest","West North Central","20047","37.883595","-99.304746 ","323","12","1","0","10/3/2021 12:00:00 AM","2019","2798","NYTIMES-USCENSUS"
"10/4/2021 12:00:00 AM","Pitkin County","Colorado","West","Mountain","08097","39.217541","-106.916162 ","3028","5","20","0","10/3/2021 12:00:00 AM","2019","17767","NYTIMES-USCENSUS"
"10/4/2021 12:00:00 AM","Rutland County","Vermont","Northeast","New England","50021","43.580858","-73.038202 ","3329","27","13","1","10/3/2021 12:00:00 AM","2019","58191","NYTIMES-USCENSUS"
"10/4/2021 12:00:00 AM","Elk County","Kansas","Midwest","West North Central","20049","37.456026","-96.244642 ","260","6","3","0","10/3/2021 12:00:00 AM","2019","2530","NYTIMES-USCENSUS"
"10/4/2021 12:00:00 AM","San Juan County","Colorado","West","Mountain","08111","37.781049","-107.670257 ","89","1","-1","0","10/3/2021 12:00:00 AM","2019","728","NYTIMES-USCENSUS"
"10/4/2021 12:00:00 AM","St. Tammany Parish","Louisiana","South","West South Central","22103","30.410022","-89.951962 ","42795","692","110","2","10/3/2021 12:00:00 AM","2019","260419","NYTIMES-USCENSUS"
"10/4/2021 12:00:00 AM","Marquette County","Michigan","Midwest","East North Central","26103","46.656596","-87.584028 ","7257","72","90","1","10/3/2021 12:00:00 AM","2019","66699","NYTIMES-USCENSUS"
"10/4/2021 12:00:00 AM","Carroll County","Ohio","Midwest","East North Central","39019","40.579884","-81.090787 ","2779","54","9","0","10/3/2021 12:00:00 AM","2019","26914","NYTIMES-USCENSUS"
"10/4/2021 12:00:00 AM","Hall County","Georgia","South","South Atlantic","13139","34.317569","-83.8185 ","36991","586","195","5","10/3/2021 12:00:00 AM","2019","204441","NYTIMES-USCENSUS"
"10/4/2021 12:00:00 AM","Mills County","Texas","South","West South Central","48333","31.494888","-98.594623 ","843","26","3","0","10/3/2021 12:00:00 AM","2019","4873","NYTIMES-USCENSUS"
"10/4/2021 12:00:00 AM","Erie County","New York","Northeast","Middle Atlantic","36029","42.752759","-78.778192 ","101993","1906","158","1","10/3/2021 12:00:00 AM","2019","918702","NYTIMES-USCENSUS"
"10/4/2021 12:00:00 AM","Goshen County","Wyoming","West","Mountain","56015","42.089455","-104.35354 ","1895","29","22","0","10/3/2021 12:00:00 AM","2019","13211","NYTIMES-USCENSUS"
"10/4/2021 12:00:00 AM","Canadian County","Oklahoma","South","West South Central","40017","35.543354","-97.979889 ","21936","224","0","0","10/3/2021 12:00:00 AM","2019","148306","NYTIMES-USCENSUS"
"10/4/2021 12:00:00 AM","Uvalde County","Texas","South","West South Central","48463","29.350308","-99.768427 ","6130","92","3","0","10/3/2021 12:00:00 AM","2019","26741","NYTIMES-USCENSUS"
"10/4/2021 12:00:00 AM","Brookings County","South Dakota","Midwest","West North Central","46011","44.376675","-96.797797 ","4955","38","9","1","10/3/2021 12:00:00 AM","2019","35077","NYTIMES-USCENSUS"
"10/4/2021 12:00:00 AM","Reno County","Kansas","Midwest","West North Central","20155","37.948185","-98.078346 ","10723","161","59","0","10/3/2021 12:00:00 AM","2019","61998","NYTIMES-USCENSUS"
"10/4/2021 12:00:00 AM","Big Horn County","Wyoming","West","Mountain","56003","44.525117","-107.994848 ","1819","39","40","0","10/3/2021 12:00:00 AM","2019","11790","NYTIMES-USCENSUS"
"10/4/2021 12:00:00 AM","Crook County","Wyoming","West","Mountain","56011","44.589266","-104.567298 ","792","17","12","0","10/3/2021 12:00:00 AM","2019","7584","NYTIMES-USCENSUS"
"10/4/2021 12:00:00 AM","Foster County","North Dakota","Midwest","West North Central","38031","47.471431","-98.872876 ","627","19","0","0","10/3/2021 12:00:00 AM","2019","3210","NYTIMES-USCENSUS"
"10/4/2021 12:00:00 AM","Juniata County","Pennsylvania","Northeast","Middle Atlantic","42067","40.530673","-77.400438 ","2651","107","8","0","10/3/2021 12:00:00 AM","2019","24763","NYTIMES-USCENSUS"
"10/4/2021 12:00:00 AM","Madison County","Florida","South","South Atlantic","12079","30.447233","-83.470416 ","3531","54","0","0","10/3/2021 12:00:00 AM","2019","18493","NYTIMES-USCENSUS"
"10/4/2021 12:00:00 AM","Fall River County","South Dakota","Midwest","West North Central","46047","43.221619","-103.512609 ","875","22","4","2","10/3/2021 12:00:00 AM","2019","6713","NYTIMES-USCENSUS"
"10/4/2021 12:00:00 AM","Jenkins County","Georgia","South","South Atlantic","13165","32.794563","-81.971524 ","1181","51","2","1","10/3/2021 12:00:00 AM","2019","8676","NYTIMES-USCENSUS"
"10/4/2021 12:00:00 AM","Garfield County","Nebraska","Midwest","West North Central","31071","41.906868","-98.951231 ","249","1","1","0","10/3/2021 12:00:00 AM","2019","1969","NYTIMES-USCENSUS"
"10/4/2021 12:00:00 AM","Bucks County","Pennsylvania","Northeast","Middle Atlantic","42017","40.336887","-75.10706 ","69730","1378","228","0","10/3/2021 12:00:00 AM","2019","628270","NYTIMES-USCENSUS"
"10/4/2021 12:00:00 AM","Mountrail County","North Dakota","Midwest","West North Central","38061","48.210073","-102.364895 ","1754","23","5","0","10/3/2021 12:00:00 AM","2019","10545","NYTIMES-USCENSUS"
"10/4/2021 12:00:00 AM","Upshur County","West Virginia","South","South Atlantic","54097","38.90253","-80.231606 ","3616","56","10","0","10/3/2021 12:00:00 AM","2019","24176","NYTIMES-USCENSUS"
"10/4/2021 12:00:00 AM","Comanche County","Kansas","Midwest","West North Central","20033","37.181442","-99.251293 ","211","11","3","0","10/3/2021 12:00:00 AM","2019","1700","NYTIMES-USCENSUS"
"10/4/2021 12:00:00 AM","Sutter County","California","West","Pacific","06101","39.03619","-121.70394 ","13526","164","88","4","10/3/2021 12:00:00 AM","2019","96971","NYTIMES-USCENSUS"
"10/4/2021 12:00:00 AM","Santa Clara County","California","West","Pacific","06085","37.221614","-121.68954 ","142892","1870","506","7","10/3/2021 12:00:00 AM","2019","1927852","NYTIMES-USCENSUS"
"10/4/2021 12:00:00 AM","Leon County","Texas","South","West South Central","48289","31.300493","-95.995622 ","2395","61","14","0","10/3/2021 12:00:00 AM","2019","17404","NYTIMES-USCENSUS"
"10/4/2021 12:00:00 AM","Sawyer County","Wisconsin","Midwest","East North Central","55113","45.864911","-91.147133 ","2303","31","26","0","10/3/2021 12:00:00 AM","2019","16558","NYTIMES-USCENSUS"
"10/4/2021 12:00:00 AM","Barrow County","Georgia","South","South Atlantic","13013","33.992009","-83.712303 ","14256","179","88","1","10/3/2021 12:00:00 AM","2019","83240","NYTIMES-USCENSUS"
"10/4/2021 12:00:00 AM","Desha County","Arkansas","South","West South Central","05041","33.828752","-91.244103 ","1842","29","0","0","10/3/2021 12:00:00 AM","2019","11361","NYTIMES-USCENSUS"
"10/4/2021 12:00:00 AM","Gallia County","Ohio","Midwest","East North Central","39053","38.817046","-82.301746 ","3794","61","13","0","10/3/2021 12:00:00 AM","2019","29898","NYTIMES-USCENSUS"
"10/4/2021 12:00:00 AM","Union County","Kentucky","South","East South Central","21225","37.658029","-87.95165 ","2411","29","12","2","10/3/2021 12:00:00 AM","2019","14381","NYTIMES-USCENSUS"
"10/4/2021 12:00:00 AM","Prince George's County","Maryland","South","South Atlantic","24033","38.829278","-76.848188 ","97246","1685","101","2","10/3/2021 12:00:00 AM","2019","909327","NYTIMES-USCENSUS"
"10/4/2021 12:00:00 AM","Rusk County","Texas","South","West South Central","48401","32.109423","-94.756382 ","7874","155","0","0","10/3/2021 12:00:00 AM","2019","54406","NYTIMES-USCENSUS"
"10/4/2021 12:00:00 AM","Taylor County","Wisconsin","Midwest","East North Central","55119","45.211656","-90.504853 ","2755","43","32","0","10/3/2021 12:00:00 AM","2019","20343","NYTIMES-USCENSUS"
"10/4/2021 12:00:00 AM","Cowley County","Kansas","Midwest","West North Central","20035","37.234507","-96.837247 ","5283","122","20","0","10/3/2021 12:00:00 AM","2019","34908","NYTIMES-USCENSUS"
"10/4/2021 12:00:00 AM","Belmont County","Ohio","Midwest","East North Central","39013","40.017682","-80.967727 ","8567","190","38","0","10/3/2021 12:00:00 AM","2019","67006","NYTIMES-USCENSUS"
"10/4/2021 12:00:00 AM","Berkshire County","Massachusetts","Northeast","New England","25003","42.371493","-73.217928 ","8190","313","58","0","10/3/2021 12:00:00 AM","2019","124944","NYTIMES-USCENSUS"
"10/4/2021 12:00:00 AM","Halifax County","North Carolina","South","South Atlantic","37083","36.251438","-77.644842 ","7512","132","61","1","10/3/2021 12:00:00 AM","2019","50010","NYTIMES-USCENSUS"
"10/4/2021 12:00:00 AM","Jasper County","Illinois","Midwest","East North Central","17079","39.004886","-88.150725 ","1570","22","11","0","10/3/2021 12:00:00 AM","2019","9610","NYTIMES-USCENSUS"
"10/4/2021 12:00:00 AM","Calaveras County","California","West","Pacific","06009","38.191068","-120.554107 ","3681","73","47","1","10/3/2021 12:00:00 AM","2019","45905","NYTIMES-USCENSUS"
"10/4/2021 12:00:00 AM","Highland County","Ohio","Midwest","East North Central","39071","39.184422","-83.601359 ","5673","92","11","0","10/3/2021 12:00:00 AM","2019","43161","NYTIMES-USCENSUS"
"10/4/2021 12:00:00 AM","Ashe County","North Carolina","South","South Atlantic","37009","36.443469","-81.499334 ","3276","46","43","0","10/3/2021 12:00:00 AM","2019","27203","NYTIMES-USCENSUS"
"10/4/2021 12:00:00 AM","Kootenai County","Idaho","West","Mountain","16055","47.675957","-116.695919 ","25702","326","70","3","10/3/2021 12:00:00 AM","2019","165697","NYTIMES-USCENSUS"
"10/4/2021 12:00:00 AM","Parke County","Indiana","Midwest","East North Central","18121","39.77425","-87.19695 ","2274","24","13","0","10/3/2021 12:00:00 AM","2019","16937","NYTIMES-USCENSUS"
"10/4/2021 12:00:00 AM","San Miguel County","New Mexico","West","Mountain","35047","35.476859","-104.803519 ","2412","20","27","0","10/3/2021 12:00:00 AM","2019","27277","NYTIMES-USCENSUS"
"10/4/2021 12:00:00 AM","Delaware County","Iowa","Midwest","West North Central","19055","42.472937","-91.366767 ","2442","44","0","0","10/3/2021 12:00:00 AM","2019","17011","NYTIMES-USCENSUS"
"10/4/2021 12:00:00 AM","Ashley County","Arkansas","South","West South Central","05003","33.190835","-91.772267 ","3110","42","1","0","10/3/2021 12:00:00 AM","2019","19657","NYTIMES-USCENSUS"
"10/4/2021 12:00:00 AM","Hawaii County","Hawaii","West","Pacific","15001","19.597764","-155.502443 ","10249","94","40","1","10/3/2021 12:00:00 AM","2019","201513","NYTIMES-USCENSUS"
"10/4/2021 12:00:00 AM","Harrison County","Missouri","Midwest","West North Central","29081","40.34562","-93.992582 ","1090","17","1","0","10/3/2021 12:00:00 AM","2019","8352","NYTIMES-USCENSUS"
"10/4/2021 12:00:00 AM","Silver Bow County","Montana","West","Mountain","30093","45.896232","-112.660071 ","5211","96","35","0","10/3/2021 12:00:00 AM","2019","34915","NYTIMES-USCENSUS"
"10/4/2021 12:00:00 AM","Columbia County","Georgia","South","South Atlantic","13073","33.552075","-82.249608 ","24202","263","65","1","10/3/2021 12:00:00 AM","2019","156714","NYTIMES-USCENSUS"
"10/4/2021 12:00:00 AM","Kenton County","Kentucky","South","East South Central","21117","38.930503","-84.533438 ","23237","255","154","0","10/3/2021 12:00:00 AM","2019","166998","NYTIMES-USCENSUS"
"10/4/2021 12:00:00 AM","Franklin County","North Carolina","South","South Atlantic","37069","36.088241","-78.28309 ","9393","60","80","0","10/3/2021 12:00:00 AM","2019","69685","NYTIMES-USCENSUS"
"10/4/2021 12:00:00 AM","Galveston County","Texas","South","West South Central","48167","29.233453","-94.888456 ","62372","657","0","2","10/3/2021 12:00:00 AM","2019","342139","NYTIMES-USCENSUS"
"10/4/2021 12:00:00 AM","Whitman County","Washington","West","Pacific","53075","46.905944","-117.53539 ","5544","59","27","0","10/3/2021 12:00:00 AM","2019","50104","NYTIMES-USCENSUS"
"10/4/2021 12:00:00 AM","Oxford County","Maine","Northeast","New England","23017","44.4945","-70.734421 ","4501","73","0","0","10/3/2021 12:00:00 AM","2019","57975","NYTIMES-USCENSUS"
"10/4/2021 12:00:00 AM","Union County","New Mexico","West","Mountain","35059","36.488085","-103.475723 ","498","11","0","0","10/3/2021 12:00:00 AM","2019","4059","NYTIMES-USCENSUS"
"10/4/2021 12:00:00 AM","Colquitt County","Georgia","South","South Atlantic","13071","31.189707","-83.769773 ","7452","167","22","0","10/3/2021 12:00:00 AM","2019","45600","NYTIMES-USCENSUS"
"10/4/2021 12:00:00 AM","Schuyler County","Missouri","Midwest","West North Central","29197","40.469361","-92.519016 ","407","7","0","0","10/3/2021 12:00:00 AM","2019","4660","NYTIMES-USCENSUS"
"10/4/2021 12:00:00 AM","Grant County","Oklahoma","South","West South Central","40053","36.788254","-97.788151 ","684","7","0","0","10/3/2021 12:00:00 AM","2019","4333","NYTIMES-USCENSUS"
"10/4/2021 12:00:00 AM","Henrico County","Virginia","South","South Atlantic","51087","37.43752","-77.300333 ","32898","690","239","3","10/3/2021 12:00:00 AM","2019","330818","NYTIMES-USCENSUS"
"10/4/2021 12:00:00 AM","Jackson County","Alabama","South","East South Central","01071","34.764114","-85.980056 ","9562","164","11","0","10/3/2021 12:00:00 AM","2019","51626","NYTIMES-USCENSUS"
"10/4/2021 12:00:00 AM","De Soto Parish","Louisiana","South","West South Central","22031","32.059248","-93.740797 ","4631","107","3","0","10/3/2021 12:00:00 AM","2019","27463","NYTIMES-USCENSUS"
"10/4/2021 12:00:00 AM","Clay County","Missouri","Midwest","West North Central","29047","39.315551","-94.421502 ","14363","206","14","0","10/3/2021 12:00:00 AM","2019","249948","NYTIMES-USCENSUS"
"10/4/2021 12:00:00 AM","Tolland County","Connecticut","Northeast","New England","09013","41.858081","-72.340978 ","11005","196","38","0","10/3/2021 12:00:00 AM","2019","150721","NYTIMES-USCENSUS"
"10/4/2021 12:00:00 AM","Hancock County","Kentucky","South","East South Central","21091","37.843325","-86.792761 ","1328","16","8","0","10/3/2021 12:00:00 AM","2019","8722","NYTIMES-USCENSUS"
"10/4/2021 12:00:00 AM","Iredell County","North Carolina","South","South Atlantic","37097","35.806251","-80.874524 ","27661","304","195","4","10/3/2021 12:00:00 AM","2019","181806","NYTIMES-USCENSUS"
"10/4/2021 12:00:00 AM","Midland County","Texas","South","West South Central","48329","31.814269","-102.002454 ","27006","342","175","0","10/3/2021 12:00:00 AM","2019","176832","NYTIMES-USCENSUS"
"10/4/2021 12:00:00 AM","Wayne County","Iowa","Midwest","West North Central","19185","40.739983","-93.332613 ","680","23","0","0","10/3/2021 12:00:00 AM","2019","6441","NYTIMES-USCENSUS"
"10/4/2021 12:00:00 AM","Putnam County","Tennessee","South","East South Central","47141","36.14094","-85.49618 ","16262","208","45","0","10/3/2021 12:00:00 AM","2019","80245","NYTIMES-USCENSUS"
"10/4/2021 12:00:00 AM","Logan County","Arkansas","South","West South Central","05083","35.218654","-93.72091 ","3475","36","1","0","10/3/2021 12:00:00 AM","2019","21466","NYTIMES-USCENSUS"
"10/4/2021 12:00:00 AM","Greene County","Alabama","South","East South Central","01063","32.844497","-87.9642 ","1231","44","3","0","10/3/2021 12:00:00 AM","2019","8111","NYTIMES-USCENSUS"
"10/4/2021 12:00:00 AM","Cascade County","Montana","West","Mountain","30013","47.316575","-111.350262 ","13345","210","146","0","10/3/2021 12:00:00 AM","2019","81366","NYTIMES-USCENSUS"
"10/4/2021 12:00:00 AM","Faulkner County","Arkansas","South","West South Central","05045","35.146548","-92.336928 ","19059","214","10","0","10/3/2021 12:00:00 AM","2019","126007","NYTIMES-USCENSUS"
"10/4/2021 12:00:00 AM","King and Queen County","Virginia","South","South Atlantic","51097","37.717772","-76.905581 ","583","8","2","0","10/3/2021 12:00:00 AM","2019","7025","NYTIMES-USCENSUS"
"10/4/2021 12:00:00 AM","Schuyler County","Illinois","Midwest","East North Central","17169","40.156905","-90.613464 ","1010","22","7","0","10/3/2021 12:00:00 AM","2019","6768","NYTIMES-USCENSUS"
"10/4/2021 12:00:00 AM","Burnet County","Texas","South","West South Central","48053","30.78963","-98.201187 ","7190","107","24","0","10/3/2021 12:00:00 AM","2019","48155","NYTIMES-USCENSUS"
"10/4/2021 12:00:00 AM","Gladwin County","Michigan","Midwest","East North Central","26051","43.98975","-84.389816 ","2932","66","47","0","10/3/2021 12:00:00 AM","2019","25449","NYTIMES-USCENSUS"
"10/4/2021 12:00:00 AM","Mecklenburg County","North Carolina","South","South Atlantic","37119","35.246862","-80.833832 ","151771","1167","926","1","10/3/2021 12:00:00 AM","2019","1110356","NYTIMES-USCENSUS"
"10/4/2021 12:00:00 AM","Clay County","Arkansas","South","West South Central","05021","36.367302","-90.418704 ","2625","60","2","1","10/3/2021 12:00:00 AM","2019","14551","NYTIMES-USCENSUS"
"10/4/2021 12:00:00 AM","Boone County","Arkansas","South","West South Central","05009","36.304299","-93.079236 ","6057","114","3","0","10/3/2021 12:00:00 AM","2019","37432","NYTIMES-USCENSUS"
"10/4/2021 12:00:00 AM","Douglas County","Minnesota","Midwest","West North Central","27041","45.936835","-95.462155 ","5732","84","46","0","10/3/2021 12:00:00 AM","2019","38141","NYTIMES-USCENSUS"
"10/4/2021 12:00:00 AM","Sullivan County","Tennessee","South","East South Central","47163","36.509681","-82.301336 ","25587","394","163","1","10/3/2021 12:00:00 AM","2019","158348","NYTIMES-USCENSUS"
"10/4/2021 12:00:00 AM","Russell County","Kentucky","South","East South Central","21207","36.990587","-85.05495 ","3634","56","0","0","10/3/2021 12:00:00 AM","2019","17923","NYTIMES-USCENSUS"
"10/4/2021 12:00:00 AM","Lincoln County","Nebraska","Midwest","West North Central","31111","41.050322","-100.744481 ","5052","80","27","0","10/3/2021 12:00:00 AM","2019","34914","NYTIMES-USCENSUS"
"10/4/2021 12:00:00 AM","Bienville Parish","Louisiana","South","West South Central","22013","32.340952","-93.041151 ","2445","92","6","0","10/3/2021 12:00:00 AM","2019","13241","NYTIMES-USCENSUS"
"10/4/2021 12:00:00 AM","St. Clair County","Illinois","Midwest","East North Central","17163","38.470198","-89.928546 ","39371","625","0","3","10/3/2021 12:00:00 AM","2019","259686","NYTIMES-USCENSUS"
"10/4/2021 12:00:00 AM","Limestone County","Texas","South","West South Central","48293","31.547543","-96.593623 ","3558","104","8","0","10/3/2021 12:00:00 AM","2019","23437","NYTIMES-USCENSUS"
"10/4/2021 12:00:00 AM","Kennebec County","Maine","Northeast","New England","23011","44.417012","-69.765764 ","8626","92","0","0","10/3/2021 12:00:00 AM","2019","122302","NYTIMES-USCENSUS"
"10/4/2021 12:00:00 AM","Barton County","Kansas","Midwest","West North Central","20009","38.481239","-98.767837 ","3587","55","43","0","10/3/2021 12:00:00 AM","2019","25779","NYTIMES-USCENSUS"
"10/4/2021 12:00:00 AM","Yavapai County","Arizona","West","Mountain","04025","34.631071","-112.577225 ","26442","645","55","0","10/3/2021 12:00:00 AM","2019","235099","NYTIMES-USCENSUS"
"10/4/2021 12:00:00 AM","Dent County","Missouri","Midwest","West North Central","29065","37.603072","-91.489717 ","1814","33","0","0","10/3/2021 12:00:00 AM","2019","15573","NYTIMES-USCENSUS"
"10/4/2021 12:00:00 AM","Live Oak County","Texas","South","West South Central","48297","28.351535","-98.126961 ","1735","34","0","0","10/3/2021 12:00:00 AM","2019","12207","NYTIMES-USCENSUS"
"10/4/2021 12:00:00 AM","Montgomery County","North Carolina","South","South Atlantic","37123","35.327548","-79.910752 ","4348","107","30","0","10/3/2021 12:00:00 AM","2019","27173","NYTIMES-USCENSUS"
"10/4/2021 12:00:00 AM","Quitman County","Mississippi","South","East South Central","28119","34.252833","-90.290171 ","1049","27","2","0","10/3/2021 12:00:00 AM","2019","6792","NYTIMES-USCENSUS"
"10/4/2021 12:00:00 AM","Bell County","Kentucky","South","East South Central","21013","36.728928","-83.680718 ","5568","88","53","0","10/3/2021 12:00:00 AM","2019","26032","NYTIMES-USCENSUS"
"10/4/2021 12:00:00 AM","Essex County","Massachusetts","Northeast","New England","25009","42.642708","-70.864909 ","109156","2470","368","2","10/3/2021 12:00:00 AM","2019","789034","NYTIMES-USCENSUS"
"10/4/2021 12:00:00 AM","Bedford County","Pennsylvania","Northeast","Middle Atlantic","42009","39.998634","-78.494747 ","6130","155","24","0","10/3/2021 12:00:00 AM","2019","47888","NYTIMES-USCENSUS"
"10/4/2021 12:00:00 AM","Lawrence County","Alabama","South","East South Central","01079","34.529776","-87.321865 ","4176","109","3","0","10/3/2021 12:00:00 AM","2019","32924","NYTIMES-USCENSUS"
"10/4/2021 12:00:00 AM","Prince of Wales-Hyder Census Area","Alaska","West","Pacific","02198","55.682773","-133.162389 ","464","5","5","0","10/3/2021 12:00:00 AM","2019","6203","NYTIMES-USCENSUS"
"10/4/2021 12:00:00 AM","Floyd County","Kentucky","South","East South Central","21071","37.552456","-82.739724 ","6617","100","53","0","10/3/2021 12:00:00 AM","2019","35589","NYTIMES-USCENSUS"
"10/4/2021 12:00:00 AM","Glascock County","Georgia","South","South Atlantic","13125","33.227491","-82.606913 ","402","19","1","0","10/3/2021 12:00:00 AM","2019","2971","NYTIMES-USCENSUS"
"10/4/2021 12:00:00 AM","Pulaski County","Kentucky","South","East South Central","21199","37.107452","-84.576969 ","10559","175","0","0","10/3/2021 12:00:00 AM","2019","64979","NYTIMES-USCENSUS"
"10/4/2021 12:00:00 AM","Richmond County","Virginia","South","South Atlantic","51159","37.942894","-76.730561 ","1652","12","17","0","10/3/2021 12:00:00 AM","2019","9023","NYTIMES-USCENSUS"
"10/4/2021 12:00:00 AM","Wayne County","Michigan","Midwest","East North Central","26163","42.284664","-83.261953 ","188385","5428","1169","6","10/3/2021 12:00:00 AM","2019","1749343","NYTIMES-USCENSUS"
"10/4/2021 12:00:00 AM","St. Mary Parish","Louisiana","South","West South Central","22101","29.629349","-91.463804 ","8411","209","19","0","10/3/2021 12:00:00 AM","2019","49348","NYTIMES-USCENSUS"
"10/4/2021 12:00:00 AM","Yellow Medicine County","Minnesota","Midwest","West North Central","27173","44.715736","-95.862756 ","1383","20","9","0","10/3/2021 12:00:00 AM","2019","9709","NYTIMES-USCENSUS"
"10/4/2021 12:00:00 AM","Kiowa County","Kansas","Midwest","West North Central","20097","37.561231","-99.286539 ","326","5","1","0","10/3/2021 12:00:00 AM","2019","2475","NYTIMES-USCENSUS"
"10/4/2021 12:00:00 AM","Okmulgee County","Oklahoma","South","West South Central","40111","35.6435","-95.965947 ","5554","113","0","0","10/3/2021 12:00:00 AM","2019","38465","NYTIMES-USCENSUS"
"10/4/2021 12:00:00 AM","Attala County","Mississippi","South","East South Central","28007","33.090468","-89.588622 ","3273","88","3","0","10/3/2021 12:00:00 AM","2019","18174","NYTIMES-USCENSUS"
"10/4/2021 12:00:00 AM","Story County","Iowa","Midwest","West North Central","19169","42.037538","-93.466093 ","12371","48","0","0","10/3/2021 12:00:00 AM","2019","97117","NYTIMES-USCENSUS"
"10/4/2021 12:00:00 AM","Miami County","Indiana","Midwest","East North Central","18103","40.772883","-86.044258 ","5714","93","71","1","10/3/2021 12:00:00 AM","2019","35516","NYTIMES-USCENSUS"
"10/4/2021 12:00:00 AM","Morton County","Kansas","Midwest","West North Central","20129","37.185249","-101.809516 ","318","9","1","0","10/3/2021 12:00:00 AM","2019","2587","NYTIMES-USCENSUS"
"10/4/2021 12:00:00 AM","Washington County","Mississippi","South","East South Central","28151","33.273174","-90.944446 ","7291","155","83","0","10/3/2021 12:00:00 AM","2019","43909","NYTIMES-USCENSUS"
"10/4/2021 12:00:00 AM","Lawrence County","Mississippi","South","East South Central","28077","31.550009","-90.10753 ","2085","36","5","0","10/3/2021 12:00:00 AM","2019","12586","NYTIMES-USCENSUS"
"10/4/2021 12:00:00 AM","Tyrrell County","North Carolina","South","South Atlantic","37177","35.87042","-76.165345 ","525","6","9","0","10/3/2021 12:00:00 AM","2019","4016","NYTIMES-USCENSUS"
"10/4/2021 12:00:00 AM","Warren County","Mississippi","South","East South Central","28149","32.356095","-90.852384 ","6562","173","31","1","10/3/2021 12:00:00 AM","2019","45381","NYTIMES-USCENSUS"
"10/4/2021 12:00:00 AM","Hopkins County","Kentucky","South","East South Central","21107","37.31107","-87.542196 ","7559","185","52","1","10/3/2021 12:00:00 AM","2019","44686","NYTIMES-USCENSUS"
"10/4/2021 12:00:00 AM","Knox County","Maine","Northeast","New England","23013","44.042045","-69.038514 ","1673","10","0","0","10/3/2021 12:00:00 AM","2019","39772","NYTIMES-USCENSUS"
"10/4/2021 12:00:00 AM","Sharp County","Arkansas","South","West South Central","05135","36.173399","-91.471069 ","2720","62","4","0","10/3/2021 12:00:00 AM","2019","17442","NYTIMES-USCENSUS"
"10/4/2021 12:00:00 AM","Lincoln County","Mississippi","South","East South Central","28085","31.535216","-90.453566 ","5347","133","6","0","10/3/2021 12:00:00 AM","2019","34153","NYTIMES-USCENSUS"
"10/4/2021 12:00:00 AM","Humboldt County","Iowa","Midwest","West North Central","19091","42.782221","-94.202775 ","1561","26","0","0","10/3/2021 12:00:00 AM","2019","9558","NYTIMES-USCENSUS"
"10/4/2021 12:00:00 AM","Alleghany County","Virginia","South","South Atlantic","51005","37.787905","-80.008669 ","1976","61","29","0","10/3/2021 12:00:00 AM","2019","14860","NYTIMES-USCENSUS"
