"monitor_date","county","state_name","region","subregion","fips","latitude","longitude","case_count_to_date","death_count_to_date","case_count","death_count","previous_monitor_date","population_year","population","source"
"5/27/2021 12:00:00 AM","Ford County","Illinois","Midwest","East North Central","17053","40.596539","-88.224588 ","1833","56","3","0","5/26/2021 12:00:00 AM","2019","12961","NYTIMES-USCENSUS"
"5/27/2021 12:00:00 AM","Jackson County","Indiana","Midwest","East North Central","18071","38.911957","-86.042516 ","5065","75","5","0","5/26/2021 12:00:00 AM","2019","44231","NYTIMES-USCENSUS"
"5/27/2021 12:00:00 AM","Canadian County","Oklahoma","South","West South Central","40017","35.543354","-97.979889 ","17335","184","0","0","5/26/2021 12:00:00 AM","2019","148306","NYTIMES-USCENSUS"
"5/27/2021 12:00:00 AM","Pike County","Indiana","Midwest","East North Central","18125","38.397961","-87.232547 ","1364","34","0","0","5/26/2021 12:00:00 AM","2019","12389","NYTIMES-USCENSUS"
"5/27/2021 12:00:00 AM","Jefferson County","Missouri","Midwest","West North Central","29099","38.25763","-90.543681 ","23484","248","10","0","5/26/2021 12:00:00 AM","2019","225081","NYTIMES-USCENSUS"
"5/27/2021 12:00:00 AM","Marion County","Kansas","Midwest","West North Central","20115","38.359647","-97.102771 ","1113","24","0","0","5/26/2021 12:00:00 AM","2019","11884","NYTIMES-USCENSUS"
"5/27/2021 12:00:00 AM","San Jacinto County","Texas","South","West South Central","48407","30.574388","-95.163136 ","1345","39","1","1","5/26/2021 12:00:00 AM","2019","28859","NYTIMES-USCENSUS"
"5/27/2021 12:00:00 AM","Ector County","Texas","South","West South Central","48135","31.865301","-102.542507 ","17400","377","0","0","5/26/2021 12:00:00 AM","2019","166223","NYTIMES-USCENSUS"
"5/27/2021 12:00:00 AM","Copiah County","Mississippi","South","East South Central","28029","31.866915","-90.448758 ","2988","65","1","0","5/26/2021 12:00:00 AM","2019","28065","NYTIMES-USCENSUS"
"5/27/2021 12:00:00 AM","Sioux County","Iowa","Midwest","West North Central","19167","43.082646","-96.17801 ","5159","74","1","0","5/26/2021 12:00:00 AM","2019","34855","NYTIMES-USCENSUS"
"5/27/2021 12:00:00 AM","Marquette County","Michigan","Midwest","East North Central","26103","46.656596","-87.584028 ","5913","62","1","0","5/26/2021 12:00:00 AM","2019","66699","NYTIMES-USCENSUS"
"5/27/2021 12:00:00 AM","Montgomery County","Virginia","South","South Atlantic","51121","37.175538","-80.387794 ","9400","97","1","0","5/26/2021 12:00:00 AM","2019","98535","NYTIMES-USCENSUS"
"5/27/2021 12:00:00 AM","Northampton County","Pennsylvania","Northeast","Middle Atlantic","42095","40.752791","-75.307447 ","35641","711","14","0","5/26/2021 12:00:00 AM","2019","305285","NYTIMES-USCENSUS"
"5/27/2021 12:00:00 AM","Morgan County","Ohio","Midwest","East North Central","39115","39.624946","-81.861697 ","1091","24","0","0","5/26/2021 12:00:00 AM","2019","14508","NYTIMES-USCENSUS"
"5/27/2021 12:00:00 AM","Pipestone County","Minnesota","Midwest","West North Central","27117","44.015361","-96.257015 ","1163","26","0","0","5/26/2021 12:00:00 AM","2019","9126","NYTIMES-USCENSUS"
"5/27/2021 12:00:00 AM","Polk County","Nebraska","Midwest","West North Central","31143","41.187925","-97.570663 ","585","18","0","0","5/26/2021 12:00:00 AM","2019","5213","NYTIMES-USCENSUS"
"5/27/2021 12:00:00 AM","Eau Claire County","Wisconsin","Midwest","East North Central","55035","44.726355","-91.286414 ","11947","120","7","0","5/26/2021 12:00:00 AM","2019","104646","NYTIMES-USCENSUS"
"5/27/2021 12:00:00 AM","Fairfax city","Virginia","South","South Atlantic","51600","38.853183","-77.299025 ","561","19","1","0","5/26/2021 12:00:00 AM","2019","24019","NYTIMES-USCENSUS"
"5/27/2021 12:00:00 AM","East Feliciana Parish","Louisiana","South","West South Central","22037","30.839784","-91.043434 ","3204","112","-1","0","5/26/2021 12:00:00 AM","2019","19135","NYTIMES-USCENSUS"
"5/27/2021 12:00:00 AM","Allegan County","Michigan","Midwest","East North Central","26005","42.421251","-86.261403 ","11060","146","9","3","5/26/2021 12:00:00 AM","2019","118081","NYTIMES-USCENSUS"
"5/27/2021 12:00:00 AM","Bryan County","Oklahoma","South","West South Central","40013","33.964004","-96.265135 ","6124","78","0","0","5/26/2021 12:00:00 AM","2019","47995","NYTIMES-USCENSUS"
"5/27/2021 12:00:00 AM","Marion County","Texas","South","West South Central","48315","32.798182","-94.356853 ","542","33","0","0","5/26/2021 12:00:00 AM","2019","9854","NYTIMES-USCENSUS"
"5/27/2021 12:00:00 AM","Boone County","Kentucky","South","East South Central","21015","38.9589","-84.736371 ","14500","151","5","1","5/26/2021 12:00:00 AM","2019","133581","NYTIMES-USCENSUS"
"5/27/2021 12:00:00 AM","McKinley County","New Mexico","West","Mountain","35031","35.584062","-108.253294 ","12335","477","0","0","5/26/2021 12:00:00 AM","2019","71367","NYTIMES-USCENSUS"
"5/27/2021 12:00:00 AM","Columbia County","Pennsylvania","Northeast","Middle Atlantic","42037","41.045517","-76.40426 ","5836","133","7","0","5/26/2021 12:00:00 AM","2019","64964","NYTIMES-USCENSUS"
"5/27/2021 12:00:00 AM","Jefferson County","Alabama","South","East South Central","01073","33.553444","-86.896536 ","80168","1539","28","0","5/26/2021 12:00:00 AM","2019","658573","NYTIMES-USCENSUS"
"5/27/2021 12:00:00 AM","Grand Traverse County","Michigan","Midwest","East North Central","26055","44.718688","-85.553848 ","6431","96","4","0","5/26/2021 12:00:00 AM","2019","93088","NYTIMES-USCENSUS"
"5/27/2021 12:00:00 AM","Logan County","Oklahoma","South","West South Central","40083","35.914277","-97.450952 ","4287","64","0","0","5/26/2021 12:00:00 AM","2019","48011","NYTIMES-USCENSUS"
"5/27/2021 12:00:00 AM","Stephens County","Texas","South","West South Central","48429","32.738052","-98.839344 ","805","26","1","0","5/26/2021 12:00:00 AM","2019","9366","NYTIMES-USCENSUS"
"5/27/2021 12:00:00 AM","Meigs County","Ohio","Midwest","East North Central","39105","39.089807","-82.028397 ","1473","40","2","0","5/26/2021 12:00:00 AM","2019","22907","NYTIMES-USCENSUS"
"5/27/2021 12:00:00 AM","Taney County","Missouri","Midwest","West North Central","29213","36.649827","-93.042819 ","5389","96","13","0","5/26/2021 12:00:00 AM","2019","55928","NYTIMES-USCENSUS"
"5/27/2021 12:00:00 AM","Spokane County","Washington","West","Pacific","53063","47.620375","-117.403371 ","45373","646","222","1","5/26/2021 12:00:00 AM","2019","522798","NYTIMES-USCENSUS"
"5/27/2021 12:00:00 AM","Massac County","Illinois","Midwest","East North Central","17127","37.216119","-88.705658 ","1354","43","0","0","5/26/2021 12:00:00 AM","2019","13772","NYTIMES-USCENSUS"
"5/27/2021 12:00:00 AM","Harper County","Kansas","Midwest","West North Central","20077","37.188184","-98.06659 ","626","18","0","0","5/26/2021 12:00:00 AM","2019","5436","NYTIMES-USCENSUS"
"5/27/2021 12:00:00 AM","Garfield County","Oklahoma","South","West South Central","40047","36.378132","-97.788741 ","7809","139","0","0","5/26/2021 12:00:00 AM","2019","61056","NYTIMES-USCENSUS"
"5/27/2021 12:00:00 AM","Bingham County","Idaho","West","Mountain","16011","43.216357","-112.399206 ","4868","76","0","0","5/26/2021 12:00:00 AM","2019","46811","NYTIMES-USCENSUS"
"5/27/2021 12:00:00 AM","Pembina County","North Dakota","Midwest","West North Central","38067","48.766896","-97.545405 ","820","11","3","0","5/26/2021 12:00:00 AM","2019","6801","NYTIMES-USCENSUS"
"5/27/2021 12:00:00 AM","Saratoga County","New York","Northeast","Middle Atlantic","36091","43.106135","-73.855387 ","15271","167","8","0","5/26/2021 12:00:00 AM","2019","229863","NYTIMES-USCENSUS"
"5/27/2021 12:00:00 AM","Dodge County","Georgia","South","South Atlantic","13091","32.164369","-83.167866 ","2146","103","0","0","5/26/2021 12:00:00 AM","2019","20605","NYTIMES-USCENSUS"
"5/27/2021 12:00:00 AM","Graham County","North Carolina","South","South Atlantic","37075","35.348364","-83.830915 ","614","12","7","0","5/26/2021 12:00:00 AM","2019","8441","NYTIMES-USCENSUS"
"5/27/2021 12:00:00 AM","Marshall County","South Dakota","Midwest","West North Central","46091","45.737044","-97.58087 ","376","6","0","0","5/26/2021 12:00:00 AM","2019","4935","NYTIMES-USCENSUS"
"5/27/2021 12:00:00 AM","Perry County","Kentucky","South","East South Central","21193","37.241282","-83.217772 ","2683","66","2","0","5/26/2021 12:00:00 AM","2019","25758","NYTIMES-USCENSUS"
"5/27/2021 12:00:00 AM","Montgomery County","Georgia","South","South Atlantic","13209","32.172108","-82.533349 ","897","21","-2","-2","5/26/2021 12:00:00 AM","2019","9172","NYTIMES-USCENSUS"
"5/27/2021 12:00:00 AM","Phelps County","Nebraska","Midwest","West North Central","31137","40.516365","-99.406557 ","1001","10","0","0","5/26/2021 12:00:00 AM","2019","9034","NYTIMES-USCENSUS"
"5/27/2021 12:00:00 AM","Harford County","Maryland","South","South Atlantic","24025","39.537429","-76.299789 ","16542","292","12","11","5/26/2021 12:00:00 AM","2019","255441","NYTIMES-USCENSUS"
"5/27/2021 12:00:00 AM","Monroe County","Ohio","Midwest","East North Central","39111","39.726253","-81.090983 ","1342","43","3","0","5/26/2021 12:00:00 AM","2019","13654","NYTIMES-USCENSUS"
"5/27/2021 12:00:00 AM","Madison County","Kentucky","South","East South Central","21151","37.725511","-84.278362 ","9424","111","10","0","5/26/2021 12:00:00 AM","2019","92987","NYTIMES-USCENSUS"
"5/27/2021 12:00:00 AM","Cumberland County","Illinois","Midwest","East North Central","17035","39.273121","-88.240619 ","1297","31","-1","0","5/26/2021 12:00:00 AM","2019","10766","NYTIMES-USCENSUS"
"5/27/2021 12:00:00 AM","Carroll County","Indiana","Midwest","East North Central","18015","40.58498","-86.565141 ","1921","22","1","0","5/26/2021 12:00:00 AM","2019","20257","NYTIMES-USCENSUS"
"5/27/2021 12:00:00 AM","Nemaha County","Nebraska","Midwest","West North Central","31127","40.387389","-95.852721 ","696","15","0","0","5/26/2021 12:00:00 AM","2019","6972","NYTIMES-USCENSUS"
"5/27/2021 12:00:00 AM","Pleasants County","West Virginia","South","South Atlantic","54073","39.368133","-81.161172 ","952","11","-1","0","5/26/2021 12:00:00 AM","2019","7460","NYTIMES-USCENSUS"
"5/27/2021 12:00:00 AM","Putnam County","Florida","South","South Atlantic","12107","29.593896","-81.732039 ","6690","158","16","2","5/26/2021 12:00:00 AM","2019","74521","NYTIMES-USCENSUS"
"5/27/2021 12:00:00 AM","Hamilton County","Florida","South","South Atlantic","12047","30.491187","-82.951071 ","1641","25","1","0","5/26/2021 12:00:00 AM","2019","14428","NYTIMES-USCENSUS"
"5/27/2021 12:00:00 AM","Hidalgo County","Texas","South","West South Central","48215","26.396384","-98.18099 ","89228","2877","-1908","3","5/26/2021 12:00:00 AM","2019","868707","NYTIMES-USCENSUS"
"5/27/2021 12:00:00 AM","Escambia County","Alabama","South","East South Central","01053","31.122287","-87.16841 ","3966","77","3","0","5/26/2021 12:00:00 AM","2019","36633","NYTIMES-USCENSUS"
"5/27/2021 12:00:00 AM","Kodiak Island Borough","Alaska","West","Pacific","02150","57.7044","-153.918372 ","1119","6","0","0","5/26/2021 12:00:00 AM","2019","12998","NYTIMES-USCENSUS"
"5/27/2021 12:00:00 AM","Seneca County","New York","Northeast","Middle Atlantic","36099","42.782294","-76.827088 ","2001","56","3","0","5/26/2021 12:00:00 AM","2019","34016","NYTIMES-USCENSUS"
"5/27/2021 12:00:00 AM","Humboldt County","Iowa","Midwest","West North Central","19091","42.782221","-94.202775 ","1194","26","0","0","5/26/2021 12:00:00 AM","2019","9558","NYTIMES-USCENSUS"
"5/27/2021 12:00:00 AM","Union County","Kentucky","South","East South Central","21225","37.658029","-87.95165 ","1407","15","1","0","5/26/2021 12:00:00 AM","2019","14381","NYTIMES-USCENSUS"
"5/27/2021 12:00:00 AM","Missoula County","Montana","West","Mountain","30063","47.027263","-113.892691 ","9188","94","11","0","5/26/2021 12:00:00 AM","2019","119600","NYTIMES-USCENSUS"
"5/27/2021 12:00:00 AM","Hardy County","West Virginia","South","South Atlantic","54031","39.011361","-78.841729 ","1552","24","-1","0","5/26/2021 12:00:00 AM","2019","13776","NYTIMES-USCENSUS"
"5/27/2021 12:00:00 AM","Humphreys County","Mississippi","South","East South Central","28053","33.130996","-90.523421 ","971","33","0","0","5/26/2021 12:00:00 AM","2019","8064","NYTIMES-USCENSUS"
"5/27/2021 12:00:00 AM","Marathon County","Wisconsin","Midwest","East North Central","55073","44.898036","-89.757823 ","16367","225","-1","0","5/26/2021 12:00:00 AM","2019","135692","NYTIMES-USCENSUS"
"5/27/2021 12:00:00 AM","Lamar County","Alabama","South","East South Central","01075","33.787085","-88.087431 ","1449","37","3","0","5/26/2021 12:00:00 AM","2019","13805","NYTIMES-USCENSUS"
"5/27/2021 12:00:00 AM","Custer County","Idaho","West","Mountain","16037","44.273351","-114.252267 ","253","3","0","0","5/26/2021 12:00:00 AM","2019","4315","NYTIMES-USCENSUS"
"5/27/2021 12:00:00 AM","Washington County","Maine","Northeast","New England","23029","44.967009","-67.609354 ","879","16","3","0","5/26/2021 12:00:00 AM","2019","31379","NYTIMES-USCENSUS"
"5/27/2021 12:00:00 AM","Mason County","Illinois","Midwest","East North Central","17125","40.236993","-89.913575 ","1530","46","1","0","5/26/2021 12:00:00 AM","2019","13359","NYTIMES-USCENSUS"
"5/27/2021 12:00:00 AM","Richmond County","Georgia","South","South Atlantic","13245","33.361486","-82.074998 ","24949","511","13","1","5/26/2021 12:00:00 AM","2019","202518","NYTIMES-USCENSUS"
"5/27/2021 12:00:00 AM","Elkhart County","Indiana","Midwest","East North Central","18039","41.600693","-85.863986 ","29229","464","25","1","5/26/2021 12:00:00 AM","2019","206341","NYTIMES-USCENSUS"
"5/27/2021 12:00:00 AM","Edgecombe County","North Carolina","South","South Atlantic","37065","35.917077","-77.602742 ","5642","112","5","-1","5/26/2021 12:00:00 AM","2019","51472","NYTIMES-USCENSUS"
"5/27/2021 12:00:00 AM","Maui County","Hawaii","West","Pacific","15009","20.855931","-156.60155 ","4611","54","9","0","5/26/2021 12:00:00 AM","2019","167417","NYTIMES-USCENSUS"
"5/27/2021 12:00:00 AM","Carter County","Oklahoma","South","West South Central","40019","34.251848","-97.287927 ","6149","125","0","0","5/26/2021 12:00:00 AM","2019","48111","NYTIMES-USCENSUS"
"5/27/2021 12:00:00 AM","Marion County","South Carolina","South","South Atlantic","45067","34.08362","-79.354001 ","3534","107","-2","0","5/26/2021 12:00:00 AM","2019","30657","NYTIMES-USCENSUS"
"5/27/2021 12:00:00 AM","Trego County","Kansas","Midwest","West North Central","20195","38.921302","-99.865423 ","407","8","0","0","5/26/2021 12:00:00 AM","2019","2803","NYTIMES-USCENSUS"
"5/27/2021 12:00:00 AM","Brule County","South Dakota","Midwest","West North Central","46015","43.729873","-99.092909 ","716","10","-1","0","5/26/2021 12:00:00 AM","2019","5297","NYTIMES-USCENSUS"
"5/27/2021 12:00:00 AM","Cherokee County","North Carolina","South","South Atlantic","37039","35.13715","-84.061449 ","2609","34","2","0","5/26/2021 12:00:00 AM","2019","28612","NYTIMES-USCENSUS"
"5/27/2021 12:00:00 AM","Houston County","Minnesota","Midwest","West North Central","27055","43.66699","-91.501556 ","1732","16","1","0","5/26/2021 12:00:00 AM","2019","18600","NYTIMES-USCENSUS"
"5/27/2021 12:00:00 AM","Webster County","Kentucky","South","East South Central","21233","37.51946","-87.68479 ","1332","20","7","0","5/26/2021 12:00:00 AM","2019","12942","NYTIMES-USCENSUS"
"5/27/2021 12:00:00 AM","El Paso County","Texas","South","West South Central","48141","31.76648","-106.241423 ","135974","2706","23","1","5/26/2021 12:00:00 AM","2019","839238","NYTIMES-USCENSUS"
"5/27/2021 12:00:00 AM","McKenzie County","North Dakota","Midwest","West North Central","38053","47.742475","-103.403215 ","1399","13","1","0","5/26/2021 12:00:00 AM","2019","15024","NYTIMES-USCENSUS"
"5/27/2021 12:00:00 AM","Plymouth County","Iowa","Midwest","West North Central","19149","42.737585","-96.215864 ","4023","80","1","0","5/26/2021 12:00:00 AM","2019","25177","NYTIMES-USCENSUS"
"5/27/2021 12:00:00 AM","Crawford County","Wisconsin","Midwest","East North Central","55023","43.242768","-90.935185 ","1793","19","0","0","5/26/2021 12:00:00 AM","2019","16131","NYTIMES-USCENSUS"
"5/27/2021 12:00:00 AM","Salem County","New Jersey","Northeast","Middle Atlantic","34033","39.573828","-75.357356 ","6075","185","1","0","5/26/2021 12:00:00 AM","2019","62385","NYTIMES-USCENSUS"
"5/27/2021 12:00:00 AM","Polk County","Minnesota","Midwest","West North Central","27119","47.774254","-96.400027 ","3873","71","1","0","5/26/2021 12:00:00 AM","2019","31364","NYTIMES-USCENSUS"
"5/27/2021 12:00:00 AM","McClain County","Oklahoma","South","West South Central","40087","35.016436","-97.449803 ","5315","73","0","0","5/26/2021 12:00:00 AM","2019","40474","NYTIMES-USCENSUS"
"5/27/2021 12:00:00 AM","Grundy County","Missouri","Midwest","West North Central","29079","40.112541","-93.565054 ","1018","34","6","0","5/26/2021 12:00:00 AM","2019","9850","NYTIMES-USCENSUS"
"5/27/2021 12:00:00 AM","Smyth County","Virginia","South","South Atlantic","51173","36.842318","-81.539786 ","2969","94","-1","0","5/26/2021 12:00:00 AM","2019","30104","NYTIMES-USCENSUS"
"5/27/2021 12:00:00 AM","Clark County","Kentucky","South","East South Central","21049","37.970314","-84.145115 ","2966","30","7","0","5/26/2021 12:00:00 AM","2019","36263","NYTIMES-USCENSUS"
"5/27/2021 12:00:00 AM","Addison County","Vermont","Northeast","New England","50001","44.031248","-73.141581 ","1058","8","0","0","5/26/2021 12:00:00 AM","2019","36777","NYTIMES-USCENSUS"
"5/27/2021 12:00:00 AM","Lawrence County","Arkansas","South","West South Central","05075","36.041098","-91.101153 ","2128","43","0","0","5/26/2021 12:00:00 AM","2019","16406","NYTIMES-USCENSUS"
"5/27/2021 12:00:00 AM","Dodge County","Minnesota","Midwest","West North Central","27039","44.020706","-92.869353 ","1863","3","0","0","5/26/2021 12:00:00 AM","2019","20934","NYTIMES-USCENSUS"
"5/27/2021 12:00:00 AM","Richland County","Montana","West","Mountain","30083","47.785633","-104.563408 ","1242","17","0","0","5/26/2021 12:00:00 AM","2019","10803","NYTIMES-USCENSUS"
"5/27/2021 12:00:00 AM","Warren County","New Jersey","Northeast","Middle Atlantic","34041","40.853491","-75.009498 ","9949","236","6","0","5/26/2021 12:00:00 AM","2019","105267","NYTIMES-USCENSUS"
"5/27/2021 12:00:00 AM","Conejos County","Colorado","West","Mountain","08021","37.213406","-106.176447 ","664","12","5","0","5/26/2021 12:00:00 AM","2019","8205","NYTIMES-USCENSUS"
"5/27/2021 12:00:00 AM","Dewey County","Oklahoma","South","West South Central","40043","35.97796","-99.014385 ","552","14","0","0","5/26/2021 12:00:00 AM","2019","4891","NYTIMES-USCENSUS"
"5/27/2021 12:00:00 AM","Grayson County","Kentucky","South","East South Central","21085","37.458577","-86.344011 ","2216","55","1","0","5/26/2021 12:00:00 AM","2019","26427","NYTIMES-USCENSUS"
"5/27/2021 12:00:00 AM","Lincoln County","Oregon","West","Pacific","41041","44.641061","-123.911212 ","1397","21","0","0","5/26/2021 12:00:00 AM","2019","49962","NYTIMES-USCENSUS"
"5/27/2021 12:00:00 AM","Randolph County","Illinois","Midwest","East North Central","17157","38.056515","-89.82121 ","4145","92","1","2","5/26/2021 12:00:00 AM","2019","31782","NYTIMES-USCENSUS"
"5/27/2021 12:00:00 AM","Clinton County","Pennsylvania","Northeast","Middle Atlantic","42035","41.239508","-77.629009 ","3673","66","2","0","5/26/2021 12:00:00 AM","2019","38632","NYTIMES-USCENSUS"
"5/27/2021 12:00:00 AM","Jefferson County","Kansas","Midwest","West North Central","20087","39.239644","-95.375314 ","1741","35","0","0","5/26/2021 12:00:00 AM","2019","19043","NYTIMES-USCENSUS"
"5/27/2021 12:00:00 AM","Gallatin County","Montana","West","Mountain","30031","45.518054","-111.163921 ","14913","63","18","0","5/26/2021 12:00:00 AM","2019","114434","NYTIMES-USCENSUS"
"5/27/2021 12:00:00 AM","Winona County","Minnesota","Midwest","West North Central","27169","43.981353","-91.777044 ","4590","50","2","0","5/26/2021 12:00:00 AM","2019","50484","NYTIMES-USCENSUS"
"5/27/2021 12:00:00 AM","Florence County","South Carolina","South","South Atlantic","45041","34.028535","-79.710233 ","17849","418","2","0","5/26/2021 12:00:00 AM","2019","138293","NYTIMES-USCENSUS"
"5/27/2021 12:00:00 AM","Audrain County","Missouri","Midwest","West North Central","29007","39.214481","-91.843418 ","2709","58","1","0","5/26/2021 12:00:00 AM","2019","25388","NYTIMES-USCENSUS"
"5/27/2021 12:00:00 AM","Leelanau County","Michigan","Midwest","East North Central","26089","45.146182","-86.051574 ","1236","18","0","0","5/26/2021 12:00:00 AM","2019","21761","NYTIMES-USCENSUS"
"5/27/2021 12:00:00 AM","Alcorn County","Mississippi","South","East South Central","28003","34.886569","-88.581109 ","3159","71","0","0","5/26/2021 12:00:00 AM","2019","36953","NYTIMES-USCENSUS"
"5/27/2021 12:00:00 AM","Nacogdoches County","Texas","South","West South Central","48347","31.62056","-94.62025 ","4586","171","6","0","5/26/2021 12:00:00 AM","2019","65204","NYTIMES-USCENSUS"
"5/27/2021 12:00:00 AM","Otsego County","Michigan","Midwest","East North Central","26137","45.021787","-84.576603 ","2341","40","2","0","5/26/2021 12:00:00 AM","2019","24668","NYTIMES-USCENSUS"
"5/27/2021 12:00:00 AM","Barren County","Kentucky","South","East South Central","21009","36.962805","-85.932108 ","4473","93","1","0","5/26/2021 12:00:00 AM","2019","44249","NYTIMES-USCENSUS"
"5/27/2021 12:00:00 AM","Butler County","Kentucky","South","East South Central","21031","37.207013","-86.682471 ","1470","24","0","0","5/26/2021 12:00:00 AM","2019","12879","NYTIMES-USCENSUS"
"5/27/2021 12:00:00 AM","Herkimer County","New York","Northeast","Middle Atlantic","36043","43.571009","-74.841097 ","5158","107","7","0","5/26/2021 12:00:00 AM","2019","61319","NYTIMES-USCENSUS"
"5/27/2021 12:00:00 AM","Morris County","Texas","South","West South Central","48343","33.116466","-94.731265 ","877","33","0","0","5/26/2021 12:00:00 AM","2019","12388","NYTIMES-USCENSUS"
"5/27/2021 12:00:00 AM","Maricopa County","Arizona","West","Mountain","04013","33.345176","-112.49893 ","549042","10043","523","12","5/26/2021 12:00:00 AM","2019","4485414","NYTIMES-USCENSUS"
"5/27/2021 12:00:00 AM","Vermilion County","Illinois","Midwest","East North Central","17183","40.186754","-87.726778 ","9892","152","19","1","5/26/2021 12:00:00 AM","2019","75758","NYTIMES-USCENSUS"
"5/27/2021 12:00:00 AM","Fannin County","Texas","South","West South Central","48147","33.591161","-96.104988 ","3494","108","-2","0","5/26/2021 12:00:00 AM","2019","35514","NYTIMES-USCENSUS"
"5/27/2021 12:00:00 AM","Grays Harbor County","Washington","West","Pacific","53027","47.113732","-123.826735 ","4330","71","34","0","5/26/2021 12:00:00 AM","2019","75061","NYTIMES-USCENSUS"
"5/27/2021 12:00:00 AM","Douglas County","Nebraska","Midwest","West North Central","31055","41.297091","-96.154066 ","71769","718","0","0","5/26/2021 12:00:00 AM","2019","571327","NYTIMES-USCENSUS"
"5/27/2021 12:00:00 AM","Danville city","Virginia","South","South Atlantic","51590","36.583334","-79.408071 ","4453","138","6","0","5/26/2021 12:00:00 AM","2019","40044","NYTIMES-USCENSUS"
"5/27/2021 12:00:00 AM","Fluvanna County","Virginia","South","South Atlantic","51065","37.830584","-78.283494 ","1921","20","1","1","5/26/2021 12:00:00 AM","2019","27270","NYTIMES-USCENSUS"
"5/27/2021 12:00:00 AM","Shelby County","Texas","South","West South Central","48419","31.790139","-94.142579 ","1704","68","1","1","5/26/2021 12:00:00 AM","2019","25274","NYTIMES-USCENSUS"
"5/27/2021 12:00:00 AM","Boundary County","Idaho","West","Mountain","16021","48.773131","-116.524668 ","872","11","0","0","5/26/2021 12:00:00 AM","2019","12245","NYTIMES-USCENSUS"
"5/27/2021 12:00:00 AM","Christian County","Illinois","Midwest","East North Central","17021","39.545524","-89.279593 ","3770","91","14","0","5/26/2021 12:00:00 AM","2019","32304","NYTIMES-USCENSUS"
"5/27/2021 12:00:00 AM","Bayfield County","Wisconsin","Midwest","East North Central","55007","46.634199","-91.177282 ","1286","19","1","0","5/26/2021 12:00:00 AM","2019","15036","NYTIMES-USCENSUS"
"5/27/2021 12:00:00 AM","Rockdale County","Georgia","South","South Atlantic","13247","33.652081","-84.02637 ","7793","171","9","1","5/26/2021 12:00:00 AM","2019","90896","NYTIMES-USCENSUS"
"5/27/2021 12:00:00 AM","Rock County","Minnesota","Midwest","West North Central","27133","43.669587","-96.263238 ","1287","19","0","0","5/26/2021 12:00:00 AM","2019","9315","NYTIMES-USCENSUS"
"5/27/2021 12:00:00 AM","Sangamon County","Illinois","Midwest","East North Central","17167","39.756886","-89.662435 ","18970","278","12","0","5/26/2021 12:00:00 AM","2019","194672","NYTIMES-USCENSUS"
"5/27/2021 12:00:00 AM","Niagara County","New York","Northeast","Middle Atlantic","36063","43.272672","-78.812943 ","19938","366","11","0","5/26/2021 12:00:00 AM","2019","209281","NYTIMES-USCENSUS"
"5/27/2021 12:00:00 AM","Pulaski County","Illinois","Midwest","East North Central","17153","37.215615","-89.127755 ","695","7","1","0","5/26/2021 12:00:00 AM","2019","5335","NYTIMES-USCENSUS"
"5/27/2021 12:00:00 AM","Doniphan County","Kansas","Midwest","West North Central","20043","39.788502","-95.147225 ","1012","23","0","0","5/26/2021 12:00:00 AM","2019","7600","NYTIMES-USCENSUS"
"5/27/2021 12:00:00 AM","Jefferson County","Wisconsin","Midwest","East North Central","55055","43.013804","-88.773985 ","9651","133","3","0","5/26/2021 12:00:00 AM","2019","84769","NYTIMES-USCENSUS"
"5/27/2021 12:00:00 AM","Swift County","Minnesota","Midwest","West North Central","27151","45.27581","-95.690124 ","1066","18","1","0","5/26/2021 12:00:00 AM","2019","9266","NYTIMES-USCENSUS"
"5/27/2021 12:00:00 AM","Boone County","Missouri","Midwest","West North Central","29019","38.989861","-92.310202 ","18521","116","7","0","5/26/2021 12:00:00 AM","2019","180463","NYTIMES-USCENSUS"
"5/27/2021 12:00:00 AM","Acadia Parish","Louisiana","South","West South Central","22001","30.291497","-92.411037 ","6650","195","3","0","5/26/2021 12:00:00 AM","2019","62045","NYTIMES-USCENSUS"
"5/27/2021 12:00:00 AM","Gwinnett County","Georgia","South","South Atlantic","13135","33.958756","-84.025735 ","102513","1175","74","0","5/26/2021 12:00:00 AM","2019","936250","NYTIMES-USCENSUS"
"5/27/2021 12:00:00 AM","Colusa County","California","West","Pacific","06011","39.177739","-122.237563 ","2259","18","5","0","5/26/2021 12:00:00 AM","2019","21547","NYTIMES-USCENSUS"
"5/27/2021 12:00:00 AM","Prentiss County","Mississippi","South","East South Central","28117","34.620566","-88.522184 ","2817","60","1","0","5/26/2021 12:00:00 AM","2019","25126","NYTIMES-USCENSUS"
"5/27/2021 12:00:00 AM","Clark County","Indiana","Midwest","East North Central","18019","38.476217","-85.711122 ","13119","201","3","0","5/26/2021 12:00:00 AM","2019","118302","NYTIMES-USCENSUS"
"5/27/2021 12:00:00 AM","Osborne County","Kansas","Midwest","West North Central","20141","39.348261","-98.767942 ","290","12","0","0","5/26/2021 12:00:00 AM","2019","3421","NYTIMES-USCENSUS"
"5/27/2021 12:00:00 AM","Douglas County","Georgia","South","South Atlantic","13097","33.701242","-84.767314 ","15466","226","11","2","5/26/2021 12:00:00 AM","2019","146343","NYTIMES-USCENSUS"
"5/27/2021 12:00:00 AM","Toombs County","Georgia","South","South Atlantic","13279","32.117753","-82.330597 ","3441","116","7","1","5/26/2021 12:00:00 AM","2019","26830","NYTIMES-USCENSUS"
"5/27/2021 12:00:00 AM","Milwaukee County","Wisconsin","Midwest","East North Central","55079","42.912643","-87.862312 ","117124","1380","41","5","5/26/2021 12:00:00 AM","2019","945726","NYTIMES-USCENSUS"
"5/27/2021 12:00:00 AM","Gallia County","Ohio","Midwest","East North Central","39053","38.817046","-82.301746 ","2388","50","4","0","5/26/2021 12:00:00 AM","2019","29898","NYTIMES-USCENSUS"
"5/27/2021 12:00:00 AM","Liberty County","Florida","South","South Atlantic","12077","30.259849","-84.86858 ","1082","16","0","0","5/26/2021 12:00:00 AM","2019","8354","NYTIMES-USCENSUS"
"5/27/2021 12:00:00 AM","Emmet County","Michigan","Midwest","East North Central","26047","45.590094","-84.986822 ","2368","42","0","0","5/26/2021 12:00:00 AM","2019","33415","NYTIMES-USCENSUS"
"5/27/2021 12:00:00 AM","Wyandot County","Ohio","Midwest","East North Central","39175","40.839782","-83.313681 ","2338","56","1","0","5/26/2021 12:00:00 AM","2019","21772","NYTIMES-USCENSUS"
"5/27/2021 12:00:00 AM","Lander County","Nevada","West","Mountain","32015","39.90021","-117.04724 ","467","9","0","0","5/26/2021 12:00:00 AM","2019","5532","NYTIMES-USCENSUS"
"5/27/2021 12:00:00 AM","Yuma County","Arizona","West","Mountain","04027","32.773942","-113.910905 ","37222","839","4","1","5/26/2021 12:00:00 AM","2019","213787","NYTIMES-USCENSUS"
"5/27/2021 12:00:00 AM","Taylor County","Texas","South","West South Central","48441","32.297126","-99.89043 ","15902","410","-1","0","5/26/2021 12:00:00 AM","2019","138034","NYTIMES-USCENSUS"
"5/27/2021 12:00:00 AM","Grant County","New Mexico","West","Mountain","35017","32.732087","-108.381504 ","1720","40","2","0","5/26/2021 12:00:00 AM","2019","26998","NYTIMES-USCENSUS"
"5/27/2021 12:00:00 AM","Delta County","Colorado","West","Mountain","08029","38.861595","-107.864892 ","2769","63","2","0","5/26/2021 12:00:00 AM","2019","31162","NYTIMES-USCENSUS"
"5/27/2021 12:00:00 AM","Cascade County","Montana","West","Mountain","30013","47.316575","-111.350262 ","9204","170","15","0","5/26/2021 12:00:00 AM","2019","81366","NYTIMES-USCENSUS"
"5/27/2021 12:00:00 AM","Yellow Medicine County","Minnesota","Midwest","West North Central","27173","44.715736","-95.862756 ","1146","20","0","0","5/26/2021 12:00:00 AM","2019","9709","NYTIMES-USCENSUS"
"5/27/2021 12:00:00 AM","Elko County","Nevada","West","Mountain","32007","41.141133","-115.351424 ","5006","56","7","0","5/26/2021 12:00:00 AM","2019","52778","NYTIMES-USCENSUS"
"5/27/2021 12:00:00 AM","Henrico County","Virginia","South","South Atlantic","51087","37.43752","-77.300333 ","25502","620","8","1","5/26/2021 12:00:00 AM","2019","330818","NYTIMES-USCENSUS"
"5/27/2021 12:00:00 AM","Shelby County","Ohio","Midwest","East North Central","39149","40.33668","-84.204142 ","4725","93","1","0","5/26/2021 12:00:00 AM","2019","48590","NYTIMES-USCENSUS"
"5/27/2021 12:00:00 AM","Howard County","Arkansas","South","West South Central","05061","34.083064","-93.990931 ","1664","25","0","0","5/26/2021 12:00:00 AM","2019","13202","NYTIMES-USCENSUS"
"5/27/2021 12:00:00 AM","Montgomery County","Missouri","Midwest","West North Central","29139","38.935184","-91.465427 ","1037","11","0","0","5/26/2021 12:00:00 AM","2019","11551","NYTIMES-USCENSUS"
"5/27/2021 12:00:00 AM","Steele County","North Dakota","Midwest","West North Central","38091","47.451062","-97.71892 ","185","2","1","0","5/26/2021 12:00:00 AM","2019","1890","NYTIMES-USCENSUS"
"5/27/2021 12:00:00 AM","Lake County","Montana","West","Mountain","30047","47.642901","-114.083687 ","2107","36","1","0","5/26/2021 12:00:00 AM","2019","30458","NYTIMES-USCENSUS"
"5/27/2021 12:00:00 AM","Butte County","South Dakota","Midwest","West North Central","46019","44.896226","-103.501436 ","1079","20","4","0","5/26/2021 12:00:00 AM","2019","10429","NYTIMES-USCENSUS"
"5/27/2021 12:00:00 AM","Adams County","Colorado","West","Mountain","08001","39.874325","-104.331872 ","60696","734","79","1","5/26/2021 12:00:00 AM","2019","517421","NYTIMES-USCENSUS"
"5/27/2021 12:00:00 AM","Chisago County","Minnesota","Midwest","West North Central","27025","45.505444","-92.903849 ","6123","52","9","0","5/26/2021 12:00:00 AM","2019","56579","NYTIMES-USCENSUS"
"5/27/2021 12:00:00 AM","Camas County","Idaho","West","Mountain","16025","43.502552","-114.772135 ","72","0","0","0","5/26/2021 12:00:00 AM","2019","1106","NYTIMES-USCENSUS"
"5/27/2021 12:00:00 AM","Staunton city","Virginia","South","South Atlantic","51790","38.157978","-79.061876 ","2525","71","1","0","5/26/2021 12:00:00 AM","2019","24932","NYTIMES-USCENSUS"
"5/27/2021 12:00:00 AM","Hemphill County","Texas","South","West South Central","48211","35.815956","-100.27921 ","584","2","0","0","5/26/2021 12:00:00 AM","2019","3819","NYTIMES-USCENSUS"
"5/27/2021 12:00:00 AM","Clay County","Alabama","South","East South Central","01027","33.2704","-85.863525 ","1578","57","0","0","5/26/2021 12:00:00 AM","2019","13235","NYTIMES-USCENSUS"
"5/27/2021 12:00:00 AM","Lampasas County","Texas","South","West South Central","48281","31.196731","-98.240889 ","2196","33","0","0","5/26/2021 12:00:00 AM","2019","21428","NYTIMES-USCENSUS"
"5/27/2021 12:00:00 AM","Pickens County","South Carolina","South","South Atlantic","45077","34.885368","-82.723377 ","18975","299","14","0","5/26/2021 12:00:00 AM","2019","126884","NYTIMES-USCENSUS"
"5/27/2021 12:00:00 AM","Whatcom County","Washington","West","Pacific","53073","48.842653","-121.836432 ","9356","98","39","0","5/26/2021 12:00:00 AM","2019","229247","NYTIMES-USCENSUS"
"5/27/2021 12:00:00 AM","Shannon County","Missouri","Midwest","West North Central","29203","37.152498","-91.391328 ","589","12","1","0","5/26/2021 12:00:00 AM","2019","8166","NYTIMES-USCENSUS"
"5/27/2021 12:00:00 AM","Madison County","Illinois","Midwest","East North Central","17119","38.82712","-89.900227 ","30769","595","18","0","5/26/2021 12:00:00 AM","2019","262966","NYTIMES-USCENSUS"
"5/27/2021 12:00:00 AM","Yuba County","California","West","Pacific","06115","39.27013","-121.344259 ","6344","49","4","0","5/26/2021 12:00:00 AM","2019","78668","NYTIMES-USCENSUS"
"5/27/2021 12:00:00 AM","Nelson County","Kentucky","South","East South Central","21179","37.80312","-85.465931 ","4961","57","3","0","5/26/2021 12:00:00 AM","2019","46233","NYTIMES-USCENSUS"
"5/27/2021 12:00:00 AM","Platte County","Missouri","Midwest","West North Central","29165","39.37869","-94.761477 ","4198","47","1","0","5/26/2021 12:00:00 AM","2019","104418","NYTIMES-USCENSUS"
"5/27/2021 12:00:00 AM","Lincoln County","Tennessee","South","East South Central","47103","35.142784","-86.593403 ","4373","65","0","1","5/26/2021 12:00:00 AM","2019","34366","NYTIMES-USCENSUS"
"5/27/2021 12:00:00 AM","Pawnee County","Oklahoma","South","West South Central","40117","36.313704","-96.696669 ","1788","52","0","0","5/26/2021 12:00:00 AM","2019","16376","NYTIMES-USCENSUS"
"5/27/2021 12:00:00 AM","Atoka County","Oklahoma","South","West South Central","40005","34.392469","-96.036558 ","1873","26","0","0","5/26/2021 12:00:00 AM","2019","13758","NYTIMES-USCENSUS"
"5/27/2021 12:00:00 AM","Freeborn County","Minnesota","Midwest","West North Central","27047","43.674202","-93.350289 ","3451","30","4","0","5/26/2021 12:00:00 AM","2019","30281","NYTIMES-USCENSUS"
"5/27/2021 12:00:00 AM","Washington County","Maryland","South","South Atlantic","24043","39.603621","-77.814671 ","14561","326","12","45","5/26/2021 12:00:00 AM","2019","151049","NYTIMES-USCENSUS"
"5/27/2021 12:00:00 AM","Weld County","Colorado","West","Mountain","08123","40.555961","-104.383666 ","32412","344","45","0","5/26/2021 12:00:00 AM","2019","324492","NYTIMES-USCENSUS"
"5/27/2021 12:00:00 AM","Cheatham County","Tennessee","South","East South Central","47021","36.255169","-87.100808 ","4605","56","1","0","5/26/2021 12:00:00 AM","2019","40667","NYTIMES-USCENSUS"
"5/27/2021 12:00:00 AM","Logan County","West Virginia","South","South Atlantic","54045","37.830591","-81.940853 ","3202","95","3","0","5/26/2021 12:00:00 AM","2019","32019","NYTIMES-USCENSUS"
"5/27/2021 12:00:00 AM","Towns County","Georgia","South","South Atlantic","13281","34.902529","-83.732264 ","1248","56","1","0","5/26/2021 12:00:00 AM","2019","12037","NYTIMES-USCENSUS"
"5/27/2021 12:00:00 AM","Calhoun County","Iowa","Midwest","West North Central","19025","42.38617","-94.643683 ","1388","13","0","0","5/26/2021 12:00:00 AM","2019","9668","NYTIMES-USCENSUS"
"5/27/2021 12:00:00 AM","Guernsey County","Ohio","Midwest","East North Central","39059","40.056665","-81.497875 ","3211","53","3","0","5/26/2021 12:00:00 AM","2019","38875","NYTIMES-USCENSUS"
"5/27/2021 12:00:00 AM","Mecosta County","Michigan","Midwest","East North Central","26107","43.635295","-85.332751 ","3182","32","8","0","5/26/2021 12:00:00 AM","2019","43453","NYTIMES-USCENSUS"
"5/27/2021 12:00:00 AM","Surry County","Virginia","South","South Atlantic","51181","37.119761","-76.880172 ","421","9","0","0","5/26/2021 12:00:00 AM","2019","6422","NYTIMES-USCENSUS"
"5/27/2021 12:00:00 AM","Newton County","Georgia","South","South Atlantic","13217","33.552751","-83.85136 ","11268","253","3","-1","5/26/2021 12:00:00 AM","2019","111744","NYTIMES-USCENSUS"
"5/27/2021 12:00:00 AM","Pima County","Arizona","West","Mountain","04019","32.128038","-111.783657 ","116475","2412","58","2","5/26/2021 12:00:00 AM","2019","1047279","NYTIMES-USCENSUS"
"5/27/2021 12:00:00 AM","Coryell County","Texas","South","West South Central","48099","31.391177","-97.798022 ","7307","86","-3","0","5/26/2021 12:00:00 AM","2019","75951","NYTIMES-USCENSUS"
"5/27/2021 12:00:00 AM","Columbia County","New York","Northeast","Middle Atlantic","36021","42.247696","-73.626718 ","4041","103","3","0","5/26/2021 12:00:00 AM","2019","59461","NYTIMES-USCENSUS"
"5/27/2021 12:00:00 AM","Fentress County","Tennessee","South","East South Central","47049","36.369892","-84.937764 ","2441","48","1","1","5/26/2021 12:00:00 AM","2019","18523","NYTIMES-USCENSUS"
"5/27/2021 12:00:00 AM","Jasper County","Georgia","South","South Atlantic","13159","33.316981","-83.689151 ","1413","39","1","0","5/26/2021 12:00:00 AM","2019","14219","NYTIMES-USCENSUS"
"5/27/2021 12:00:00 AM","Madison Parish","Louisiana","South","West South Central","22065","32.346878","-91.231932 ","1567","40","-1","0","5/26/2021 12:00:00 AM","2019","10951","NYTIMES-USCENSUS"
"5/27/2021 12:00:00 AM","Duplin County","North Carolina","South","South Atlantic","37061","34.934403","-77.933543 ","6318","137","-2","0","5/26/2021 12:00:00 AM","2019","58741","NYTIMES-USCENSUS"
"5/27/2021 12:00:00 AM","Jefferson Davis County","Mississippi","South","East South Central","28065","31.564808","-89.827086 ","1073","33","0","0","5/26/2021 12:00:00 AM","2019","11128","NYTIMES-USCENSUS"
"5/27/2021 12:00:00 AM","Greene County","Georgia","South","South Atlantic","13133","33.576704","-83.166625 ","1844","64","1","0","5/26/2021 12:00:00 AM","2019","18324","NYTIMES-USCENSUS"
"5/27/2021 12:00:00 AM","Marshall County","Illinois","Midwest","East North Central","17123","41.031119","-89.342371 ","1081","21","0","0","5/26/2021 12:00:00 AM","2019","11438","NYTIMES-USCENSUS"
"5/27/2021 12:00:00 AM","Ascension Parish","Louisiana","South","West South Central","22005","30.206444","-90.912502 ","12570","167","7","0","5/26/2021 12:00:00 AM","2019","126604","NYTIMES-USCENSUS"
"5/27/2021 12:00:00 AM","Saunders County","Nebraska","Midwest","West North Central","31155","41.223388","-96.642097 ","2534","16","0","0","5/26/2021 12:00:00 AM","2019","21578","NYTIMES-USCENSUS"
"5/27/2021 12:00:00 AM","Alcona County","Michigan","Midwest","East North Central","26001","44.657509","-83.29458 ","737","32","0","0","5/26/2021 12:00:00 AM","2019","10405","NYTIMES-USCENSUS"
"5/27/2021 12:00:00 AM","Allegany County","Maryland","South","South Atlantic","24001","39.612313","-78.703104 ","6992","211","2","1","5/26/2021 12:00:00 AM","2019","70416","NYTIMES-USCENSUS"
"5/27/2021 12:00:00 AM","Leake County","Mississippi","South","East South Central","28079","32.76063","-89.52225 ","2703","74","5","0","5/26/2021 12:00:00 AM","2019","22786","NYTIMES-USCENSUS"
"5/27/2021 12:00:00 AM","King County","Washington","West","Pacific","53033","47.490552","-121.833977 ","109159","1576","243","5","5/26/2021 12:00:00 AM","2019","2252782","NYTIMES-USCENSUS"
"5/27/2021 12:00:00 AM","Alleghany County","North Carolina","South","South Atlantic","37005","36.489356","-81.132299 ","1071","5","1","0","5/26/2021 12:00:00 AM","2019","11137","NYTIMES-USCENSUS"
"5/27/2021 12:00:00 AM","Howard County","Nebraska","Midwest","West North Central","31093","41.216851","-98.513342 ","559","10","0","0","5/26/2021 12:00:00 AM","2019","6445","NYTIMES-USCENSUS"
"5/27/2021 12:00:00 AM","Camp County","Texas","South","West South Central","48063","32.974581","-94.979085 ","1260","44","0","1","5/26/2021 12:00:00 AM","2019","13094","NYTIMES-USCENSUS"
"5/27/2021 12:00:00 AM","Boyd County","Nebraska","Midwest","West North Central","31015","42.894448","-98.773022 ","176","3","0","0","5/26/2021 12:00:00 AM","2019","1919","NYTIMES-USCENSUS"
"5/27/2021 12:00:00 AM","Caroline County","Maryland","South","South Atlantic","24011","38.871531","-75.831662 ","2340","29","4","4","5/26/2021 12:00:00 AM","2019","33406","NYTIMES-USCENSUS"
"5/27/2021 12:00:00 AM","Wasco County","Oregon","West","Pacific","41065","45.164536","-121.165069 ","1410","28","1","0","5/26/2021 12:00:00 AM","2019","26682","NYTIMES-USCENSUS"
"5/27/2021 12:00:00 AM","Grady County","Georgia","South","South Atlantic","13131","30.875908","-84.24508 ","2224","62","10","2","5/26/2021 12:00:00 AM","2019","24633","NYTIMES-USCENSUS"
"5/27/2021 12:00:00 AM","Clark County","Missouri","Midwest","West North Central","29045","40.407275","-91.729472 ","673","7","1","0","5/26/2021 12:00:00 AM","2019","6797","NYTIMES-USCENSUS"
"5/27/2021 12:00:00 AM","Natchitoches Parish","Louisiana","South","West South Central","22069","31.732509","-93.082546 ","4116","92","15","0","5/26/2021 12:00:00 AM","2019","38158","NYTIMES-USCENSUS"
"5/27/2021 12:00:00 AM","Cook County","Georgia","South","South Atlantic","13075","31.152516","-83.429445 ","1836","42","0","0","5/26/2021 12:00:00 AM","2019","17270","NYTIMES-USCENSUS"
"5/27/2021 12:00:00 AM","Wheatland County","Montana","West","Mountain","30107","46.496967","-109.857684 ","180","8","0","0","5/26/2021 12:00:00 AM","2019","2126","NYTIMES-USCENSUS"
"5/27/2021 12:00:00 AM","Uinta County","Wyoming","West","Mountain","56041","41.284726","-110.558947 ","2264","13","1","0","5/26/2021 12:00:00 AM","2019","20226","NYTIMES-USCENSUS"
"5/27/2021 12:00:00 AM","Calvert County","Maryland","South","South Atlantic","24009","38.522719","-76.529762 ","4215","85","5","7","5/26/2021 12:00:00 AM","2019","92525","NYTIMES-USCENSUS"
"5/27/2021 12:00:00 AM","Monroe County","Pennsylvania","Northeast","Middle Atlantic","42089","41.05624","-75.329065 ","14672","317","13","1","5/26/2021 12:00:00 AM","2019","170271","NYTIMES-USCENSUS"
"5/27/2021 12:00:00 AM","Collin County","Texas","South","West South Central","48085","33.194494","-96.579428 ","91504","833","53","1","5/26/2021 12:00:00 AM","2019","1034730","NYTIMES-USCENSUS"
"5/27/2021 12:00:00 AM","Jackson County","Michigan","Midwest","East North Central","26075","42.248474","-84.420868 ","20939","308","17","1","5/26/2021 12:00:00 AM","2019","158510","NYTIMES-USCENSUS"
"5/27/2021 12:00:00 AM","Christian County","Missouri","Midwest","West North Central","29043","36.969739","-93.187614 ","9048","91","0","0","5/26/2021 12:00:00 AM","2019","88595","NYTIMES-USCENSUS"
"5/27/2021 12:00:00 AM","Elmore County","Alabama","South","East South Central","01051","32.597229","-86.142735 ","10233","208","9","0","5/26/2021 12:00:00 AM","2019","81209","NYTIMES-USCENSUS"
"5/27/2021 12:00:00 AM","Clearfield County","Pennsylvania","Northeast","Middle Atlantic","42033","41.006862","-78.477724 ","8560","147","13","0","5/26/2021 12:00:00 AM","2019","79255","NYTIMES-USCENSUS"
"5/27/2021 12:00:00 AM","Russell County","Kentucky","South","East South Central","21207","36.990587","-85.05495 ","1895","45","0","0","5/26/2021 12:00:00 AM","2019","17923","NYTIMES-USCENSUS"
"5/27/2021 12:00:00 AM","Brunswick County","North Carolina","South","South Atlantic","37019","34.038754","-78.227765 ","9248","153","12","0","5/26/2021 12:00:00 AM","2019","142820","NYTIMES-USCENSUS"
"5/27/2021 12:00:00 AM","Radford city","Virginia","South","South Atlantic","51750","37.120119","-80.559147 ","2164","18","1","0","5/26/2021 12:00:00 AM","2019","18249","NYTIMES-USCENSUS"
"5/27/2021 12:00:00 AM","Washington Parish","Louisiana","South","West South Central","22117","30.852144","-90.046253 ","4406","133","3","1","5/26/2021 12:00:00 AM","2019","46194","NYTIMES-USCENSUS"
"5/27/2021 12:00:00 AM","Morgan County","Alabama","South","East South Central","01103","34.454484","-86.846402 ","14516","283","10","0","5/26/2021 12:00:00 AM","2019","119679","NYTIMES-USCENSUS"
"5/27/2021 12:00:00 AM","Sullivan County","Pennsylvania","Northeast","Middle Atlantic","42113","41.439285","-76.511717 ","431","20","0","0","5/26/2021 12:00:00 AM","2019","6066","NYTIMES-USCENSUS"
"5/27/2021 12:00:00 AM","Corson County","South Dakota","Midwest","West North Central","46031","45.685671","-101.179665 ","480","12","0","0","5/26/2021 12:00:00 AM","2019","4086","NYTIMES-USCENSUS"
"5/27/2021 12:00:00 AM","Nelson County","North Dakota","Midwest","West North Central","38063","47.918667","-98.204428 ","479","15","0","0","5/26/2021 12:00:00 AM","2019","2879","NYTIMES-USCENSUS"
"5/27/2021 12:00:00 AM","Greenup County","Kentucky","South","East South Central","21089","38.563562","-82.93382 ","3647","59","2","0","5/26/2021 12:00:00 AM","2019","35098","NYTIMES-USCENSUS"
"5/27/2021 12:00:00 AM","Hughes County","Oklahoma","South","West South Central","40063","35.052934","-96.251183 ","1238","29","0","0","5/26/2021 12:00:00 AM","2019","13279","NYTIMES-USCENSUS"
"5/27/2021 12:00:00 AM","Adair County","Oklahoma","South","West South Central","40001","35.898043","-94.651026 ","3188","43","0","0","5/26/2021 12:00:00 AM","2019","22194","NYTIMES-USCENSUS"
"5/27/2021 12:00:00 AM","Karnes County","Texas","South","West South Central","48255","28.908996","-97.852205 ","2247","37","3","0","5/26/2021 12:00:00 AM","2019","15601","NYTIMES-USCENSUS"
"5/27/2021 12:00:00 AM","Daviess County","Kentucky","South","East South Central","21059","37.731671","-87.087139 ","10899","187","16","0","5/26/2021 12:00:00 AM","2019","101511","NYTIMES-USCENSUS"
"5/27/2021 12:00:00 AM","Fremont County","Wyoming","West","Mountain","56013","43.054831","-108.608935 ","5226","84","4","0","5/26/2021 12:00:00 AM","2019","39261","NYTIMES-USCENSUS"
"5/27/2021 12:00:00 AM","McCormick County","South Carolina","South","South Atlantic","45065","33.897599","-82.316196 ","1028","28","1","0","5/26/2021 12:00:00 AM","2019","9463","NYTIMES-USCENSUS"
"5/27/2021 12:00:00 AM","Marion County","West Virginia","South","South Atlantic","54049","39.505839","-80.243402 ","4549","51","1","0","5/26/2021 12:00:00 AM","2019","56072","NYTIMES-USCENSUS"
"5/27/2021 12:00:00 AM","Lafourche Parish","Louisiana","South","West South Central","22057","29.491992","-90.394849 ","9805","204","10","0","5/26/2021 12:00:00 AM","2019","97614","NYTIMES-USCENSUS"
"5/27/2021 12:00:00 AM","Osage County","Missouri","Midwest","West North Central","29151","38.464253","-91.859504 ","1637","16","0","0","5/26/2021 12:00:00 AM","2019","13615","NYTIMES-USCENSUS"
"5/27/2021 12:00:00 AM","Coos County","Oregon","West","Pacific","41011","43.18591","-124.094133 ","2139","36","4","0","5/26/2021 12:00:00 AM","2019","64487","NYTIMES-USCENSUS"
"5/27/2021 12:00:00 AM","Madison County","Florida","South","South Atlantic","12079","30.447233","-83.470416 ","2086","45","1","0","5/26/2021 12:00:00 AM","2019","18493","NYTIMES-USCENSUS"
"5/27/2021 12:00:00 AM","Butler County","Ohio","Midwest","East North Central","39017","39.439747","-84.565734 ","38728","591","12","0","5/26/2021 12:00:00 AM","2019","383134","NYTIMES-USCENSUS"
"5/27/2021 12:00:00 AM","Sherman County","Nebraska","Midwest","West North Central","31163","41.218743","-98.972849 ","212","4","0","0","5/26/2021 12:00:00 AM","2019","3001","NYTIMES-USCENSUS"
"5/27/2021 12:00:00 AM","Wilkinson County","Georgia","South","South Atlantic","13319","32.804266","-83.175512 ","938","27","0","0","5/26/2021 12:00:00 AM","2019","8954","NYTIMES-USCENSUS"
"5/27/2021 12:00:00 AM","Clark County","Washington","West","Pacific","53011","45.77173","-122.485953 ","24674","271","67","0","5/26/2021 12:00:00 AM","2019","488241","NYTIMES-USCENSUS"
"5/27/2021 12:00:00 AM","Austin County","Texas","South","West South Central","48015","29.891901","-96.27017 ","2197","37","0","0","5/26/2021 12:00:00 AM","2019","30032","NYTIMES-USCENSUS"
"5/27/2021 12:00:00 AM","Dallas County","Alabama","South","East South Central","01047","32.333526","-87.11436 ","3596","154","6","0","5/26/2021 12:00:00 AM","2019","37196","NYTIMES-USCENSUS"
"5/27/2021 12:00:00 AM","Cumberland County","Pennsylvania","Northeast","Middle Atlantic","42041","40.164805","-77.263442 ","20357","523","10","0","5/26/2021 12:00:00 AM","2019","253370","NYTIMES-USCENSUS"
"5/27/2021 12:00:00 AM","Jessamine County","Kentucky","South","East South Central","21113","37.873291","-84.58396 ","4742","64","1","0","5/26/2021 12:00:00 AM","2019","54115","NYTIMES-USCENSUS"
"5/27/2021 12:00:00 AM","Crenshaw County","Alabama","South","East South Central","01041","31.730311","-86.320038 ","1539","57","0","0","5/26/2021 12:00:00 AM","2019","13772","NYTIMES-USCENSUS"
"5/27/2021 12:00:00 AM","Jackson County","Kansas","Midwest","West North Central","20085","39.411145","-95.794485 ","1411","16","0","0","5/26/2021 12:00:00 AM","2019","13171","NYTIMES-USCENSUS"
"5/27/2021 12:00:00 AM","Franklin County","Tennessee","South","East South Central","47051","35.155926","-86.099203 ","5174","90","2","0","5/26/2021 12:00:00 AM","2019","42208","NYTIMES-USCENSUS"
"5/27/2021 12:00:00 AM","Orleans County","New York","Northeast","Middle Atlantic","36073","43.339906","-78.207028 ","3105","83","5","0","5/26/2021 12:00:00 AM","2019","40352","NYTIMES-USCENSUS"
"5/27/2021 12:00:00 AM","Hutchinson County","South Dakota","Midwest","West North Central","46067","43.33671","-97.749383 ","920","28","0","0","5/26/2021 12:00:00 AM","2019","7291","NYTIMES-USCENSUS"
"5/27/2021 12:00:00 AM","Marshall County","West Virginia","South","South Atlantic","54051","39.854426","-80.671794 ","3508","77","2","0","5/26/2021 12:00:00 AM","2019","30531","NYTIMES-USCENSUS"
"5/27/2021 12:00:00 AM","Douglas County","South Dakota","Midwest","West North Central","46043","43.391506","-98.358433 ","455","9","0","0","5/26/2021 12:00:00 AM","2019","2921","NYTIMES-USCENSUS"
"5/27/2021 12:00:00 AM","Simpson County","Mississippi","South","East South Central","28127","31.902505","-89.917709 ","2965","89","1","0","5/26/2021 12:00:00 AM","2019","26658","NYTIMES-USCENSUS"
"5/27/2021 12:00:00 AM","White County","Illinois","Midwest","East North Central","17193","38.087326","-88.178623 ","1702","36","0","0","5/26/2021 12:00:00 AM","2019","13537","NYTIMES-USCENSUS"
"5/27/2021 12:00:00 AM","Jackson Parish","Louisiana","South","West South Central","22049","32.30429","-92.5617 ","2019","50","7","0","5/26/2021 12:00:00 AM","2019","15744","NYTIMES-USCENSUS"
"5/27/2021 12:00:00 AM","Ziebach County","South Dakota","Midwest","West North Central","46137","44.989764","-101.660827 ","344","9","0","0","5/26/2021 12:00:00 AM","2019","2756","NYTIMES-USCENSUS"
"5/27/2021 12:00:00 AM","Obion County","Tennessee","South","East South Central","47131","36.361892","-89.148078 ","4584","96","4","0","5/26/2021 12:00:00 AM","2019","30069","NYTIMES-USCENSUS"
"5/27/2021 12:00:00 AM","Emanuel County","Georgia","South","South Atlantic","13107","32.5911","-82.299763 ","2577","81","2","0","5/26/2021 12:00:00 AM","2019","22646","NYTIMES-USCENSUS"
"5/27/2021 12:00:00 AM","Lawrence County","Illinois","Midwest","East North Central","17101","38.718954","-87.730221 ","2407","34","0","0","5/26/2021 12:00:00 AM","2019","15678","NYTIMES-USCENSUS"
"5/27/2021 12:00:00 AM","Transylvania County","North Carolina","South","South Atlantic","37175","35.210103","-82.816666 ","2407","33","-1","0","5/26/2021 12:00:00 AM","2019","34385","NYTIMES-USCENSUS"
"5/27/2021 12:00:00 AM","Lehigh County","Pennsylvania","Northeast","Middle Atlantic","42077","40.614241","-75.590627 ","39567","853","35","0","5/26/2021 12:00:00 AM","2019","369318","NYTIMES-USCENSUS"
"5/27/2021 12:00:00 AM","Young County","Texas","South","West South Central","48503","33.158778","-98.67839 ","2180","44","0","0","5/26/2021 12:00:00 AM","2019","18010","NYTIMES-USCENSUS"
"5/27/2021 12:00:00 AM","Sheridan County","Kansas","Midwest","West North Central","20179","39.350547","-100.441228 ","436","14","0","0","5/26/2021 12:00:00 AM","2019","2521","NYTIMES-USCENSUS"
"5/27/2021 12:00:00 AM","Live Oak County","Texas","South","West South Central","48297","28.351535","-98.126961 ","1138","22","0","0","5/26/2021 12:00:00 AM","2019","12207","NYTIMES-USCENSUS"
"5/27/2021 12:00:00 AM","Hopkins County","Kentucky","South","East South Central","21107","37.31107","-87.542196 ","4548","147","5","0","5/26/2021 12:00:00 AM","2019","44686","NYTIMES-USCENSUS"
"5/27/2021 12:00:00 AM","Centre County","Pennsylvania","Northeast","Middle Atlantic","42027","40.909128","-77.847877 ","16840","224","8","0","5/26/2021 12:00:00 AM","2019","162385","NYTIMES-USCENSUS"
"5/27/2021 12:00:00 AM","Contra Costa County","California","West","Pacific","06013","37.919479","-121.951543 ","69532","812","36","3","5/26/2021 12:00:00 AM","2019","1153526","NYTIMES-USCENSUS"
"5/27/2021 12:00:00 AM","Potter County","Pennsylvania","Northeast","Middle Atlantic","42105","41.748587","-77.894436 ","1175","23","0","0","5/26/2021 12:00:00 AM","2019","16526","NYTIMES-USCENSUS"
"5/27/2021 12:00:00 AM","Leavenworth County","Kansas","Midwest","West North Central","20103","39.189511","-95.038977 ","7252","91","0","0","5/26/2021 12:00:00 AM","2019","81758","NYTIMES-USCENSUS"
"5/27/2021 12:00:00 AM","McIntosh County","Oklahoma","South","West South Central","40091","35.369108","-95.671787 ","2013","61","0","0","5/26/2021 12:00:00 AM","2019","19596","NYTIMES-USCENSUS"
"5/27/2021 12:00:00 AM","Knox County","Ohio","Midwest","East North Central","39083","40.40362","-82.422393 ","4548","111","9","0","5/26/2021 12:00:00 AM","2019","62322","NYTIMES-USCENSUS"
"5/27/2021 12:00:00 AM","Grainger County","Tennessee","South","East South Central","47057","36.277509","-83.509546 ","2652","49","-1","-1","5/26/2021 12:00:00 AM","2019","23320","NYTIMES-USCENSUS"
"5/27/2021 12:00:00 AM","St. John the Baptist Parish","Louisiana","South","West South Central","22095","30.144068","-90.49096 ","3782","141","4","0","5/26/2021 12:00:00 AM","2019","42837","NYTIMES-USCENSUS"
"5/27/2021 12:00:00 AM","Lyon County","Iowa","Midwest","West North Central","19119","43.38358","-96.207201 ","1586","41","0","0","5/26/2021 12:00:00 AM","2019","11755","NYTIMES-USCENSUS"
"5/27/2021 12:00:00 AM","Traverse County","Minnesota","Midwest","West North Central","27155","45.769935","-96.474832 ","373","5","0","0","5/26/2021 12:00:00 AM","2019","3259","NYTIMES-USCENSUS"
"5/27/2021 12:00:00 AM","Eddy County","New Mexico","West","Mountain","35015","32.457835","-104.306434 ","6874","139","4","0","5/26/2021 12:00:00 AM","2019","58460","NYTIMES-USCENSUS"
"5/27/2021 12:00:00 AM","Clay County","Indiana","Midwest","East North Central","18021","39.393928","-87.115858 ","2625","47","-2","0","5/26/2021 12:00:00 AM","2019","26225","NYTIMES-USCENSUS"
"5/27/2021 12:00:00 AM","Yolo County","California","West","Pacific","06113","38.679609","-121.90275 ","14025","213","7","0","5/26/2021 12:00:00 AM","2019","220500","NYTIMES-USCENSUS"
"5/27/2021 12:00:00 AM","Sullivan County","New York","Northeast","Middle Atlantic","36105","41.719993","-74.771577 ","6616","73","6","0","5/26/2021 12:00:00 AM","2019","75432","NYTIMES-USCENSUS"
"5/27/2021 12:00:00 AM","Greene County","Alabama","South","East South Central","01063","32.844497","-87.9642 ","928","34","0","0","5/26/2021 12:00:00 AM","2019","8111","NYTIMES-USCENSUS"
"5/27/2021 12:00:00 AM","Cherry County","Nebraska","Midwest","West North Central","31031","42.571323","-101.047653 ","301","7","0","0","5/26/2021 12:00:00 AM","2019","5689","NYTIMES-USCENSUS"
"5/27/2021 12:00:00 AM","DeKalb County","Indiana","Midwest","East North Central","18033","41.39676","-85.002697 ","4359","88","5","0","5/26/2021 12:00:00 AM","2019","43475","NYTIMES-USCENSUS"
"5/27/2021 12:00:00 AM","Miami County","Kansas","Midwest","West North Central","20121","38.566772","-94.832963 ","2773","42","0","0","5/26/2021 12:00:00 AM","2019","34237","NYTIMES-USCENSUS"
"5/27/2021 12:00:00 AM","Broomfield County","Colorado","West","Mountain","08014","39.953593","-105.050787 ","4870","75","3","0","5/26/2021 12:00:00 AM","2019","70465","NYTIMES-USCENSUS"
"5/27/2021 12:00:00 AM","Tolland County","Connecticut","Northeast","New England","09013","41.858081","-72.340978 ","9576","187","16","0","5/26/2021 12:00:00 AM","2019","150721","NYTIMES-USCENSUS"
"5/27/2021 12:00:00 AM","Logan County","Arkansas","South","West South Central","05083","35.218654","-93.72091 ","2249","25","1","0","5/26/2021 12:00:00 AM","2019","21466","NYTIMES-USCENSUS"
"5/27/2021 12:00:00 AM","Bradford County","Pennsylvania","Northeast","Middle Atlantic","42015","41.791504","-76.502123 ","6028","90","9","1","5/26/2021 12:00:00 AM","2019","60323","NYTIMES-USCENSUS"
"5/27/2021 12:00:00 AM","Delaware County","New York","Northeast","Middle Atlantic","36025","42.193986","-74.966728 ","2349","37","1","0","5/26/2021 12:00:00 AM","2019","44135","NYTIMES-USCENSUS"
"5/27/2021 12:00:00 AM","Gaines County","Texas","South","West South Central","48165","32.743942","-102.631561 ","1452","44","0","0","5/26/2021 12:00:00 AM","2019","21492","NYTIMES-USCENSUS"
"5/27/2021 12:00:00 AM","DeKalb County","Alabama","South","East South Central","01049","34.460915","-85.804021 ","8893","188","3","0","5/26/2021 12:00:00 AM","2019","71513","NYTIMES-USCENSUS"
"5/27/2021 12:00:00 AM","Wells County","Indiana","Midwest","East North Central","18179","40.735273","-85.212974 ","2962","83","0","0","5/26/2021 12:00:00 AM","2019","28296","NYTIMES-USCENSUS"
"5/27/2021 12:00:00 AM","Kleberg County","Texas","South","West South Central","48273","27.438735","-97.66062 ","2654","93","0","0","5/26/2021 12:00:00 AM","2019","30680","NYTIMES-USCENSUS"
"5/27/2021 12:00:00 AM","Upshur County","West Virginia","South","South Atlantic","54097","38.90253","-80.231606 ","1930","33","16","0","5/26/2021 12:00:00 AM","2019","24176","NYTIMES-USCENSUS"
"5/27/2021 12:00:00 AM","Buchanan County","Iowa","Midwest","West North Central","19019","42.470328","-91.838666 ","1921","33","2","0","5/26/2021 12:00:00 AM","2019","21175","NYTIMES-USCENSUS"
"5/27/2021 12:00:00 AM","Knox County","Maine","Northeast","New England","23013","44.042045","-69.038514 ","1127","6","4","0","5/26/2021 12:00:00 AM","2019","39772","NYTIMES-USCENSUS"
"5/27/2021 12:00:00 AM","Independence County","Arkansas","South","West South Central","05063","35.737499","-91.559942 ","3792","124","4","0","5/26/2021 12:00:00 AM","2019","37825","NYTIMES-USCENSUS"
"5/27/2021 12:00:00 AM","Linn County","Oregon","West","Pacific","41043","44.488898","-122.537208 ","5299","76","23","2","5/26/2021 12:00:00 AM","2019","129749","NYTIMES-USCENSUS"
"5/27/2021 12:00:00 AM","Carlisle County","Kentucky","South","East South Central","21039","36.85718","-88.976614 ","481","9","0","0","5/26/2021 12:00:00 AM","2019","4760","NYTIMES-USCENSUS"
"5/27/2021 12:00:00 AM","Porter County","Indiana","Midwest","East North Central","18127","41.509914","-87.071313 ","19178","331","19","0","5/26/2021 12:00:00 AM","2019","170389","NYTIMES-USCENSUS"
"5/27/2021 12:00:00 AM","Miami County","Indiana","Midwest","East North Central","18103","40.772883","-86.044258 ","3884","69","0","0","5/26/2021 12:00:00 AM","2019","35516","NYTIMES-USCENSUS"
"5/27/2021 12:00:00 AM","Midland County","Texas","South","West South Central","48329","31.814269","-102.002454 ","17665","271","0","0","5/26/2021 12:00:00 AM","2019","176832","NYTIMES-USCENSUS"
"5/27/2021 12:00:00 AM","Niobrara County","Wyoming","West","Mountain","56027","43.062159","-104.468373 ","162","2","0","0","5/26/2021 12:00:00 AM","2019","2356","NYTIMES-USCENSUS"
"5/27/2021 12:00:00 AM","Madison County","Montana","West","Mountain","30057","45.32529","-111.913791 ","786","8","2","0","5/26/2021 12:00:00 AM","2019","8600","NYTIMES-USCENSUS"
"5/27/2021 12:00:00 AM","Jones County","Iowa","Midwest","West North Central","19105","42.125118","-91.116914 ","3002","57","0","0","5/26/2021 12:00:00 AM","2019","20681","NYTIMES-USCENSUS"
"5/27/2021 12:00:00 AM","Chemung County","New York","Northeast","Middle Atlantic","36015","42.148697","-76.752471 ","7670","135","18","0","5/26/2021 12:00:00 AM","2019","83456","NYTIMES-USCENSUS"
"5/27/2021 12:00:00 AM","Gallatin County","Illinois","Midwest","East North Central","17059","37.768677","-88.227964 ","462","5","0","0","5/26/2021 12:00:00 AM","2019","4828","NYTIMES-USCENSUS"
"5/27/2021 12:00:00 AM","Walker County","Georgia","South","South Atlantic","13295","34.735802","-85.305456 ","7749","87","11","0","5/26/2021 12:00:00 AM","2019","69761","NYTIMES-USCENSUS"
"5/27/2021 12:00:00 AM","Red Lake County","Minnesota","Midwest","West North Central","27125","47.865487","-96.08718 ","401","7","1","0","5/26/2021 12:00:00 AM","2019","4055","NYTIMES-USCENSUS"
"5/27/2021 12:00:00 AM","Hodgeman County","Kansas","Midwest","West North Central","20083","38.087493","-99.898407 ","213","8","0","0","5/26/2021 12:00:00 AM","2019","1794","NYTIMES-USCENSUS"
"5/27/2021 12:00:00 AM","Dunn County","Wisconsin","Midwest","East North Central","55033","44.947751","-91.897645 ","5092","33","2","1","5/26/2021 12:00:00 AM","2019","45368","NYTIMES-USCENSUS"
"5/27/2021 12:00:00 AM","Lamar County","Texas","South","West South Central","48277","33.667263","-95.570348 ","5878","156","15","0","5/26/2021 12:00:00 AM","2019","49859","NYTIMES-USCENSUS"
"5/27/2021 12:00:00 AM","Houston County","Georgia","South","South Atlantic","13153","32.458287","-83.662522 ","14824","266","6","1","5/26/2021 12:00:00 AM","2019","157863","NYTIMES-USCENSUS"
"5/27/2021 12:00:00 AM","Castro County","Texas","South","West South Central","48069","34.533621","-102.258786 ","1008","32","4","0","5/26/2021 12:00:00 AM","2019","7530","NYTIMES-USCENSUS"
"5/27/2021 12:00:00 AM","Cimarron County","Oklahoma","South","West South Central","40025","36.74839","-102.517698 ","214","2","0","0","5/26/2021 12:00:00 AM","2019","2137","NYTIMES-USCENSUS"
"5/27/2021 12:00:00 AM","Bristol County","Massachusetts","Northeast","New England","25005","41.748588","-71.088894 ","66556","1726","28","-2","5/26/2021 12:00:00 AM","2019","565217","NYTIMES-USCENSUS"
"5/27/2021 12:00:00 AM","Dade County","Georgia","South","South Atlantic","13083","34.852424","-85.506201 ","1481","14","2","0","5/26/2021 12:00:00 AM","2019","16116","NYTIMES-USCENSUS"
"5/27/2021 12:00:00 AM","Treutlen County","Georgia","South","South Atlantic","13283","32.409586","-82.570882 ","854","28","1","1","5/26/2021 12:00:00 AM","2019","6901","NYTIMES-USCENSUS"
"5/27/2021 12:00:00 AM","Gila County","Arizona","West","Mountain","04007","33.789618","-110.81187 ","6926","230","-2","0","5/26/2021 12:00:00 AM","2019","54018","NYTIMES-USCENSUS"
"5/27/2021 12:00:00 AM","Orange County","North Carolina","South","South Atlantic","37135","36.062526","-79.120034 ","8565","101","3","0","5/26/2021 12:00:00 AM","2019","148476","NYTIMES-USCENSUS"
"5/27/2021 12:00:00 AM","Hillsborough County","Florida","South","South Atlantic","12057","27.88761","-82.374417 ","142487","1823","228","7","5/26/2021 12:00:00 AM","2019","1471968","NYTIMES-USCENSUS"
"5/27/2021 12:00:00 AM","Douglas County","Nevada","West","Mountain","32005","38.905129","-119.609019 ","2915","35","0","0","5/26/2021 12:00:00 AM","2019","48905","NYTIMES-USCENSUS"
"5/27/2021 12:00:00 AM","Bacon County","Georgia","South","South Atlantic","13005","31.55021","-82.451433 ","1662","39","0","1","5/26/2021 12:00:00 AM","2019","11164","NYTIMES-USCENSUS"
"5/27/2021 12:00:00 AM","Woodruff County","Arkansas","South","West South Central","05147","35.192777","-91.244535 ","651","13","0","0","5/26/2021 12:00:00 AM","2019","6320","NYTIMES-USCENSUS"
"5/27/2021 12:00:00 AM","San Miguel County","Colorado","West","Mountain","08113","38.009319","-108.427263 ","886","0","1","0","5/26/2021 12:00:00 AM","2019","8179","NYTIMES-USCENSUS"
"5/27/2021 12:00:00 AM","White Pine County","Nevada","West","Mountain","32033","39.418176","-114.900565 ","625","6","0","0","5/26/2021 12:00:00 AM","2019","9580","NYTIMES-USCENSUS"
"5/27/2021 12:00:00 AM","Ozaukee County","Wisconsin","Midwest","East North Central","55089","43.501845","-87.847567 ","9264","98","9","1","5/26/2021 12:00:00 AM","2019","89221","NYTIMES-USCENSUS"
"5/27/2021 12:00:00 AM","Bonner County","Idaho","West","Mountain","16017","48.316796","-116.612362 ","3304","43","6","0","5/26/2021 12:00:00 AM","2019","45739","NYTIMES-USCENSUS"
"5/27/2021 12:00:00 AM","Choctaw County","Oklahoma","South","West South Central","40023","34.027699","-95.554079 ","1620","26","0","0","5/26/2021 12:00:00 AM","2019","14672","NYTIMES-USCENSUS"
"5/27/2021 12:00:00 AM","Bucks County","Pennsylvania","Northeast","Middle Atlantic","42017","40.336887","-75.10706 ","60504","1299","23","2","5/26/2021 12:00:00 AM","2019","628270","NYTIMES-USCENSUS"
"5/27/2021 12:00:00 AM","Monroe County","Missouri","Midwest","West North Central","29137","39.49827","-92.006458 ","1000","12","0","0","5/26/2021 12:00:00 AM","2019","8644","NYTIMES-USCENSUS"
"5/27/2021 12:00:00 AM","Nye County","Nevada","West","Mountain","32023","37.965864","-116.459011 ","2975","108","2","1","5/26/2021 12:00:00 AM","2019","46523","NYTIMES-USCENSUS"
"5/27/2021 12:00:00 AM","Curry County","Oregon","West","Pacific","41015","42.466439","-124.210929 ","663","10","0","0","5/26/2021 12:00:00 AM","2019","22925","NYTIMES-USCENSUS"
"5/27/2021 12:00:00 AM","Hancock County","Tennessee","South","East South Central","47067","36.521353","-83.227493 ","602","12","0","0","5/26/2021 12:00:00 AM","2019","6620","NYTIMES-USCENSUS"
"5/27/2021 12:00:00 AM","Pike County","Arkansas","South","West South Central","05109","34.158191","-93.658659 ","1016","22","0","0","5/26/2021 12:00:00 AM","2019","10718","NYTIMES-USCENSUS"
"5/27/2021 12:00:00 AM","Pottawattamie County","Iowa","Midwest","West North Central","19155","41.340184","-95.544905 ","11175","171","3","0","5/26/2021 12:00:00 AM","2019","93206","NYTIMES-USCENSUS"
"5/27/2021 12:00:00 AM","Vigo County","Indiana","Midwest","East North Central","18167","39.429143","-87.390375 ","12550","256","-2","0","5/26/2021 12:00:00 AM","2019","107038","NYTIMES-USCENSUS"
"5/27/2021 12:00:00 AM","Mathews County","Virginia","South","South Atlantic","51115","37.425348","-76.268808 ","600","12","-1","0","5/26/2021 12:00:00 AM","2019","8834","NYTIMES-USCENSUS"
"5/27/2021 12:00:00 AM","Fayette County","Texas","South","West South Central","48149","29.877886","-96.921231 ","2737","65","0","0","5/26/2021 12:00:00 AM","2019","25346","NYTIMES-USCENSUS"
"5/27/2021 12:00:00 AM","Hampshire County","Massachusetts","Northeast","New England","25015","42.339459","-72.663694 ","9137","297","1","1","5/26/2021 12:00:00 AM","2019","160830","NYTIMES-USCENSUS"
"5/27/2021 12:00:00 AM","St. Clair County","Illinois","Midwest","East North Central","17163","38.470198","-89.928546 ","31068","561","22","0","5/26/2021 12:00:00 AM","2019","259686","NYTIMES-USCENSUS"
"5/27/2021 12:00:00 AM","Payette County","Idaho","West","Mountain","16075","44.00243","-116.750238 ","2584","37","3","0","5/26/2021 12:00:00 AM","2019","23951","NYTIMES-USCENSUS"
"5/27/2021 12:00:00 AM","Pickens County","Alabama","South","East South Central","01107","33.2968","-88.096864 ","2354","62","0","0","5/26/2021 12:00:00 AM","2019","19930","NYTIMES-USCENSUS"
"5/27/2021 12:00:00 AM","Quitman County","Mississippi","South","East South Central","28119","34.252833","-90.290171 ","816","16","0","0","5/26/2021 12:00:00 AM","2019","6792","NYTIMES-USCENSUS"
"5/27/2021 12:00:00 AM","Carlton County","Minnesota","Midwest","West North Central","27017","46.603818","-92.671044 ","3496","55","2","0","5/26/2021 12:00:00 AM","2019","35871","NYTIMES-USCENSUS"
"5/27/2021 12:00:00 AM","Jefferson County","Texas","South","West South Central","48245","29.854","-94.149331 ","19772","433","0","0","5/26/2021 12:00:00 AM","2019","251565","NYTIMES-USCENSUS"
"5/27/2021 12:00:00 AM","Yukon-Koyukuk Census Area","Alaska","West","Pacific","02290","65.375727","-151.57785 ","366","4","0","0","5/26/2021 12:00:00 AM","2019","5230","NYTIMES-USCENSUS"
"5/27/2021 12:00:00 AM","Mahnomen County","Minnesota","Midwest","West North Central","27087","47.328387","-95.811089 ","565","9","1","0","5/26/2021 12:00:00 AM","2019","5527","NYTIMES-USCENSUS"
"5/27/2021 12:00:00 AM","Tazewell County","Virginia","South","South Atlantic","51185","37.125395","-81.562924 ","3690","71","8","0","5/26/2021 12:00:00 AM","2019","40595","NYTIMES-USCENSUS"
"5/27/2021 12:00:00 AM","Gloucester County","New Jersey","Northeast","Middle Atlantic","34015","39.722875","-75.145679 ","30464","640","6","0","5/26/2021 12:00:00 AM","2019","291636","NYTIMES-USCENSUS"
"5/27/2021 12:00:00 AM","Comanche County","Oklahoma","South","West South Central","40031","34.662625","-98.476586 ","13895","195","0","0","5/26/2021 12:00:00 AM","2019","120749","NYTIMES-USCENSUS"
"5/27/2021 12:00:00 AM","Ripley County","Missouri","Midwest","West North Central","29181","36.65017","-90.874834 ","1089","16","5","0","5/26/2021 12:00:00 AM","2019","13288","NYTIMES-USCENSUS"
"5/27/2021 12:00:00 AM","Dubois County","Indiana","Midwest","East North Central","18037","38.373344","-86.873385 ","6187","118","4","0","5/26/2021 12:00:00 AM","2019","42736","NYTIMES-USCENSUS"
"5/27/2021 12:00:00 AM","Pottawatomie County","Kansas","Midwest","West North Central","20149","39.382187","-96.337113 ","1909","30","0","0","5/26/2021 12:00:00 AM","2019","24383","NYTIMES-USCENSUS"
"5/27/2021 12:00:00 AM","Montour County","Pennsylvania","Northeast","Middle Atlantic","42093","41.029284","-76.665225 ","2006","66","1","0","5/26/2021 12:00:00 AM","2019","18230","NYTIMES-USCENSUS"
"5/27/2021 12:00:00 AM","Boone County","Nebraska","Midwest","West North Central","31011","41.703934","-98.070476 ","584","4","0","0","5/26/2021 12:00:00 AM","2019","5192","NYTIMES-USCENSUS"
"5/27/2021 12:00:00 AM","Sussex County","Delaware","South","South Atlantic","10005","38.673227","-75.337024 ","25900","493","19","0","5/26/2021 12:00:00 AM","2019","234225","NYTIMES-USCENSUS"
"5/27/2021 12:00:00 AM","Wayne County","Ohio","Midwest","East North Central","39169","40.829661","-81.887194 ","9042","217","11","0","5/26/2021 12:00:00 AM","2019","115710","NYTIMES-USCENSUS"
"5/27/2021 12:00:00 AM","Todd County","South Dakota","Midwest","West North Central","46121","43.208794","-100.707664 ","1232","31","0","0","5/26/2021 12:00:00 AM","2019","10177","NYTIMES-USCENSUS"
"5/27/2021 12:00:00 AM","Ocean County","New Jersey","Northeast","Middle Atlantic","34029","39.865669","-74.258864 ","75669","2147","25","0","5/26/2021 12:00:00 AM","2019","607186","NYTIMES-USCENSUS"
"5/27/2021 12:00:00 AM","Orange County","Florida","South","South Atlantic","12095","28.514391","-81.323284 ","142369","1299","153","0","5/26/2021 12:00:00 AM","2019","1393452","NYTIMES-USCENSUS"
"5/27/2021 12:00:00 AM","Grundy County","Illinois","Midwest","East North Central","17063","41.29241","-88.401054 ","5952","80","2","0","5/26/2021 12:00:00 AM","2019","51054","NYTIMES-USCENSUS"
"5/27/2021 12:00:00 AM","Hancock County","Mississippi","South","East South Central","28045","30.391641","-89.482791 ","3832","87","3","0","5/26/2021 12:00:00 AM","2019","47632","NYTIMES-USCENSUS"
"5/27/2021 12:00:00 AM","Pennington County","South Dakota","Midwest","West North Central","46103","44.002349","-102.823801 ","13825","197","10","0","5/26/2021 12:00:00 AM","2019","113775","NYTIMES-USCENSUS"
"5/27/2021 12:00:00 AM","Wake County","North Carolina","South","South Atlantic","37183","35.789846","-78.650624 ","89151","732","102","0","5/26/2021 12:00:00 AM","2019","1111761","NYTIMES-USCENSUS"
"5/27/2021 12:00:00 AM","Colonial Heights city","Virginia","South","South Atlantic","51570","37.261685","-77.396804 ","1715","61","2","0","5/26/2021 12:00:00 AM","2019","17370","NYTIMES-USCENSUS"
"5/27/2021 12:00:00 AM","Cass County","Missouri","Midwest","West North Central","29037","38.646474","-94.354547 ","9244","113","13","0","5/26/2021 12:00:00 AM","2019","105780","NYTIMES-USCENSUS"
"5/27/2021 12:00:00 AM","Fairbanks North Star Borough","Alaska","West","Pacific","02090","64.676044","-146.548159 ","7935","43","5","0","5/26/2021 12:00:00 AM","2019","96849","NYTIMES-USCENSUS"
"5/27/2021 12:00:00 AM","Le Sueur County","Minnesota","Midwest","West North Central","27079","44.373424","-93.730143 ","2958","25","4","0","5/26/2021 12:00:00 AM","2019","28887","NYTIMES-USCENSUS"
"5/27/2021 12:00:00 AM","Hamilton County","Texas","South","West South Central","48193","31.707342","-98.111756 ","783","27","0","0","5/26/2021 12:00:00 AM","2019","8461","NYTIMES-USCENSUS"
"5/27/2021 12:00:00 AM","Jasper County","Illinois","Midwest","East North Central","17079","39.004886","-88.150725 ","1156","20","0","0","5/26/2021 12:00:00 AM","2019","9610","NYTIMES-USCENSUS"
"5/27/2021 12:00:00 AM","Richmond city","Virginia","South","South Atlantic","51760","37.531399","-77.476009 ","17061","266","7","0","5/26/2021 12:00:00 AM","2019","230436","NYTIMES-USCENSUS"
"5/27/2021 12:00:00 AM","Wicomico County","Maryland","South","South Atlantic","24045","38.36737","-75.632083 ","7660","171","9","18","5/26/2021 12:00:00 AM","2019","103609","NYTIMES-USCENSUS"
"5/27/2021 12:00:00 AM","Monroe County","Illinois","Midwest","East North Central","17133","38.277983","-90.179078 ","4368","94","4","0","5/26/2021 12:00:00 AM","2019","34637","NYTIMES-USCENSUS"
"5/27/2021 12:00:00 AM","LaSalle County","Illinois","Midwest","East North Central","17099","41.343341","-88.885931 ","12694","302","4","1","5/26/2021 12:00:00 AM","2019","108669","NYTIMES-USCENSUS"
"5/27/2021 12:00:00 AM","Halifax County","North Carolina","South","South Atlantic","37083","36.251438","-77.644842 ","5638","112","-1","0","5/26/2021 12:00:00 AM","2019","50010","NYTIMES-USCENSUS"
"5/27/2021 12:00:00 AM","Allen County","Kentucky","South","East South Central","21003","36.75077","-86.192458 ","2095","41","1","0","5/26/2021 12:00:00 AM","2019","21315","NYTIMES-USCENSUS"
"5/27/2021 12:00:00 AM","Franklin County","Idaho","West","Mountain","16041","42.173609","-111.822965 ","1211","16","2","0","5/26/2021 12:00:00 AM","2019","13876","NYTIMES-USCENSUS"
"5/27/2021 12:00:00 AM","Washington County","Alabama","South","East South Central","01129","31.408503","-88.212404 ","1687","39","0","0","5/26/2021 12:00:00 AM","2019","16326","NYTIMES-USCENSUS"
"5/27/2021 12:00:00 AM","Todd County","Kentucky","South","East South Central","21219","36.840338","-87.183642 ","1163","26","1","0","5/26/2021 12:00:00 AM","2019","12294","NYTIMES-USCENSUS"
"5/27/2021 12:00:00 AM","Glenn County","California","West","Pacific","06021","39.602546","-122.4017 ","2932","26","-2","1","5/26/2021 12:00:00 AM","2019","28393","NYTIMES-USCENSUS"
"5/27/2021 12:00:00 AM","Sunflower County","Mississippi","South","East South Central","28133","33.605529","-90.59509 ","3377","91","0","0","5/26/2021 12:00:00 AM","2019","25110","NYTIMES-USCENSUS"
"5/27/2021 12:00:00 AM","Jerome County","Idaho","West","Mountain","16053","42.691395","-114.262086 ","2626","23","1","0","5/26/2021 12:00:00 AM","2019","24412","NYTIMES-USCENSUS"
"5/27/2021 12:00:00 AM","Cumberland County","Tennessee","South","East South Central","47035","35.952398","-84.994761 ","6816","138","4","5","5/26/2021 12:00:00 AM","2019","60520","NYTIMES-USCENSUS"
"5/27/2021 12:00:00 AM","Kent County","Michigan","Midwest","East North Central","26081","43.032497","-85.547446 ","72616","838","55","3","5/26/2021 12:00:00 AM","2019","656955","NYTIMES-USCENSUS"
"5/27/2021 12:00:00 AM","Jefferson County","Oregon","West","Pacific","41031","44.645151","-121.178632 ","2289","38","3","1","5/26/2021 12:00:00 AM","2019","24658","NYTIMES-USCENSUS"
"5/27/2021 12:00:00 AM","Marion County","Arkansas","South","West South Central","05089","36.266664","-92.678577 ","1065","30","0","0","5/26/2021 12:00:00 AM","2019","16694","NYTIMES-USCENSUS"
"5/27/2021 12:00:00 AM","Stark County","Illinois","Midwest","East North Central","17175","41.096908","-89.797411 ","643","24","0","0","5/26/2021 12:00:00 AM","2019","5342","NYTIMES-USCENSUS"
"5/27/2021 12:00:00 AM","Wayne County","Indiana","Midwest","East North Central","18177","39.863091","-85.006735 ","7498","203","6","0","5/26/2021 12:00:00 AM","2019","65884","NYTIMES-USCENSUS"
"5/27/2021 12:00:00 AM","Meade County","Kentucky","South","East South Central","21163","37.967476","-86.200863 ","2055","25","2","0","5/26/2021 12:00:00 AM","2019","28572","NYTIMES-USCENSUS"
"5/27/2021 12:00:00 AM","San Juan County","Utah","West","Mountain","49037","37.602633","-109.791574 ","1915","37","1","0","5/26/2021 12:00:00 AM","2019","15308","NYTIMES-USCENSUS"
"5/27/2021 12:00:00 AM","Richland County","Illinois","Midwest","East North Central","17159","38.712187","-88.085452 ","1759","49","0","1","5/26/2021 12:00:00 AM","2019","15513","NYTIMES-USCENSUS"
"5/27/2021 12:00:00 AM","Avoyelles Parish","Louisiana","South","West South Central","22009","31.088503","-91.983275 ","4282","123","10","0","5/26/2021 12:00:00 AM","2019","40144","NYTIMES-USCENSUS"
"5/27/2021 12:00:00 AM","Hardee County","Florida","South","South Atlantic","12049","27.492846","-81.82158 ","3256","45","3","0","5/26/2021 12:00:00 AM","2019","26937","NYTIMES-USCENSUS"
"5/27/2021 12:00:00 AM","Lake County","Colorado","West","Mountain","08065","39.205341","-106.350079 ","806","0","3","0","5/26/2021 12:00:00 AM","2019","8127","NYTIMES-USCENSUS"
"5/27/2021 12:00:00 AM","Yellowstone County","Montana","West","Mountain","30111","45.936987","-108.276656 ","17623","267","30","1","5/26/2021 12:00:00 AM","2019","161300","NYTIMES-USCENSUS"
"5/27/2021 12:00:00 AM","Nodaway County","Missouri","Midwest","West North Central","29147","40.361136","-94.883146 ","2704","25","4","0","5/26/2021 12:00:00 AM","2019","22092","NYTIMES-USCENSUS"
"5/27/2021 12:00:00 AM","Hall County","Georgia","South","South Atlantic","13139","34.317569","-83.8185 ","27656","478","16","3","5/26/2021 12:00:00 AM","2019","204441","NYTIMES-USCENSUS"
"5/27/2021 12:00:00 AM","Amherst County","Virginia","South","South Atlantic","51009","37.629304","-79.154667 ","2951","37","4","0","5/26/2021 12:00:00 AM","2019","31605","NYTIMES-USCENSUS"
"5/27/2021 12:00:00 AM","Alleghany County","Virginia","South","South Atlantic","51005","37.787905","-80.008669 ","1360","49","1","0","5/26/2021 12:00:00 AM","2019","14860","NYTIMES-USCENSUS"
"5/27/2021 12:00:00 AM","York County","Maine","Northeast","New England","23031","43.426019","-70.668425 ","13279","131","15","0","5/26/2021 12:00:00 AM","2019","207641","NYTIMES-USCENSUS"
"5/27/2021 12:00:00 AM","Motley County","Texas","South","West South Central","48345","34.057899","-100.793152 ","117","8","0","0","5/26/2021 12:00:00 AM","2019","1200","NYTIMES-USCENSUS"
"5/27/2021 12:00:00 AM","Marshall County","Minnesota","Midwest","West North Central","27089","48.362728","-96.357761 ","882","17","0","0","5/26/2021 12:00:00 AM","2019","9336","NYTIMES-USCENSUS"
"5/27/2021 12:00:00 AM","Montgomery County","North Carolina","South","South Atlantic","37123","35.327548","-79.910752 ","3341","95","3","1","5/26/2021 12:00:00 AM","2019","27173","NYTIMES-USCENSUS"
"5/27/2021 12:00:00 AM","Frontier County","Nebraska","Midwest","West North Central","31063","40.530947","-100.406683 ","193","1","0","0","5/26/2021 12:00:00 AM","2019","2627","NYTIMES-USCENSUS"
"5/27/2021 12:00:00 AM","Kendall County","Illinois","Midwest","East North Central","17093","41.58814","-88.430626 ","13780","105","104","0","5/26/2021 12:00:00 AM","2019","128990","NYTIMES-USCENSUS"
"5/27/2021 12:00:00 AM","Queen Anne's County","Maryland","South","South Atlantic","24035","39.040693","-76.082405 ","2992","51","3","4","5/26/2021 12:00:00 AM","2019","50381","NYTIMES-USCENSUS"
"5/27/2021 12:00:00 AM","Montrose County","Colorado","West","Mountain","08085","38.407507","-108.266282 ","3571","58","4","0","5/26/2021 12:00:00 AM","2019","42758","NYTIMES-USCENSUS"
"5/27/2021 12:00:00 AM","Stanton County","Kansas","Midwest","West North Central","20187","37.565932","-101.789383 ","185","6","0","0","5/26/2021 12:00:00 AM","2019","2006","NYTIMES-USCENSUS"
"5/27/2021 12:00:00 AM","Houghton County","Michigan","Midwest","East North Central","26061","46.998427","-88.651903 ","3125","42","1","0","5/26/2021 12:00:00 AM","2019","35684","NYTIMES-USCENSUS"
"5/27/2021 12:00:00 AM","Fayette County","Tennessee","South","East South Central","47047","35.196993","-89.413803 ","5156","83","3","3","5/26/2021 12:00:00 AM","2019","41133","NYTIMES-USCENSUS"
"5/27/2021 12:00:00 AM","Brown County","South Dakota","Midwest","West North Central","46013","45.589254","-98.352175 ","5625","93","2","0","5/26/2021 12:00:00 AM","2019","38839","NYTIMES-USCENSUS"
"5/27/2021 12:00:00 AM","Tucker County","West Virginia","South","South Atlantic","54093","39.111175","-79.559968 ","540","10","2","0","5/26/2021 12:00:00 AM","2019","6839","NYTIMES-USCENSUS"
"5/27/2021 12:00:00 AM","San Augustine County","Texas","South","West South Central","48405","31.382449","-94.16318 ","578","32","0","0","5/26/2021 12:00:00 AM","2019","8237","NYTIMES-USCENSUS"
"5/27/2021 12:00:00 AM","Appling County","Georgia","South","South Atlantic","13001","31.739712","-82.290103 ","2325","72","1","0","5/26/2021 12:00:00 AM","2019","18386","NYTIMES-USCENSUS"
"5/27/2021 12:00:00 AM","Archer County","Texas","South","West South Central","48009","33.616305","-98.687267 ","811","12","0","0","5/26/2021 12:00:00 AM","2019","8553","NYTIMES-USCENSUS"
"5/27/2021 12:00:00 AM","Alamosa County","Colorado","West","Mountain","08003","37.568442","-105.788041 ","1672","31","9","0","5/26/2021 12:00:00 AM","2019","16233","NYTIMES-USCENSUS"
"5/27/2021 12:00:00 AM","McLeod County","Minnesota","Midwest","West North Central","27085","44.821657","-94.272323 ","4278","60","0","0","5/26/2021 12:00:00 AM","2019","35893","NYTIMES-USCENSUS"
"5/27/2021 12:00:00 AM","Forest County","Pennsylvania","Northeast","Middle Atlantic","42053","41.513304","-79.249705 ","1430","21","0","0","5/26/2021 12:00:00 AM","2019","7247","NYTIMES-USCENSUS"
"5/27/2021 12:00:00 AM","Zapata County","Texas","South","West South Central","48505","26.996981","-99.182603 ","1776","36","1","0","5/26/2021 12:00:00 AM","2019","14179","NYTIMES-USCENSUS"
"5/27/2021 12:00:00 AM","Randolph County","West Virginia","South","South Atlantic","54083","38.781095","-79.867788 ","2748","12","14","0","5/26/2021 12:00:00 AM","2019","28695","NYTIMES-USCENSUS"
"5/27/2021 12:00:00 AM","Hillsborough County","New Hampshire","Northeast","New England","33011","42.911532","-71.723055 ","36112","641","39","0","5/26/2021 12:00:00 AM","2019","417025","NYTIMES-USCENSUS"
"5/27/2021 12:00:00 AM","Union County","Oregon","West","Pacific","41061","45.304081","-117.999149 ","1461","23","1","0","5/26/2021 12:00:00 AM","2019","26835","NYTIMES-USCENSUS"
"5/27/2021 12:00:00 AM","Beaver County","Pennsylvania","Northeast","Middle Atlantic","42007","40.68414","-80.350721 ","15395","383","18","0","5/26/2021 12:00:00 AM","2019","163929","NYTIMES-USCENSUS"
"5/27/2021 12:00:00 AM","Storey County","Nevada","West","Mountain","32029","39.438385","-119.524646 ","110","3","0","0","5/26/2021 12:00:00 AM","2019","4123","NYTIMES-USCENSUS"
"5/27/2021 12:00:00 AM","Saline County","Kansas","Midwest","West North Central","20169","38.791804","-97.651478 ","6291","140","0","0","5/26/2021 12:00:00 AM","2019","54224","NYTIMES-USCENSUS"
"5/27/2021 12:00:00 AM","Botetourt County","Virginia","South","South Atlantic","51023","37.565482","-79.797546 ","2552","38","1","0","5/26/2021 12:00:00 AM","2019","33419","NYTIMES-USCENSUS"
"5/27/2021 12:00:00 AM","Wright County","Minnesota","Midwest","West North Central","27171","45.175091","-93.966396 ","16317","143","12","1","5/26/2021 12:00:00 AM","2019","138377","NYTIMES-USCENSUS"
"5/27/2021 12:00:00 AM","Carroll County","Georgia","South","South Atlantic","13045","33.582237","-85.080527 ","11504","243","4","0","5/26/2021 12:00:00 AM","2019","119992","NYTIMES-USCENSUS"
"5/27/2021 12:00:00 AM","St. Louis city","Missouri","Midwest","West North Central","29510","38.635699","-90.244582 ","24923","509","42","5","5/26/2021 12:00:00 AM","2019","300576","NYTIMES-USCENSUS"
"5/27/2021 12:00:00 AM","Lake County","Oregon","West","Pacific","41037","42.788401","-120.38979 ","462","7","0","0","5/26/2021 12:00:00 AM","2019","7869","NYTIMES-USCENSUS"
"5/27/2021 12:00:00 AM","Medina County","Texas","South","West South Central","48325","29.353661","-99.111085 ","5084","105","4","0","5/26/2021 12:00:00 AM","2019","51584","NYTIMES-USCENSUS"
"5/27/2021 12:00:00 AM","Cameron Parish","Louisiana","South","West South Central","22023","29.871812","-93.164948 ","611","7","-1","1","5/26/2021 12:00:00 AM","2019","6973","NYTIMES-USCENSUS"
"5/27/2021 12:00:00 AM","Hendricks County","Indiana","Midwest","East North Central","18063","39.768963","-86.509908 ","17520","337","15","1","5/26/2021 12:00:00 AM","2019","170311","NYTIMES-USCENSUS"
"5/27/2021 12:00:00 AM","Madison County","Ohio","Midwest","East North Central","39097","39.896607","-83.400885 ","4417","63","0","0","5/26/2021 12:00:00 AM","2019","44731","NYTIMES-USCENSUS"
"5/27/2021 12:00:00 AM","Howell County","Missouri","Midwest","West North Central","29091","36.774369","-91.887368 ","3517","45","1","0","5/26/2021 12:00:00 AM","2019","40117","NYTIMES-USCENSUS"
"5/27/2021 12:00:00 AM","Wyoming County","West Virginia","South","South Atlantic","54109","37.60366","-81.549032 ","2020","39","2","0","5/26/2021 12:00:00 AM","2019","20394","NYTIMES-USCENSUS"
"5/27/2021 12:00:00 AM","Chautauqua County","Kansas","Midwest","West North Central","20019","37.154259","-96.245396 ","267","6","0","0","5/26/2021 12:00:00 AM","2019","3250","NYTIMES-USCENSUS"
"5/27/2021 12:00:00 AM","Ontario County","New York","Northeast","Middle Atlantic","36069","42.856357","-77.303497 ","7371","93","4","0","5/26/2021 12:00:00 AM","2019","109777","NYTIMES-USCENSUS"
"5/27/2021 12:00:00 AM","Cape Girardeau County","Missouri","Midwest","West North Central","29031","37.384141","-89.685658 ","9553","135","0","0","5/26/2021 12:00:00 AM","2019","78871","NYTIMES-USCENSUS"
"5/27/2021 12:00:00 AM","Chesapeake city","Virginia","South","South Atlantic","51550","36.679376","-76.301788 ","21062","298","8","0","5/26/2021 12:00:00 AM","2019","244835","NYTIMES-USCENSUS"
"5/27/2021 12:00:00 AM","Mineral County","West Virginia","South","South Atlantic","54057","39.404781","-78.95669 ","2914","89","4","0","5/26/2021 12:00:00 AM","2019","26868","NYTIMES-USCENSUS"
"5/27/2021 12:00:00 AM","Stone County","Mississippi","South","East South Central","28131","30.790184","-89.112297 ","1848","33","3","0","5/26/2021 12:00:00 AM","2019","18336","NYTIMES-USCENSUS"
"5/27/2021 12:00:00 AM","Bay County","Florida","South","South Atlantic","12005","30.15914","-85.534395 ","20549","394","13","1","5/26/2021 12:00:00 AM","2019","174705","NYTIMES-USCENSUS"
"5/27/2021 12:00:00 AM","Cass County","Illinois","Midwest","East North Central","17017","39.969202","-90.245704 ","2004","36","0","0","5/26/2021 12:00:00 AM","2019","12147","NYTIMES-USCENSUS"
"5/27/2021 12:00:00 AM","Floyd County","Texas","South","West South Central","48153","34.07373","-101.303274 ","885","30","0","0","5/26/2021 12:00:00 AM","2019","5712","NYTIMES-USCENSUS"
"5/27/2021 12:00:00 AM","Lee County","Virginia","South","South Atlantic","51105","36.701721","-83.130112 ","2433","48","2","0","5/26/2021 12:00:00 AM","2019","23423","NYTIMES-USCENSUS"
"5/27/2021 12:00:00 AM","Rockcastle County","Kentucky","South","East South Central","21203","37.36105","-84.314368 ","1605","23","6","0","5/26/2021 12:00:00 AM","2019","16695","NYTIMES-USCENSUS"
"5/27/2021 12:00:00 AM","Genesee County","New York","Northeast","Middle Atlantic","36037","43.00091","-78.192778 ","5415","123","2","0","5/26/2021 12:00:00 AM","2019","57280","NYTIMES-USCENSUS"
"5/27/2021 12:00:00 AM","Wilson County","Texas","South","West South Central","48493","29.173883","-98.086734 ","4588","69","4","0","5/26/2021 12:00:00 AM","2019","51070","NYTIMES-USCENSUS"
"5/27/2021 12:00:00 AM","Davidson County","North Carolina","South","South Atlantic","37057","35.795131","-80.207107 ","16840","193","32","1","5/26/2021 12:00:00 AM","2019","167609","NYTIMES-USCENSUS"
"5/27/2021 12:00:00 AM","Hertford County","North Carolina","South","South Atlantic","37091","36.363517","-76.981616 ","2109","64","0","1","5/26/2021 12:00:00 AM","2019","23677","NYTIMES-USCENSUS"
"5/27/2021 12:00:00 AM","Wilkes County","Georgia","South","South Atlantic","13317","33.779031","-82.747921 ","1095","29","0","0","5/26/2021 12:00:00 AM","2019","9777","NYTIMES-USCENSUS"
"5/27/2021 12:00:00 AM","Dakota County","Minnesota","Midwest","West North Central","27037","44.670893","-93.062481 ","46492","462","32","1","5/26/2021 12:00:00 AM","2019","429021","NYTIMES-USCENSUS"
"5/27/2021 12:00:00 AM","Cabell County","West Virginia","South","South Atlantic","54011","38.419578","-82.243397 ","8788","173","4","0","5/26/2021 12:00:00 AM","2019","91945","NYTIMES-USCENSUS"
"5/27/2021 12:00:00 AM","Washington County","Utah","West","Mountain","49053","37.262531","-113.4878 ","21212","206","0","0","5/26/2021 12:00:00 AM","2019","177556","NYTIMES-USCENSUS"
"5/27/2021 12:00:00 AM","Livingston County","Kentucky","South","East South Central","21139","37.209517","-88.363426 ","863","21","1","0","5/26/2021 12:00:00 AM","2019","9194","NYTIMES-USCENSUS"
"5/27/2021 12:00:00 AM","Lewis and Clark County","Montana","West","Mountain","30049","47.132013","-112.373367 ","6954","88","6","0","5/26/2021 12:00:00 AM","2019","69432","NYTIMES-USCENSUS"
"5/27/2021 12:00:00 AM","Crawford County","Indiana","Midwest","East North Central","18025","38.289433","-86.440871 ","1017","17","0","0","5/26/2021 12:00:00 AM","2019","10577","NYTIMES-USCENSUS"
"5/27/2021 12:00:00 AM","Johnson County","Tennessee","South","East South Central","47091","36.453203","-81.861247 ","2438","39","4","0","5/26/2021 12:00:00 AM","2019","17788","NYTIMES-USCENSUS"
"5/27/2021 12:00:00 AM","San Bernardino County","California","West","Pacific","06071","34.856661","-116.181571 ","298082","4755","234","0","5/26/2021 12:00:00 AM","2019","2180085","NYTIMES-USCENSUS"
"5/27/2021 12:00:00 AM","Cibola County","New Mexico","West","Mountain","35006","34.928272","-107.99268 ","3541","124","1","0","5/26/2021 12:00:00 AM","2019","26675","NYTIMES-USCENSUS"
"5/27/2021 12:00:00 AM","Shelby County","Missouri","Midwest","West North Central","29205","39.797531","-92.088719 ","657","7","3","0","5/26/2021 12:00:00 AM","2019","5930","NYTIMES-USCENSUS"
"5/27/2021 12:00:00 AM","Washington County","Kansas","Midwest","West North Central","20201","39.776714","-97.095611 ","536","14","0","0","5/26/2021 12:00:00 AM","2019","5406","NYTIMES-USCENSUS"
"5/27/2021 12:00:00 AM","Custer County","Oklahoma","South","West South Central","40039","35.645601","-98.997386 ","4078","104","0","0","5/26/2021 12:00:00 AM","2019","29003","NYTIMES-USCENSUS"
"5/27/2021 12:00:00 AM","Churchill County","Nevada","West","Mountain","32001","39.53771","-118.264166 ","2073","49","2","0","5/26/2021 12:00:00 AM","2019","24909","NYTIMES-USCENSUS"
"5/27/2021 12:00:00 AM","Otsego County","New York","Northeast","Middle Atlantic","36077","42.629776","-75.028841 ","3438","47","1","0","5/26/2021 12:00:00 AM","2019","59493","NYTIMES-USCENSUS"
"5/27/2021 12:00:00 AM","Dawson County","Texas","South","West South Central","48115","32.742528","-101.948771 ","1737","69","0","0","5/26/2021 12:00:00 AM","2019","12728","NYTIMES-USCENSUS"
"5/27/2021 12:00:00 AM","Uintah County","Utah","West","Mountain","49047","40.125887","-109.517748 ","2700","23","0","0","5/26/2021 12:00:00 AM","2019","35734","NYTIMES-USCENSUS"
"5/27/2021 12:00:00 AM","San Miguel County","New Mexico","West","Mountain","35047","35.476859","-104.803519 ","1366","17","0","0","5/26/2021 12:00:00 AM","2019","27277","NYTIMES-USCENSUS"
"5/27/2021 12:00:00 AM","Clinton County","Illinois","Midwest","East North Central","17027","38.606295","-89.426228 ","5775","99","-1","0","5/26/2021 12:00:00 AM","2019","37562","NYTIMES-USCENSUS"
"5/27/2021 12:00:00 AM","Ward County","North Dakota","Midwest","West North Central","38101","48.216686","-101.540537 ","9860","195","7","0","5/26/2021 12:00:00 AM","2019","67641","NYTIMES-USCENSUS"
"5/27/2021 12:00:00 AM","Lewis County","Washington","West","Pacific","53041","46.580071","-122.377444 ","4848","69","45","0","5/26/2021 12:00:00 AM","2019","80707","NYTIMES-USCENSUS"
"5/27/2021 12:00:00 AM","Walton County","Florida","South","South Atlantic","12131","30.571247","-86.162798 ","7898","89","4","1","5/26/2021 12:00:00 AM","2019","74071","NYTIMES-USCENSUS"
"5/27/2021 12:00:00 AM","Shackelford County","Texas","South","West South Central","48417","32.74382","-99.347005 ","276","5","0","0","5/26/2021 12:00:00 AM","2019","3265","NYTIMES-USCENSUS"
"5/27/2021 12:00:00 AM","Clay County","Kansas","Midwest","West North Central","20027","39.344964","-97.168853 ","826","29","0","0","5/26/2021 12:00:00 AM","2019","8002","NYTIMES-USCENSUS"
"5/27/2021 12:00:00 AM","Bent County","Colorado","West","Mountain","08011","37.931891","-103.077584 ","1541","21","1","0","5/26/2021 12:00:00 AM","2019","5577","NYTIMES-USCENSUS"
"5/27/2021 12:00:00 AM","Nash County","North Carolina","South","South Atlantic","37127","35.965945","-77.987555 ","11607","193","5","0","5/26/2021 12:00:00 AM","2019","94298","NYTIMES-USCENSUS"
"5/27/2021 12:00:00 AM","Titus County","Texas","South","West South Central","48449","33.214599","-94.966783 ","3733","84","3","0","5/26/2021 12:00:00 AM","2019","32750","NYTIMES-USCENSUS"
"5/27/2021 12:00:00 AM","Miller County","Missouri","Midwest","West North Central","29131","38.21668","-92.429876 ","2548","54","1","0","5/26/2021 12:00:00 AM","2019","25619","NYTIMES-USCENSUS"
"5/27/2021 12:00:00 AM","Ford County","Kansas","Midwest","West North Central","20057","37.688416","-99.884748 ","5767","75","0","0","5/26/2021 12:00:00 AM","2019","33619","NYTIMES-USCENSUS"
"5/27/2021 12:00:00 AM","Fergus County","Montana","West","Mountain","30027","47.221816","-109.232956 ","1121","31","1","0","5/26/2021 12:00:00 AM","2019","11050","NYTIMES-USCENSUS"
"5/27/2021 12:00:00 AM","Oklahoma County","Oklahoma","South","West South Central","40109","35.554611","-97.409401 ","87246","1297","0","0","5/26/2021 12:00:00 AM","2019","797434","NYTIMES-USCENSUS"
"5/27/2021 12:00:00 AM","Lamoille County","Vermont","Northeast","New England","50015","44.611192","-72.632659 ","879","3","0","0","5/26/2021 12:00:00 AM","2019","25362","NYTIMES-USCENSUS"
"5/27/2021 12:00:00 AM","Monroe County","Kentucky","South","East South Central","21171","36.714077","-85.713508 ","1338","43","0","0","5/26/2021 12:00:00 AM","2019","10650","NYTIMES-USCENSUS"
"5/27/2021 12:00:00 AM","Sequoyah County","Oklahoma","South","West South Central","40135","35.502435","-94.750757 ","4136","56","0","0","5/26/2021 12:00:00 AM","2019","41569","NYTIMES-USCENSUS"
"5/27/2021 12:00:00 AM","Jay County","Indiana","Midwest","East North Central","18075","40.434956","-85.002331 ","2003","33","0","0","5/26/2021 12:00:00 AM","2019","20436","NYTIMES-USCENSUS"
"5/27/2021 12:00:00 AM","Saluda County","South Carolina","South","South Atlantic","45081","34.005278","-81.727903 ","1829","51","1","0","5/26/2021 12:00:00 AM","2019","20473","NYTIMES-USCENSUS"
"5/27/2021 12:00:00 AM","Delaware County","Indiana","Midwest","East North Central","18035","40.227543","-85.399262 ","10882","196","13","0","5/26/2021 12:00:00 AM","2019","114135","NYTIMES-USCENSUS"
"5/27/2021 12:00:00 AM","Wells County","North Dakota","Midwest","West North Central","38103","47.580851","-99.682213 ","457","8","0","0","5/26/2021 12:00:00 AM","2019","3834","NYTIMES-USCENSUS"
"5/27/2021 12:00:00 AM","Sandoval County","New Mexico","West","Mountain","35043","35.685091","-106.883119 ","12096","240","2","0","5/26/2021 12:00:00 AM","2019","146748","NYTIMES-USCENSUS"
"5/27/2021 12:00:00 AM","San Juan County","Colorado","West","Mountain","08111","37.781049","-107.670257 ","49","0","0","0","5/26/2021 12:00:00 AM","2019","728","NYTIMES-USCENSUS"
"5/27/2021 12:00:00 AM","Claiborne County","Mississippi","South","East South Central","28021","31.97281","-90.915424 ","1028","30","1","0","5/26/2021 12:00:00 AM","2019","8988","NYTIMES-USCENSUS"
"5/27/2021 12:00:00 AM","Riverside County","California","West","Pacific","06065","33.729828","-116.002239 ","300631","4608","81","0","5/26/2021 12:00:00 AM","2019","2470546","NYTIMES-USCENSUS"
"5/27/2021 12:00:00 AM","Norton city","Virginia","South","South Atlantic","51720","36.931549","-82.625996 ","290","7","0","0","5/26/2021 12:00:00 AM","2019","3981","NYTIMES-USCENSUS"
"5/27/2021 12:00:00 AM","Oregon County","Missouri","Midwest","West North Central","29149","36.68531","-91.401827 ","803","5","0","0","5/26/2021 12:00:00 AM","2019","10529","NYTIMES-USCENSUS"
"5/27/2021 12:00:00 AM","Columbia County","Arkansas","South","West South Central","05027","33.223038","-93.232843 ","2358","56","5","0","5/26/2021 12:00:00 AM","2019","23457","NYTIMES-USCENSUS"
"5/27/2021 12:00:00 AM","Lincoln County","New Mexico","West","Mountain","35027","33.740841","-105.449805 ","1740","18","4","0","5/26/2021 12:00:00 AM","2019","19572","NYTIMES-USCENSUS"
"5/27/2021 12:00:00 AM","Harrison County","Ohio","Midwest","East North Central","39067","40.292318","-81.091565 ","1129","37","8","0","5/26/2021 12:00:00 AM","2019","15040","NYTIMES-USCENSUS"
"5/27/2021 12:00:00 AM","Chippewa County","Wisconsin","Midwest","East North Central","55017","45.069092","-91.283505 ","7658","96","4","0","5/26/2021 12:00:00 AM","2019","64658","NYTIMES-USCENSUS"
"5/27/2021 12:00:00 AM","Barnwell County","South Carolina","South","South Atlantic","45011","33.260552","-81.434228 ","2598","57","0","0","5/26/2021 12:00:00 AM","2019","20866","NYTIMES-USCENSUS"
"5/27/2021 12:00:00 AM","Etowah County","Alabama","South","East South Central","01055","34.047641","-86.034263 ","13978","358","6","0","5/26/2021 12:00:00 AM","2019","102268","NYTIMES-USCENSUS"
"5/27/2021 12:00:00 AM","Iredell County","North Carolina","South","South Atlantic","37097","35.806251","-80.874524 ","19036","217","16","0","5/26/2021 12:00:00 AM","2019","181806","NYTIMES-USCENSUS"
"5/27/2021 12:00:00 AM","Clark County","Wisconsin","Midwest","East North Central","55019","44.739346","-90.609953 ","3689","64","0","1","5/26/2021 12:00:00 AM","2019","34774","NYTIMES-USCENSUS"
"5/27/2021 12:00:00 AM","Campbell County","Kentucky","South","East South Central","21037","38.946981","-84.379583 ","8815","83","1","0","5/26/2021 12:00:00 AM","2019","93584","NYTIMES-USCENSUS"
"5/27/2021 12:00:00 AM","Coconino County","Arizona","West","Mountain","04005","35.829692","-111.773728 ","17849","329","-3","-1","5/26/2021 12:00:00 AM","2019","143476","NYTIMES-USCENSUS"
"5/27/2021 12:00:00 AM","Bedford County","Virginia","South","South Atlantic","51019","37.312257","-79.527223 ","6511","103","33","0","5/26/2021 12:00:00 AM","2019","78997","NYTIMES-USCENSUS"
"5/27/2021 12:00:00 AM","Clarion County","Pennsylvania","Northeast","Middle Atlantic","42031","41.198159","-79.420369 ","3177","92","1","0","5/26/2021 12:00:00 AM","2019","38438","NYTIMES-USCENSUS"
"5/27/2021 12:00:00 AM","Shasta County","California","West","Pacific","06089","40.760514","-122.043556 ","12409","229","21","1","5/26/2021 12:00:00 AM","2019","180080","NYTIMES-USCENSUS"
"5/27/2021 12:00:00 AM","Denver County","Colorado","West","Mountain","08031","39.76185","-104.881105 ","72915","823","42","-1","5/26/2021 12:00:00 AM","2019","727211","NYTIMES-USCENSUS"
"5/27/2021 12:00:00 AM","Broward County","Florida","South","South Atlantic","12011","26.193535","-80.476683 ","244358","3067","228","3","5/26/2021 12:00:00 AM","2019","1952778","NYTIMES-USCENSUS"
"5/27/2021 12:00:00 AM","Box Elder County","Utah","West","Mountain","49003","41.622623","-113.060252 ","5514","50","0","0","5/26/2021 12:00:00 AM","2019","56046","NYTIMES-USCENSUS"
