"monitor_date","county","state_name","region","subregion","fips","latitude","longitude","case_count_to_date","death_count_to_date","case_count","death_count","previous_monitor_date","population_year","population","source"
"6/28/2021 12:00:00 AM","Columbus County","North Carolina","South","South Atlantic","37047","34.261602","-78.639308 ","6455","152","5","0","6/27/2021 12:00:00 AM","2019","55508","NYTIMES-USCENSUS"
"6/28/2021 12:00:00 AM","Smith County","Texas","South","West South Central","48423","32.377016","-95.270041 ","20732","487","34","0","6/27/2021 12:00:00 AM","2019","232751","NYTIMES-USCENSUS"
"6/28/2021 12:00:00 AM","Haskell County","Texas","South","West South Central","48207","33.175964","-99.730774 ","457","27","0","0","6/27/2021 12:00:00 AM","2019","5658","NYTIMES-USCENSUS"
"6/28/2021 12:00:00 AM","Mineral County","West Virginia","South","South Atlantic","54057","39.404781","-78.95669 ","2977","91","0","0","6/27/2021 12:00:00 AM","2019","26868","NYTIMES-USCENSUS"
"6/28/2021 12:00:00 AM","Jackson County","Wisconsin","Midwest","East North Central","55053","44.32459","-90.79951 ","2721","29","0","0","6/27/2021 12:00:00 AM","2019","20643","NYTIMES-USCENSUS"
"6/28/2021 12:00:00 AM","Hamilton County","New York","Northeast","Middle Atlantic","36041","43.657879","-74.502456 ","316","2","1","0","6/27/2021 12:00:00 AM","2019","4416","NYTIMES-USCENSUS"
"6/28/2021 12:00:00 AM","Limestone County","Texas","South","West South Central","48293","31.547543","-96.593623 ","2828","80","0","0","6/27/2021 12:00:00 AM","2019","23437","NYTIMES-USCENSUS"
"6/28/2021 12:00:00 AM","Spalding County","Georgia","South","South Atlantic","13255","33.262348","-84.284905 ","6515","203","1","0","6/27/2021 12:00:00 AM","2019","66703","NYTIMES-USCENSUS"
"6/28/2021 12:00:00 AM","Giles County","Virginia","South","South Atlantic","51071","37.318072","-80.698321 ","1336","22","3","0","6/27/2021 12:00:00 AM","2019","16720","NYTIMES-USCENSUS"
"6/28/2021 12:00:00 AM","Jackson County","Tennessee","South","East South Central","47087","36.35425","-85.674128 ","1366","37","0","0","6/27/2021 12:00:00 AM","2019","11786","NYTIMES-USCENSUS"
"6/28/2021 12:00:00 AM","Clay County","Kansas","Midwest","West North Central","20027","39.344964","-97.168853 ","826","30","0","0","6/27/2021 12:00:00 AM","2019","8002","NYTIMES-USCENSUS"
"6/28/2021 12:00:00 AM","Riverside County","California","West","Pacific","06065","33.729828","-116.002239 ","301799","4627","0","0","6/27/2021 12:00:00 AM","2019","2470546","NYTIMES-USCENSUS"
"6/28/2021 12:00:00 AM","San Diego County","California","West","Pacific","06073","33.023604","-116.776117 ","282422","3780","96","0","6/27/2021 12:00:00 AM","2019","3338330","NYTIMES-USCENSUS"
"6/28/2021 12:00:00 AM","Union County","Illinois","Midwest","East North Central","17181","37.485652","-89.244639 ","2289","45","2","0","6/27/2021 12:00:00 AM","2019","16653","NYTIMES-USCENSUS"
"6/28/2021 12:00:00 AM","Hall County","Nebraska","Midwest","West North Central","31079","40.866027","-98.502664 ","7877","120","0","0","6/27/2021 12:00:00 AM","2019","61353","NYTIMES-USCENSUS"
"6/28/2021 12:00:00 AM","Butts County","Georgia","South","South Atlantic","13035","33.290355","-83.958221 ","3212","90","1","0","6/27/2021 12:00:00 AM","2019","24936","NYTIMES-USCENSUS"
"6/28/2021 12:00:00 AM","Bossier Parish","Louisiana","South","West South Central","22015","32.698481","-93.626561 ","14438","310","29","0","6/27/2021 12:00:00 AM","2019","127039","NYTIMES-USCENSUS"
"6/28/2021 12:00:00 AM","Denton County","Texas","South","West South Central","48121","33.205132","-97.12114 ","76975","775","84","0","6/27/2021 12:00:00 AM","2019","887207","NYTIMES-USCENSUS"
"6/28/2021 12:00:00 AM","Dallam County","Texas","South","West South Central","48111","36.28637","-102.59402 ","986","26","0","0","6/27/2021 12:00:00 AM","2019","7287","NYTIMES-USCENSUS"
"6/28/2021 12:00:00 AM","Hand County","South Dakota","Midwest","West North Central","46059","44.546713","-99.004575 ","364","6","0","0","6/27/2021 12:00:00 AM","2019","3191","NYTIMES-USCENSUS"
"6/28/2021 12:00:00 AM","Boyd County","Kentucky","South","East South Central","21019","38.360003","-82.681406 ","5135","76","7","0","6/27/2021 12:00:00 AM","2019","46718","NYTIMES-USCENSUS"
"6/28/2021 12:00:00 AM","Wakulla County","Florida","South","South Atlantic","12129","30.091335","-84.359111 ","3559","56","0","0","6/27/2021 12:00:00 AM","2019","33739","NYTIMES-USCENSUS"
"6/28/2021 12:00:00 AM","Tipton County","Indiana","Midwest","East North Central","18159","40.310229","-86.056207 ","1676","49","2","1","6/27/2021 12:00:00 AM","2019","15148","NYTIMES-USCENSUS"
"6/28/2021 12:00:00 AM","Nye County","Nevada","West","Mountain","32023","37.965864","-116.459011 ","3009","108","0","0","6/27/2021 12:00:00 AM","2019","46523","NYTIMES-USCENSUS"
"6/28/2021 12:00:00 AM","Benton County","Mississippi","South","East South Central","28009","34.809593","-89.200213 ","1024","25","0","0","6/27/2021 12:00:00 AM","2019","8259","NYTIMES-USCENSUS"
"6/28/2021 12:00:00 AM","Hubbard County","Minnesota","Midwest","West North Central","27057","47.095551","-94.91329 ","1967","41","0","0","6/27/2021 12:00:00 AM","2019","21491","NYTIMES-USCENSUS"
"6/28/2021 12:00:00 AM","Gallatin County","Illinois","Midwest","East North Central","17059","37.768677","-88.227964 ","470","5","0","0","6/27/2021 12:00:00 AM","2019","4828","NYTIMES-USCENSUS"
"6/28/2021 12:00:00 AM","Appanoose County","Iowa","Midwest","West North Central","19007","40.744249","-92.873065 ","1291","49","0","0","6/27/2021 12:00:00 AM","2019","12426","NYTIMES-USCENSUS"
"6/28/2021 12:00:00 AM","Richland County","Wisconsin","Midwest","East North Central","55103","43.376199","-90.435693 ","1405","16","1","0","6/27/2021 12:00:00 AM","2019","17252","NYTIMES-USCENSUS"
"6/28/2021 12:00:00 AM","Franklin County","Texas","South","West South Central","48159","33.175846","-95.219066 ","814","26","0","0","6/27/2021 12:00:00 AM","2019","10725","NYTIMES-USCENSUS"
"6/28/2021 12:00:00 AM","Madison County","Ohio","Midwest","East North Central","39097","39.896607","-83.400885 ","4448","66","0","0","6/27/2021 12:00:00 AM","2019","44731","NYTIMES-USCENSUS"
"6/28/2021 12:00:00 AM","White County","Georgia","South","South Atlantic","13311","34.644182","-83.743 ","3249","84","0","0","6/27/2021 12:00:00 AM","2019","30798","NYTIMES-USCENSUS"
"6/28/2021 12:00:00 AM","Routt County","Colorado","West","Mountain","08107","40.483664","-106.987702 ","2285","21","0","0","6/27/2021 12:00:00 AM","2019","25638","NYTIMES-USCENSUS"
"6/28/2021 12:00:00 AM","Suffolk County","New York","Northeast","Middle Atlantic","36103","40.943554","-72.692218 ","201398","3402","30","0","6/27/2021 12:00:00 AM","2019","1476601","NYTIMES-USCENSUS"
"6/28/2021 12:00:00 AM","Duchesne County","Utah","West","Mountain","49013","40.289393","-110.429584 ","1387","9","0","0","6/27/2021 12:00:00 AM","2019","19938","NYTIMES-USCENSUS"
"6/28/2021 12:00:00 AM","Aitkin County","Minnesota","Midwest","West North Central","27001","46.602446","-93.41976 ","1390","37","0","0","6/27/2021 12:00:00 AM","2019","15886","NYTIMES-USCENSUS"
"6/28/2021 12:00:00 AM","Tulare County","California","West","Pacific","06107","36.228834","-118.781055 ","49823","850","0","0","6/27/2021 12:00:00 AM","2019","466195","NYTIMES-USCENSUS"
"6/28/2021 12:00:00 AM","Pike County","Missouri","Midwest","West North Central","29163","39.339959","-91.171607 ","1812","26","0","0","6/27/2021 12:00:00 AM","2019","18302","NYTIMES-USCENSUS"
"6/28/2021 12:00:00 AM","Shiawassee County","Michigan","Midwest","East North Central","26155","42.951545","-84.146352 ","6436","107","2","0","6/27/2021 12:00:00 AM","2019","68122","NYTIMES-USCENSUS"
"6/28/2021 12:00:00 AM","Clark County","Indiana","Midwest","East North Central","18019","38.476217","-85.711122 ","13262","205","1","0","6/27/2021 12:00:00 AM","2019","118302","NYTIMES-USCENSUS"
"6/28/2021 12:00:00 AM","Madison County","Illinois","Midwest","East North Central","17119","38.82712","-89.900227 ","31092","605","61","0","6/27/2021 12:00:00 AM","2019","262966","NYTIMES-USCENSUS"
"6/28/2021 12:00:00 AM","Clackamas County","Oregon","West","Pacific","41005","45.160493","-122.195127 ","19054","240","11","0","6/27/2021 12:00:00 AM","2019","418187","NYTIMES-USCENSUS"
"6/28/2021 12:00:00 AM","Rockingham County","North Carolina","South","South Atlantic","37157","36.381806","-79.782754 ","8097","155","6","4","6/27/2021 12:00:00 AM","2019","91010","NYTIMES-USCENSUS"
"6/28/2021 12:00:00 AM","Williams County","North Dakota","Midwest","West North Central","38105","48.355765","-103.501333 ","5028","40","-1","0","6/27/2021 12:00:00 AM","2019","37589","NYTIMES-USCENSUS"
"6/28/2021 12:00:00 AM","Lawrence County","South Dakota","Midwest","West North Central","46081","44.348514","-103.806362 ","3009","48","0","0","6/27/2021 12:00:00 AM","2019","25844","NYTIMES-USCENSUS"
"6/28/2021 12:00:00 AM","Waynesboro city","Virginia","South","South Atlantic","51820","38.067157","-78.90142 ","2400","38","1","0","6/27/2021 12:00:00 AM","2019","22630","NYTIMES-USCENSUS"
"6/28/2021 12:00:00 AM","Frederick County","Maryland","South","South Atlantic","24021","39.470177","-77.397636 ","19842","342","1","0","6/27/2021 12:00:00 AM","2019","259547","NYTIMES-USCENSUS"
"6/28/2021 12:00:00 AM","Marion County","Mississippi","South","East South Central","28091","31.230167","-89.821712 ","2720","80","6","0","6/27/2021 12:00:00 AM","2019","24573","NYTIMES-USCENSUS"
"6/28/2021 12:00:00 AM","Bent County","Colorado","West","Mountain","08011","37.931891","-103.077584 ","1547","22","0","0","6/27/2021 12:00:00 AM","2019","5577","NYTIMES-USCENSUS"
"6/28/2021 12:00:00 AM","Blanco County","Texas","South","West South Central","48031","30.266456","-98.399217 ","773","21","0","0","6/27/2021 12:00:00 AM","2019","11931","NYTIMES-USCENSUS"
"6/28/2021 12:00:00 AM","Jersey County","Illinois","Midwest","East North Central","17083","39.080195","-90.361385 ","2721","71","3","0","6/27/2021 12:00:00 AM","2019","21773","NYTIMES-USCENSUS"
"6/28/2021 12:00:00 AM","Muhlenberg County","Kentucky","South","East South Central","21177","37.213816","-87.134092 ","3076","67","4","0","6/27/2021 12:00:00 AM","2019","30622","NYTIMES-USCENSUS"
"6/28/2021 12:00:00 AM","Taylor County","Georgia","South","South Atlantic","13269","32.554667","-84.251426 ","817","26","0","0","6/27/2021 12:00:00 AM","2019","8020","NYTIMES-USCENSUS"
"6/28/2021 12:00:00 AM","Calhoun County","Georgia","South","South Atlantic","13037","31.521279","-84.62629 ","586","16","0","0","6/27/2021 12:00:00 AM","2019","6189","NYTIMES-USCENSUS"
"6/28/2021 12:00:00 AM","Barber County","Kansas","Midwest","West North Central","20007","37.222906","-98.685052 ","374","6","0","0","6/27/2021 12:00:00 AM","2019","4427","NYTIMES-USCENSUS"
"6/28/2021 12:00:00 AM","Madison Parish","Louisiana","South","West South Central","22065","32.346878","-91.231932 ","1573","40","0","0","6/27/2021 12:00:00 AM","2019","10951","NYTIMES-USCENSUS"
"6/28/2021 12:00:00 AM","Pickaway County","Ohio","Midwest","East North Central","39129","39.648947","-83.052827 ","8676","122","0","0","6/27/2021 12:00:00 AM","2019","58457","NYTIMES-USCENSUS"
"6/28/2021 12:00:00 AM","Okaloosa County","Florida","South","South Atlantic","12091","30.614325","-86.59108 ","20955","367","0","0","6/27/2021 12:00:00 AM","2019","210738","NYTIMES-USCENSUS"
"6/28/2021 12:00:00 AM","Ozaukee County","Wisconsin","Midwest","East North Central","55089","43.501845","-87.847567 ","9295","104","0","0","6/27/2021 12:00:00 AM","2019","89221","NYTIMES-USCENSUS"
"6/28/2021 12:00:00 AM","Jennings County","Indiana","Midwest","East North Central","18079","38.996229","-85.628103 ","2357","51","0","0","6/27/2021 12:00:00 AM","2019","27735","NYTIMES-USCENSUS"
"6/28/2021 12:00:00 AM","Dodge County","Minnesota","Midwest","West North Central","27039","44.020706","-92.869353 ","1877","3","0","0","6/27/2021 12:00:00 AM","2019","20934","NYTIMES-USCENSUS"
"6/28/2021 12:00:00 AM","Louisa County","Virginia","South","South Atlantic","51109","37.972704","-77.959795 ","2019","34","1","0","6/27/2021 12:00:00 AM","2019","37591","NYTIMES-USCENSUS"
"6/28/2021 12:00:00 AM","Cherokee County","Kansas","Midwest","West North Central","20021","37.169392","-94.845698 ","2607","53","11","0","6/27/2021 12:00:00 AM","2019","19939","NYTIMES-USCENSUS"
"6/28/2021 12:00:00 AM","Keith County","Nebraska","Midwest","West North Central","31101","41.194245","-101.644449 ","723","10","0","0","6/27/2021 12:00:00 AM","2019","8034","NYTIMES-USCENSUS"
"6/28/2021 12:00:00 AM","Vernon County","Wisconsin","Midwest","East North Central","55123","43.599366","-90.821983 ","2025","43","1","0","6/27/2021 12:00:00 AM","2019","30822","NYTIMES-USCENSUS"
"6/28/2021 12:00:00 AM","Fulton County","Georgia","South","South Atlantic","13121","33.790034","-84.468182 ","99555","1471","26","0","6/27/2021 12:00:00 AM","2019","1063937","NYTIMES-USCENSUS"
"6/28/2021 12:00:00 AM","Atchison County","Missouri","Midwest","West North Central","29005","40.431846","-95.437555 ","463","6","0","0","6/27/2021 12:00:00 AM","2019","5143","NYTIMES-USCENSUS"
"6/28/2021 12:00:00 AM","Pike County","Alabama","South","East South Central","01109","31.798653","-85.941608 ","3150","78","2","0","6/27/2021 12:00:00 AM","2019","33114","NYTIMES-USCENSUS"
"6/28/2021 12:00:00 AM","Lafayette Parish","Louisiana","South","West South Central","22055","30.206507","-92.06417 ","24519","295","48","0","6/27/2021 12:00:00 AM","2019","244390","NYTIMES-USCENSUS"
"6/28/2021 12:00:00 AM","Brunswick County","Virginia","South","South Atlantic","51025","36.764204","-77.861483 ","1336","25","0","0","6/27/2021 12:00:00 AM","2019","16231","NYTIMES-USCENSUS"
"6/28/2021 12:00:00 AM","Kearny County","Kansas","Midwest","West North Central","20093","37.994461","-101.308136 ","574","10","0","0","6/27/2021 12:00:00 AM","2019","3838","NYTIMES-USCENSUS"
"6/28/2021 12:00:00 AM","Morrison County","Minnesota","Midwest","West North Central","27097","46.020484","-94.266619 ","4251","62","0","0","6/27/2021 12:00:00 AM","2019","33386","NYTIMES-USCENSUS"
"6/28/2021 12:00:00 AM","Castro County","Texas","South","West South Central","48069","34.533621","-102.258786 ","1068","32","0","0","6/27/2021 12:00:00 AM","2019","7530","NYTIMES-USCENSUS"
"6/28/2021 12:00:00 AM","Dallas County","Texas","South","West South Central","48113","32.766987","-96.778424 ","305975","4120","0","0","6/27/2021 12:00:00 AM","2019","2635516","NYTIMES-USCENSUS"
"6/28/2021 12:00:00 AM","Mason County","Washington","West","Pacific","53045","47.350832","-123.173103 ","2940","34","3","0","6/27/2021 12:00:00 AM","2019","66768","NYTIMES-USCENSUS"
"6/28/2021 12:00:00 AM","Hutchinson County","South Dakota","Midwest","West North Central","46067","43.33671","-97.749383 ","920","28","0","0","6/27/2021 12:00:00 AM","2019","7291","NYTIMES-USCENSUS"
"6/28/2021 12:00:00 AM","Logan County","Nebraska","Midwest","West North Central","31113","41.542155","-100.443665 ","81","0","0","0","6/27/2021 12:00:00 AM","2019","748","NYTIMES-USCENSUS"
"6/28/2021 12:00:00 AM","Delaware County","Iowa","Midwest","West North Central","19055","42.472937","-91.366767 ","2111","43","0","0","6/27/2021 12:00:00 AM","2019","17011","NYTIMES-USCENSUS"
"6/28/2021 12:00:00 AM","Carteret County","North Carolina","South","South Atlantic","37031","34.858343","-76.53586 ","5260","55","9","0","6/27/2021 12:00:00 AM","2019","69473","NYTIMES-USCENSUS"
"6/28/2021 12:00:00 AM","Linn County","Oregon","West","Pacific","41043","44.488898","-122.537208 ","5717","81","10","0","6/27/2021 12:00:00 AM","2019","129749","NYTIMES-USCENSUS"
"6/28/2021 12:00:00 AM","Owen County","Kentucky","South","East South Central","21187","38.499395","-84.84159 ","735","13","1","0","6/27/2021 12:00:00 AM","2019","10901","NYTIMES-USCENSUS"
"6/28/2021 12:00:00 AM","Benton County","Washington","West","Pacific","53005","46.228125","-119.516659 ","17813","228","25","0","6/27/2021 12:00:00 AM","2019","204390","NYTIMES-USCENSUS"
"6/28/2021 12:00:00 AM","Rock County","Wisconsin","Midwest","East North Central","55105","42.66988","-89.075284 ","18384","208","5","1","6/27/2021 12:00:00 AM","2019","163354","NYTIMES-USCENSUS"
"6/28/2021 12:00:00 AM","Fredericksburg city","Virginia","South","South Atlantic","51630","38.299272","-77.486658 ","2153","25","0","0","6/27/2021 12:00:00 AM","2019","29036","NYTIMES-USCENSUS"
"6/28/2021 12:00:00 AM","Clark County","Ohio","Midwest","East North Central","39023","39.917032","-83.783676 ","14253","306","0","0","6/27/2021 12:00:00 AM","2019","134083","NYTIMES-USCENSUS"
"6/28/2021 12:00:00 AM","Washington County","Georgia","South","South Atlantic","13303","32.971843","-82.798112 ","2170","88","1","0","6/27/2021 12:00:00 AM","2019","20374","NYTIMES-USCENSUS"
"6/28/2021 12:00:00 AM","Snohomish County","Washington","West","Pacific","53061","48.054913","-121.765038 ","40136","600","67","0","6/27/2021 12:00:00 AM","2019","822083","NYTIMES-USCENSUS"
"6/28/2021 12:00:00 AM","Cumberland County","Tennessee","South","East South Central","47035","35.952398","-84.994761 ","6885","140","-2","0","6/27/2021 12:00:00 AM","2019","60520","NYTIMES-USCENSUS"
"6/28/2021 12:00:00 AM","Lincoln County","Nebraska","Midwest","West North Central","31111","41.050322","-100.744481 ","4138","81","0","0","6/27/2021 12:00:00 AM","2019","34914","NYTIMES-USCENSUS"
"6/28/2021 12:00:00 AM","Vigo County","Indiana","Midwest","East North Central","18167","39.429143","-87.390375 ","12656","258","1","0","6/27/2021 12:00:00 AM","2019","107038","NYTIMES-USCENSUS"
"6/28/2021 12:00:00 AM","Grady County","Oklahoma","South","West South Central","40051","35.021058","-97.88689 ","5996","130","0","0","6/27/2021 12:00:00 AM","2019","55834","NYTIMES-USCENSUS"
"6/28/2021 12:00:00 AM","Bristol city","Virginia","South","South Atlantic","51520","36.616954","-82.157564 ","1584","37","0","0","6/27/2021 12:00:00 AM","2019","16762","NYTIMES-USCENSUS"
"6/28/2021 12:00:00 AM","Brown County","Wisconsin","Midwest","East North Central","55009","44.474024","-87.99613 ","35690","302","4","2","6/27/2021 12:00:00 AM","2019","264542","NYTIMES-USCENSUS"
"6/28/2021 12:00:00 AM","Beaverhead County","Montana","West","Mountain","30001","45.133863","-112.892869 ","926","11","1","0","6/27/2021 12:00:00 AM","2019","9453","NYTIMES-USCENSUS"
"6/28/2021 12:00:00 AM","St. Louis County","Minnesota","Midwest","West North Central","27137","47.578635","-92.514593 ","18159","318","2","0","6/27/2021 12:00:00 AM","2019","199070","NYTIMES-USCENSUS"
"6/28/2021 12:00:00 AM","Franklin County","New York","Northeast","Middle Atlantic","36033","44.594376","-74.31067 ","2564","12","1","0","6/27/2021 12:00:00 AM","2019","50022","NYTIMES-USCENSUS"
"6/28/2021 12:00:00 AM","Washington County","Vermont","Northeast","New England","50023","44.274969","-72.609444 ","1898","15","0","0","6/27/2021 12:00:00 AM","2019","58409","NYTIMES-USCENSUS"
"6/28/2021 12:00:00 AM","Norfolk County","Massachusetts","Northeast","New England","25021","42.171738","-71.18111 ","55023","1803","5","0","6/27/2021 12:00:00 AM","2019","706775","NYTIMES-USCENSUS"
"6/28/2021 12:00:00 AM","Clinton County","Missouri","Midwest","West North Central","29049","39.608723","-94.395803 ","2018","65","0","0","6/27/2021 12:00:00 AM","2019","20387","NYTIMES-USCENSUS"
"6/28/2021 12:00:00 AM","Bradley County","Arkansas","South","West South Central","05011","33.466549","-92.169156 ","1455","33","2","0","6/27/2021 12:00:00 AM","2019","10763","NYTIMES-USCENSUS"
"6/28/2021 12:00:00 AM","Monroe County","New York","Northeast","Middle Atlantic","36055","43.250347","-77.700518 ","69147","1115","16","0","6/27/2021 12:00:00 AM","2019","741770","NYTIMES-USCENSUS"
"6/28/2021 12:00:00 AM","Huerfano County","Colorado","West","Mountain","08055","37.687815","-104.959928 ","433","17","0","0","6/27/2021 12:00:00 AM","2019","6897","NYTIMES-USCENSUS"
"6/28/2021 12:00:00 AM","Madison County","Arkansas","South","West South Central","05087","36.012545","-93.724053 ","1487","23","5","0","6/27/2021 12:00:00 AM","2019","16576","NYTIMES-USCENSUS"
"6/28/2021 12:00:00 AM","Honolulu County","Hawaii","West","Pacific","15003","21.461365","-158.201974 ","27821","399","13","0","6/27/2021 12:00:00 AM","2019","974563","NYTIMES-USCENSUS"
"6/28/2021 12:00:00 AM","Dyer County","Tennessee","South","East South Central","47045","36.054196","-89.398306 ","5524","108","-1","0","6/27/2021 12:00:00 AM","2019","37159","NYTIMES-USCENSUS"
"6/28/2021 12:00:00 AM","Kodiak Island Borough","Alaska","West","Pacific","02150","57.7044","-153.918372 ","1122","6","0","0","6/27/2021 12:00:00 AM","2019","12998","NYTIMES-USCENSUS"
"6/28/2021 12:00:00 AM","Marshall County","Minnesota","Midwest","West North Central","27089","48.362728","-96.357761 ","888","17","0","0","6/27/2021 12:00:00 AM","2019","9336","NYTIMES-USCENSUS"
"6/28/2021 12:00:00 AM","St. James Parish","Louisiana","South","West South Central","22093","30.024777","-90.793956 ","2036","51","3","1","6/27/2021 12:00:00 AM","2019","21096","NYTIMES-USCENSUS"
"6/28/2021 12:00:00 AM","Webster County","Nebraska","Midwest","West North Central","31181","40.180646","-98.49859 ","419","8","0","0","6/27/2021 12:00:00 AM","2019","3487","NYTIMES-USCENSUS"
"6/28/2021 12:00:00 AM","Cabell County","West Virginia","South","South Atlantic","54011","38.419578","-82.243397 ","8879","178","8","0","6/27/2021 12:00:00 AM","2019","91945","NYTIMES-USCENSUS"
"6/28/2021 12:00:00 AM","Greene County","New York","Northeast","Middle Atlantic","36039","42.279821","-74.142025 ","3406","79","0","0","6/27/2021 12:00:00 AM","2019","47188","NYTIMES-USCENSUS"
"6/28/2021 12:00:00 AM","Marquette County","Michigan","Midwest","East North Central","26103","46.656596","-87.584028 ","5935","64","6","0","6/27/2021 12:00:00 AM","2019","66699","NYTIMES-USCENSUS"
"6/28/2021 12:00:00 AM","Ross County","Ohio","Midwest","East North Central","39141","39.323895","-83.059538 ","6955","163","0","0","6/27/2021 12:00:00 AM","2019","76666","NYTIMES-USCENSUS"
"6/28/2021 12:00:00 AM","Vernon Parish","Louisiana","South","West South Central","22115","31.102841","-93.18833 ","3204","105","5","0","6/27/2021 12:00:00 AM","2019","47429","NYTIMES-USCENSUS"
"6/28/2021 12:00:00 AM","Bottineau County","North Dakota","Midwest","West North Central","38009","48.794412","-100.831257 ","725","20","0","0","6/27/2021 12:00:00 AM","2019","6282","NYTIMES-USCENSUS"
"6/28/2021 12:00:00 AM","Asotin County","Washington","West","Pacific","53003","46.181861","-117.227781 ","1502","29","2","0","6/27/2021 12:00:00 AM","2019","22582","NYTIMES-USCENSUS"
"6/28/2021 12:00:00 AM","Worcester County","Maryland","South","South Atlantic","24047","38.222133","-75.309931 ","3698","106","2","0","6/27/2021 12:00:00 AM","2019","52276","NYTIMES-USCENSUS"
"6/28/2021 12:00:00 AM","Yankton County","South Dakota","Midwest","West North Central","46135","43.006603","-97.388361 ","3115","34","0","0","6/27/2021 12:00:00 AM","2019","22814","NYTIMES-USCENSUS"
"6/28/2021 12:00:00 AM","Calcasieu Parish","Louisiana","South","West South Central","22019","30.229559","-93.358015 ","23232","452","51","0","6/27/2021 12:00:00 AM","2019","203436","NYTIMES-USCENSUS"
"6/28/2021 12:00:00 AM","Chester County","Pennsylvania","Northeast","Middle Atlantic","42029","39.974029","-75.749751 ","40822","824","2","0","6/27/2021 12:00:00 AM","2019","524989","NYTIMES-USCENSUS"
"6/28/2021 12:00:00 AM","Delaware County","Ohio","Midwest","East North Central","39041","40.278941","-83.007462 ","18915","136","3","0","6/27/2021 12:00:00 AM","2019","209177","NYTIMES-USCENSUS"
"6/28/2021 12:00:00 AM","Jefferson Parish","Louisiana","South","West South Central","22051","29.5033","-90.036231 ","47526","908","67","0","6/27/2021 12:00:00 AM","2019","432493","NYTIMES-USCENSUS"
"6/28/2021 12:00:00 AM","Wasco County","Oregon","West","Pacific","41065","45.164536","-121.165069 ","1458","30","0","0","6/27/2021 12:00:00 AM","2019","26682","NYTIMES-USCENSUS"
"6/28/2021 12:00:00 AM","Martin County","Indiana","Midwest","East North Central","18101","38.705322","-86.801847 ","920","15","1","0","6/27/2021 12:00:00 AM","2019","10255","NYTIMES-USCENSUS"
"6/28/2021 12:00:00 AM","Perry County","Mississippi","South","East South Central","28111","31.169307","-88.988755 ","1283","38","6","0","6/27/2021 12:00:00 AM","2019","11973","NYTIMES-USCENSUS"
"6/28/2021 12:00:00 AM","Jefferson County","Florida","South","South Atlantic","12065","30.396898","-83.921761 ","1504","28","0","0","6/27/2021 12:00:00 AM","2019","14246","NYTIMES-USCENSUS"
"6/28/2021 12:00:00 AM","Boone County","Nebraska","Midwest","West North Central","31011","41.703934","-98.070476 ","585","4","0","0","6/27/2021 12:00:00 AM","2019","5192","NYTIMES-USCENSUS"
"6/28/2021 12:00:00 AM","Fairfield County","Connecticut","Northeast","New England","09001","41.227413","-73.367061 ","100492","2202","62","0","6/27/2021 12:00:00 AM","2019","943332","NYTIMES-USCENSUS"
"6/28/2021 12:00:00 AM","Shawano County","Wisconsin","Midwest","East North Central","55115","44.789641","-88.755813 ","5338","85","1","0","6/27/2021 12:00:00 AM","2019","40899","NYTIMES-USCENSUS"
"6/28/2021 12:00:00 AM","Anoka County","Minnesota","Midwest","West North Central","27003","45.27411","-93.242723 ","42828","461","3","0","6/27/2021 12:00:00 AM","2019","356921","NYTIMES-USCENSUS"
"6/28/2021 12:00:00 AM","Lawrence County","Mississippi","South","East South Central","28077","31.550009","-90.10753 ","1320","25","1","1","6/27/2021 12:00:00 AM","2019","12586","NYTIMES-USCENSUS"
"6/28/2021 12:00:00 AM","New Castle County","Delaware","South","South Atlantic","10003","39.575915","-75.644132 ","65030","846","14","0","6/27/2021 12:00:00 AM","2019","558753","NYTIMES-USCENSUS"
"6/28/2021 12:00:00 AM","Madison County","Montana","West","Mountain","30057","45.32529","-111.913791 ","796","8","0","0","6/27/2021 12:00:00 AM","2019","8600","NYTIMES-USCENSUS"
"6/28/2021 12:00:00 AM","Sussex County","Delaware","South","South Atlantic","10005","38.673227","-75.337024 ","26217","499","3","0","6/27/2021 12:00:00 AM","2019","234225","NYTIMES-USCENSUS"
"6/28/2021 12:00:00 AM","Faribault County","Minnesota","Midwest","West North Central","27043","43.676522","-93.947234 ","1558","19","0","0","6/27/2021 12:00:00 AM","2019","13653","NYTIMES-USCENSUS"
"6/28/2021 12:00:00 AM","Caswell County","North Carolina","South","South Atlantic","37033","36.394298","-79.339609 ","2199","30","3","0","6/27/2021 12:00:00 AM","2019","22604","NYTIMES-USCENSUS"
"6/28/2021 12:00:00 AM","Menard County","Illinois","Midwest","East North Central","17129","40.022569","-89.794133 ","1253","16","2","0","6/27/2021 12:00:00 AM","2019","12196","NYTIMES-USCENSUS"
"6/28/2021 12:00:00 AM","Randolph County","Arkansas","South","West South Central","05121","36.341298","-91.028441 ","2211","48","2","0","6/27/2021 12:00:00 AM","2019","17958","NYTIMES-USCENSUS"
"6/28/2021 12:00:00 AM","Hancock County","Illinois","Midwest","East North Central","17067","40.401318","-91.168801 ","1819","41","4","0","6/27/2021 12:00:00 AM","2019","17708","NYTIMES-USCENSUS"
"6/28/2021 12:00:00 AM","Bulloch County","Georgia","South","South Atlantic","13031","32.394481","-81.741618 ","6859","121","1","0","6/27/2021 12:00:00 AM","2019","79608","NYTIMES-USCENSUS"
"6/28/2021 12:00:00 AM","Ware County","Georgia","South","South Atlantic","13299","31.050881","-82.421507 ","4991","180","1","0","6/27/2021 12:00:00 AM","2019","35734","NYTIMES-USCENSUS"
"6/28/2021 12:00:00 AM","Edmunds County","South Dakota","Midwest","West North Central","46045","45.41168","-99.205362 ","515","14","0","0","6/27/2021 12:00:00 AM","2019","3829","NYTIMES-USCENSUS"
"6/28/2021 12:00:00 AM","Franklin County","Massachusetts","Northeast","New England","25011","42.584504","-72.591792 ","2584","113","0","0","6/27/2021 12:00:00 AM","2019","70180","NYTIMES-USCENSUS"
"6/28/2021 12:00:00 AM","Pulaski County","Illinois","Midwest","East North Central","17153","37.215615","-89.127755 ","702","7","1","0","6/27/2021 12:00:00 AM","2019","5335","NYTIMES-USCENSUS"
"6/28/2021 12:00:00 AM","Wayne County","West Virginia","South","South Atlantic","54099","38.143642","-82.422666 ","3180","42","-1","0","6/27/2021 12:00:00 AM","2019","39402","NYTIMES-USCENSUS"
"6/28/2021 12:00:00 AM","Carroll County","Missouri","Midwest","West North Central","29033","39.427375","-93.500227 ","1070","24","0","0","6/27/2021 12:00:00 AM","2019","8679","NYTIMES-USCENSUS"
"6/28/2021 12:00:00 AM","Pender County","North Carolina","South","South Atlantic","37141","34.512556","-77.888106 ","5560","71","6","0","6/27/2021 12:00:00 AM","2019","63060","NYTIMES-USCENSUS"
"6/28/2021 12:00:00 AM","Washington County","Utah","West","Mountain","49053","37.262531","-113.4878 ","21611","209","24","0","6/27/2021 12:00:00 AM","2019","177556","NYTIMES-USCENSUS"
"6/28/2021 12:00:00 AM","Clarke County","Alabama","South","East South Central","01025","31.685521","-87.818624 ","3532","61","0","0","6/27/2021 12:00:00 AM","2019","23622","NYTIMES-USCENSUS"
"6/28/2021 12:00:00 AM","Perry County","Indiana","Midwest","East North Central","18123","38.081436","-86.62654 ","1883","38","1","0","6/27/2021 12:00:00 AM","2019","19169","NYTIMES-USCENSUS"
"6/28/2021 12:00:00 AM","Pendleton County","West Virginia","South","South Atlantic","54071","38.67445","-79.340617 ","725","11","1","0","6/27/2021 12:00:00 AM","2019","6969","NYTIMES-USCENSUS"
"6/28/2021 12:00:00 AM","Nowata County","Oklahoma","South","West South Central","40105","36.789615","-95.613312 ","1165","20","0","0","6/27/2021 12:00:00 AM","2019","10076","NYTIMES-USCENSUS"
"6/28/2021 12:00:00 AM","Alachua County","Florida","South","South Atlantic","12001","29.67574","-82.357221 ","25425","285","0","0","6/27/2021 12:00:00 AM","2019","269043","NYTIMES-USCENSUS"
"6/28/2021 12:00:00 AM","Mackinac County","Michigan","Midwest","East North Central","26097","46.167868","-85.303762 ","716","3","0","0","6/27/2021 12:00:00 AM","2019","10799","NYTIMES-USCENSUS"
"6/28/2021 12:00:00 AM","Craig County","Virginia","South","South Atlantic","51045","37.473603","-80.231051 ","324","6","0","0","6/27/2021 12:00:00 AM","2019","5131","NYTIMES-USCENSUS"
"6/28/2021 12:00:00 AM","Story County","Iowa","Midwest","West North Central","19169","42.037538","-93.466093 ","10727","48","3","0","6/27/2021 12:00:00 AM","2019","97117","NYTIMES-USCENSUS"
"6/28/2021 12:00:00 AM","Clinch County","Georgia","South","South Atlantic","13065","30.917653","-82.702614 ","987","27","0","0","6/27/2021 12:00:00 AM","2019","6618","NYTIMES-USCENSUS"
"6/28/2021 12:00:00 AM","Burke County","North Carolina","South","South Atlantic","37023","35.746182","-81.70618 ","10159","163","8","1","6/27/2021 12:00:00 AM","2019","90485","NYTIMES-USCENSUS"
"6/28/2021 12:00:00 AM","Berkeley County","West Virginia","South","South Atlantic","54003","39.447938","-78.037754 ","12833","131","5","0","6/27/2021 12:00:00 AM","2019","119171","NYTIMES-USCENSUS"
"6/28/2021 12:00:00 AM","Grady County","Georgia","South","South Atlantic","13131","30.875908","-84.24508 ","2278","64","-1","0","6/27/2021 12:00:00 AM","2019","24633","NYTIMES-USCENSUS"
"6/28/2021 12:00:00 AM","Person County","North Carolina","South","South Atlantic","37145","36.38635","-78.965623 ","3510","71","7","0","6/27/2021 12:00:00 AM","2019","39490","NYTIMES-USCENSUS"
"6/28/2021 12:00:00 AM","Tama County","Iowa","Midwest","West North Central","19171","42.074848","-92.529411 ","2124","71","0","0","6/27/2021 12:00:00 AM","2019","16854","NYTIMES-USCENSUS"
"6/28/2021 12:00:00 AM","Benton County","Minnesota","Midwest","West North Central","27009","45.701225","-94.00144 ","5831","98","1","0","6/27/2021 12:00:00 AM","2019","40889","NYTIMES-USCENSUS"
"6/28/2021 12:00:00 AM","Shelby County","Missouri","Midwest","West North Central","29205","39.797531","-92.088719 ","680","7","0","0","6/27/2021 12:00:00 AM","2019","5930","NYTIMES-USCENSUS"
"6/28/2021 12:00:00 AM","Baltimore city","Maryland","South","South Atlantic","24510","39.300032","-76.610476 ","53157","1249","4","0","6/27/2021 12:00:00 AM","2019","593490","NYTIMES-USCENSUS"
"6/28/2021 12:00:00 AM","Lawrence County","Illinois","Midwest","East North Central","17101","38.718954","-87.730221 ","2410","36","0","0","6/27/2021 12:00:00 AM","2019","15678","NYTIMES-USCENSUS"
"6/28/2021 12:00:00 AM","St. Joseph County","Michigan","Midwest","East North Central","26149","41.911488","-85.52287 ","6259","100","5","0","6/27/2021 12:00:00 AM","2019","60964","NYTIMES-USCENSUS"
"6/28/2021 12:00:00 AM","Anderson County","Tennessee","South","East South Central","47001","36.116731","-84.195418 ","8814","175","3","0","6/27/2021 12:00:00 AM","2019","76978","NYTIMES-USCENSUS"
"6/28/2021 12:00:00 AM","Livingston County","New York","Northeast","Middle Atlantic","36051","42.729042","-77.778463 ","4532","60","3","0","6/27/2021 12:00:00 AM","2019","62914","NYTIMES-USCENSUS"
"6/28/2021 12:00:00 AM","Thurston County","Nebraska","Midwest","West North Central","31173","42.154061","-96.533943 ","848","11","0","0","6/27/2021 12:00:00 AM","2019","7224","NYTIMES-USCENSUS"
"6/28/2021 12:00:00 AM","Mercer County","Illinois","Midwest","East North Central","17131","41.205605","-90.74177 ","1499","34","1","0","6/27/2021 12:00:00 AM","2019","15437","NYTIMES-USCENSUS"
"6/28/2021 12:00:00 AM","Mercer County","Pennsylvania","Northeast","Middle Atlantic","42085","41.300014","-80.252786 ","9721","264","1","0","6/27/2021 12:00:00 AM","2019","109424","NYTIMES-USCENSUS"
"6/28/2021 12:00:00 AM","Bartow County","Georgia","South","South Atlantic","13015","34.240917","-84.838188 ","15080","236","-1","0","6/27/2021 12:00:00 AM","2019","107738","NYTIMES-USCENSUS"
"6/28/2021 12:00:00 AM","White County","Tennessee","South","East South Central","47185","35.927049","-85.455785 ","3792","73","0","0","6/27/2021 12:00:00 AM","2019","27345","NYTIMES-USCENSUS"
"6/28/2021 12:00:00 AM","Sumner County","Tennessee","South","East South Central","47165","36.472423","-86.458405 ","24518","354","7","0","6/27/2021 12:00:00 AM","2019","191283","NYTIMES-USCENSUS"
"6/28/2021 12:00:00 AM","Vernon County","Missouri","Midwest","West North Central","29217","37.850196","-94.341597 ","1993","46","2","0","6/27/2021 12:00:00 AM","2019","20563","NYTIMES-USCENSUS"
"6/28/2021 12:00:00 AM","Crook County","Wyoming","West","Mountain","56011","44.589266","-104.567298 ","458","12","0","0","6/27/2021 12:00:00 AM","2019","7584","NYTIMES-USCENSUS"
"6/28/2021 12:00:00 AM","Graham County","Arizona","West","Mountain","04009","32.931828","-109.87831 ","5594","85","1","0","6/27/2021 12:00:00 AM","2019","38837","NYTIMES-USCENSUS"
"6/28/2021 12:00:00 AM","Emery County","Utah","West","Mountain","49015","39.009025","-110.7211 ","957","10","0","0","6/27/2021 12:00:00 AM","2019","10012","NYTIMES-USCENSUS"
"6/28/2021 12:00:00 AM","Decatur County","Indiana","Midwest","East North Central","18031","39.30598","-85.499831 ","2957","96","0","0","6/27/2021 12:00:00 AM","2019","26559","NYTIMES-USCENSUS"
"6/28/2021 12:00:00 AM","Forsyth County","North Carolina","South","South Atlantic","37067","36.132466","-80.256961 ","37019","420","27","0","6/27/2021 12:00:00 AM","2019","382295","NYTIMES-USCENSUS"
"6/28/2021 12:00:00 AM","Des Moines County","Iowa","Midwest","West North Central","19057","40.915339","-91.186925 ","4687","73","0","0","6/27/2021 12:00:00 AM","2019","38967","NYTIMES-USCENSUS"
"6/28/2021 12:00:00 AM","Sully County","South Dakota","Midwest","West North Central","46119","44.722325","-100.131399 ","145","3","0","0","6/27/2021 12:00:00 AM","2019","1391","NYTIMES-USCENSUS"
"6/28/2021 12:00:00 AM","Marion County","South Carolina","South","South Atlantic","45067","34.08362","-79.354001 ","3568","108","10","0","6/27/2021 12:00:00 AM","2019","30657","NYTIMES-USCENSUS"
"6/28/2021 12:00:00 AM","Ritchie County","West Virginia","South","South Atlantic","54085","39.177112","-81.066317 ","760","11","3","0","6/27/2021 12:00:00 AM","2019","9554","NYTIMES-USCENSUS"
"6/28/2021 12:00:00 AM","Oceana County","Michigan","Midwest","East North Central","26127","43.603954","-86.467177 ","2769","60","0","0","6/27/2021 12:00:00 AM","2019","26467","NYTIMES-USCENSUS"
"6/28/2021 12:00:00 AM","Van Wert County","Ohio","Midwest","East North Central","39161","40.85552","-84.585775 ","2474","65","1","0","6/27/2021 12:00:00 AM","2019","28275","NYTIMES-USCENSUS"
"6/28/2021 12:00:00 AM","Jefferson County","Tennessee","South","East South Central","47089","36.048338","-83.441143 ","6329","126","3","0","6/27/2021 12:00:00 AM","2019","54495","NYTIMES-USCENSUS"
"6/28/2021 12:00:00 AM","Surry County","North Carolina","South","South Atlantic","37171","36.415416","-80.686463 ","8404","170","5","0","6/27/2021 12:00:00 AM","2019","71783","NYTIMES-USCENSUS"
"6/28/2021 12:00:00 AM","Riley County","Kansas","Midwest","West North Central","20161","39.291211","-96.727489 ","6682","43","0","0","6/27/2021 12:00:00 AM","2019","74232","NYTIMES-USCENSUS"
"6/28/2021 12:00:00 AM","Marion County","Missouri","Midwest","West North Central","29127","39.807538","-91.635379 ","3674","53","0","0","6/27/2021 12:00:00 AM","2019","28530","NYTIMES-USCENSUS"
"6/28/2021 12:00:00 AM","Cleburne County","Arkansas","South","West South Central","05023","35.566315","-92.05995 ","2068","74","6","0","6/27/2021 12:00:00 AM","2019","24919","NYTIMES-USCENSUS"
"6/28/2021 12:00:00 AM","Gregory County","South Dakota","Midwest","West North Central","46053","43.175142","-99.206591 ","588","30","0","0","6/27/2021 12:00:00 AM","2019","4185","NYTIMES-USCENSUS"
"6/28/2021 12:00:00 AM","East Baton Rouge Parish","Louisiana","South","West South Central","22033","30.54393","-91.093131 ","41063","837","117","1","6/27/2021 12:00:00 AM","2019","440059","NYTIMES-USCENSUS"
"6/28/2021 12:00:00 AM","Valley County","Nebraska","Midwest","West North Central","31175","41.564094","-98.983484 ","327","2","0","0","6/27/2021 12:00:00 AM","2019","4158","NYTIMES-USCENSUS"
"6/28/2021 12:00:00 AM","Crook County","Oregon","West","Pacific","41013","44.163054","-120.371585 ","1300","23","1","0","6/27/2021 12:00:00 AM","2019","24404","NYTIMES-USCENSUS"
"6/28/2021 12:00:00 AM","Nome Census Area","Alaska","West","Pacific","02180","64.783686","-164.188912 ","403","0","2","0","6/27/2021 12:00:00 AM","2019","10004","NYTIMES-USCENSUS"
"6/28/2021 12:00:00 AM","Sumter County","Florida","South","South Atlantic","12119","28.715444","-82.069952 ","9515","284","0","0","6/27/2021 12:00:00 AM","2019","132420","NYTIMES-USCENSUS"
"6/28/2021 12:00:00 AM","Sauk County","Wisconsin","Midwest","East North Central","55111","43.428001","-89.943318 ","6252","57","-1","1","6/27/2021 12:00:00 AM","2019","64442","NYTIMES-USCENSUS"
"6/28/2021 12:00:00 AM","Wyoming County","West Virginia","South","South Atlantic","54109","37.60366","-81.549032 ","2055","40","8","0","6/27/2021 12:00:00 AM","2019","20394","NYTIMES-USCENSUS"
"6/28/2021 12:00:00 AM","Sabine Parish","Louisiana","South","West South Central","22085","31.560402","-93.559579 ","3000","64","4","0","6/27/2021 12:00:00 AM","2019","23884","NYTIMES-USCENSUS"
"6/28/2021 12:00:00 AM","Laurens County","Georgia","South","South Atlantic","13175","32.39322","-82.926317 ","5679","173","-1","0","6/27/2021 12:00:00 AM","2019","47546","NYTIMES-USCENSUS"
"6/28/2021 12:00:00 AM","Stone County","Arkansas","South","West South Central","05137","35.857001","-92.140482 ","1100","31","7","0","6/27/2021 12:00:00 AM","2019","12506","NYTIMES-USCENSUS"
"6/28/2021 12:00:00 AM","Franklin County","Ohio","Midwest","East North Central","39049","39.969875","-83.009086 ","129120","1478","37","0","6/27/2021 12:00:00 AM","2019","1316756","NYTIMES-USCENSUS"
"6/28/2021 12:00:00 AM","Gwinnett County","Georgia","South","South Atlantic","13135","33.958756","-84.025735 ","103349","1207","19","0","6/27/2021 12:00:00 AM","2019","936250","NYTIMES-USCENSUS"
"6/28/2021 12:00:00 AM","Campbell County","Kentucky","South","East South Central","21037","38.946981","-84.379583 ","8891","84","2","0","6/27/2021 12:00:00 AM","2019","93584","NYTIMES-USCENSUS"
"6/28/2021 12:00:00 AM","Ulster County","New York","Northeast","Middle Atlantic","36111","41.947212","-74.265458 ","13926","257","0","0","6/27/2021 12:00:00 AM","2019","177573","NYTIMES-USCENSUS"
"6/28/2021 12:00:00 AM","Fayette County","Tennessee","South","East South Central","47047","35.196993","-89.413803 ","5208","85","3","0","6/27/2021 12:00:00 AM","2019","41133","NYTIMES-USCENSUS"
"6/28/2021 12:00:00 AM","Rockingham County","New Hampshire","Northeast","New England","33015","42.988664","-71.09908 ","24386","266","10","0","6/27/2021 12:00:00 AM","2019","309769","NYTIMES-USCENSUS"
"6/28/2021 12:00:00 AM","Wayne County","Nebraska","Midwest","West North Central","31179","42.210746","-97.126243 ","1090","7","0","0","6/27/2021 12:00:00 AM","2019","9385","NYTIMES-USCENSUS"
"6/28/2021 12:00:00 AM","Bedford County","Pennsylvania","Northeast","Middle Atlantic","42009","39.998634","-78.494747 ","4717","141","0","0","6/27/2021 12:00:00 AM","2019","47888","NYTIMES-USCENSUS"
"6/28/2021 12:00:00 AM","Otsego County","Michigan","Midwest","East North Central","26137","45.021787","-84.576603 ","2363","41","3","0","6/27/2021 12:00:00 AM","2019","24668","NYTIMES-USCENSUS"
"6/28/2021 12:00:00 AM","Park County","Montana","West","Mountain","30067","45.463081","-110.53493 ","1459","20","3","0","6/27/2021 12:00:00 AM","2019","16606","NYTIMES-USCENSUS"
"6/28/2021 12:00:00 AM","Wright County","Missouri","Midwest","West North Central","29229","37.267633","-92.479989 ","1743","34","1","0","6/27/2021 12:00:00 AM","2019","18289","NYTIMES-USCENSUS"
"6/28/2021 12:00:00 AM","Pike County","Pennsylvania","Northeast","Middle Atlantic","42103","41.325949","-75.031514 ","4035","54","0","0","6/27/2021 12:00:00 AM","2019","55809","NYTIMES-USCENSUS"
"6/28/2021 12:00:00 AM","Richmond County","Virginia","South","South Atlantic","51159","37.942894","-76.730561 ","1505","16","1","0","6/27/2021 12:00:00 AM","2019","9023","NYTIMES-USCENSUS"
"6/28/2021 12:00:00 AM","Barbour County","Alabama","South","East South Central","01005","31.870253","-85.405104 ","2345","60","1","0","6/27/2021 12:00:00 AM","2019","24686","NYTIMES-USCENSUS"
"6/28/2021 12:00:00 AM","Wilson County","North Carolina","South","South Atlantic","37195","35.700357","-77.921598 ","9902","181","24","0","6/27/2021 12:00:00 AM","2019","81801","NYTIMES-USCENSUS"
"6/28/2021 12:00:00 AM","Buena Vista County","Iowa","Midwest","West North Central","19021","42.741522","-95.141432 ","4271","40","0","0","6/27/2021 12:00:00 AM","2019","19620","NYTIMES-USCENSUS"
"6/28/2021 12:00:00 AM","Florence County","South Carolina","South","South Atlantic","45041","34.028535","-79.710233 ","18006","423","20","0","6/27/2021 12:00:00 AM","2019","138293","NYTIMES-USCENSUS"
"6/28/2021 12:00:00 AM","Seneca County","Ohio","Midwest","East North Central","39147","41.119992","-83.127547 ","5352","128","0","0","6/27/2021 12:00:00 AM","2019","55178","NYTIMES-USCENSUS"
"6/28/2021 12:00:00 AM","Garfield County","Utah","West","Mountain","49017","37.831664","-111.450908 ","470","10","0","0","6/27/2021 12:00:00 AM","2019","5051","NYTIMES-USCENSUS"
"6/28/2021 12:00:00 AM","Titus County","Texas","South","West South Central","48449","33.214599","-94.966783 ","4012","84","0","0","6/27/2021 12:00:00 AM","2019","32750","NYTIMES-USCENSUS"
"6/28/2021 12:00:00 AM","Union County","North Carolina","South","South Atlantic","37179","34.99182","-80.530426 ","24898","226","41","0","6/27/2021 12:00:00 AM","2019","239859","NYTIMES-USCENSUS"
"6/28/2021 12:00:00 AM","Klickitat County","Washington","West","Pacific","53039","45.870446","-120.779305 ","886","10","2","0","6/27/2021 12:00:00 AM","2019","22425","NYTIMES-USCENSUS"
"6/28/2021 12:00:00 AM","Seward County","Kansas","Midwest","West North Central","20175","37.18096","-100.855257 ","3988","41","0","0","6/27/2021 12:00:00 AM","2019","21428","NYTIMES-USCENSUS"
"6/28/2021 12:00:00 AM","Wyoming County","Pennsylvania","Northeast","Middle Atlantic","42131","41.525173","-76.008731 ","1997","53","0","0","6/27/2021 12:00:00 AM","2019","26794","NYTIMES-USCENSUS"
"6/28/2021 12:00:00 AM","Irion County","Texas","South","West South Central","48235","31.303424","-100.981304 ","129","1","0","0","6/27/2021 12:00:00 AM","2019","1536","NYTIMES-USCENSUS"
"6/28/2021 12:00:00 AM","Mitchell County","Kansas","Midwest","West North Central","20123","39.393026","-98.207362 ","569","18","0","0","6/27/2021 12:00:00 AM","2019","5979","NYTIMES-USCENSUS"
"6/28/2021 12:00:00 AM","Jefferson County","Iowa","Midwest","West North Central","19101","41.006376","-91.966628 ","1336","35","1","0","6/27/2021 12:00:00 AM","2019","18295","NYTIMES-USCENSUS"
"6/28/2021 12:00:00 AM","Meade County","Kentucky","South","East South Central","21163","37.967476","-86.200863 ","2087","26","3","0","6/27/2021 12:00:00 AM","2019","28572","NYTIMES-USCENSUS"
"6/28/2021 12:00:00 AM","Harper County","Oklahoma","South","West South Central","40059","36.80035","-99.662805 ","421","8","0","0","6/27/2021 12:00:00 AM","2019","3688","NYTIMES-USCENSUS"
"6/28/2021 12:00:00 AM","Comanche County","Oklahoma","South","West South Central","40031","34.662625","-98.476586 ","14260","200","0","0","6/27/2021 12:00:00 AM","2019","120749","NYTIMES-USCENSUS"
"6/28/2021 12:00:00 AM","Boone County","Illinois","Midwest","East North Central","17007","42.318983","-88.824295 ","6844","90","2","0","6/27/2021 12:00:00 AM","2019","53544","NYTIMES-USCENSUS"
"6/28/2021 12:00:00 AM","Sherman County","Texas","South","West South Central","48421","36.278593","-101.899265 ","235","12","0","0","6/27/2021 12:00:00 AM","2019","3022","NYTIMES-USCENSUS"
"6/28/2021 12:00:00 AM","Choctaw County","Mississippi","South","East South Central","28019","33.345964","-89.251332 ","794","18","2","0","6/27/2021 12:00:00 AM","2019","8210","NYTIMES-USCENSUS"
"6/28/2021 12:00:00 AM","Starke County","Indiana","Midwest","East North Central","18149","41.284478","-86.644636 ","2284","61","-1","0","6/27/2021 12:00:00 AM","2019","22995","NYTIMES-USCENSUS"
"6/28/2021 12:00:00 AM","Harris County","Texas","South","West South Central","48201","29.857273","-95.393037 ","403149","6575","-127","0","6/27/2021 12:00:00 AM","2019","4713325","NYTIMES-USCENSUS"
"6/28/2021 12:00:00 AM","McHenry County","North Dakota","Midwest","West North Central","38049","48.233842","-100.633267 ","656","23","0","0","6/27/2021 12:00:00 AM","2019","5745","NYTIMES-USCENSUS"
"6/28/2021 12:00:00 AM","Jones County","Mississippi","South","East South Central","28067","31.616601","-89.168532 ","8486","167","5","0","6/27/2021 12:00:00 AM","2019","68098","NYTIMES-USCENSUS"
"6/28/2021 12:00:00 AM","Cabarrus County","North Carolina","South","South Atlantic","37025","35.388346","-80.552728 ","22344","262","24","0","6/27/2021 12:00:00 AM","2019","216453","NYTIMES-USCENSUS"
"6/28/2021 12:00:00 AM","Van Buren County","Tennessee","South","East South Central","47175","35.699234","-85.458409 ","871","23","1","0","6/27/2021 12:00:00 AM","2019","5872","NYTIMES-USCENSUS"
"6/28/2021 12:00:00 AM","Blaine County","Oklahoma","South","West South Central","40011","35.877795","-98.429031 ","1052","20","0","0","6/27/2021 12:00:00 AM","2019","9429","NYTIMES-USCENSUS"
"6/28/2021 12:00:00 AM","Saratoga County","New York","Northeast","Middle Atlantic","36091","43.106135","-73.855387 ","15404","168","1","0","6/27/2021 12:00:00 AM","2019","229863","NYTIMES-USCENSUS"
"6/28/2021 12:00:00 AM","Jefferson County","Arkansas","South","West South Central","05069","34.277239","-91.929673 ","9211","170","44","0","6/27/2021 12:00:00 AM","2019","66824","NYTIMES-USCENSUS"
"6/28/2021 12:00:00 AM","Fayette County","Illinois","Midwest","East North Central","17051","39.001125","-89.017923 ","3227","58","-1","0","6/27/2021 12:00:00 AM","2019","21336","NYTIMES-USCENSUS"
"6/28/2021 12:00:00 AM","Meriwether County","Georgia","South","South Atlantic","13199","33.029267","-84.667058 ","2071","88","0","0","6/27/2021 12:00:00 AM","2019","21167","NYTIMES-USCENSUS"
"6/28/2021 12:00:00 AM","Mercer County","Kentucky","South","East South Central","21167","37.812085","-84.879695 ","2634","54","1","0","6/27/2021 12:00:00 AM","2019","21933","NYTIMES-USCENSUS"
"6/28/2021 12:00:00 AM","Jackson County","Indiana","Midwest","East North Central","18071","38.911957","-86.042516 ","5100","78","2","1","6/27/2021 12:00:00 AM","2019","44231","NYTIMES-USCENSUS"
"6/28/2021 12:00:00 AM","Liberty County","Montana","West","Mountain","30051","48.559654","-111.036924 ","119","1","0","0","6/27/2021 12:00:00 AM","2019","2337","NYTIMES-USCENSUS"
"6/28/2021 12:00:00 AM","Harrisonburg city","Virginia","South","South Atlantic","51660","38.436255","-78.873303 ","6537","95","0","0","6/27/2021 12:00:00 AM","2019","53016","NYTIMES-USCENSUS"
"6/28/2021 12:00:00 AM","Winnebago County","Iowa","Midwest","West North Central","19189","43.378124","-93.743488 ","1446","31","0","0","6/27/2021 12:00:00 AM","2019","10354","NYTIMES-USCENSUS"
"6/28/2021 12:00:00 AM","Forest County","Pennsylvania","Northeast","Middle Atlantic","42053","41.513304","-79.249705 ","1435","21","0","0","6/27/2021 12:00:00 AM","2019","7247","NYTIMES-USCENSUS"
"6/28/2021 12:00:00 AM","Dallas County","Alabama","South","East South Central","01047","32.333526","-87.11436 ","3613","158","2","0","6/27/2021 12:00:00 AM","2019","37196","NYTIMES-USCENSUS"
"6/28/2021 12:00:00 AM","Norton County","Kansas","Midwest","West North Central","20137","39.783867","-99.899235 ","1221","27","0","0","6/27/2021 12:00:00 AM","2019","5361","NYTIMES-USCENSUS"
"6/28/2021 12:00:00 AM","White County","Indiana","Midwest","East North Central","18181","40.75095","-86.864293 ","3342","54","5","0","6/27/2021 12:00:00 AM","2019","24102","NYTIMES-USCENSUS"
"6/28/2021 12:00:00 AM","Prince William County","Virginia","South","South Atlantic","51153","38.701119","-77.479579 ","45776","505","2","0","6/27/2021 12:00:00 AM","2019","470335","NYTIMES-USCENSUS"
"6/28/2021 12:00:00 AM","Washington County","Oregon","West","Pacific","41067","45.553542","-123.097615 ","26898","253","0","0","6/27/2021 12:00:00 AM","2019","601592","NYTIMES-USCENSUS"
"6/28/2021 12:00:00 AM","Cannon County","Tennessee","South","East South Central","47015","35.808394","-86.062404 ","1940","32","0","0","6/27/2021 12:00:00 AM","2019","14678","NYTIMES-USCENSUS"
"6/28/2021 12:00:00 AM","Falls Church city","Virginia","South","South Atlantic","51610","38.884722","-77.175603 ","430","8","-1","0","6/27/2021 12:00:00 AM","2019","14617","NYTIMES-USCENSUS"
"6/28/2021 12:00:00 AM","Wichita County","Kansas","Midwest","West North Central","20203","38.481922","-101.347434 ","218","6","0","0","6/27/2021 12:00:00 AM","2019","2119","NYTIMES-USCENSUS"
"6/28/2021 12:00:00 AM","El Paso County","Colorado","West","Mountain","08041","38.827383","-104.527472 ","73229","872","53","0","6/27/2021 12:00:00 AM","2019","720403","NYTIMES-USCENSUS"
"6/28/2021 12:00:00 AM","Martin County","North Carolina","South","South Atlantic","37117","35.847301","-77.119602 ","2323","45","4","0","6/27/2021 12:00:00 AM","2019","22440","NYTIMES-USCENSUS"
"6/28/2021 12:00:00 AM","Coconino County","Arizona","West","Mountain","04005","35.829692","-111.773728 ","18049","331","-1","0","6/27/2021 12:00:00 AM","2019","143476","NYTIMES-USCENSUS"
"6/28/2021 12:00:00 AM","Tooele County","Utah","West","Mountain","49045","40.467753","-113.123979 ","7625","44","7","0","6/27/2021 12:00:00 AM","2019","72259","NYTIMES-USCENSUS"
"6/28/2021 12:00:00 AM","Valdez-Cordova Census Area","Alaska","West","Pacific","02261","61.4","-144.5","684","2","0","0","6/27/2021 12:00:00 AM","2019","9202","NYTIMES-USCENSUS"
"6/28/2021 12:00:00 AM","Harrison County","Iowa","Midwest","West North Central","19085","41.688584","-95.827149 ","1801","73","1","0","6/27/2021 12:00:00 AM","2019","14049","NYTIMES-USCENSUS"
"6/28/2021 12:00:00 AM","Hughes County","Oklahoma","South","West South Central","40063","35.052934","-96.251183 ","1252","29","0","0","6/27/2021 12:00:00 AM","2019","13279","NYTIMES-USCENSUS"
"6/28/2021 12:00:00 AM","Lehigh County","Pennsylvania","Northeast","Middle Atlantic","42077","40.614241","-75.590627 ","39840","861","1","0","6/27/2021 12:00:00 AM","2019","369318","NYTIMES-USCENSUS"
"6/28/2021 12:00:00 AM","Kendall County","Texas","South","West South Central","48259","29.943525","-98.709269 ","3330","72","0","0","6/27/2021 12:00:00 AM","2019","47431","NYTIMES-USCENSUS"
"6/28/2021 12:00:00 AM","Delta County","Texas","South","West South Central","48119","33.385933","-95.67335 ","350","12","0","0","6/27/2021 12:00:00 AM","2019","5331","NYTIMES-USCENSUS"
"6/28/2021 12:00:00 AM","Clinton County","New York","Northeast","Middle Atlantic","36019","44.752712","-73.705643 ","4846","33","0","0","6/27/2021 12:00:00 AM","2019","80485","NYTIMES-USCENSUS"
"6/28/2021 12:00:00 AM","Hooker County","Nebraska","Midwest","West North Central","31091","41.920317","-101.117324 ","47","3","0","0","6/27/2021 12:00:00 AM","2019","682","NYTIMES-USCENSUS"
"6/28/2021 12:00:00 AM","Aurora County","South Dakota","Midwest","West North Central","46003","43.724719","-98.577587 ","475","15","0","0","6/27/2021 12:00:00 AM","2019","2751","NYTIMES-USCENSUS"
"6/28/2021 12:00:00 AM","Santa Barbara County","California","West","Pacific","06083","34.536677","-120.038364 ","34659","456","17","1","6/27/2021 12:00:00 AM","2019","446499","NYTIMES-USCENSUS"
"6/28/2021 12:00:00 AM","Cheshire County","New Hampshire","Northeast","New England","33005","42.92546","-72.248183 ","3898","35","0","0","6/27/2021 12:00:00 AM","2019","76085","NYTIMES-USCENSUS"
"6/28/2021 12:00:00 AM","Gates County","North Carolina","South","South Atlantic","37073","36.442135","-76.702355 ","753","13","1","0","6/27/2021 12:00:00 AM","2019","11562","NYTIMES-USCENSUS"
"6/28/2021 12:00:00 AM","Mohave County","Arizona","West","Mountain","04015","35.717705","-113.749689 ","23679","750","43","0","6/27/2021 12:00:00 AM","2019","212181","NYTIMES-USCENSUS"
"6/28/2021 12:00:00 AM","Camden County","New Jersey","Northeast","Middle Atlantic","34007","39.802407","-74.961249 ","55911","1332","10","0","6/27/2021 12:00:00 AM","2019","506471","NYTIMES-USCENSUS"
"6/28/2021 12:00:00 AM","Oliver County","North Dakota","Midwest","West North Central","38065","47.118079","-101.33142 ","158","3","0","0","6/27/2021 12:00:00 AM","2019","1959","NYTIMES-USCENSUS"
"6/28/2021 12:00:00 AM","Marshall County","Oklahoma","South","West South Central","40095","34.027007","-96.770533 ","2053","23","0","0","6/27/2021 12:00:00 AM","2019","16931","NYTIMES-USCENSUS"
"6/28/2021 12:00:00 AM","Thomas County","Nebraska","Midwest","West North Central","31171","41.85573","-100.524703 ","55","1","0","0","6/27/2021 12:00:00 AM","2019","722","NYTIMES-USCENSUS"
"6/28/2021 12:00:00 AM","Indian River County","Florida","South","South Atlantic","12061","27.700528","-80.574789 ","12922","306","0","0","6/27/2021 12:00:00 AM","2019","159923","NYTIMES-USCENSUS"
"6/28/2021 12:00:00 AM","Essex County","Vermont","Northeast","New England","50009","44.724021","-71.732736 ","295","2","0","0","6/27/2021 12:00:00 AM","2019","6163","NYTIMES-USCENSUS"
"6/28/2021 12:00:00 AM","Virginia Beach city","Virginia","South","South Atlantic","51810","36.779525","-76.029142 ","36408","416","6","0","6/27/2021 12:00:00 AM","2019","449974","NYTIMES-USCENSUS"
"6/28/2021 12:00:00 AM","Wayne County","Illinois","Midwest","East North Central","17191","38.431857","-88.43243 ","1815","54","3","0","6/27/2021 12:00:00 AM","2019","16215","NYTIMES-USCENSUS"
"6/28/2021 12:00:00 AM","Winston County","Alabama","South","East South Central","01133","34.154566","-87.365346 ","2836","72","-1","0","6/27/2021 12:00:00 AM","2019","23629","NYTIMES-USCENSUS"
"6/28/2021 12:00:00 AM","Lyon County","Minnesota","Midwest","West North Central","27083","44.409195","-95.847268 ","3640","54","1","0","6/27/2021 12:00:00 AM","2019","25474","NYTIMES-USCENSUS"
"6/28/2021 12:00:00 AM","Baker County","Georgia","South","South Atlantic","13007","31.31958","-84.454881 ","231","10","0","0","6/27/2021 12:00:00 AM","2019","3038","NYTIMES-USCENSUS"
"6/28/2021 12:00:00 AM","Ford County","Illinois","Midwest","East North Central","17053","40.596539","-88.224588 ","1892","58","1","0","6/27/2021 12:00:00 AM","2019","12961","NYTIMES-USCENSUS"
"6/28/2021 12:00:00 AM","Delaware County","Pennsylvania","Northeast","Middle Atlantic","42045","39.916685","-75.398818 ","52389","1459","10","0","6/27/2021 12:00:00 AM","2019","566747","NYTIMES-USCENSUS"
"6/28/2021 12:00:00 AM","Telfair County","Georgia","South","South Atlantic","13271","31.913641","-82.931063 ","1334","60","0","0","6/27/2021 12:00:00 AM","2019","15860","NYTIMES-USCENSUS"
"6/28/2021 12:00:00 AM","Plumas County","California","West","Pacific","06063","39.992295","-120.824371 ","742","6","5","0","6/27/2021 12:00:00 AM","2019","18807","NYTIMES-USCENSUS"
"6/28/2021 12:00:00 AM","Crawford County","Pennsylvania","Northeast","Middle Atlantic","42039","41.687876","-80.107795 ","7547","156","0","0","6/27/2021 12:00:00 AM","2019","84629","NYTIMES-USCENSUS"
"6/28/2021 12:00:00 AM","Allendale County","South Carolina","South","South Atlantic","45005","32.979757","-81.363265 ","946","15","0","0","6/27/2021 12:00:00 AM","2019","8688","NYTIMES-USCENSUS"
"6/28/2021 12:00:00 AM","Crowley County","Colorado","West","Mountain","08025","38.30618","-103.772736 ","2212","16","0","0","6/27/2021 12:00:00 AM","2019","6061","NYTIMES-USCENSUS"
"6/28/2021 12:00:00 AM","Johnson County","Wyoming","West","Mountain","56019","44.044048","-106.588541 ","743","10","2","0","6/27/2021 12:00:00 AM","2019","8445","NYTIMES-USCENSUS"
"6/28/2021 12:00:00 AM","Deer Lodge County","Montana","West","Mountain","30023","46.094672","-113.141624 ","1126","16","1","0","6/27/2021 12:00:00 AM","2019","9140","NYTIMES-USCENSUS"
"6/28/2021 12:00:00 AM","Tioga County","New York","Northeast","Middle Atlantic","36107","42.178057","-76.297456 ","3841","63","1","0","6/27/2021 12:00:00 AM","2019","48203","NYTIMES-USCENSUS"
"6/28/2021 12:00:00 AM","Tompkins County","New York","Northeast","Middle Atlantic","36109","42.453006","-76.473483 ","4358","52","0","0","6/27/2021 12:00:00 AM","2019","102180","NYTIMES-USCENSUS"
"6/28/2021 12:00:00 AM","Reynolds County","Missouri","Midwest","West North Central","29179","37.366464","-90.972282 ","493","4","0","0","6/27/2021 12:00:00 AM","2019","6270","NYTIMES-USCENSUS"
"6/28/2021 12:00:00 AM","St. Tammany Parish","Louisiana","South","West South Central","22103","30.410022","-89.951962 ","26408","528","55","0","6/27/2021 12:00:00 AM","2019","260419","NYTIMES-USCENSUS"
"6/28/2021 12:00:00 AM","Rockcastle County","Kentucky","South","East South Central","21203","37.36105","-84.314368 ","1639","24","1","0","6/27/2021 12:00:00 AM","2019","16695","NYTIMES-USCENSUS"
"6/28/2021 12:00:00 AM","Bradley County","Tennessee","South","East South Central","47011","35.153914","-84.859414 ","15305","153","5","1","6/27/2021 12:00:00 AM","2019","108110","NYTIMES-USCENSUS"
"6/28/2021 12:00:00 AM","Menominee County","Wisconsin","Midwest","East North Central","55078","44.991304","-88.669251 ","813","11","0","0","6/27/2021 12:00:00 AM","2019","4556","NYTIMES-USCENSUS"
"6/28/2021 12:00:00 AM","Calumet County","Wisconsin","Midwest","East North Central","55015","44.07841","-88.212132 ","6531","56","1","0","6/27/2021 12:00:00 AM","2019","50089","NYTIMES-USCENSUS"
"6/28/2021 12:00:00 AM","Gregg County","Texas","South","West South Central","48183","32.486401","-94.816277 ","11464","360","26","0","6/27/2021 12:00:00 AM","2019","123945","NYTIMES-USCENSUS"
"6/28/2021 12:00:00 AM","Lee County","North Carolina","South","South Atlantic","37105","35.476336","-79.172117 ","6151","83","6","0","6/27/2021 12:00:00 AM","2019","61779","NYTIMES-USCENSUS"
"6/28/2021 12:00:00 AM","Calhoun County","Texas","South","West South Central","48057","28.441719","-96.579574 ","2465","25","0","0","6/27/2021 12:00:00 AM","2019","21290","NYTIMES-USCENSUS"
"6/28/2021 12:00:00 AM","Lawrence County","Kentucky","South","East South Central","21127","38.074453","-82.73829 ","1484","28","2","0","6/27/2021 12:00:00 AM","2019","15317","NYTIMES-USCENSUS"
"6/28/2021 12:00:00 AM","Day County","South Dakota","Midwest","West North Central","46037","45.355161","-97.58143 ","710","29","1","0","6/27/2021 12:00:00 AM","2019","5424","NYTIMES-USCENSUS"
"6/28/2021 12:00:00 AM","Blair County","Pennsylvania","Northeast","Middle Atlantic","42013","40.498683","-78.309597 ","13521","341","0","0","6/27/2021 12:00:00 AM","2019","121829","NYTIMES-USCENSUS"
"6/28/2021 12:00:00 AM","Elk County","Kansas","Midwest","West North Central","20049","37.456026","-96.244642 ","181","5","0","0","6/27/2021 12:00:00 AM","2019","2530","NYTIMES-USCENSUS"
"6/28/2021 12:00:00 AM","Madera County","California","West","Pacific","06039","37.209821","-119.749802 ","16680","245","1","0","6/27/2021 12:00:00 AM","2019","157327","NYTIMES-USCENSUS"
"6/28/2021 12:00:00 AM","Taos County","New Mexico","West","Mountain","35055","36.577183","-105.638878 ","1720","53","3","0","6/27/2021 12:00:00 AM","2019","32723","NYTIMES-USCENSUS"
"6/28/2021 12:00:00 AM","Currituck County","North Carolina","South","South Atlantic","37053","36.372174","-75.941224 ","1579","16","1","0","6/27/2021 12:00:00 AM","2019","27763","NYTIMES-USCENSUS"
"6/28/2021 12:00:00 AM","Beaver County","Pennsylvania","Northeast","Middle Atlantic","42007","40.68414","-80.350721 ","15546","388","0","0","6/27/2021 12:00:00 AM","2019","163929","NYTIMES-USCENSUS"
"6/28/2021 12:00:00 AM","Chickasaw County","Iowa","Midwest","West North Central","19037","43.059741","-92.31721 ","1251","17","0","0","6/27/2021 12:00:00 AM","2019","11933","NYTIMES-USCENSUS"
"6/28/2021 12:00:00 AM","Marion County","Iowa","Midwest","West North Central","19125","41.331433","-93.093868 ","3661","76","0","0","6/27/2021 12:00:00 AM","2019","33253","NYTIMES-USCENSUS"
"6/28/2021 12:00:00 AM","St. Louis city","Missouri","Midwest","West North Central","29510","38.635699","-90.244582 ","25413","531","38","0","6/27/2021 12:00:00 AM","2019","300576","NYTIMES-USCENSUS"
"6/28/2021 12:00:00 AM","St. Landry Parish","Louisiana","South","West South Central","22097","30.583441","-91.989274 ","9183","262","16","1","6/27/2021 12:00:00 AM","2019","82124","NYTIMES-USCENSUS"
"6/28/2021 12:00:00 AM","Carbon County","Pennsylvania","Northeast","Middle Atlantic","42025","40.918367","-75.705039 ","6399","176","1","0","6/27/2021 12:00:00 AM","2019","64182","NYTIMES-USCENSUS"
"6/28/2021 12:00:00 AM","Morgan County","Alabama","South","East South Central","01103","34.454484","-86.846402 ","14662","287","6","0","6/27/2021 12:00:00 AM","2019","119679","NYTIMES-USCENSUS"
"6/28/2021 12:00:00 AM","Hyde County","South Dakota","Midwest","West North Central","46069","44.537174","-99.472736 ","141","1","0","0","6/27/2021 12:00:00 AM","2019","1301","NYTIMES-USCENSUS"
"6/28/2021 12:00:00 AM","Burke County","North Dakota","Midwest","West North Central","38013","48.786453","-102.520087 ","247","3","0","0","6/27/2021 12:00:00 AM","2019","2115","NYTIMES-USCENSUS"
"6/28/2021 12:00:00 AM","Richmond County","Georgia","South","South Atlantic","13245","33.361486","-82.074998 ","25177","531","7","0","6/27/2021 12:00:00 AM","2019","202518","NYTIMES-USCENSUS"
"6/28/2021 12:00:00 AM","Wells County","North Dakota","Midwest","West North Central","38103","47.580851","-99.682213 ","458","8","0","0","6/27/2021 12:00:00 AM","2019","3834","NYTIMES-USCENSUS"
"6/28/2021 12:00:00 AM","Cook County","Georgia","South","South Atlantic","13075","31.152516","-83.429445 ","1876","44","4","0","6/27/2021 12:00:00 AM","2019","17270","NYTIMES-USCENSUS"
"6/28/2021 12:00:00 AM","Hickman County","Tennessee","South","East South Central","47081","35.802327","-87.467116 ","2892","47","-1","0","6/27/2021 12:00:00 AM","2019","25178","NYTIMES-USCENSUS"
"6/28/2021 12:00:00 AM","Catahoula Parish","Louisiana","South","West South Central","22025","31.666517","-91.846703 ","1180","38","0","0","6/27/2021 12:00:00 AM","2019","9494","NYTIMES-USCENSUS"
"6/28/2021 12:00:00 AM","Blaine County","Idaho","West","Mountain","16013","43.394192","-113.955371 ","2398","18","2","0","6/27/2021 12:00:00 AM","2019","23021","NYTIMES-USCENSUS"
"6/28/2021 12:00:00 AM","Ashley County","Arkansas","South","West South Central","05003","33.190835","-91.772267 ","2058","35","5","0","6/27/2021 12:00:00 AM","2019","19657","NYTIMES-USCENSUS"
"6/28/2021 12:00:00 AM","Calhoun County","Illinois","Midwest","East North Central","17013","39.164262","-90.666295 ","531","5","0","0","6/27/2021 12:00:00 AM","2019","4739","NYTIMES-USCENSUS"
"6/28/2021 12:00:00 AM","Newport County","Rhode Island","Northeast","New England","44005","41.501045","-71.283063 ","6961","42","0","0","6/27/2021 12:00:00 AM","2019","82082","NYTIMES-USCENSUS"
"6/28/2021 12:00:00 AM","Grand Isle County","Vermont","Northeast","New England","50013","44.795742","-73.295082 ","217","2","0","0","6/27/2021 12:00:00 AM","2019","7235","NYTIMES-USCENSUS"
"6/28/2021 12:00:00 AM","Carroll County","Illinois","Midwest","East North Central","17015","42.0709","-89.924189 ","1785","38","0","0","6/27/2021 12:00:00 AM","2019","14305","NYTIMES-USCENSUS"
"6/28/2021 12:00:00 AM","Douglas County","Colorado","West","Mountain","08035","39.325414","-104.925987 ","31118","266","33","0","6/27/2021 12:00:00 AM","2019","351154","NYTIMES-USCENSUS"
"6/28/2021 12:00:00 AM","Essex County","New York","Northeast","Middle Atlantic","36031","44.109601","-73.778431 ","1603","26","0","0","6/27/2021 12:00:00 AM","2019","36885","NYTIMES-USCENSUS"
"6/28/2021 12:00:00 AM","Marlboro County","South Carolina","South","South Atlantic","45069","34.60167","-79.679435 ","3508","57","5","0","6/27/2021 12:00:00 AM","2019","26118","NYTIMES-USCENSUS"
"6/28/2021 12:00:00 AM","Huntingdon County","Pennsylvania","Northeast","Middle Atlantic","42061","40.422311","-77.968595 ","5160","135","0","0","6/27/2021 12:00:00 AM","2019","45144","NYTIMES-USCENSUS"
"6/28/2021 12:00:00 AM","Shelby County","Kentucky","South","East South Central","21211","38.239011","-85.228247 ","4828","78","1","0","6/27/2021 12:00:00 AM","2019","49024","NYTIMES-USCENSUS"
"6/28/2021 12:00:00 AM","Jefferson Davis County","Mississippi","South","East South Central","28065","31.564808","-89.827086 ","1086","34","0","0","6/27/2021 12:00:00 AM","2019","11128","NYTIMES-USCENSUS"
"6/28/2021 12:00:00 AM","Greene County","Virginia","South","South Atlantic","51079","38.297981","-78.470163 ","1297","18","0","0","6/27/2021 12:00:00 AM","2019","19819","NYTIMES-USCENSUS"
"6/28/2021 12:00:00 AM","Trumbull County","Ohio","Midwest","East North Central","39155","41.306374","-80.7704 ","16582","485","3","0","6/27/2021 12:00:00 AM","2019","197974","NYTIMES-USCENSUS"
"6/28/2021 12:00:00 AM","Habersham County","Georgia","South","South Atlantic","13137","34.634392","-83.525875 ","5224","164","1","0","6/27/2021 12:00:00 AM","2019","45328","NYTIMES-USCENSUS"
"6/28/2021 12:00:00 AM","Adams County","Mississippi","South","East South Central","28001","31.486224","-91.351797 ","3087","86","1","0","6/27/2021 12:00:00 AM","2019","30693","NYTIMES-USCENSUS"
"6/28/2021 12:00:00 AM","Sevier County","Arkansas","South","West South Central","05133","33.994877","-94.243279 ","2831","24","1","0","6/27/2021 12:00:00 AM","2019","17007","NYTIMES-USCENSUS"
"6/28/2021 12:00:00 AM","King and Queen County","Virginia","South","South Atlantic","51097","37.717772","-76.905581 ","413","9","0","1","6/27/2021 12:00:00 AM","2019","7025","NYTIMES-USCENSUS"
"6/28/2021 12:00:00 AM","Johnson County","Indiana","Midwest","East North Central","18081","39.496092","-86.094264 ","18581","406","14","0","6/27/2021 12:00:00 AM","2019","158167","NYTIMES-USCENSUS"
"6/28/2021 12:00:00 AM","Iowa County","Wisconsin","Midwest","East North Central","55049","43.001021","-90.133691 ","2150","14","0","0","6/27/2021 12:00:00 AM","2019","23678","NYTIMES-USCENSUS"
"6/28/2021 12:00:00 AM","Miami County","Ohio","Midwest","East North Central","39109","40.053326","-84.228413 ","10868","226","1","0","6/27/2021 12:00:00 AM","2019","106987","NYTIMES-USCENSUS"
"6/28/2021 12:00:00 AM","Larue County","Kentucky","South","East South Central","21123","37.544462","-85.696841 ","1357","26","0","0","6/27/2021 12:00:00 AM","2019","14398","NYTIMES-USCENSUS"
"6/28/2021 12:00:00 AM","Morgan County","Utah","West","Mountain","49029","41.091027","-111.577885 ","1326","11","0","0","6/27/2021 12:00:00 AM","2019","12124","NYTIMES-USCENSUS"
"6/28/2021 12:00:00 AM","McNairy County","Tennessee","South","East South Central","47109","35.175375","-88.56374 ","2876","55","0","0","6/27/2021 12:00:00 AM","2019","25694","NYTIMES-USCENSUS"
"6/28/2021 12:00:00 AM","Chowan County","North Carolina","South","South Atlantic","37041","36.128979","-76.602752 ","1487","34","1","0","6/27/2021 12:00:00 AM","2019","13943","NYTIMES-USCENSUS"
"6/28/2021 12:00:00 AM","Buckingham County","Virginia","South","South Atlantic","51029","37.573928","-78.529169 ","2142","32","0","0","6/27/2021 12:00:00 AM","2019","17148","NYTIMES-USCENSUS"
"6/28/2021 12:00:00 AM","Wyandotte County","Kansas","Midwest","West North Central","20209","39.115384","-94.763087 ","20984","299","30","0","6/27/2021 12:00:00 AM","2019","165429","NYTIMES-USCENSUS"
"6/28/2021 12:00:00 AM","Madison County","Florida","South","South Atlantic","12079","30.447233","-83.470416 ","2086","45","0","0","6/27/2021 12:00:00 AM","2019","18493","NYTIMES-USCENSUS"
"6/28/2021 12:00:00 AM","St. Croix County","Wisconsin","Midwest","East North Central","55109","45.028959","-92.447284 ","9835","68","4","1","6/27/2021 12:00:00 AM","2019","90687","NYTIMES-USCENSUS"
"6/28/2021 12:00:00 AM","Lac qui Parle County","Minnesota","Midwest","West North Central","27073","44.999856","-96.176836 ","756","22","0","0","6/27/2021 12:00:00 AM","2019","6623","NYTIMES-USCENSUS"
"6/28/2021 12:00:00 AM","Alameda County","California","West","Pacific","06001","37.647139","-121.912488 ","90182","1278","58","1","6/27/2021 12:00:00 AM","2019","1671329","NYTIMES-USCENSUS"
"6/28/2021 12:00:00 AM","San Juan County","Utah","West","Mountain","49037","37.602633","-109.791574 ","1932","37","1","0","6/27/2021 12:00:00 AM","2019","15308","NYTIMES-USCENSUS"
"6/28/2021 12:00:00 AM","Scott County","Mississippi","South","East South Central","28123","32.411959","-89.533486 ","3205","74","0","0","6/27/2021 12:00:00 AM","2019","28124","NYTIMES-USCENSUS"
"6/28/2021 12:00:00 AM","Oneida County","New York","Northeast","Middle Atlantic","36065","43.242727","-75.434282 ","22655","516","2","0","6/27/2021 12:00:00 AM","2019","228671","NYTIMES-USCENSUS"
"6/28/2021 12:00:00 AM","Caldwell County","North Carolina","South","South Atlantic","37027","35.966396","-81.51254 ","9525","110","2","0","6/27/2021 12:00:00 AM","2019","82178","NYTIMES-USCENSUS"
"6/28/2021 12:00:00 AM","Mercer County","New Jersey","Northeast","Middle Atlantic","34021","40.282503","-74.703724 ","34186","958","3","0","6/27/2021 12:00:00 AM","2019","367430","NYTIMES-USCENSUS"
"6/28/2021 12:00:00 AM","Wright County","Minnesota","Midwest","West North Central","27171","45.175091","-93.966396 ","16394","149","2","0","6/27/2021 12:00:00 AM","2019","138377","NYTIMES-USCENSUS"
"6/28/2021 12:00:00 AM","Stevens County","Minnesota","Midwest","West North Central","27149","45.593461","-95.992315 ","925","11","0","0","6/27/2021 12:00:00 AM","2019","9805","NYTIMES-USCENSUS"
"6/28/2021 12:00:00 AM","Harrison County","Kentucky","South","East South Central","21097","38.444578","-84.334131 ","1832","25","1","0","6/27/2021 12:00:00 AM","2019","18886","NYTIMES-USCENSUS"
"6/28/2021 12:00:00 AM","Haywood County","North Carolina","South","South Atlantic","37087","35.558882","-82.981307 ","4497","98","0","0","6/27/2021 12:00:00 AM","2019","62317","NYTIMES-USCENSUS"
"6/28/2021 12:00:00 AM","Chittenden County","Vermont","Northeast","New England","50007","44.463329","-73.06941 ","7535","104","6","0","6/27/2021 12:00:00 AM","2019","163774","NYTIMES-USCENSUS"
"6/28/2021 12:00:00 AM","Hughes County","South Dakota","Midwest","West North Central","46065","44.384452","-99.975684 ","2526","41","0","0","6/27/2021 12:00:00 AM","2019","17526","NYTIMES-USCENSUS"
"6/28/2021 12:00:00 AM","St. Clair County","Alabama","South","East South Central","01115","33.719491","-86.311327 ","10192","251","6","0","6/27/2021 12:00:00 AM","2019","89512","NYTIMES-USCENSUS"
"6/28/2021 12:00:00 AM","Lee County","Florida","South","South Atlantic","12071","26.563273","-81.984182 ","72609","1009","0","0","6/27/2021 12:00:00 AM","2019","770577","NYTIMES-USCENSUS"
"6/28/2021 12:00:00 AM","Ottawa County","Kansas","Midwest","West North Central","20143","39.137963","-97.654802 ","560","13","0","0","6/27/2021 12:00:00 AM","2019","5704","NYTIMES-USCENSUS"
"6/28/2021 12:00:00 AM","Steuben County","New York","Northeast","Middle Atlantic","36101","42.266725","-77.385525 ","6968","146","0","0","6/27/2021 12:00:00 AM","2019","95379","NYTIMES-USCENSUS"
"6/28/2021 12:00:00 AM","Comanche County","Kansas","Midwest","West North Central","20033","37.181442","-99.251293 ","172","9","1","0","6/27/2021 12:00:00 AM","2019","1700","NYTIMES-USCENSUS"
"6/28/2021 12:00:00 AM","Keya Paha County","Nebraska","Midwest","West North Central","31103","42.87548","-99.718351 ","54","0","0","0","6/27/2021 12:00:00 AM","2019","806","NYTIMES-USCENSUS"
"6/28/2021 12:00:00 AM","Curry County","Oregon","West","Pacific","41015","42.466439","-124.210929 ","741","11","0","0","6/27/2021 12:00:00 AM","2019","22925","NYTIMES-USCENSUS"
"6/28/2021 12:00:00 AM","Burke County","Georgia","South","South Atlantic","13033","33.060181","-82.000164 ","2628","65","0","0","6/27/2021 12:00:00 AM","2019","22383","NYTIMES-USCENSUS"
"6/28/2021 12:00:00 AM","Marengo County","Alabama","South","East South Central","01091","32.247591","-87.791091 ","2505","66","1","0","6/27/2021 12:00:00 AM","2019","18863","NYTIMES-USCENSUS"
"6/28/2021 12:00:00 AM","Shelby County","Iowa","Midwest","West North Central","19165","41.679014","-95.308917 ","1318","37","1","0","6/27/2021 12:00:00 AM","2019","11454","NYTIMES-USCENSUS"
"6/28/2021 12:00:00 AM","Catawba County","North Carolina","South","South Atlantic","37035","35.661883","-81.214906 ","19813","312","14","0","6/27/2021 12:00:00 AM","2019","159551","NYTIMES-USCENSUS"
"6/28/2021 12:00:00 AM","Independence County","Arkansas","South","West South Central","05063","35.737499","-91.559942 ","3935","124","17","0","6/27/2021 12:00:00 AM","2019","37825","NYTIMES-USCENSUS"
"6/28/2021 12:00:00 AM","Anderson County","Texas","South","West South Central","48001","31.841261","-95.661727 ","6233","133","0","0","6/27/2021 12:00:00 AM","2019","57735","NYTIMES-USCENSUS"
"6/28/2021 12:00:00 AM","Sequoyah County","Oklahoma","South","West South Central","40135","35.502435","-94.750757 ","4199","56","0","0","6/27/2021 12:00:00 AM","2019","41569","NYTIMES-USCENSUS"
"6/28/2021 12:00:00 AM","Phelps County","Missouri","Midwest","West North Central","29161","37.866326","-91.790349 ","3995","131","2","0","6/27/2021 12:00:00 AM","2019","44573","NYTIMES-USCENSUS"
"6/28/2021 12:00:00 AM","Obion County","Tennessee","South","East South Central","47131","36.361892","-89.148078 ","4623","97","0","0","6/27/2021 12:00:00 AM","2019","30069","NYTIMES-USCENSUS"
"6/28/2021 12:00:00 AM","Berks County","Pennsylvania","Northeast","Middle Atlantic","42011","40.413957","-75.92686 ","48450","1041","1","1","6/27/2021 12:00:00 AM","2019","421164","NYTIMES-USCENSUS"
"6/28/2021 12:00:00 AM","Lynn County","Texas","South","West South Central","48305","33.178412","-101.818493 ","627","24","0","0","6/27/2021 12:00:00 AM","2019","5951","NYTIMES-USCENSUS"
"6/28/2021 12:00:00 AM","Hill County","Texas","South","West South Central","48217","31.982681","-97.130668 ","4566","110","1","0","6/27/2021 12:00:00 AM","2019","36649","NYTIMES-USCENSUS"
"6/28/2021 12:00:00 AM","St. Mary's County","Maryland","South","South Atlantic","24037","38.223077","-76.534487 ","6059","132","2","0","6/27/2021 12:00:00 AM","2019","113510","NYTIMES-USCENSUS"
"6/28/2021 12:00:00 AM","Bryan County","Georgia","South","South Atlantic","13029","32.017969","-81.438543 ","3774","41","1","0","6/27/2021 12:00:00 AM","2019","39627","NYTIMES-USCENSUS"
"6/28/2021 12:00:00 AM","Suwannee County","Florida","South","South Atlantic","12121","30.189244","-82.992754 ","5423","140","0","0","6/27/2021 12:00:00 AM","2019","44417","NYTIMES-USCENSUS"
"6/28/2021 12:00:00 AM","DeKalb County","Tennessee","South","East South Central","47041","35.982219","-85.833596 ","2873","56","-2","0","6/27/2021 12:00:00 AM","2019","20490","NYTIMES-USCENSUS"
"6/28/2021 12:00:00 AM","Rappahannock County","Virginia","South","South Atlantic","51157","38.684522","-78.168824 ","353","2","0","0","6/27/2021 12:00:00 AM","2019","7370","NYTIMES-USCENSUS"
"6/28/2021 12:00:00 AM","Knox County","Kentucky","South","East South Central","21121","36.8885","-83.855551 ","3872","46","-8","0","6/27/2021 12:00:00 AM","2019","31145","NYTIMES-USCENSUS"
"6/28/2021 12:00:00 AM","Marathon County","Wisconsin","Midwest","East North Central","55073","44.898036","-89.757823 ","16429","227","5","1","6/27/2021 12:00:00 AM","2019","135692","NYTIMES-USCENSUS"
"6/28/2021 12:00:00 AM","Fayette County","Texas","South","West South Central","48149","29.877886","-96.921231 ","2772","67","2","0","6/27/2021 12:00:00 AM","2019","25346","NYTIMES-USCENSUS"
"6/28/2021 12:00:00 AM","Menifee County","Kentucky","South","East South Central","21165","37.935485","-83.589355 ","489","17","0","0","6/27/2021 12:00:00 AM","2019","6489","NYTIMES-USCENSUS"
"6/28/2021 12:00:00 AM","Schuylkill County","Pennsylvania","Northeast","Middle Atlantic","42107","40.703682","-76.217788 ","14801","412","0","0","6/27/2021 12:00:00 AM","2019","141359","NYTIMES-USCENSUS"
"6/28/2021 12:00:00 AM","Bannock County","Idaho","West","Mountain","16005","42.692921","-112.228982 ","8884","110","-2","0","6/27/2021 12:00:00 AM","2019","87808","NYTIMES-USCENSUS"
"6/28/2021 12:00:00 AM","Hinsdale County","Colorado","West","Mountain","08053","37.811519","-107.383974 ","19","0","0","0","6/27/2021 12:00:00 AM","2019","820","NYTIMES-USCENSUS"
"6/28/2021 12:00:00 AM","Chester County","Tennessee","South","East South Central","47023","35.420253","-88.611353 ","2199","51","2","0","6/27/2021 12:00:00 AM","2019","17297","NYTIMES-USCENSUS"
"6/28/2021 12:00:00 AM","Pierce County","North Dakota","Midwest","West North Central","38069","48.238883","-99.966497 ","550","25","0","0","6/27/2021 12:00:00 AM","2019","3975","NYTIMES-USCENSUS"
"6/28/2021 12:00:00 AM","Jones County","Georgia","South","South Atlantic","13169","33.021664","-83.562196 ","2073","59","-1","0","6/27/2021 12:00:00 AM","2019","28735","NYTIMES-USCENSUS"
"6/28/2021 12:00:00 AM","Fayette County","Indiana","Midwest","East North Central","18041","39.639655","-85.185032 ","2986","66","0","0","6/27/2021 12:00:00 AM","2019","23102","NYTIMES-USCENSUS"
"6/28/2021 12:00:00 AM","Roanoke city","Virginia","South","South Atlantic","51770","37.278458","-79.958174 ","8603","197","1","0","6/27/2021 12:00:00 AM","2019","99143","NYTIMES-USCENSUS"
"6/28/2021 12:00:00 AM","Ringgold County","Iowa","Midwest","West North Central","19159","40.735334","-94.244251 ","564","24","0","0","6/27/2021 12:00:00 AM","2019","4894","NYTIMES-USCENSUS"
"6/28/2021 12:00:00 AM","Cortland County","New York","Northeast","Middle Atlantic","36023","42.594039","-76.07624 ","3934","63","1","0","6/27/2021 12:00:00 AM","2019","47581","NYTIMES-USCENSUS"
"6/28/2021 12:00:00 AM","Taylor County","Texas","South","West South Central","48441","32.297126","-99.89043 ","16026","414","12","0","6/27/2021 12:00:00 AM","2019","138034","NYTIMES-USCENSUS"
"6/28/2021 12:00:00 AM","Fauquier County","Virginia","South","South Atlantic","51061","38.744096","-77.8215 ","4775","69","0","0","6/27/2021 12:00:00 AM","2019","71222","NYTIMES-USCENSUS"
"6/28/2021 12:00:00 AM","Whitfield County","Georgia","South","South Atlantic","13313","34.801726","-84.968541 ","17106","249","6","0","6/27/2021 12:00:00 AM","2019","104628","NYTIMES-USCENSUS"
"6/28/2021 12:00:00 AM","Hopewell city","Virginia","South","South Atlantic","51670","37.29101","-77.298944 ","2704","79","-5","0","6/27/2021 12:00:00 AM","2019","22529","NYTIMES-USCENSUS"
"6/28/2021 12:00:00 AM","Quitman County","Mississippi","South","East South Central","28119","34.252833","-90.290171 ","825","17","2","1","6/27/2021 12:00:00 AM","2019","6792","NYTIMES-USCENSUS"
"6/28/2021 12:00:00 AM","Apache County","Arizona","West","Mountain","04001","35.385084","-109.490172 ","11481","434","1","0","6/27/2021 12:00:00 AM","2019","71887","NYTIMES-USCENSUS"
"6/28/2021 12:00:00 AM","Morton County","North Dakota","Midwest","West North Central","38059","46.710819","-101.298265 ","5346","101","0","0","6/27/2021 12:00:00 AM","2019","31364","NYTIMES-USCENSUS"
"6/28/2021 12:00:00 AM","Fannin County","Georgia","South","South Atlantic","13111","34.866543","-84.317331 ","2471","73","1","0","6/27/2021 12:00:00 AM","2019","26188","NYTIMES-USCENSUS"
"6/28/2021 12:00:00 AM","Amite County","Mississippi","South","East South Central","28005","31.203933","-90.795542 ","1268","42","0","0","6/27/2021 12:00:00 AM","2019","12297","NYTIMES-USCENSUS"
"6/28/2021 12:00:00 AM","Washington County","Wisconsin","Midwest","East North Central","55131","43.391156","-88.232917 ","16920","189","3","0","6/27/2021 12:00:00 AM","2019","136034","NYTIMES-USCENSUS"
"6/28/2021 12:00:00 AM","Cass County","Michigan","Midwest","East North Central","26027","41.917243","-86.000142 ","5496","77","1","0","6/27/2021 12:00:00 AM","2019","51787","NYTIMES-USCENSUS"
"6/28/2021 12:00:00 AM","Howard County","Missouri","Midwest","West North Central","29089","39.143365","-92.695926 ","1073","7","0","0","6/27/2021 12:00:00 AM","2019","10001","NYTIMES-USCENSUS"
"6/28/2021 12:00:00 AM","Stanislaus County","California","West","Pacific","06099","37.562316","-121.002831 ","63685","1074","82","1","6/27/2021 12:00:00 AM","2019","550660","NYTIMES-USCENSUS"
"6/28/2021 12:00:00 AM","Iron County","Michigan","Midwest","East North Central","26071","46.170254","-88.540526 ","1054","53","1","0","6/27/2021 12:00:00 AM","2019","11066","NYTIMES-USCENSUS"
"6/28/2021 12:00:00 AM","Bedford County","Tennessee","South","East South Central","47003","35.51366","-86.458294 ","6716","131","7","0","6/27/2021 12:00:00 AM","2019","49713","NYTIMES-USCENSUS"
"6/28/2021 12:00:00 AM","Windsor County","Vermont","Northeast","New England","50027","43.572448","-72.598813 ","1520","13","0","0","6/27/2021 12:00:00 AM","2019","55062","NYTIMES-USCENSUS"
"6/28/2021 12:00:00 AM","Marshall County","South Dakota","Midwest","West North Central","46091","45.737044","-97.58087 ","375","6","0","0","6/27/2021 12:00:00 AM","2019","4935","NYTIMES-USCENSUS"
"6/28/2021 12:00:00 AM","Butler County","Nebraska","Midwest","West North Central","31023","41.226072","-97.132039 ","857","12","0","0","6/27/2021 12:00:00 AM","2019","8016","NYTIMES-USCENSUS"
"6/28/2021 12:00:00 AM","Lubbock County","Texas","South","West South Central","48303","33.611469","-101.819944 ","49494","798","10","0","6/27/2021 12:00:00 AM","2019","310569","NYTIMES-USCENSUS"
"6/28/2021 12:00:00 AM","Duval County","Texas","South","West South Central","48131","27.681123","-98.497393 ","1275","42","0","0","6/27/2021 12:00:00 AM","2019","11157","NYTIMES-USCENSUS"
"6/28/2021 12:00:00 AM","Brooks County","Georgia","South","South Atlantic","13027","30.822934","-83.581905 ","1422","49","0","0","6/27/2021 12:00:00 AM","2019","15457","NYTIMES-USCENSUS"
"6/28/2021 12:00:00 AM","Arthur County","Nebraska","Midwest","West North Central","31005","41.57193","-101.695917 ","24","1","0","0","6/27/2021 12:00:00 AM","2019","463","NYTIMES-USCENSUS"
"6/28/2021 12:00:00 AM","Defiance County","Ohio","Midwest","East North Central","39039","41.321679","-84.486433 ","4323","99","0","0","6/27/2021 12:00:00 AM","2019","38087","NYTIMES-USCENSUS"
"6/28/2021 12:00:00 AM","Baker County","Florida","South","South Atlantic","12003","30.324442","-82.302284 ","3607","62","0","0","6/27/2021 12:00:00 AM","2019","29210","NYTIMES-USCENSUS"
"6/28/2021 12:00:00 AM","Dale County","Alabama","South","East South Central","01045","31.430654","-85.609476 ","4936","117","3","0","6/27/2021 12:00:00 AM","2019","49172","NYTIMES-USCENSUS"
"6/28/2021 12:00:00 AM","Crawford County","Ohio","Midwest","East North Central","39033","40.848524","-82.924783 ","4054","111","1","0","6/27/2021 12:00:00 AM","2019","41494","NYTIMES-USCENSUS"
"6/28/2021 12:00:00 AM","Ector County","Texas","South","West South Central","48135","31.865301","-102.542507 ","17531","378","0","0","6/27/2021 12:00:00 AM","2019","166223","NYTIMES-USCENSUS"
"6/28/2021 12:00:00 AM","Fond du Lac County","Wisconsin","Midwest","East North Central","55039","43.754722","-88.493284 ","13886","139","4","0","6/27/2021 12:00:00 AM","2019","103403","NYTIMES-USCENSUS"
"6/28/2021 12:00:00 AM","Hancock County","Maine","Northeast","New England","23009","44.564906","-68.370703 ","1376","38","0","0","6/27/2021 12:00:00 AM","2019","54987","NYTIMES-USCENSUS"
"6/28/2021 12:00:00 AM","Okanogan County","Washington","West","Pacific","53047","48.548453","-119.742235 ","2786","43","2","0","6/27/2021 12:00:00 AM","2019","42243","NYTIMES-USCENSUS"
"6/28/2021 12:00:00 AM","Winn Parish","Louisiana","South","West South Central","22127","31.941187","-92.641269 ","1584","47","0","0","6/27/2021 12:00:00 AM","2019","13904","NYTIMES-USCENSUS"
"6/28/2021 12:00:00 AM","Custer County","Oklahoma","South","West South Central","40039","35.645601","-98.997386 ","4085","104","0","0","6/27/2021 12:00:00 AM","2019","29003","NYTIMES-USCENSUS"
"6/28/2021 12:00:00 AM","Muscatine County","Iowa","Midwest","West North Central","19139","41.483776","-91.118699 ","4888","106","2","0","6/27/2021 12:00:00 AM","2019","42664","NYTIMES-USCENSUS"
"6/28/2021 12:00:00 AM","Collingsworth County","Texas","South","West South Central","48087","34.963358","-100.272135 ","330","9","0","0","6/27/2021 12:00:00 AM","2019","2920","NYTIMES-USCENSUS"
"6/28/2021 12:00:00 AM","Hardee County","Florida","South","South Atlantic","12049","27.492846","-81.82158 ","3351","45","0","0","6/27/2021 12:00:00 AM","2019","26937","NYTIMES-USCENSUS"
"6/28/2021 12:00:00 AM","Marion County","Arkansas","South","West South Central","05089","36.266664","-92.678577 ","1117","30","8","0","6/27/2021 12:00:00 AM","2019","16694","NYTIMES-USCENSUS"
"6/28/2021 12:00:00 AM","Lyon County","Iowa","Midwest","West North Central","19119","43.38358","-96.207201 ","1595","41","0","0","6/27/2021 12:00:00 AM","2019","11755","NYTIMES-USCENSUS"
"6/28/2021 12:00:00 AM","Wilkes County","North Carolina","South","South Atlantic","37193","36.208883","-81.166095 ","6942","117","4","0","6/27/2021 12:00:00 AM","2019","68412","NYTIMES-USCENSUS"
"6/28/2021 12:00:00 AM","Mecklenburg County","North Carolina","South","South Atlantic","37119","35.246862","-80.833832 ","114575","976","134","0","6/27/2021 12:00:00 AM","2019","1110356","NYTIMES-USCENSUS"
"6/28/2021 12:00:00 AM","Harlan County","Nebraska","Midwest","West North Central","31083","40.178766","-99.403418 ","228","0","0","0","6/27/2021 12:00:00 AM","2019","3380","NYTIMES-USCENSUS"
"6/28/2021 12:00:00 AM","Murray County","Georgia","South","South Atlantic","13213","34.797097","-84.73799 ","5043","92","2","0","6/27/2021 12:00:00 AM","2019","40096","NYTIMES-USCENSUS"
"6/28/2021 12:00:00 AM","Pershing County","Nevada","West","Mountain","32027","40.439639","-118.409477 ","971","20","0","0","6/27/2021 12:00:00 AM","2019","6725","NYTIMES-USCENSUS"
"6/28/2021 12:00:00 AM","Josephine County","Oregon","West","Pacific","41033","42.386983","-123.57162 ","3652","72","5","0","6/27/2021 12:00:00 AM","2019","87487","NYTIMES-USCENSUS"
"6/28/2021 12:00:00 AM","Sequatchie County","Tennessee","South","East South Central","47153","35.372336","-85.410082 ","1758","29","1","0","6/27/2021 12:00:00 AM","2019","15026","NYTIMES-USCENSUS"
"6/28/2021 12:00:00 AM","Pike County","Mississippi","South","East South Central","28113","31.177516","-90.397725 ","3377","111","1","0","6/27/2021 12:00:00 AM","2019","39288","NYTIMES-USCENSUS"
"6/28/2021 12:00:00 AM","Chippewa County","Michigan","Midwest","East North Central","26033","46.321819","-84.52063 ","5627","50","0","0","6/27/2021 12:00:00 AM","2019","37349","NYTIMES-USCENSUS"
"6/28/2021 12:00:00 AM","Barnstable County","Massachusetts","Northeast","New England","25001","41.706123","-70.164823 ","13940","470","2","0","6/27/2021 12:00:00 AM","2019","212990","NYTIMES-USCENSUS"
"6/28/2021 12:00:00 AM","Lee County","Kentucky","South","East South Central","21129","37.608116","-83.719248 ","1291","26","0","0","6/27/2021 12:00:00 AM","2019","7403","NYTIMES-USCENSUS"
"6/28/2021 12:00:00 AM","Rush County","Indiana","Midwest","East North Central","18139","39.622362","-85.466529 ","1828","26","0","0","6/27/2021 12:00:00 AM","2019","16581","NYTIMES-USCENSUS"
"6/28/2021 12:00:00 AM","Hutchinson County","Texas","South","West South Central","48233","35.837047","-101.362746 ","2410","72","0","0","6/27/2021 12:00:00 AM","2019","20938","NYTIMES-USCENSUS"
"6/28/2021 12:00:00 AM","Hoke County","North Carolina","South","South Atlantic","37093","35.017233","-79.241964 ","4896","56","2","0","6/27/2021 12:00:00 AM","2019","55234","NYTIMES-USCENSUS"
"6/28/2021 12:00:00 AM","Hardin County","Tennessee","South","East South Central","47071","35.201893","-88.185696 ","3611","69","-2","0","6/27/2021 12:00:00 AM","2019","25652","NYTIMES-USCENSUS"
"6/28/2021 12:00:00 AM","Grayson County","Virginia","South","South Atlantic","51077","36.652229","-81.215324 ","1512","38","1","0","6/27/2021 12:00:00 AM","2019","15550","NYTIMES-USCENSUS"
"6/28/2021 12:00:00 AM","Bracken County","Kentucky","South","East South Central","21023","38.680365","-84.115235 ","674","7","2","0","6/27/2021 12:00:00 AM","2019","8303","NYTIMES-USCENSUS"
"6/28/2021 12:00:00 AM","Arapahoe County","Colorado","West","Mountain","08005","39.644554","-104.331706 ","64008","826","59","1","6/27/2021 12:00:00 AM","2019","656590","NYTIMES-USCENSUS"
"6/28/2021 12:00:00 AM","Lee County","Iowa","Midwest","West North Central","19111","40.647588","-91.477157 ","3836","57","0","0","6/27/2021 12:00:00 AM","2019","33657","NYTIMES-USCENSUS"
"6/28/2021 12:00:00 AM","Adams County","Wisconsin","Midwest","East North Central","55001","43.973757","-89.767228 ","1967","20","0","0","6/27/2021 12:00:00 AM","2019","20220","NYTIMES-USCENSUS"
"6/28/2021 12:00:00 AM","Livingston County","Kentucky","South","East South Central","21139","37.209517","-88.363426 ","887","24","0","0","6/27/2021 12:00:00 AM","2019","9194","NYTIMES-USCENSUS"
"6/28/2021 12:00:00 AM","Fairbanks North Star Borough","Alaska","West","Pacific","02090","64.676044","-146.548159 ","8002","44","8","0","6/27/2021 12:00:00 AM","2019","96849","NYTIMES-USCENSUS"
"6/28/2021 12:00:00 AM","Meeker County","Minnesota","Midwest","West North Central","27093","45.123155","-94.527346 ","2637","43","0","0","6/27/2021 12:00:00 AM","2019","23222","NYTIMES-USCENSUS"
"6/28/2021 12:00:00 AM","Allegheny County","Pennsylvania","Northeast","Middle Atlantic","42003","40.469757","-79.980451 ","101871","2013","7","0","6/27/2021 12:00:00 AM","2019","1216045","NYTIMES-USCENSUS"
"6/28/2021 12:00:00 AM","Adair County","Iowa","Midwest","West North Central","19001","41.328528","-94.478164 ","876","32","0","0","6/27/2021 12:00:00 AM","2019","7152","NYTIMES-USCENSUS"
"6/28/2021 12:00:00 AM","Williams County","Ohio","Midwest","East North Central","39171","41.564959","-84.584324 ","3492","78","1","0","6/27/2021 12:00:00 AM","2019","36692","NYTIMES-USCENSUS"
"6/28/2021 12:00:00 AM","Newton County","Arkansas","South","West South Central","05101","35.910742","-93.215898 ","759","26","4","0","6/27/2021 12:00:00 AM","2019","7753","NYTIMES-USCENSUS"
"6/28/2021 12:00:00 AM","Wilson County","Texas","South","West South Central","48493","29.173883","-98.086734 ","4669","69","0","0","6/27/2021 12:00:00 AM","2019","51070","NYTIMES-USCENSUS"
"6/28/2021 12:00:00 AM","Ransom County","North Dakota","Midwest","West North Central","38073","46.449276","-97.647554 ","700","17","0","0","6/27/2021 12:00:00 AM","2019","5218","NYTIMES-USCENSUS"
"6/28/2021 12:00:00 AM","Marion County","Kentucky","South","East South Central","21155","37.552604","-85.268959 ","2387","38","0","0","6/27/2021 12:00:00 AM","2019","19273","NYTIMES-USCENSUS"
"6/28/2021 12:00:00 AM","Lake County","California","West","Pacific","06033","39.094802","-122.746757 ","3581","56","5","0","6/27/2021 12:00:00 AM","2019","64386","NYTIMES-USCENSUS"
"6/28/2021 12:00:00 AM","Maury County","Tennessee","South","East South Central","47119","35.615696","-87.077763 ","13736","177","2","0","6/27/2021 12:00:00 AM","2019","96387","NYTIMES-USCENSUS"
"6/28/2021 12:00:00 AM","Ray County","Missouri","Midwest","West North Central","29177","39.308401","-93.995746 ","2046","27","1","0","6/27/2021 12:00:00 AM","2019","23018","NYTIMES-USCENSUS"
"6/28/2021 12:00:00 AM","Westmoreland County","Pennsylvania","Northeast","Middle Atlantic","42129","40.311068","-79.466688 ","34415","776","5","0","6/27/2021 12:00:00 AM","2019","348899","NYTIMES-USCENSUS"
"6/28/2021 12:00:00 AM","Wyoming County","New York","Northeast","Middle Atlantic","36121","42.701363","-78.228567 ","3585","53","0","0","6/27/2021 12:00:00 AM","2019","39859","NYTIMES-USCENSUS"
"6/28/2021 12:00:00 AM","Gilmer County","West Virginia","South","South Atlantic","54021","38.915867","-80.849413 ","884","6","2","0","6/27/2021 12:00:00 AM","2019","7823","NYTIMES-USCENSUS"
"6/28/2021 12:00:00 AM","Thurston County","Washington","West","Pacific","53067","46.935822","-122.830152 ","11016","112","22","1","6/27/2021 12:00:00 AM","2019","290536","NYTIMES-USCENSUS"
"6/28/2021 12:00:00 AM","Washington County","Maine","Northeast","New England","23029","44.967009","-67.609354 ","941","18","0","0","6/27/2021 12:00:00 AM","2019","31379","NYTIMES-USCENSUS"
"6/28/2021 12:00:00 AM","Hall County","Georgia","South","South Atlantic","13139","34.317569","-83.8185 ","27964","491","1","0","6/27/2021 12:00:00 AM","2019","204441","NYTIMES-USCENSUS"
"6/28/2021 12:00:00 AM","Henry County","Tennessee","South","East South Central","47079","36.325295","-88.300288 ","3400","75","-3","0","6/27/2021 12:00:00 AM","2019","32345","NYTIMES-USCENSUS"
"6/28/2021 12:00:00 AM","Denver County","Colorado","West","Mountain","08031","39.76185","-104.881105 ","74297","843","9","1","6/27/2021 12:00:00 AM","2019","727211","NYTIMES-USCENSUS"
"6/28/2021 12:00:00 AM","Monroe County","West Virginia","South","South Atlantic","54063","37.554062","-80.550329 ","1221","17","1","0","6/27/2021 12:00:00 AM","2019","13275","NYTIMES-USCENSUS"
"6/28/2021 12:00:00 AM","Lake County","Minnesota","Midwest","West North Central","27075","47.517111","-91.411704 ","833","20","0","0","6/27/2021 12:00:00 AM","2019","10641","NYTIMES-USCENSUS"
"6/28/2021 12:00:00 AM","Brunswick County","North Carolina","South","South Atlantic","37019","34.038754","-78.227765 ","9335","156","3","1","6/27/2021 12:00:00 AM","2019","142820","NYTIMES-USCENSUS"
"6/28/2021 12:00:00 AM","Natrona County","Wyoming","West","Mountain","56025","42.977645","-106.768219 ","8236","138","8","0","6/27/2021 12:00:00 AM","2019","79858","NYTIMES-USCENSUS"
"6/28/2021 12:00:00 AM","New Haven County","Connecticut","Northeast","New England","09009","41.349718","-72.900203 ","92372","2131","30","1","6/27/2021 12:00:00 AM","2019","854757","NYTIMES-USCENSUS"
"6/28/2021 12:00:00 AM","Union County","Oregon","West","Pacific","41061","45.304081","-117.999149 ","1507","24","2","0","6/27/2021 12:00:00 AM","2019","26835","NYTIMES-USCENSUS"
"6/28/2021 12:00:00 AM","Ochiltree County","Texas","South","West South Central","48357","36.278744","-100.815864 ","1203","27","0","0","6/27/2021 12:00:00 AM","2019","9836","NYTIMES-USCENSUS"
"6/28/2021 12:00:00 AM","Clay County","Nebraska","Midwest","West North Central","31035","40.523669","-98.050858 ","780","17","0","0","6/27/2021 12:00:00 AM","2019","6203","NYTIMES-USCENSUS"
"6/28/2021 12:00:00 AM","Metcalfe County","Kentucky","South","East South Central","21169","36.99243","-85.633456 ","1069","30","0","0","6/27/2021 12:00:00 AM","2019","10071","NYTIMES-USCENSUS"
"6/28/2021 12:00:00 AM","Red River County","Texas","South","West South Central","48387","33.619625","-95.048429 ","754","38","0","0","6/27/2021 12:00:00 AM","2019","12023","NYTIMES-USCENSUS"
"6/28/2021 12:00:00 AM","Contra Costa County","California","West","Pacific","06013","37.919479","-121.951543 ","71093","816","45","0","6/27/2021 12:00:00 AM","2019","1153526","NYTIMES-USCENSUS"
"6/28/2021 12:00:00 AM","Kane County","Utah","West","Mountain","49025","37.275089","-111.815329 ","714","6","0","0","6/27/2021 12:00:00 AM","2019","7886","NYTIMES-USCENSUS"
"6/28/2021 12:00:00 AM","Massac County","Illinois","Midwest","East North Central","17127","37.216119","-88.705658 ","1363","43","2","0","6/27/2021 12:00:00 AM","2019","13772","NYTIMES-USCENSUS"
"6/28/2021 12:00:00 AM","Talladega County","Alabama","South","East South Central","01121","33.369314","-86.17593 ","8466","184","-8","0","6/27/2021 12:00:00 AM","2019","79978","NYTIMES-USCENSUS"
"6/28/2021 12:00:00 AM","Jackson Parish","Louisiana","South","West South Central","22049","32.30429","-92.5617 ","2073","52","7","0","6/27/2021 12:00:00 AM","2019","15744","NYTIMES-USCENSUS"
"6/28/2021 12:00:00 AM","Alleghany County","Virginia","South","South Atlantic","51005","37.787905","-80.008669 ","1376","50","1","0","6/27/2021 12:00:00 AM","2019","14860","NYTIMES-USCENSUS"
"6/28/2021 12:00:00 AM","Clay County","Arkansas","South","West South Central","05021","36.367302","-90.418704 ","1802","52","5","0","6/27/2021 12:00:00 AM","2019","14551","NYTIMES-USCENSUS"
"6/28/2021 12:00:00 AM","Lamoille County","Vermont","Northeast","New England","50015","44.611192","-72.632659 ","888","3","0","0","6/27/2021 12:00:00 AM","2019","25362","NYTIMES-USCENSUS"
"6/28/2021 12:00:00 AM","Cass County","Iowa","Midwest","West North Central","19029","41.333824","-94.933302 ","1392","55","0","0","6/27/2021 12:00:00 AM","2019","12836","NYTIMES-USCENSUS"
"6/28/2021 12:00:00 AM","Edgecombe County","North Carolina","South","South Atlantic","37065","35.917077","-77.602742 ","5704","113","3","0","6/27/2021 12:00:00 AM","2019","51472","NYTIMES-USCENSUS"
"6/28/2021 12:00:00 AM","Pepin County","Wisconsin","Midwest","East North Central","55091","44.627436","-91.83489 ","891","7","0","0","6/27/2021 12:00:00 AM","2019","7287","NYTIMES-USCENSUS"
"6/28/2021 12:00:00 AM","Brooks County","Texas","South","West South Central","48047","27.034994","-98.215276 ","858","36","0","0","6/27/2021 12:00:00 AM","2019","7093","NYTIMES-USCENSUS"
"6/28/2021 12:00:00 AM","Red River Parish","Louisiana","South","West South Central","22081","32.101213","-93.34905 ","900","38","0","0","6/27/2021 12:00:00 AM","2019","8442","NYTIMES-USCENSUS"
"6/28/2021 12:00:00 AM","Henderson County","Tennessee","South","East South Central","47077","35.653994","-88.387674 ","3865","79","-4","0","6/27/2021 12:00:00 AM","2019","28117","NYTIMES-USCENSUS"
"6/28/2021 12:00:00 AM","Muskogee County","Oklahoma","South","West South Central","40101","35.617551","-95.383911 ","9405","177","0","0","6/27/2021 12:00:00 AM","2019","67997","NYTIMES-USCENSUS"
"6/28/2021 12:00:00 AM","Barron County","Wisconsin","Midwest","East North Central","55005","45.437192","-91.852892 ","6064","85","5","-1","6/27/2021 12:00:00 AM","2019","45244","NYTIMES-USCENSUS"
"6/28/2021 12:00:00 AM","McLean County","Illinois","Midwest","East North Central","17113","40.494559","-88.844539 ","18561","226","2","1","6/27/2021 12:00:00 AM","2019","171517","NYTIMES-USCENSUS"
"6/28/2021 12:00:00 AM","Somerset County","Maine","Northeast","New England","23025","45.503646","-69.95611 ","2286","33","1","0","6/27/2021 12:00:00 AM","2019","50484","NYTIMES-USCENSUS"
