"monitor_date","county","state_name","region","subregion","fips","latitude","longitude","case_count_to_date","death_count_to_date","case_count","death_count","previous_monitor_date","population_year","population","source"
"1/31/2022 12:00:00 AM","Monroe County","Iowa","Midwest","West North Central","19135","41.028847","-92.869642 ","1763","44","0","0","1/30/2022 12:00:00 AM","2019","7707","NYTIMES-USCENSUS"
"1/31/2022 12:00:00 AM","Grand County","Colorado","West","Mountain","08049","40.113065","-106.110837 ","3302","22","10","0","1/30/2022 12:00:00 AM","2019","15734","NYTIMES-USCENSUS"
"1/31/2022 12:00:00 AM","Dallam County","Texas","South","West South Central","48111","36.28637","-102.59402 ","1944","35","1","0","1/30/2022 12:00:00 AM","2019","7287","NYTIMES-USCENSUS"
"1/31/2022 12:00:00 AM","Steele County","Minnesota","Midwest","West North Central","27147","44.015261","-93.220453 ","9506","50","108","0","1/30/2022 12:00:00 AM","2019","36649","NYTIMES-USCENSUS"
"1/31/2022 12:00:00 AM","Lee County","South Carolina","South","South Atlantic","45061","34.15864","-80.251209 ","4074","86","79","1","1/30/2022 12:00:00 AM","2019","16828","NYTIMES-USCENSUS"
"1/31/2022 12:00:00 AM","Seward County","Kansas","Midwest","West North Central","20175","37.18096","-100.855257 ","6822","59","32","0","1/30/2022 12:00:00 AM","2019","21428","NYTIMES-USCENSUS"
"1/31/2022 12:00:00 AM","Wilson County","Texas","South","West South Central","48493","29.173883","-98.086734 ","10155","151","64","0","1/30/2022 12:00:00 AM","2019","51070","NYTIMES-USCENSUS"
"1/31/2022 12:00:00 AM","Dale County","Alabama","South","East South Central","01045","31.430654","-85.609476 ","11828","204","24","0","1/30/2022 12:00:00 AM","2019","49172","NYTIMES-USCENSUS"
"1/31/2022 12:00:00 AM","Weber County","Utah","West","Mountain","49057","41.270325","-111.876883 ","67454","375","920","0","1/30/2022 12:00:00 AM","2019","260213","NYTIMES-USCENSUS"
"1/31/2022 12:00:00 AM","Hancock County","Indiana","Midwest","East North Central","18059","39.822529","-85.77315 ","20040","234","254","0","1/30/2022 12:00:00 AM","2019","78168","NYTIMES-USCENSUS"
"1/31/2022 12:00:00 AM","Bullock County","Alabama","South","East South Central","01011","32.101759","-85.717261 ","2234","47","8","0","1/30/2022 12:00:00 AM","2019","10101","NYTIMES-USCENSUS"
"1/31/2022 12:00:00 AM","Orange County","Virginia","South","South Atlantic","51137","38.249326","-78.011092 ","6441","72","99","0","1/30/2022 12:00:00 AM","2019","37051","NYTIMES-USCENSUS"
"1/31/2022 12:00:00 AM","Chattooga County","Georgia","South","South Atlantic","13055","34.474178","-85.345289 ","6208","117","86","0","1/30/2022 12:00:00 AM","2019","24789","NYTIMES-USCENSUS"
"1/31/2022 12:00:00 AM","Lebanon County","Pennsylvania","Northeast","Middle Atlantic","42075","40.371448","-76.464819 ","35374","464","57","3","1/30/2022 12:00:00 AM","2019","141793","NYTIMES-USCENSUS"
"1/31/2022 12:00:00 AM","Grant County","Kentucky","South","East South Central","21081","38.649167","-84.625924 ","7005","51","81","0","1/30/2022 12:00:00 AM","2019","25069","NYTIMES-USCENSUS"
"1/31/2022 12:00:00 AM","Preble County","Ohio","Midwest","East North Central","39135","39.73881","-84.644758 ","8917","175","26","0","1/30/2022 12:00:00 AM","2019","40882","NYTIMES-USCENSUS"
"1/31/2022 12:00:00 AM","Washakie County","Wyoming","West","Mountain","56043","43.878831","-107.669052 ","2179","41","29","0","1/30/2022 12:00:00 AM","2019","7805","NYTIMES-USCENSUS"
"1/31/2022 12:00:00 AM","Camden County","North Carolina","South","South Atlantic","37029","36.342344","-76.162488 ","1671","9","32","0","1/30/2022 12:00:00 AM","2019","10867","NYTIMES-USCENSUS"
"1/31/2022 12:00:00 AM","Ottawa County","Ohio","Midwest","East North Central","39123","41.545495","-83.012613 ","8135","125","8","0","1/30/2022 12:00:00 AM","2019","40525","NYTIMES-USCENSUS"
"1/31/2022 12:00:00 AM","Matanuska-Susitna Borough","Alaska","West","Pacific","02170","62.265626","-149.503993 ","31029","199","656","0","1/30/2022 12:00:00 AM","2019","108317","NYTIMES-USCENSUS"
"1/31/2022 12:00:00 AM","Jefferson County","Illinois","Midwest","East North Central","17081","38.30078","-88.92421 ","10314","162","373","1","1/30/2022 12:00:00 AM","2019","37684","NYTIMES-USCENSUS"
"1/31/2022 12:00:00 AM","Randolph County","Illinois","Midwest","East North Central","17157","38.056515","-89.82121 ","9775","119","109","0","1/30/2022 12:00:00 AM","2019","31782","NYTIMES-USCENSUS"
"1/31/2022 12:00:00 AM","Union County","Pennsylvania","Northeast","Middle Atlantic","42119","40.962179","-77.055475 ","11036","137","21","0","1/30/2022 12:00:00 AM","2019","44923","NYTIMES-USCENSUS"
"1/31/2022 12:00:00 AM","Harrison County","Indiana","Midwest","East North Central","18061","38.186454","-86.103766 ","10081","125","132","0","1/30/2022 12:00:00 AM","2019","40515","NYTIMES-USCENSUS"
"1/31/2022 12:00:00 AM","Union County","South Dakota","Midwest","West North Central","46127","42.831106","-96.650829 ","3872","48","24","1","1/30/2022 12:00:00 AM","2019","15932","NYTIMES-USCENSUS"
"1/31/2022 12:00:00 AM","Cabell County","West Virginia","South","South Atlantic","54011","38.419578","-82.243397 ","24789","324","79","0","1/30/2022 12:00:00 AM","2019","91945","NYTIMES-USCENSUS"
"1/31/2022 12:00:00 AM","Hall County","Texas","South","West South Central","48191","34.453189","-100.576343 ","905","20","3","0","1/30/2022 12:00:00 AM","2019","2964","NYTIMES-USCENSUS"
"1/31/2022 12:00:00 AM","Gonzales County","Texas","South","West South Central","48177","29.461912","-97.49192 ","4304","92","17","0","1/30/2022 12:00:00 AM","2019","20837","NYTIMES-USCENSUS"
"1/31/2022 12:00:00 AM","Franklin County","Indiana","Midwest","East North Central","18047","39.409762","-85.066964 ","4147","58","53","0","1/30/2022 12:00:00 AM","2019","22758","NYTIMES-USCENSUS"
"1/31/2022 12:00:00 AM","Briscoe County","Texas","South","West South Central","48045","34.525172","-101.205893 ","420","8","0","0","1/30/2022 12:00:00 AM","2019","1546","NYTIMES-USCENSUS"
"1/31/2022 12:00:00 AM","Park County","Wyoming","West","Mountain","56029","44.492387","-109.593597 ","6414","126","55","0","1/30/2022 12:00:00 AM","2019","29194","NYTIMES-USCENSUS"
"1/31/2022 12:00:00 AM","Meade County","Kentucky","South","East South Central","21163","37.967476","-86.200863 ","5287","58","143","0","1/30/2022 12:00:00 AM","2019","28572","NYTIMES-USCENSUS"
"1/31/2022 12:00:00 AM","Washington County","Wisconsin","Midwest","East North Central","55131","43.391156","-88.232917 ","36751","272","212","8","1/30/2022 12:00:00 AM","2019","136034","NYTIMES-USCENSUS"
"1/31/2022 12:00:00 AM","Alpine County","California","West","Pacific","06003","38.621783","-119.798352 ","124","0","0","0","1/30/2022 12:00:00 AM","2019","1129","NYTIMES-USCENSUS"
"1/31/2022 12:00:00 AM","Nemaha County","Kansas","Midwest","West North Central","20131","39.791043","-96.005381 ","3083","60","23","0","1/30/2022 12:00:00 AM","2019","10231","NYTIMES-USCENSUS"
"1/31/2022 12:00:00 AM","Archer County","Texas","South","West South Central","48009","33.616305","-98.687267 ","2003","24","15","0","1/30/2022 12:00:00 AM","2019","8553","NYTIMES-USCENSUS"
"1/31/2022 12:00:00 AM","Washburn County","Wisconsin","Midwest","East North Central","55129","45.892489","-91.796422 ","3757","39","39","0","1/30/2022 12:00:00 AM","2019","15720","NYTIMES-USCENSUS"
"1/31/2022 12:00:00 AM","Pierce County","Washington","West","Pacific","53053","47.051413","-122.15324 ","175305","1161","3905","17","1/30/2022 12:00:00 AM","2019","904980","NYTIMES-USCENSUS"
"1/31/2022 12:00:00 AM","Drew County","Arkansas","South","West South Central","05043","33.587242","-91.722778 ","4361","58","33","0","1/30/2022 12:00:00 AM","2019","18219","NYTIMES-USCENSUS"
"1/31/2022 12:00:00 AM","Furnas County","Nebraska","Midwest","West North Central","31065","40.191865","-99.909663 ","1026","6","10","0","1/30/2022 12:00:00 AM","2019","4676","NYTIMES-USCENSUS"
"1/31/2022 12:00:00 AM","Oregon County","Missouri","Midwest","West North Central","29149","36.68531","-91.401827 ","1900","27","0","0","1/30/2022 12:00:00 AM","2019","10529","NYTIMES-USCENSUS"
"1/31/2022 12:00:00 AM","Citrus County","Florida","South","South Atlantic","12017","28.850292","-82.595552 ","26800","853","0","0","1/30/2022 12:00:00 AM","2019","149657","NYTIMES-USCENSUS"
"1/31/2022 12:00:00 AM","Fayette County","Indiana","Midwest","East North Central","18041","39.639655","-85.185032 ","6529","131","124","0","1/30/2022 12:00:00 AM","2019","23102","NYTIMES-USCENSUS"
"1/31/2022 12:00:00 AM","Cameron County","Pennsylvania","Northeast","Middle Atlantic","42023","41.438291","-78.198323 ","766","18","3","0","1/30/2022 12:00:00 AM","2019","4447","NYTIMES-USCENSUS"
"1/31/2022 12:00:00 AM","Concho County","Texas","South","West South Central","48095","31.318883","-99.863649 ","997","10","2","0","1/30/2022 12:00:00 AM","2019","2726","NYTIMES-USCENSUS"
"1/31/2022 12:00:00 AM","Pitt County","North Carolina","South","South Atlantic","37147","35.59249","-77.372739 ","48951","146","731","0","1/30/2022 12:00:00 AM","2019","180742","NYTIMES-USCENSUS"
"1/31/2022 12:00:00 AM","Jackson County","North Carolina","South","South Atlantic","37099","35.285454","-83.123966 ","8401","81","118","1","1/30/2022 12:00:00 AM","2019","43938","NYTIMES-USCENSUS"
"1/31/2022 12:00:00 AM","Palm Beach County","Florida","South","South Atlantic","12099","26.649126","-80.448354 ","348041","4407","0","0","1/30/2022 12:00:00 AM","2019","1496770","NYTIMES-USCENSUS"
"1/31/2022 12:00:00 AM","Carroll County","Iowa","Midwest","West North Central","19027","42.039502","-94.86765 ","4644","60","0","0","1/30/2022 12:00:00 AM","2019","20165","NYTIMES-USCENSUS"
"1/31/2022 12:00:00 AM","Florence County","Wisconsin","Midwest","East North Central","55037","45.871828","-88.406988 ","1005","15","7","0","1/30/2022 12:00:00 AM","2019","4295","NYTIMES-USCENSUS"
"1/31/2022 12:00:00 AM","Caribou County","Idaho","West","Mountain","16029","42.786072","-111.544273 ","1399","25","13","0","1/30/2022 12:00:00 AM","2019","7155","NYTIMES-USCENSUS"
"1/31/2022 12:00:00 AM","Newton County","Texas","South","West South Central","48351","30.786718","-93.73925 ","1249","56","13","0","1/30/2022 12:00:00 AM","2019","13595","NYTIMES-USCENSUS"
"1/31/2022 12:00:00 AM","Lenoir County","North Carolina","South","South Atlantic","37107","35.240066","-77.635514 ","14576","184","382","2","1/30/2022 12:00:00 AM","2019","55949","NYTIMES-USCENSUS"
"1/31/2022 12:00:00 AM","Buena Vista city","Virginia","South","South Atlantic","51530","37.729345","-79.358134 ","1831","36","21","0","1/30/2022 12:00:00 AM","2019","6478","NYTIMES-USCENSUS"
"1/31/2022 12:00:00 AM","Lewis County","Kentucky","South","East South Central","21135","38.535047","-83.370143 ","3957","72","50","0","1/30/2022 12:00:00 AM","2019","13275","NYTIMES-USCENSUS"
"1/31/2022 12:00:00 AM","Lake County","Oregon","West","Pacific","41037","42.788401","-120.38979 ","1238","23","4","0","1/30/2022 12:00:00 AM","2019","7869","NYTIMES-USCENSUS"
"1/31/2022 12:00:00 AM","Caroline County","Virginia","South","South Atlantic","51033","38.028033","-77.353736 ","6402","63","71","2","1/30/2022 12:00:00 AM","2019","30725","NYTIMES-USCENSUS"
"1/31/2022 12:00:00 AM","Prince George's County","Maryland","South","South Atlantic","24033","38.829278","-76.848188 ","161845","1996","103","1","1/30/2022 12:00:00 AM","2019","909327","NYTIMES-USCENSUS"
"1/31/2022 12:00:00 AM","Johnson County","Georgia","South","South Atlantic","13167","32.694584","-82.66397 ","2159","66","46","0","1/30/2022 12:00:00 AM","2019","9643","NYTIMES-USCENSUS"
"1/31/2022 12:00:00 AM","McDonough County","Illinois","Midwest","East North Central","17109","40.455808","-90.678954 ","6646","90","64","1","1/30/2022 12:00:00 AM","2019","29682","NYTIMES-USCENSUS"
"1/31/2022 12:00:00 AM","Grant County","North Dakota","Midwest","West North Central","38037","46.357827","-101.639049 ","436","11","0","0","1/30/2022 12:00:00 AM","2019","2274","NYTIMES-USCENSUS"
"1/31/2022 12:00:00 AM","Accomack County","Virginia","South","South Atlantic","51001","37.765944","-75.757807 ","6757","90","188","0","1/30/2022 12:00:00 AM","2019","32316","NYTIMES-USCENSUS"
"1/31/2022 12:00:00 AM","Powell County","Kentucky","South","East South Central","21197","37.809907","-83.831354 ","4133","32","88","1","1/30/2022 12:00:00 AM","2019","12359","NYTIMES-USCENSUS"
"1/31/2022 12:00:00 AM","Jefferson County","Idaho","West","Mountain","16051","43.796965","-112.318588 ","5750","56","29","0","1/30/2022 12:00:00 AM","2019","29871","NYTIMES-USCENSUS"
"1/31/2022 12:00:00 AM","Reno County","Kansas","Midwest","West North Central","20155","37.948185","-98.078346 ","17742","205","240","0","1/30/2022 12:00:00 AM","2019","61998","NYTIMES-USCENSUS"
"1/31/2022 12:00:00 AM","Starke County","Indiana","Midwest","East North Central","18149","41.284478","-86.644636 ","4594","92","29","0","1/30/2022 12:00:00 AM","2019","22995","NYTIMES-USCENSUS"
"1/31/2022 12:00:00 AM","Marion County","Alabama","South","East South Central","01093","34.138219","-87.881551 ","7552","138","46","0","1/30/2022 12:00:00 AM","2019","29709","NYTIMES-USCENSUS"
"1/31/2022 12:00:00 AM","Miami County","Indiana","Midwest","East North Central","18103","40.772883","-86.044258 ","8860","144","119","0","1/30/2022 12:00:00 AM","2019","35516","NYTIMES-USCENSUS"
"1/31/2022 12:00:00 AM","Randolph County","Missouri","Midwest","West North Central","29175","39.439249","-92.492959 ","5635","90","3","0","1/30/2022 12:00:00 AM","2019","24748","NYTIMES-USCENSUS"
"1/31/2022 12:00:00 AM","Gallatin County","Kentucky","South","East South Central","21077","38.755663","-84.865143 ","2062","45","31","0","1/30/2022 12:00:00 AM","2019","8869","NYTIMES-USCENSUS"
"1/31/2022 12:00:00 AM","Bledsoe County","Tennessee","South","East South Central","47007","35.593561","-85.20591 ","4161","43","0","0","1/30/2022 12:00:00 AM","2019","15064","NYTIMES-USCENSUS"
"1/31/2022 12:00:00 AM","Walsh County","North Dakota","Midwest","West North Central","38099","48.376979","-97.72223 ","3155","34","4","0","1/30/2022 12:00:00 AM","2019","10641","NYTIMES-USCENSUS"
"1/31/2022 12:00:00 AM","Bolivar County","Mississippi","South","East South Central","28011","33.799139","-90.88412 ","8465","158","80","0","1/30/2022 12:00:00 AM","2019","30628","NYTIMES-USCENSUS"
"1/31/2022 12:00:00 AM","Eaton County","Michigan","Midwest","East North Central","26045","42.58953","-84.84645 ","25035","349","235","0","1/30/2022 12:00:00 AM","2019","110268","NYTIMES-USCENSUS"
"1/31/2022 12:00:00 AM","Sanilac County","Michigan","Midwest","East North Central","26151","43.449155","-82.642815 ","8239","174","50","1","1/30/2022 12:00:00 AM","2019","41170","NYTIMES-USCENSUS"
"1/31/2022 12:00:00 AM","Terry County","Texas","South","West South Central","48445","33.171229","-102.339284 ","2114","80","2","0","1/30/2022 12:00:00 AM","2019","12337","NYTIMES-USCENSUS"
"1/31/2022 12:00:00 AM","Jefferson County","Kentucky","South","East South Central","21111","38.189532","-85.657624 ","203562","1938","640","6","1/30/2022 12:00:00 AM","2019","766757","NYTIMES-USCENSUS"
"1/31/2022 12:00:00 AM","Polk County","Arkansas","South","West South Central","05113","34.490915","-94.230884 ","3830","130","37","0","1/30/2022 12:00:00 AM","2019","19964","NYTIMES-USCENSUS"
"1/31/2022 12:00:00 AM","Warren County","Georgia","South","South Atlantic","13301","33.419169","-82.688012 ","1016","27","8","0","1/30/2022 12:00:00 AM","2019","5254","NYTIMES-USCENSUS"
"1/31/2022 12:00:00 AM","Calloway County","Kentucky","South","East South Central","21035","36.620978","-88.274086 ","7438","73","136","0","1/30/2022 12:00:00 AM","2019","39001","NYTIMES-USCENSUS"
"1/31/2022 12:00:00 AM","Pike County","Ohio","Midwest","East North Central","39131","39.071341","-83.052911 ","6965","91","23","0","1/30/2022 12:00:00 AM","2019","27772","NYTIMES-USCENSUS"
"1/31/2022 12:00:00 AM","Douglas County","Wisconsin","Midwest","East North Central","55031","46.463218","-91.892477 ","10717","71","146","0","1/30/2022 12:00:00 AM","2019","43150","NYTIMES-USCENSUS"
"1/31/2022 12:00:00 AM","Perry County","Indiana","Midwest","East North Central","18123","38.081436","-86.62654 ","4381","62","54","1","1/30/2022 12:00:00 AM","2019","19169","NYTIMES-USCENSUS"
"1/31/2022 12:00:00 AM","Sonoma County","California","West","Pacific","06097","38.525182","-122.92611 ","77654","445","2046","0","1/30/2022 12:00:00 AM","2019","494336","NYTIMES-USCENSUS"
"1/31/2022 12:00:00 AM","Wood County","West Virginia","South","South Atlantic","54107","39.211602","-81.516234 ","20344","297","83","0","1/30/2022 12:00:00 AM","2019","83518","NYTIMES-USCENSUS"
"1/31/2022 12:00:00 AM","Whiteside County","Illinois","Midwest","East North Central","17195","41.750673","-89.911005 ","14378","254","127","0","1/30/2022 12:00:00 AM","2019","55175","NYTIMES-USCENSUS"
"1/31/2022 12:00:00 AM","Carroll County","Georgia","South","South Atlantic","13045","33.582237","-85.080527 ","22946","389","209","0","1/30/2022 12:00:00 AM","2019","119992","NYTIMES-USCENSUS"
"1/31/2022 12:00:00 AM","Sweetwater County","Wyoming","West","Mountain","56037","41.660328","-108.875677 ","10290","115","157","0","1/30/2022 12:00:00 AM","2019","42343","NYTIMES-USCENSUS"
"1/31/2022 12:00:00 AM","Pushmataha County","Oklahoma","South","West South Central","40127","34.377899","-95.408082 ","2280","42","0","0","1/30/2022 12:00:00 AM","2019","11096","NYTIMES-USCENSUS"
"1/31/2022 12:00:00 AM","Portsmouth city","Virginia","South","South Atlantic","51740","36.859339","-76.356973 ","19853","262","149","0","1/30/2022 12:00:00 AM","2019","94398","NYTIMES-USCENSUS"
"1/31/2022 12:00:00 AM","Mason County","Washington","West","Pacific","53045","47.350832","-123.173103 ","10799","113","492","0","1/30/2022 12:00:00 AM","2019","66768","NYTIMES-USCENSUS"
"1/31/2022 12:00:00 AM","Harrison County","Texas","South","West South Central","48203","32.547991","-94.374434 ","12047","203","42","0","1/30/2022 12:00:00 AM","2019","66553","NYTIMES-USCENSUS"
"1/31/2022 12:00:00 AM","Johnson County","Missouri","Midwest","West North Central","29101","38.741528","-93.811863 ","11437","126","11","0","1/30/2022 12:00:00 AM","2019","54062","NYTIMES-USCENSUS"
"1/31/2022 12:00:00 AM","Arkansas County","Arkansas","South","West South Central","05001","34.28957","-91.376547 ","5382","68","46","0","1/30/2022 12:00:00 AM","2019","17486","NYTIMES-USCENSUS"
"1/31/2022 12:00:00 AM","Walworth County","South Dakota","Midwest","West North Central","46129","45.427605","-100.027856 ","1240","21","11","1","1/30/2022 12:00:00 AM","2019","5435","NYTIMES-USCENSUS"
"1/31/2022 12:00:00 AM","Chesapeake city","Virginia","South","South Atlantic","51550","36.679376","-76.301788 ","47355","390","506","3","1/30/2022 12:00:00 AM","2019","244835","NYTIMES-USCENSUS"
"1/31/2022 12:00:00 AM","Sandoval County","New Mexico","West","Mountain","35043","35.685091","-106.883119 ","30482","344","606","2","1/30/2022 12:00:00 AM","2019","146748","NYTIMES-USCENSUS"
"1/31/2022 12:00:00 AM","Edwards County","Kansas","Midwest","West North Central","20047","37.883595","-99.304746 ","551","13","8","0","1/30/2022 12:00:00 AM","2019","2798","NYTIMES-USCENSUS"
"1/31/2022 12:00:00 AM","DuPage County","Illinois","Midwest","East North Central","17043","41.852058","-88.086039 ","197510","1666","1449","8","1/30/2022 12:00:00 AM","2019","922921","NYTIMES-USCENSUS"
"1/31/2022 12:00:00 AM","Southeast Fairbanks Census Area","Alaska","West","Pacific","02240","63.864997","-143.218628 ","1738","16","24","0","1/30/2022 12:00:00 AM","2019","6893","NYTIMES-USCENSUS"
"1/31/2022 12:00:00 AM","Wise County","Texas","South","West South Central","48497","33.219095","-97.653997 ","16190","232","64","0","1/30/2022 12:00:00 AM","2019","69984","NYTIMES-USCENSUS"
"1/31/2022 12:00:00 AM","Lincoln County","Colorado","West","Mountain","08073","38.99374","-103.507555 ","1869","9","3","0","1/30/2022 12:00:00 AM","2019","5701","NYTIMES-USCENSUS"
"1/31/2022 12:00:00 AM","Buffalo County","Wisconsin","Midwest","East North Central","55011","44.385633","-91.761294 ","3209","11","34","0","1/30/2022 12:00:00 AM","2019","13031","NYTIMES-USCENSUS"
"1/31/2022 12:00:00 AM","Candler County","Georgia","South","South Atlantic","13043","32.40395","-82.071266 ","1974","91","62","0","1/30/2022 12:00:00 AM","2019","10803","NYTIMES-USCENSUS"
"1/31/2022 12:00:00 AM","Ben Hill County","Georgia","South","South Atlantic","13017","31.740772","-83.147197 ","4045","114","40","0","1/30/2022 12:00:00 AM","2019","16700","NYTIMES-USCENSUS"
"1/31/2022 12:00:00 AM","Botetourt County","Virginia","South","South Atlantic","51023","37.565482","-79.797546 ","6439","74","99","1","1/30/2022 12:00:00 AM","2019","33419","NYTIMES-USCENSUS"
"1/31/2022 12:00:00 AM","Carroll County","Maryland","South","South Atlantic","24013","39.563328","-77.01533 ","19978","367","30","0","1/30/2022 12:00:00 AM","2019","168447","NYTIMES-USCENSUS"
"1/31/2022 12:00:00 AM","Saline County","Kansas","Midwest","West North Central","20169","38.791804","-97.651478 ","13373","214","130","1","1/30/2022 12:00:00 AM","2019","54224","NYTIMES-USCENSUS"
"1/31/2022 12:00:00 AM","Meeker County","Minnesota","Midwest","West North Central","27093","45.123155","-94.527346 ","5423","72","52","0","1/30/2022 12:00:00 AM","2019","23222","NYTIMES-USCENSUS"
"1/31/2022 12:00:00 AM","Cattaraugus County","New York","Northeast","Middle Atlantic","36009","42.239099","-78.662332 ","14471","205","39","0","1/30/2022 12:00:00 AM","2019","76117","NYTIMES-USCENSUS"
"1/31/2022 12:00:00 AM","Mingo County","West Virginia","South","South Atlantic","54059","37.721161","-82.158989 ","6834","103","15","0","1/30/2022 12:00:00 AM","2019","23424","NYTIMES-USCENSUS"
"1/31/2022 12:00:00 AM","Roseau County","Minnesota","Midwest","West North Central","27135","48.761068","-95.821504 ","4136","40","49","0","1/30/2022 12:00:00 AM","2019","15165","NYTIMES-USCENSUS"
"1/31/2022 12:00:00 AM","Worcester County","Massachusetts","Northeast","New England","25027","42.311693","-71.940282 ","182221","2793","1822","13","1/30/2022 12:00:00 AM","2019","830622","NYTIMES-USCENSUS"
"1/31/2022 12:00:00 AM","Reeves County","Texas","South","West South Central","48389","31.308366","-103.712706 ","4400","64","11","0","1/30/2022 12:00:00 AM","2019","15976","NYTIMES-USCENSUS"
"1/31/2022 12:00:00 AM","Santa Barbara County","California","West","Pacific","06083","34.536677","-120.038364 ","82919","606","2526","2","1/30/2022 12:00:00 AM","2019","446499","NYTIMES-USCENSUS"
"1/31/2022 12:00:00 AM","Fergus County","Montana","West","Mountain","30027","47.221816","-109.232956 ","2198","52","27","0","1/30/2022 12:00:00 AM","2019","11050","NYTIMES-USCENSUS"
"1/31/2022 12:00:00 AM","Champaign County","Illinois","Midwest","East North Central","17019","40.138985","-88.196975 ","58288","271","786","4","1/30/2022 12:00:00 AM","2019","209689","NYTIMES-USCENSUS"
"1/31/2022 12:00:00 AM","Converse County","Wyoming","West","Mountain","56009","42.984623","-105.524752 ","2962","49","23","0","1/30/2022 12:00:00 AM","2019","13822","NYTIMES-USCENSUS"
"1/31/2022 12:00:00 AM","Gilchrist County","Florida","South","South Atlantic","12041","29.723456","-82.795801 ","4065","71","0","0","1/30/2022 12:00:00 AM","2019","18582","NYTIMES-USCENSUS"
"1/31/2022 12:00:00 AM","Ogle County","Illinois","Midwest","East North Central","17141","42.041884","-89.320176 ","13166","133","121","1","1/30/2022 12:00:00 AM","2019","50643","NYTIMES-USCENSUS"
"1/31/2022 12:00:00 AM","Wichita County","Texas","South","West South Central","48485","33.988212","-98.70801 ","32084","585","0","0","1/30/2022 12:00:00 AM","2019","132230","NYTIMES-USCENSUS"
"1/31/2022 12:00:00 AM","Greer County","Oklahoma","South","West South Central","40055","34.933853","-99.552968 ","1120","29","0","0","1/30/2022 12:00:00 AM","2019","5712","NYTIMES-USCENSUS"
"1/31/2022 12:00:00 AM","Hockley County","Texas","South","West South Central","48219","33.605932","-102.343398 ","7331","150","15","0","1/30/2022 12:00:00 AM","2019","23021","NYTIMES-USCENSUS"
"1/31/2022 12:00:00 AM","Llano County","Texas","South","West South Central","48299","30.707584","-98.68469 ","3640","88","8","0","1/30/2022 12:00:00 AM","2019","21795","NYTIMES-USCENSUS"
"1/31/2022 12:00:00 AM","Jackson County","Oklahoma","South","West South Central","40065","34.594006","-99.412235 ","5727","92","0","0","1/30/2022 12:00:00 AM","2019","24530","NYTIMES-USCENSUS"
"1/31/2022 12:00:00 AM","West Carroll Parish","Louisiana","South","West South Central","22123","32.79248","-91.451998 ","3373","53","114","0","1/30/2022 12:00:00 AM","2019","10830","NYTIMES-USCENSUS"
"1/31/2022 12:00:00 AM","Greenville County","South Carolina","South","South Atlantic","45045","34.892645","-82.372077 ","164441","1666","4614","34","1/30/2022 12:00:00 AM","2019","523542","NYTIMES-USCENSUS"
"1/31/2022 12:00:00 AM","Douglas County","Nebraska","Midwest","West North Central","31055","41.297091","-96.154066 ","137628","991","1426","8","1/30/2022 12:00:00 AM","2019","571327","NYTIMES-USCENSUS"
"1/31/2022 12:00:00 AM","Butler County","Nebraska","Midwest","West North Central","31023","41.226072","-97.132039 ","1738","12","14","0","1/30/2022 12:00:00 AM","2019","8016","NYTIMES-USCENSUS"
"1/31/2022 12:00:00 AM","Clarke County","Georgia","South","South Atlantic","13059","33.952185","-83.367152 ","28722","199","254","2","1/30/2022 12:00:00 AM","2019","128331","NYTIMES-USCENSUS"
"1/31/2022 12:00:00 AM","Nemaha County","Nebraska","Midwest","West North Central","31127","40.387389","-95.852721 ","1390","18","7","0","1/30/2022 12:00:00 AM","2019","6972","NYTIMES-USCENSUS"
"1/31/2022 12:00:00 AM","Keya Paha County","Nebraska","Midwest","West North Central","31103","42.87548","-99.718351 ","108","0","1","0","1/30/2022 12:00:00 AM","2019","806","NYTIMES-USCENSUS"
"1/31/2022 12:00:00 AM","Providence County","Rhode Island","Northeast","New England","44007","41.869768","-71.578625 ","203168","2347","0","0","1/30/2022 12:00:00 AM","2019","638931","NYTIMES-USCENSUS"
"1/31/2022 12:00:00 AM","Ford County","Kansas","Midwest","West North Central","20057","37.688416","-99.884748 ","10360","103","46","0","1/30/2022 12:00:00 AM","2019","33619","NYTIMES-USCENSUS"
"1/31/2022 12:00:00 AM","Davison County","South Dakota","Midwest","West North Central","46035","43.680439","-98.155868 ","5641","78","25","0","1/30/2022 12:00:00 AM","2019","19775","NYTIMES-USCENSUS"
"1/31/2022 12:00:00 AM","Logan County","Arkansas","South","West South Central","05083","35.218654","-93.72091 ","4754","59","64","0","1/30/2022 12:00:00 AM","2019","21466","NYTIMES-USCENSUS"
"1/31/2022 12:00:00 AM","Brantley County","Georgia","South","South Atlantic","13025","31.197334","-81.982978 ","3796","95","55","0","1/30/2022 12:00:00 AM","2019","19109","NYTIMES-USCENSUS"
"1/31/2022 12:00:00 AM","LaSalle County","Illinois","Midwest","East North Central","17099","41.343341","-88.885931 ","27376","414","267","4","1/30/2022 12:00:00 AM","2019","108669","NYTIMES-USCENSUS"
"1/31/2022 12:00:00 AM","Worth County","Missouri","Midwest","West North Central","29227","40.480499","-94.419198 ","385","3","0","0","1/30/2022 12:00:00 AM","2019","2013","NYTIMES-USCENSUS"
"1/31/2022 12:00:00 AM","Guadalupe County","New Mexico","West","Mountain","35019","34.869782","-104.784968 ","1233","16","7","0","1/30/2022 12:00:00 AM","2019","4300","NYTIMES-USCENSUS"
"1/31/2022 12:00:00 AM","Alcona County","Michigan","Midwest","East North Central","26001","44.657509","-83.29458 ","1619","66","11","3","1/30/2022 12:00:00 AM","2019","10405","NYTIMES-USCENSUS"
"1/31/2022 12:00:00 AM","Davis County","Iowa","Midwest","West North Central","19051","40.748089","-92.410345 ","1502","29","0","0","1/30/2022 12:00:00 AM","2019","9000","NYTIMES-USCENSUS"
"1/31/2022 12:00:00 AM","Lenawee County","Michigan","Midwest","East North Central","26091","41.896022","-84.074356 ","24593","294","219","0","1/30/2022 12:00:00 AM","2019","98451","NYTIMES-USCENSUS"
"1/31/2022 12:00:00 AM","Glynn County","Georgia","South","South Atlantic","13127","31.21271","-81.49645 ","21493","362","365","0","1/30/2022 12:00:00 AM","2019","85292","NYTIMES-USCENSUS"
"1/31/2022 12:00:00 AM","Johnson County","Tennessee","South","East South Central","47091","36.453203","-81.861247 ","4568","72","0","0","1/30/2022 12:00:00 AM","2019","17788","NYTIMES-USCENSUS"
"1/31/2022 12:00:00 AM","Halifax County","Virginia","South","South Atlantic","51083","36.766461","-78.939614 ","6356","129","83","1","1/30/2022 12:00:00 AM","2019","33911","NYTIMES-USCENSUS"
"1/31/2022 12:00:00 AM","Garfield County","Colorado","West","Mountain","08045","39.599352","-107.90978 ","13442","84","66","1","1/30/2022 12:00:00 AM","2019","60061","NYTIMES-USCENSUS"
"1/31/2022 12:00:00 AM","Coosa County","Alabama","South","East South Central","01037","32.931445","-86.243482 ","2761","51","15","0","1/30/2022 12:00:00 AM","2019","10663","NYTIMES-USCENSUS"
"1/31/2022 12:00:00 AM","Simpson County","Kentucky","South","East South Central","21213","36.740937","-86.581793 ","5212","79","93","1","1/30/2022 12:00:00 AM","2019","18572","NYTIMES-USCENSUS"
"1/31/2022 12:00:00 AM","Hart County","Georgia","South","South Atlantic","13147","34.348733","-82.96329 ","4681","77","33","0","1/30/2022 12:00:00 AM","2019","26205","NYTIMES-USCENSUS"
"1/31/2022 12:00:00 AM","Greenbrier County","West Virginia","South","South Atlantic","54025","37.924418","-80.45059 ","8105","125","64","0","1/30/2022 12:00:00 AM","2019","34662","NYTIMES-USCENSUS"
"1/31/2022 12:00:00 AM","Hidalgo County","New Mexico","West","Mountain","35023","31.898052","-108.751929 ","988","12","17","0","1/30/2022 12:00:00 AM","2019","4198","NYTIMES-USCENSUS"
"1/31/2022 12:00:00 AM","Hardeman County","Texas","South","West South Central","48197","34.289904","-99.745697 ","543","14","0","0","1/30/2022 12:00:00 AM","2019","3933","NYTIMES-USCENSUS"
"1/31/2022 12:00:00 AM","Allen County","Ohio","Midwest","East North Central","39003","40.771627","-84.106103 ","26685","416","37","0","1/30/2022 12:00:00 AM","2019","102351","NYTIMES-USCENSUS"
"1/31/2022 12:00:00 AM","Polk County","Missouri","Midwest","West North Central","29167","37.616761","-93.400817 ","7450","84","3","0","1/30/2022 12:00:00 AM","2019","32149","NYTIMES-USCENSUS"
"1/31/2022 12:00:00 AM","Scott County","Kansas","Midwest","West North Central","20171","38.481877","-100.90636 ","1237","33","9","0","1/30/2022 12:00:00 AM","2019","4823","NYTIMES-USCENSUS"
"1/31/2022 12:00:00 AM","Hansford County","Texas","South","West South Central","48195","36.272847","-101.35693 ","1562","27","2","0","1/30/2022 12:00:00 AM","2019","5399","NYTIMES-USCENSUS"
"1/31/2022 12:00:00 AM","Floyd County","Kentucky","South","East South Central","21071","37.552456","-82.739724 ","10086","151","196","0","1/30/2022 12:00:00 AM","2019","35589","NYTIMES-USCENSUS"
"1/31/2022 12:00:00 AM","Chicot County","Arkansas","South","West South Central","05017","33.267139","-91.297158 ","2657","50","29","0","1/30/2022 12:00:00 AM","2019","10118","NYTIMES-USCENSUS"
"1/31/2022 12:00:00 AM","Turner County","South Dakota","Midwest","West North Central","46125","43.30867","-97.150185 ","1906","62","5","0","1/30/2022 12:00:00 AM","2019","8384","NYTIMES-USCENSUS"
"1/31/2022 12:00:00 AM","Adams County","Washington","West","Pacific","53001","47.011238","-118.512861 ","4652","35","118","0","1/30/2022 12:00:00 AM","2019","19983","NYTIMES-USCENSUS"
"1/31/2022 12:00:00 AM","Kerr County","Texas","South","West South Central","48265","30.059953","-99.353339 ","9020","159","42","0","1/30/2022 12:00:00 AM","2019","52600","NYTIMES-USCENSUS"
"1/31/2022 12:00:00 AM","Jackson County","Michigan","Midwest","East North Central","26075","42.248474","-84.420868 ","42863","510","312","0","1/30/2022 12:00:00 AM","2019","158510","NYTIMES-USCENSUS"
"1/31/2022 12:00:00 AM","Warren County","Indiana","Midwest","East North Central","18171","40.352498","-87.375163 ","1959","24","25","0","1/30/2022 12:00:00 AM","2019","8265","NYTIMES-USCENSUS"
"1/31/2022 12:00:00 AM","Marion County","Oregon","West","Pacific","41047","44.900898","-122.57626 ","62481","581","1573","0","1/30/2022 12:00:00 AM","2019","347818","NYTIMES-USCENSUS"
"1/31/2022 12:00:00 AM","Island County","Washington","West","Pacific","53029","48.158554","-122.670649 ","8933","59","339","1","1/30/2022 12:00:00 AM","2019","85141","NYTIMES-USCENSUS"
"1/31/2022 12:00:00 AM","Queen Anne's County","Maryland","South","South Atlantic","24035","39.040693","-76.082405 ","6695","105","8","0","1/30/2022 12:00:00 AM","2019","50381","NYTIMES-USCENSUS"
"1/31/2022 12:00:00 AM","Tallahatchie County","Mississippi","South","East South Central","28135","33.954529","-90.172243 ","2990","54","25","0","1/30/2022 12:00:00 AM","2019","13809","NYTIMES-USCENSUS"
"1/31/2022 12:00:00 AM","Cumberland County","North Carolina","South","South Atlantic","37051","35.050192","-78.828719 ","75078","517","2095","1","1/30/2022 12:00:00 AM","2019","335509","NYTIMES-USCENSUS"
"1/31/2022 12:00:00 AM","Carbon County","Pennsylvania","Northeast","Middle Atlantic","42025","40.918367","-75.705039 ","15304","259","26","0","1/30/2022 12:00:00 AM","2019","64182","NYTIMES-USCENSUS"
"1/31/2022 12:00:00 AM","Washington County","Kansas","Midwest","West North Central","20201","39.776714","-97.095611 ","1306","20","20","0","1/30/2022 12:00:00 AM","2019","5406","NYTIMES-USCENSUS"
"1/31/2022 12:00:00 AM","Madison County","Virginia","South","South Atlantic","51113","38.412059","-78.276961 ","1890","28","24","1","1/30/2022 12:00:00 AM","2019","13261","NYTIMES-USCENSUS"
"1/31/2022 12:00:00 AM","Caldwell County","Kentucky","South","East South Central","21033","37.148642","-87.870509 ","3519","57","76","1","1/30/2022 12:00:00 AM","2019","12747","NYTIMES-USCENSUS"
"1/31/2022 12:00:00 AM","Barbour County","Alabama","South","East South Central","01005","31.870253","-85.405104 ","5263","84","22","0","1/30/2022 12:00:00 AM","2019","24686","NYTIMES-USCENSUS"
"1/31/2022 12:00:00 AM","Richmond County","North Carolina","South","South Atlantic","37153","35.004636","-79.755695 ","11668","167","204","2","1/30/2022 12:00:00 AM","2019","44829","NYTIMES-USCENSUS"
"1/31/2022 12:00:00 AM","Blackford County","Indiana","Midwest","East North Central","18009","40.472672","-85.32373 ","2989","63","48","0","1/30/2022 12:00:00 AM","2019","11758","NYTIMES-USCENSUS"
"1/31/2022 12:00:00 AM","Brown County","Illinois","Midwest","East North Central","17009","39.962069","-90.750309 ","2297","19","24","0","1/30/2022 12:00:00 AM","2019","6578","NYTIMES-USCENSUS"
"1/31/2022 12:00:00 AM","Northampton County","North Carolina","South","South Atlantic","37131","36.421774","-77.398352 ","4061","68","58","0","1/30/2022 12:00:00 AM","2019","19483","NYTIMES-USCENSUS"
"1/31/2022 12:00:00 AM","Franklin County","Ohio","Midwest","East North Central","39049","39.969875","-83.009086 ","278655","2181","514","0","1/30/2022 12:00:00 AM","2019","1316756","NYTIMES-USCENSUS"
"1/31/2022 12:00:00 AM","Forest County","Pennsylvania","Northeast","Middle Atlantic","42053","41.513304","-79.249705 ","2137","34","13","0","1/30/2022 12:00:00 AM","2019","7247","NYTIMES-USCENSUS"
"1/31/2022 12:00:00 AM","Greene County","North Carolina","South","South Atlantic","37079","35.481959","-77.681688 ","5387","56","105","0","1/30/2022 12:00:00 AM","2019","21069","NYTIMES-USCENSUS"
"1/31/2022 12:00:00 AM","Mississippi County","Arkansas","South","West South Central","05093","35.766944","-90.052207 ","12485","168","195","0","1/30/2022 12:00:00 AM","2019","40651","NYTIMES-USCENSUS"
"1/31/2022 12:00:00 AM","Sierra County","New Mexico","West","Mountain","35051","33.119468","-107.188161 ","1876","69","43","0","1/30/2022 12:00:00 AM","2019","10791","NYTIMES-USCENSUS"
"1/31/2022 12:00:00 AM","Wexford County","Michigan","Midwest","East North Central","26165","44.331375","-85.570046 ","6433","95","115","0","1/30/2022 12:00:00 AM","2019","33631","NYTIMES-USCENSUS"
"1/31/2022 12:00:00 AM","Suwannee County","Florida","South","South Atlantic","12121","30.189244","-82.992754 ","11911","271","0","0","1/30/2022 12:00:00 AM","2019","44417","NYTIMES-USCENSUS"
"1/31/2022 12:00:00 AM","Paulding County","Georgia","South","South Atlantic","13223","33.92103","-84.867169 ","36480","374","282","4","1/30/2022 12:00:00 AM","2019","168667","NYTIMES-USCENSUS"
"1/31/2022 12:00:00 AM","Owsley County","Kentucky","South","East South Central","21189","37.423622","-83.691637 ","1290","23","44","0","1/30/2022 12:00:00 AM","2019","4415","NYTIMES-USCENSUS"
"1/31/2022 12:00:00 AM","Tazewell County","Virginia","South","South Atlantic","51185","37.125395","-81.562924 ","8666","128","155","0","1/30/2022 12:00:00 AM","2019","40595","NYTIMES-USCENSUS"
"1/31/2022 12:00:00 AM","Vermillion County","Indiana","Midwest","East North Central","18165","39.854045","-87.462071 ","3883","67","45","0","1/30/2022 12:00:00 AM","2019","15498","NYTIMES-USCENSUS"
"1/31/2022 12:00:00 AM","Coffey County","Kansas","Midwest","West North Central","20031","38.23645","-95.729137 ","2262","37","21","0","1/30/2022 12:00:00 AM","2019","8179","NYTIMES-USCENSUS"
"1/31/2022 12:00:00 AM","Orange County","Florida","South","South Atlantic","12095","28.514391","-81.323284 ","350986","2353","0","0","1/30/2022 12:00:00 AM","2019","1393452","NYTIMES-USCENSUS"
"1/31/2022 12:00:00 AM","Columbiana County","Ohio","Midwest","East North Central","39029","40.770073","-80.778455 ","23527","425","35","0","1/30/2022 12:00:00 AM","2019","101883","NYTIMES-USCENSUS"
"1/31/2022 12:00:00 AM","Walton County","Georgia","South","South Atlantic","13297","33.783887","-83.731829 ","21306","381","146","1","1/30/2022 12:00:00 AM","2019","94593","NYTIMES-USCENSUS"
"1/31/2022 12:00:00 AM","Coshocton County","Ohio","Midwest","East North Central","39031","40.29671","-81.930109 ","7658","138","18","0","1/30/2022 12:00:00 AM","2019","36600","NYTIMES-USCENSUS"
"1/31/2022 12:00:00 AM","Wilson County","North Carolina","South","South Atlantic","37195","35.700357","-77.921598 ","19836","244","385","0","1/30/2022 12:00:00 AM","2019","81801","NYTIMES-USCENSUS"
"1/31/2022 12:00:00 AM","Republic County","Kansas","Midwest","West North Central","20157","39.828906","-97.650883 ","1282","14","10","0","1/30/2022 12:00:00 AM","2019","4636","NYTIMES-USCENSUS"
"1/31/2022 12:00:00 AM","Macon County","North Carolina","South","South Atlantic","37113","35.152959","-83.421901 ","6804","91","104","2","1/30/2022 12:00:00 AM","2019","35858","NYTIMES-USCENSUS"
"1/31/2022 12:00:00 AM","Taylor County","West Virginia","South","South Atlantic","54091","39.332478","-80.046554 ","3871","59","14","0","1/30/2022 12:00:00 AM","2019","16695","NYTIMES-USCENSUS"
"1/31/2022 12:00:00 AM","Jefferson County","Ohio","Midwest","East North Central","39081","40.399384","-80.763527 ","14115","272","34","0","1/30/2022 12:00:00 AM","2019","65325","NYTIMES-USCENSUS"
"1/31/2022 12:00:00 AM","Pendleton County","Kentucky","South","East South Central","21191","38.696284","-84.351943 ","3233","33","47","0","1/30/2022 12:00:00 AM","2019","14590","NYTIMES-USCENSUS"
"1/31/2022 12:00:00 AM","San Juan County","Washington","West","Pacific","53055","48.50719","-123.103769 ","978","1","53","0","1/30/2022 12:00:00 AM","2019","17582","NYTIMES-USCENSUS"
"1/31/2022 12:00:00 AM","Adams County","Colorado","West","Mountain","08001","39.874325","-104.331872 ","126442","1222","1204","20","1/30/2022 12:00:00 AM","2019","517421","NYTIMES-USCENSUS"
"1/31/2022 12:00:00 AM","Lycoming County","Pennsylvania","Northeast","Middle Atlantic","42081","41.343882","-77.055262 ","26943","481","73","0","1/30/2022 12:00:00 AM","2019","113299","NYTIMES-USCENSUS"
"1/31/2022 12:00:00 AM","Newton County","Mississippi","South","East South Central","28101","32.40197","-89.118412 ","5340","89","98","2","1/30/2022 12:00:00 AM","2019","21018","NYTIMES-USCENSUS"
"1/31/2022 12:00:00 AM","Greeley County","Nebraska","Midwest","West North Central","31077","41.567571","-98.530565 ","380","2","3","0","1/30/2022 12:00:00 AM","2019","2356","NYTIMES-USCENSUS"
"1/31/2022 12:00:00 AM","Hillsborough County","New Hampshire","Northeast","New England","33011","42.911532","-71.723055 ","89953","829","1225","1","1/30/2022 12:00:00 AM","2019","417025","NYTIMES-USCENSUS"
"1/31/2022 12:00:00 AM","Sullivan County","Missouri","Midwest","West North Central","29211","40.209587","-93.109783 ","1604","19","2","0","1/30/2022 12:00:00 AM","2019","6089","NYTIMES-USCENSUS"
"1/31/2022 12:00:00 AM","Lincoln County","North Carolina","South","South Atlantic","37109","35.488491","-81.226893 ","22516","122","445","0","1/30/2022 12:00:00 AM","2019","86111","NYTIMES-USCENSUS"
"1/31/2022 12:00:00 AM","Clayton County","Georgia","South","South Atlantic","13063","33.542686","-84.355573 ","61506","835","363","8","1/30/2022 12:00:00 AM","2019","292256","NYTIMES-USCENSUS"
"1/31/2022 12:00:00 AM","Yuba County","California","West","Pacific","06115","39.27013","-121.344259 ","16235","103","424","0","1/30/2022 12:00:00 AM","2019","78668","NYTIMES-USCENSUS"
"1/31/2022 12:00:00 AM","Fremont County","Colorado","West","Mountain","08043","38.45517","-105.424958 ","13146","172","193","1","1/30/2022 12:00:00 AM","2019","47839","NYTIMES-USCENSUS"
"1/31/2022 12:00:00 AM","Ogemaw County","Michigan","Midwest","East North Central","26129","44.33328","-84.128073 ","4036","88","42","0","1/30/2022 12:00:00 AM","2019","20997","NYTIMES-USCENSUS"
"1/31/2022 12:00:00 AM","Lewis County","Idaho","West","Mountain","16061","46.236328","-116.42376 ","1048","25","14","0","1/30/2022 12:00:00 AM","2019","3838","NYTIMES-USCENSUS"
"1/31/2022 12:00:00 AM","Henderson County","North Carolina","South","South Atlantic","37089","35.336415","-82.479741 ","22875","257","349","13","1/30/2022 12:00:00 AM","2019","117417","NYTIMES-USCENSUS"
"1/31/2022 12:00:00 AM","St. Joseph County","Indiana","Midwest","East North Central","18141","41.617723","-86.288048 ","68356","795","519","1","1/30/2022 12:00:00 AM","2019","271826","NYTIMES-USCENSUS"
"1/31/2022 12:00:00 AM","Tulsa County","Oklahoma","South","West South Central","40143","36.120318","-95.941813 ","150136","1880","0","0","1/30/2022 12:00:00 AM","2019","651552","NYTIMES-USCENSUS"
"1/31/2022 12:00:00 AM","Campbell County","Virginia","South","South Atlantic","51031","37.210152","-79.095428 ","10190","169","164","2","1/30/2022 12:00:00 AM","2019","54885","NYTIMES-USCENSUS"
"1/31/2022 12:00:00 AM","Renville County","Minnesota","Midwest","West North Central","27129","44.723697","-94.955617 ","3321","53","47","0","1/30/2022 12:00:00 AM","2019","14548","NYTIMES-USCENSUS"
"1/31/2022 12:00:00 AM","Noxubee County","Mississippi","South","East South Central","28103","33.106606","-88.566152 ","2583","46","44","0","1/30/2022 12:00:00 AM","2019","10417","NYTIMES-USCENSUS"
"1/31/2022 12:00:00 AM","Porter County","Indiana","Midwest","East North Central","18127","41.509914","-87.071313 ","35836","516","226","1","1/30/2022 12:00:00 AM","2019","170389","NYTIMES-USCENSUS"
"1/31/2022 12:00:00 AM","Stearns County","Minnesota","Midwest","West North Central","27145","45.555235","-94.610482 ","46761","340","696","2","1/30/2022 12:00:00 AM","2019","161075","NYTIMES-USCENSUS"
"1/31/2022 12:00:00 AM","Rensselaer County","New York","Northeast","Middle Atlantic","36083","42.710421","-73.513845 ","29399","236","46","1","1/30/2022 12:00:00 AM","2019","158714","NYTIMES-USCENSUS"
"1/31/2022 12:00:00 AM","Gogebic County","Michigan","Midwest","East North Central","26053","46.488054","-89.788314 ","3094","64","33","0","1/30/2022 12:00:00 AM","2019","13975","NYTIMES-USCENSUS"
"1/31/2022 12:00:00 AM","Schoolcraft County","Michigan","Midwest","East North Central","26153","46.021122","-86.197029 ","1602","12","9","0","1/30/2022 12:00:00 AM","2019","8094","NYTIMES-USCENSUS"
"1/31/2022 12:00:00 AM","Barbour County","West Virginia","South","South Atlantic","54001","39.139725","-79.996947 ","4184","63","17","0","1/30/2022 12:00:00 AM","2019","16441","NYTIMES-USCENSUS"
"1/31/2022 12:00:00 AM","Uvalde County","Texas","South","West South Central","48463","29.350308","-99.768427 ","10109","121","87","0","1/30/2022 12:00:00 AM","2019","26741","NYTIMES-USCENSUS"
"1/31/2022 12:00:00 AM","Delta County","Michigan","Midwest","East North Central","26041","45.805229","-86.901938 ","9356","144","47","0","1/30/2022 12:00:00 AM","2019","35784","NYTIMES-USCENSUS"
"1/31/2022 12:00:00 AM","Berks County","Pennsylvania","Northeast","Middle Atlantic","42011","40.413957","-75.92686 ","99047","1486","143","0","1/30/2022 12:00:00 AM","2019","421164","NYTIMES-USCENSUS"
"1/31/2022 12:00:00 AM","Wilkinson County","Mississippi","South","East South Central","28157","31.161091","-91.324617 ","1726","41","9","0","1/30/2022 12:00:00 AM","2019","8630","NYTIMES-USCENSUS"
"1/31/2022 12:00:00 AM","Harney County","Oregon","West","Pacific","41025","43.064449","-118.987169 ","1435","35","19","0","1/30/2022 12:00:00 AM","2019","7393","NYTIMES-USCENSUS"
"1/31/2022 12:00:00 AM","Marion County","Iowa","Midwest","West North Central","19125","41.331433","-93.093868 ","7064","110","0","0","1/30/2022 12:00:00 AM","2019","33253","NYTIMES-USCENSUS"
"1/31/2022 12:00:00 AM","Caldwell County","Missouri","Midwest","West North Central","29025","39.658998","-93.979179 ","1543","29","3","0","1/30/2022 12:00:00 AM","2019","9020","NYTIMES-USCENSUS"
"1/31/2022 12:00:00 AM","Surry County","Virginia","South","South Atlantic","51181","37.119761","-76.880172 ","999","14","10","0","1/30/2022 12:00:00 AM","2019","6422","NYTIMES-USCENSUS"
"1/31/2022 12:00:00 AM","Jackson County","Iowa","Midwest","West North Central","19097","42.164226","-90.574582 ","4335","64","0","0","1/30/2022 12:00:00 AM","2019","19439","NYTIMES-USCENSUS"
"1/31/2022 12:00:00 AM","Haralson County","Georgia","South","South Atlantic","13143","33.795165","-85.220063 ","5238","144","85","0","1/30/2022 12:00:00 AM","2019","29792","NYTIMES-USCENSUS"
"1/31/2022 12:00:00 AM","Newport County","Rhode Island","Northeast","New England","44005","41.501045","-71.283063 ","17580","68","0","0","1/30/2022 12:00:00 AM","2019","82082","NYTIMES-USCENSUS"
"1/31/2022 12:00:00 AM","Poquoson city","Virginia","South","South Atlantic","51735","37.12836","-76.303534 ","2197","24","22","0","1/30/2022 12:00:00 AM","2019","12271","NYTIMES-USCENSUS"
"1/31/2022 12:00:00 AM","Haskell County","Kansas","Midwest","West North Central","20081","37.554979","-100.879952 ","932","11","12","0","1/30/2022 12:00:00 AM","2019","3968","NYTIMES-USCENSUS"
"1/31/2022 12:00:00 AM","Monroe County","Ohio","Midwest","East North Central","39111","39.726253","-81.090983 ","3306","69","6","0","1/30/2022 12:00:00 AM","2019","13654","NYTIMES-USCENSUS"
"1/31/2022 12:00:00 AM","Pierce County","Nebraska","Midwest","West North Central","31139","42.271413","-97.610992 ","1205","21","12","0","1/30/2022 12:00:00 AM","2019","7148","NYTIMES-USCENSUS"
"1/31/2022 12:00:00 AM","Cambria County","Pennsylvania","Northeast","Middle Atlantic","42021","40.510227","-78.710477 ","32639","668","46","2","1/30/2022 12:00:00 AM","2019","130192","NYTIMES-USCENSUS"
"1/31/2022 12:00:00 AM","Gage County","Nebraska","Midwest","West North Central","31067","40.255234","-96.683453 ","3363","37","26","0","1/30/2022 12:00:00 AM","2019","21513","NYTIMES-USCENSUS"
"1/31/2022 12:00:00 AM","Wagoner County","Oklahoma","South","West South Central","40145","35.963388","-95.514201 ","19244","237","0","0","1/30/2022 12:00:00 AM","2019","81289","NYTIMES-USCENSUS"
"1/31/2022 12:00:00 AM","Jackson County","South Dakota","Midwest","West North Central","46071","43.677506","-101.626323 ","588","20","1","0","1/30/2022 12:00:00 AM","2019","3344","NYTIMES-USCENSUS"
"1/31/2022 12:00:00 AM","Trimble County","Kentucky","South","East South Central","21223","38.62004","-85.351208 ","1994","34","24","0","1/30/2022 12:00:00 AM","2019","8471","NYTIMES-USCENSUS"
"1/31/2022 12:00:00 AM","Buffalo County","South Dakota","Midwest","West North Central","46017","44.044306","-99.203998 ","598","17","3","0","1/30/2022 12:00:00 AM","2019","1962","NYTIMES-USCENSUS"
"1/31/2022 12:00:00 AM","Essex County","Massachusetts","Northeast","New England","25009","42.642708","-70.864909 ","197960","2964","1229","13","1/30/2022 12:00:00 AM","2019","789034","NYTIMES-USCENSUS"
"1/31/2022 12:00:00 AM","Fresno County","California","West","Pacific","06019","36.761006","-119.655019 ","227135","2463","6954","6","1/30/2022 12:00:00 AM","2019","999101","NYTIMES-USCENSUS"
"1/31/2022 12:00:00 AM","Lake County","Ohio","Midwest","East North Central","39085","41.778142","-81.19733 ","47967","646","43","0","1/30/2022 12:00:00 AM","2019","230149","NYTIMES-USCENSUS"
"1/31/2022 12:00:00 AM","Lorain County","Ohio","Midwest","East North Central","39093","41.438805","-82.179722 ","64882","850","72","0","1/30/2022 12:00:00 AM","2019","309833","NYTIMES-USCENSUS"
"1/31/2022 12:00:00 AM","Martin County","Texas","South","West South Central","48317","32.30983","-101.961836 ","1093","24","5","0","1/30/2022 12:00:00 AM","2019","5771","NYTIMES-USCENSUS"
"1/31/2022 12:00:00 AM","Taylor County","Florida","South","South Atlantic","12123","29.967146","-83.639573 ","6361","87","0","0","1/30/2022 12:00:00 AM","2019","21569","NYTIMES-USCENSUS"
"1/31/2022 12:00:00 AM","Nassau County","Florida","South","South Atlantic","12089","30.605963","-81.765087 ","20249","252","0","0","1/30/2022 12:00:00 AM","2019","88625","NYTIMES-USCENSUS"
"1/31/2022 12:00:00 AM","Miner County","South Dakota","Midwest","West North Central","46097","44.021541","-97.608122 ","447","12","1","0","1/30/2022 12:00:00 AM","2019","2216","NYTIMES-USCENSUS"
"1/31/2022 12:00:00 AM","Montcalm County","Michigan","Midwest","East North Central","26117","43.312782","-85.149468 ","16164","192","220","0","1/30/2022 12:00:00 AM","2019","63888","NYTIMES-USCENSUS"
"1/31/2022 12:00:00 AM","Juab County","Utah","West","Mountain","49023","39.71412","-112.790471 ","2754","21","38","0","1/30/2022 12:00:00 AM","2019","12017","NYTIMES-USCENSUS"
"1/31/2022 12:00:00 AM","Spartanburg County","South Carolina","South","South Atlantic","45083","34.932014","-81.991624 ","89781","1354","1171","23","1/30/2022 12:00:00 AM","2019","319785","NYTIMES-USCENSUS"
"1/31/2022 12:00:00 AM","Brooke County","West Virginia","South","South Atlantic","54009","40.272645","-80.578691 ","4651","91","3","0","1/30/2022 12:00:00 AM","2019","21939","NYTIMES-USCENSUS"
"1/31/2022 12:00:00 AM","Rutherford County","Tennessee","South","East South Central","47149","35.843369","-86.417213 ","85516","792","0","0","1/30/2022 12:00:00 AM","2019","332285","NYTIMES-USCENSUS"
"1/31/2022 12:00:00 AM","Douglas County","Colorado","West","Mountain","08035","39.325414","-104.925987 ","73324","402","907","3","1/30/2022 12:00:00 AM","2019","351154","NYTIMES-USCENSUS"
"1/31/2022 12:00:00 AM","Kent County","Rhode Island","Northeast","New England","44003","41.675118","-71.580282 ","43558","460","0","0","1/30/2022 12:00:00 AM","2019","164292","NYTIMES-USCENSUS"
"1/31/2022 12:00:00 AM","Bradley County","Tennessee","South","East South Central","47011","35.153914","-84.859414 ","29481","345","0","0","1/30/2022 12:00:00 AM","2019","108110","NYTIMES-USCENSUS"
"1/31/2022 12:00:00 AM","Cass County","Indiana","Midwest","East North Central","18017","40.753799","-86.355168 ","10966","152","105","0","1/30/2022 12:00:00 AM","2019","37689","NYTIMES-USCENSUS"
"1/31/2022 12:00:00 AM","Delaware County","Oklahoma","South","West South Central","40041","36.393437","-94.808189 ","9792","174","0","0","1/30/2022 12:00:00 AM","2019","43009","NYTIMES-USCENSUS"
"1/31/2022 12:00:00 AM","Albany County","New York","Northeast","Middle Atlantic","36001","42.58824","-73.97401 ","55606","481","82","0","1/30/2022 12:00:00 AM","2019","305506","NYTIMES-USCENSUS"
"1/31/2022 12:00:00 AM","Cameron County","Texas","South","West South Central","48061","26.102923","-97.478958 ","91617","2029","325","0","1/30/2022 12:00:00 AM","2019","423163","NYTIMES-USCENSUS"
"1/31/2022 12:00:00 AM","Eagle County","Colorado","West","Mountain","08037","39.626992","-106.695169 ","15077","34","91","0","1/30/2022 12:00:00 AM","2019","55127","NYTIMES-USCENSUS"
"1/31/2022 12:00:00 AM","Randolph County","Indiana","Midwest","East North Central","18135","40.164079","-85.00579 ","5678","136","99","0","1/30/2022 12:00:00 AM","2019","24665","NYTIMES-USCENSUS"
"1/31/2022 12:00:00 AM","Defiance County","Ohio","Midwest","East North Central","39039","41.321679","-84.486433 ","9872","141","11","0","1/30/2022 12:00:00 AM","2019","38087","NYTIMES-USCENSUS"
"1/31/2022 12:00:00 AM","Wasatch County","Utah","West","Mountain","49051","40.334884","-111.161568 ","10274","33","77","0","1/30/2022 12:00:00 AM","2019","34091","NYTIMES-USCENSUS"
"1/31/2022 12:00:00 AM","Marshall County","Mississippi","South","East South Central","28093","34.76619","-89.504231 ","8989","154","98","0","1/30/2022 12:00:00 AM","2019","35294","NYTIMES-USCENSUS"
"1/31/2022 12:00:00 AM","Watauga County","North Carolina","South","South Atlantic","37189","36.235368","-81.709888 ","10627","48","355","0","1/30/2022 12:00:00 AM","2019","56177","NYTIMES-USCENSUS"
"1/31/2022 12:00:00 AM","Calhoun County","Georgia","South","South Atlantic","13037","31.521279","-84.62629 ","1278","22","21","0","1/30/2022 12:00:00 AM","2019","6189","NYTIMES-USCENSUS"
"1/31/2022 12:00:00 AM","Johnson County","Iowa","Midwest","West North Central","19103","41.670668","-91.590529 ","30972","121","0","0","1/30/2022 12:00:00 AM","2019","151140","NYTIMES-USCENSUS"
"1/31/2022 12:00:00 AM","Tehama County","California","West","Pacific","06103","40.126157","-122.232274 ","13418","145","191","0","1/30/2022 12:00:00 AM","2019","65084","NYTIMES-USCENSUS"
"1/31/2022 12:00:00 AM","Osceola County","Michigan","Midwest","East North Central","26133","43.997552","-85.322283 ","4666","67","39","0","1/30/2022 12:00:00 AM","2019","23460","NYTIMES-USCENSUS"
"1/31/2022 12:00:00 AM","Jefferson County","Pennsylvania","Northeast","Middle Atlantic","42065","41.138028","-79.012419 ","8384","204","22","0","1/30/2022 12:00:00 AM","2019","43425","NYTIMES-USCENSUS"
"1/31/2022 12:00:00 AM","Jewell County","Kansas","Midwest","West North Central","20089","39.777005","-98.222619 ","757","13","3","0","1/30/2022 12:00:00 AM","2019","2879","NYTIMES-USCENSUS"
"1/31/2022 12:00:00 AM","Adams County","Indiana","Midwest","East North Central","18001","40.745733","-84.93613 ","7127","105","61","0","1/30/2022 12:00:00 AM","2019","35777","NYTIMES-USCENSUS"
"1/31/2022 12:00:00 AM","Hancock County","Iowa","Midwest","West North Central","19081","43.075411","-93.743697 ","2649","45","0","0","1/30/2022 12:00:00 AM","2019","10630","NYTIMES-USCENSUS"
"1/31/2022 12:00:00 AM","Middlesex County","Connecticut","Northeast","New England","09007","41.433003","-72.52278 ","25960","453","182","2","1/30/2022 12:00:00 AM","2019","162436","NYTIMES-USCENSUS"
"1/31/2022 12:00:00 AM","Caldwell County","Texas","South","West South Central","48055","29.832399","-97.628141 ","13084","166","58","0","1/30/2022 12:00:00 AM","2019","43664","NYTIMES-USCENSUS"
"1/31/2022 12:00:00 AM","Talbot County","Georgia","South","South Atlantic","13263","32.704603","-84.530029 ","1100","31","3","1","1/30/2022 12:00:00 AM","2019","6195","NYTIMES-USCENSUS"
"1/31/2022 12:00:00 AM","Carroll County","New Hampshire","Northeast","New England","33003","43.867774","-71.20156 ","8343","46","93","2","1/30/2022 12:00:00 AM","2019","48910","NYTIMES-USCENSUS"
"1/31/2022 12:00:00 AM","Hamlin County","South Dakota","Midwest","West North Central","46057","44.680619","-97.178598 ","1438","40","7","0","1/30/2022 12:00:00 AM","2019","6164","NYTIMES-USCENSUS"
"1/31/2022 12:00:00 AM","Benton County","Tennessee","South","East South Central","47005","36.070948","-88.071232 ","3746","83","0","0","1/30/2022 12:00:00 AM","2019","16160","NYTIMES-USCENSUS"
"1/31/2022 12:00:00 AM","Wood County","Texas","South","West South Central","48499","32.783588","-95.382166 ","7589","257","33","0","1/30/2022 12:00:00 AM","2019","45539","NYTIMES-USCENSUS"
"1/31/2022 12:00:00 AM","Sutter County","California","West","Pacific","06101","39.03619","-121.70394 ","20646","210","393","0","1/30/2022 12:00:00 AM","2019","96971","NYTIMES-USCENSUS"
"1/31/2022 12:00:00 AM","Fentress County","Tennessee","South","East South Central","47049","36.369892","-84.937764 ","4745","106","0","0","1/30/2022 12:00:00 AM","2019","18523","NYTIMES-USCENSUS"
"1/31/2022 12:00:00 AM","Petersburg city","Virginia","South","South Atlantic","51730","37.20473","-77.392368 ","7970","115","52","2","1/30/2022 12:00:00 AM","2019","31346","NYTIMES-USCENSUS"
"1/31/2022 12:00:00 AM","Wetzel County","West Virginia","South","South Atlantic","54103","39.59818","-80.635399 ","3893","71","11","0","1/30/2022 12:00:00 AM","2019","15065","NYTIMES-USCENSUS"
"1/31/2022 12:00:00 AM","McMinn County","Tennessee","South","East South Central","47107","35.424472","-84.619949 ","14025","212","0","0","1/30/2022 12:00:00 AM","2019","53794","NYTIMES-USCENSUS"
"1/31/2022 12:00:00 AM","Wayne County","Nebraska","Midwest","West North Central","31179","42.210746","-97.126243 ","1647","11","4","0","1/30/2022 12:00:00 AM","2019","9385","NYTIMES-USCENSUS"
"1/31/2022 12:00:00 AM","Carter County","Kentucky","South","East South Central","21043","38.314094","-83.038988 ","7317","91","181","0","1/30/2022 12:00:00 AM","2019","26797","NYTIMES-USCENSUS"
"1/31/2022 12:00:00 AM","Bleckley County","Georgia","South","South Atlantic","13023","32.435403","-83.331717 ","3254","85","25","0","1/30/2022 12:00:00 AM","2019","12873","NYTIMES-USCENSUS"
"1/31/2022 12:00:00 AM","Crawford County","Kansas","Midwest","West North Central","20037","37.505821","-94.853897 ","11119","122","120","0","1/30/2022 12:00:00 AM","2019","38818","NYTIMES-USCENSUS"
"1/31/2022 12:00:00 AM","Logan County","Nebraska","Midwest","West North Central","31113","41.542155","-100.443665 ","133","0","1","0","1/30/2022 12:00:00 AM","2019","748","NYTIMES-USCENSUS"
"1/31/2022 12:00:00 AM","Knox County","Ohio","Midwest","East North Central","39083","40.40362","-82.422393 ","12565","207","32","0","1/30/2022 12:00:00 AM","2019","62322","NYTIMES-USCENSUS"
"1/31/2022 12:00:00 AM","Angelina County","Texas","South","West South Central","48005","31.251896","-94.611134 ","14822","443","42","0","1/30/2022 12:00:00 AM","2019","86715","NYTIMES-USCENSUS"
"1/31/2022 12:00:00 AM","Casey County","Kentucky","South","East South Central","21045","37.321962","-84.92822 ","3459","65","44","0","1/30/2022 12:00:00 AM","2019","16159","NYTIMES-USCENSUS"
"1/31/2022 12:00:00 AM","Yalobusha County","Mississippi","South","East South Central","28161","34.030666","-89.703807 ","3728","50","34","0","1/30/2022 12:00:00 AM","2019","12108","NYTIMES-USCENSUS"
"1/31/2022 12:00:00 AM","Montgomery County","Tennessee","South","East South Central","47125","36.500354","-87.380887 ","43884","494","0","0","1/30/2022 12:00:00 AM","2019","208993","NYTIMES-USCENSUS"
"1/31/2022 12:00:00 AM","San Juan County","Colorado","West","Mountain","08111","37.781049","-107.670257 ","190","0","0","0","1/30/2022 12:00:00 AM","2019","728","NYTIMES-USCENSUS"
"1/31/2022 12:00:00 AM","Winston County","Alabama","South","East South Central","01133","34.154566","-87.365346 ","6919","115","35","0","1/30/2022 12:00:00 AM","2019","23629","NYTIMES-USCENSUS"
"1/31/2022 12:00:00 AM","Steuben County","Indiana","Midwest","East North Central","18151","41.643467","-85.002405 ","9291","111","102","1","1/30/2022 12:00:00 AM","2019","34594","NYTIMES-USCENSUS"
"1/31/2022 12:00:00 AM","Zavala County","Texas","South","West South Central","48507","28.864652","-99.75983 ","3787","58","26","0","1/30/2022 12:00:00 AM","2019","11840","NYTIMES-USCENSUS"
"1/31/2022 12:00:00 AM","Acadia Parish","Louisiana","South","West South Central","22001","30.291497","-92.411037 ","15072","272","121","3","1/30/2022 12:00:00 AM","2019","62045","NYTIMES-USCENSUS"
"1/31/2022 12:00:00 AM","Williamsburg city","Virginia","South","South Atlantic","51830","37.269481","-76.708193 ","1562","13","17","0","1/30/2022 12:00:00 AM","2019","14954","NYTIMES-USCENSUS"
"1/31/2022 12:00:00 AM","Sheboygan County","Wisconsin","Midwest","East North Central","55117","43.741232","-87.731516 ","31069","266","274","3","1/30/2022 12:00:00 AM","2019","115340","NYTIMES-USCENSUS"
"1/31/2022 12:00:00 AM","Grundy County","Iowa","Midwest","West North Central","19075","42.403339","-92.790244 ","2357","39","0","0","1/30/2022 12:00:00 AM","2019","12232","NYTIMES-USCENSUS"
"1/31/2022 12:00:00 AM","Forsyth County","Georgia","South","South Atlantic","13117","34.225143","-84.127408 ","51480","324","661","4","1/30/2022 12:00:00 AM","2019","244252","NYTIMES-USCENSUS"
"1/31/2022 12:00:00 AM","Union County","Florida","South","South Atlantic","12125","30.05428","-82.366918 ","4022","104","0","0","1/30/2022 12:00:00 AM","2019","15237","NYTIMES-USCENSUS"
"1/31/2022 12:00:00 AM","Tillman County","Oklahoma","South","West South Central","40141","34.371085","-98.931701 ","1369","30","0","0","1/30/2022 12:00:00 AM","2019","7250","NYTIMES-USCENSUS"
"1/31/2022 12:00:00 AM","Franklin County","Illinois","Midwest","East North Central","17055","37.991852","-88.926321 ","11634","161","189","0","1/30/2022 12:00:00 AM","2019","38469","NYTIMES-USCENSUS"
"1/31/2022 12:00:00 AM","Floyd County","Virginia","South","South Atlantic","51063","36.931433","-80.350266 ","2271","33","44","0","1/30/2022 12:00:00 AM","2019","15749","NYTIMES-USCENSUS"
"1/31/2022 12:00:00 AM","Saguache County","Colorado","West","Mountain","08109","38.031651","-106.234666 ","1035","10","10","0","1/30/2022 12:00:00 AM","2019","6824","NYTIMES-USCENSUS"
"1/31/2022 12:00:00 AM","Morgan County","Tennessee","South","East South Central","47129","36.138697","-84.639262 ","4957","64","0","0","1/30/2022 12:00:00 AM","2019","21403","NYTIMES-USCENSUS"
"1/31/2022 12:00:00 AM","Minnehaha County","South Dakota","Midwest","West North Central","46099","43.667472","-96.795726 ","55553","466","139","0","1/30/2022 12:00:00 AM","2019","193134","NYTIMES-USCENSUS"
"1/31/2022 12:00:00 AM","Harvey County","Kansas","Midwest","West North Central","20079","38.050144","-97.436706 ","9003","112","115","0","1/30/2022 12:00:00 AM","2019","34429","NYTIMES-USCENSUS"
"1/31/2022 12:00:00 AM","Dutchess County","New York","Northeast","Middle Atlantic","36027","41.75477","-73.740041 ","61646","606","121","1","1/30/2022 12:00:00 AM","2019","294218","NYTIMES-USCENSUS"
"1/31/2022 12:00:00 AM","Currituck County","North Carolina","South","South Atlantic","37053","36.372174","-75.941224 ","4492","32","76","0","1/30/2022 12:00:00 AM","2019","27763","NYTIMES-USCENSUS"
"1/31/2022 12:00:00 AM","Prowers County","Colorado","West","Mountain","08099","37.958181","-102.392161 ","2409","45","22","0","1/30/2022 12:00:00 AM","2019","12172","NYTIMES-USCENSUS"
"1/31/2022 12:00:00 AM","Hamilton County","Nebraska","Midwest","West North Central","31081","40.872817","-98.022329 ","2052","22","30","0","1/30/2022 12:00:00 AM","2019","9324","NYTIMES-USCENSUS"
"1/31/2022 12:00:00 AM","Madison County","Kentucky","South","East South Central","21151","37.725511","-84.278362 ","24764","223","429","0","1/30/2022 12:00:00 AM","2019","92987","NYTIMES-USCENSUS"
"1/31/2022 12:00:00 AM","Lincoln County","Wisconsin","Midwest","East North Central","55069","45.333148","-89.73224 ","6669","128","72","0","1/30/2022 12:00:00 AM","2019","27593","NYTIMES-USCENSUS"
"1/31/2022 12:00:00 AM","Uintah County","Utah","West","Mountain","49047","40.125887","-109.517748 ","7562","57","151","0","1/30/2022 12:00:00 AM","2019","35734","NYTIMES-USCENSUS"
"1/31/2022 12:00:00 AM","Hardin County","Texas","South","West South Central","48199","30.329648","-94.393178 ","11595","223","47","0","1/30/2022 12:00:00 AM","2019","57602","NYTIMES-USCENSUS"
"1/31/2022 12:00:00 AM","James City County","Virginia","South","South Atlantic","51095","37.324837","-76.777888 ","13712","100","188","0","1/30/2022 12:00:00 AM","2019","76523","NYTIMES-USCENSUS"
"1/31/2022 12:00:00 AM","Price County","Wisconsin","Midwest","East North Central","55099","45.679072","-90.35965 ","3073","28","31","1","1/30/2022 12:00:00 AM","2019","13351","NYTIMES-USCENSUS"
"1/31/2022 12:00:00 AM","Oconto County","Wisconsin","Midwest","East North Central","55083","44.996575","-88.206516 ","11039","96","42","1","1/30/2022 12:00:00 AM","2019","37930","NYTIMES-USCENSUS"
"1/31/2022 12:00:00 AM","Wyoming County","Pennsylvania","Northeast","Middle Atlantic","42131","41.525173","-76.008731 ","4775","96","9","0","1/30/2022 12:00:00 AM","2019","26794","NYTIMES-USCENSUS"
"1/31/2022 12:00:00 AM","Flagler County","Florida","South","South Atlantic","12035","29.474891","-81.286253 ","20642","289","0","0","1/30/2022 12:00:00 AM","2019","115081","NYTIMES-USCENSUS"
"1/31/2022 12:00:00 AM","Jackson County","Mississippi","South","East South Central","28059","30.456005","-88.625101 ","34152","402","335","2","1/30/2022 12:00:00 AM","2019","143617","NYTIMES-USCENSUS"
"1/31/2022 12:00:00 AM","Yuma County","Arizona","West","Mountain","04027","32.773942","-113.910905 ","59258","1051","535","0","1/30/2022 12:00:00 AM","2019","213787","NYTIMES-USCENSUS"
"1/31/2022 12:00:00 AM","Allendale County","South Carolina","South","South Atlantic","45005","32.979757","-81.363265 ","1988","23","44","1","1/30/2022 12:00:00 AM","2019","8688","NYTIMES-USCENSUS"
"1/31/2022 12:00:00 AM","Jackson County","Kentucky","South","East South Central","21109","37.403458","-84.020576 ","3726","61","77","0","1/30/2022 12:00:00 AM","2019","13329","NYTIMES-USCENSUS"
"1/31/2022 12:00:00 AM","Dorchester County","Maryland","South","South Atlantic","24019","38.429196","-76.047433 ","7204","100","4","0","1/30/2022 12:00:00 AM","2019","31929","NYTIMES-USCENSUS"
"1/31/2022 12:00:00 AM","Washington County","Arkansas","South","West South Central","05143","35.978001","-94.217269 ","64034","535","738","0","1/30/2022 12:00:00 AM","2019","239187","NYTIMES-USCENSUS"
"1/31/2022 12:00:00 AM","Vermilion Parish","Louisiana","South","West South Central","22113","29.789722","-92.291568 ","14380","202","115","0","1/30/2022 12:00:00 AM","2019","59511","NYTIMES-USCENSUS"
"1/31/2022 12:00:00 AM","Thomas County","Nebraska","Midwest","West North Central","31171","41.85573","-100.524703 ","97","1","0","0","1/30/2022 12:00:00 AM","2019","722","NYTIMES-USCENSUS"
"1/31/2022 12:00:00 AM","Cloud County","Kansas","Midwest","West North Central","20029","39.487329","-97.64139 ","2131","35","16","0","1/30/2022 12:00:00 AM","2019","8786","NYTIMES-USCENSUS"
"1/31/2022 12:00:00 AM","Henry County","Illinois","Midwest","East North Central","17073","41.350021","-90.130838 ","11929","139","98","1","1/30/2022 12:00:00 AM","2019","48913","NYTIMES-USCENSUS"
"1/31/2022 12:00:00 AM","Keith County","Nebraska","Midwest","West North Central","31101","41.194245","-101.644449 ","1422","14","17","0","1/30/2022 12:00:00 AM","2019","8034","NYTIMES-USCENSUS"
"1/31/2022 12:00:00 AM","Wood County","Ohio","Midwest","East North Central","39173","41.360183","-83.622682 ","30214","309","46","0","1/30/2022 12:00:00 AM","2019","130817","NYTIMES-USCENSUS"
"1/31/2022 12:00:00 AM","Lucas County","Iowa","Midwest","West North Central","19117","41.033344","-93.331467 ","1620","29","0","0","1/30/2022 12:00:00 AM","2019","8600","NYTIMES-USCENSUS"
"1/31/2022 12:00:00 AM","Marquette County","Wisconsin","Midwest","East North Central","55077","43.826053","-89.409095 ","3623","46","38","0","1/30/2022 12:00:00 AM","2019","15574","NYTIMES-USCENSUS"
"1/31/2022 12:00:00 AM","Cochise County","Arizona","West","Mountain","04003","31.840129","-109.775163 ","28140","507","251","0","1/30/2022 12:00:00 AM","2019","125922","NYTIMES-USCENSUS"
"1/31/2022 12:00:00 AM","Mercer County","North Dakota","Midwest","West North Central","38057","47.307147","-101.833328 ","2416","23","4","0","1/30/2022 12:00:00 AM","2019","8187","NYTIMES-USCENSUS"
"1/31/2022 12:00:00 AM","Stephens County","Texas","South","West South Central","48429","32.738052","-98.839344 ","1727","39","9","0","1/30/2022 12:00:00 AM","2019","9366","NYTIMES-USCENSUS"
"1/31/2022 12:00:00 AM","Yavapai County","Arizona","West","Mountain","04025","34.631071","-112.577225 ","44894","1069","247","0","1/30/2022 12:00:00 AM","2019","235099","NYTIMES-USCENSUS"
"1/31/2022 12:00:00 AM","Curry County","New Mexico","West","Mountain","35009","34.572984","-103.346055 ","11797","160","190","0","1/30/2022 12:00:00 AM","2019","48954","NYTIMES-USCENSUS"
"1/31/2022 12:00:00 AM","Montgomery County","New York","Northeast","Middle Atlantic","36057","42.900891","-74.435357 ","11127","186","24","1","1/30/2022 12:00:00 AM","2019","49221","NYTIMES-USCENSUS"
"1/31/2022 12:00:00 AM","Jefferson County","West Virginia","South","South Atlantic","54037","39.307398","-77.86322 ","13457","116","13","3","1/30/2022 12:00:00 AM","2019","57146","NYTIMES-USCENSUS"
"1/31/2022 12:00:00 AM","Mecosta County","Michigan","Midwest","East North Central","26107","43.635295","-85.332751 ","8041","91","109","0","1/30/2022 12:00:00 AM","2019","43453","NYTIMES-USCENSUS"
"1/31/2022 12:00:00 AM","Brazos County","Texas","South","West South Central","48041","30.656713","-96.302394 ","56959","374","176","0","1/30/2022 12:00:00 AM","2019","229211","NYTIMES-USCENSUS"
"1/31/2022 12:00:00 AM","Worth County","Georgia","South","South Atlantic","13321","31.551773","-83.84996 ","4418","98","50","0","1/30/2022 12:00:00 AM","2019","20247","NYTIMES-USCENSUS"
"1/31/2022 12:00:00 AM","Caldwell Parish","Louisiana","South","West South Central","22021","32.101219","-92.114231 ","2874","43","13","0","1/30/2022 12:00:00 AM","2019","9918","NYTIMES-USCENSUS"
"1/31/2022 12:00:00 AM","Craven County","North Carolina","South","South Atlantic","37049","35.116829","-77.08132 ","21328","176","586","2","1/30/2022 12:00:00 AM","2019","102139","NYTIMES-USCENSUS"
"1/31/2022 12:00:00 AM","Knox County","Texas","South","West South Central","48275","33.61189","-99.730356 ","474","22","0","0","1/30/2022 12:00:00 AM","2019","3664","NYTIMES-USCENSUS"
"1/31/2022 12:00:00 AM","Portage County","Wisconsin","Midwest","East North Central","55097","44.476246","-89.49807 ","17118","138","167","0","1/30/2022 12:00:00 AM","2019","70772","NYTIMES-USCENSUS"
"1/31/2022 12:00:00 AM","Sumter County","Alabama","South","East South Central","01119","32.597481","-88.200057 ","2271","43","3","0","1/30/2022 12:00:00 AM","2019","12427","NYTIMES-USCENSUS"
"1/31/2022 12:00:00 AM","Josephine County","Oregon","West","Pacific","41033","42.386983","-123.57162 ","14451","296","261","0","1/30/2022 12:00:00 AM","2019","87487","NYTIMES-USCENSUS"
"1/31/2022 12:00:00 AM","Spencer County","Kentucky","South","East South Central","21215","38.025411","-85.317174 ","4880","48","60","0","1/30/2022 12:00:00 AM","2019","19351","NYTIMES-USCENSUS"
"1/31/2022 12:00:00 AM","Carson County","Texas","South","West South Central","48065","35.405496","-101.355356 ","1387","31","2","0","1/30/2022 12:00:00 AM","2019","5926","NYTIMES-USCENSUS"
"1/31/2022 12:00:00 AM","Gasconade County","Missouri","Midwest","West North Central","29073","38.441183","-91.50578 ","3137","90","1","0","1/30/2022 12:00:00 AM","2019","14706","NYTIMES-USCENSUS"
"1/31/2022 12:00:00 AM","Winnebago County","Iowa","Midwest","West North Central","19189","43.378124","-93.743488 ","2777","42","0","0","1/30/2022 12:00:00 AM","2019","10354","NYTIMES-USCENSUS"
"1/31/2022 12:00:00 AM","Perry County","Kentucky","South","East South Central","21193","37.241282","-83.217772 ","8507","138","198","0","1/30/2022 12:00:00 AM","2019","25758","NYTIMES-USCENSUS"
"1/31/2022 12:00:00 AM","Nash County","North Carolina","South","South Atlantic","37127","35.965945","-77.987555 ","25643","268","442","0","1/30/2022 12:00:00 AM","2019","94298","NYTIMES-USCENSUS"
"1/31/2022 12:00:00 AM","Summit County","Utah","West","Mountain","49043","40.87206","-110.968486 ","12936","20","94","0","1/30/2022 12:00:00 AM","2019","42145","NYTIMES-USCENSUS"
"1/31/2022 12:00:00 AM","Elmore County","Idaho","West","Mountain","16039","43.394698","-115.471205 ","5288","57","55","0","1/30/2022 12:00:00 AM","2019","27511","NYTIMES-USCENSUS"
"1/31/2022 12:00:00 AM","Arenac County","Michigan","Midwest","East North Central","26011","44.036833","-83.740675 ","2985","60","18","0","1/30/2022 12:00:00 AM","2019","14883","NYTIMES-USCENSUS"
"1/31/2022 12:00:00 AM","Hennepin County","Minnesota","Midwest","West North Central","27053","45.006121","-93.475228 ","276191","2362","2962","5","1/30/2022 12:00:00 AM","2019","1265843","NYTIMES-USCENSUS"
"1/31/2022 12:00:00 AM","Richland County","North Dakota","Midwest","West North Central","38077","46.265219","-96.93796 ","3800","21","3","0","1/30/2022 12:00:00 AM","2019","16177","NYTIMES-USCENSUS"
"1/31/2022 12:00:00 AM","Franklin County","Kansas","Midwest","West North Central","20059","38.558019","-95.278962 ","6606","70","51","0","1/30/2022 12:00:00 AM","2019","25544","NYTIMES-USCENSUS"
"1/31/2022 12:00:00 AM","Hocking County","Ohio","Midwest","East North Central","39073","39.490342","-82.483447 ","6172","107","18","0","1/30/2022 12:00:00 AM","2019","28264","NYTIMES-USCENSUS"
"1/31/2022 12:00:00 AM","Ottawa County","Kansas","Midwest","West North Central","20143","39.137963","-97.654802 ","1134","16","7","0","1/30/2022 12:00:00 AM","2019","5704","NYTIMES-USCENSUS"
"1/31/2022 12:00:00 AM","Northampton County","Virginia","South","South Atlantic","51131","37.302775","-75.924018 ","2036","52","42","0","1/30/2022 12:00:00 AM","2019","11710","NYTIMES-USCENSUS"
"1/31/2022 12:00:00 AM","Lee County","Florida","South","South Atlantic","12071","26.563273","-81.984182 ","175773","1901","0","0","1/30/2022 12:00:00 AM","2019","770577","NYTIMES-USCENSUS"
"1/31/2022 12:00:00 AM","Danville city","Virginia","South","South Atlantic","51590","36.583334","-79.408071 ","10029","219","204","5","1/30/2022 12:00:00 AM","2019","40044","NYTIMES-USCENSUS"
"1/31/2022 12:00:00 AM","Dinwiddie County","Virginia","South","South Atlantic","51053","37.073498","-77.635492 ","4903","64","75","0","1/30/2022 12:00:00 AM","2019","28544","NYTIMES-USCENSUS"
"1/31/2022 12:00:00 AM","St. Charles Parish","Louisiana","South","West South Central","22089","29.905722","-90.357855 ","13318","135","74","0","1/30/2022 12:00:00 AM","2019","53100","NYTIMES-USCENSUS"
"1/31/2022 12:00:00 AM","Foster County","North Dakota","Midwest","West North Central","38031","47.471431","-98.872876 ","912","20","3","0","1/30/2022 12:00:00 AM","2019","3210","NYTIMES-USCENSUS"
"1/31/2022 12:00:00 AM","Oceana County","Michigan","Midwest","East North Central","26127","43.603954","-86.467177 ","5881","87","73","0","1/30/2022 12:00:00 AM","2019","26467","NYTIMES-USCENSUS"
"1/31/2022 12:00:00 AM","Moffat County","Colorado","West","Mountain","08081","40.610864","-108.217154 ","2728","50","25","0","1/30/2022 12:00:00 AM","2019","13283","NYTIMES-USCENSUS"
"1/31/2022 12:00:00 AM","Brown County","Kansas","Midwest","West North Central","20013","39.825931","-95.569905 ","2566","47","16","0","1/30/2022 12:00:00 AM","2019","9564","NYTIMES-USCENSUS"
"1/31/2022 12:00:00 AM","Floyd County","Texas","South","West South Central","48153","34.07373","-101.303274 ","1845","44","0","0","1/30/2022 12:00:00 AM","2019","5712","NYTIMES-USCENSUS"
"1/31/2022 12:00:00 AM","Salem city","Virginia","South","South Atlantic","51775","37.285333","-80.055241 ","6263","87","104","1","1/30/2022 12:00:00 AM","2019","25301","NYTIMES-USCENSUS"
"1/31/2022 12:00:00 AM","Harrison County","Iowa","Midwest","West North Central","19085","41.688584","-95.827149 ","3191","89","0","0","1/30/2022 12:00:00 AM","2019","14049","NYTIMES-USCENSUS"
"1/31/2022 12:00:00 AM","Marshall County","Tennessee","South","East South Central","47117","35.468343","-86.765865 ","8883","108","0","0","1/30/2022 12:00:00 AM","2019","34375","NYTIMES-USCENSUS"
"1/31/2022 12:00:00 AM","Scotts Bluff County","Nebraska","Midwest","West North Central","31157","41.850331","-103.701549 ","9425","102","110","0","1/30/2022 12:00:00 AM","2019","35618","NYTIMES-USCENSUS"
"1/31/2022 12:00:00 AM","Anderson County","Texas","South","West South Central","48001","31.841261","-95.661727 ","9249","218","14","0","1/30/2022 12:00:00 AM","2019","57735","NYTIMES-USCENSUS"
"1/31/2022 12:00:00 AM","Itawamba County","Mississippi","South","East South Central","28057","34.281075","-88.363127 ","6825","118","83","2","1/30/2022 12:00:00 AM","2019","23390","NYTIMES-USCENSUS"
"1/31/2022 12:00:00 AM","Crawford County","Missouri","Midwest","West North Central","29055","37.966559","-91.313936 ","5134","87","5","-1","1/30/2022 12:00:00 AM","2019","23920","NYTIMES-USCENSUS"
"1/31/2022 12:00:00 AM","Rockingham County","Virginia","South","South Atlantic","51165","38.507585","-78.885321 ","13529","191","155","0","1/30/2022 12:00:00 AM","2019","81948","NYTIMES-USCENSUS"
"1/31/2022 12:00:00 AM","Kearny County","Kansas","Midwest","West North Central","20093","37.994461","-101.308136 ","1202","18","7","0","1/30/2022 12:00:00 AM","2019","3838","NYTIMES-USCENSUS"
"1/31/2022 12:00:00 AM","Dade County","Georgia","South","South Atlantic","13083","34.852424","-85.506201 ","2943","28","32","0","1/30/2022 12:00:00 AM","2019","16116","NYTIMES-USCENSUS"
"1/31/2022 12:00:00 AM","McClain County","Oklahoma","South","West South Central","40087","35.016436","-97.449803 ","10440","111","0","0","1/30/2022 12:00:00 AM","2019","40474","NYTIMES-USCENSUS"
"1/31/2022 12:00:00 AM","Rockingham County","New Hampshire","Northeast","New England","33015","42.988664","-71.09908 ","61224","468","873","1","1/30/2022 12:00:00 AM","2019","309769","NYTIMES-USCENSUS"
"1/31/2022 12:00:00 AM","Sully County","South Dakota","Midwest","West North Central","46119","44.722325","-100.131399 ","236","3","0","0","1/30/2022 12:00:00 AM","2019","1391","NYTIMES-USCENSUS"
"1/31/2022 12:00:00 AM","Westmoreland County","Virginia","South","South Atlantic","51193","38.109311","-76.803933 ","3077","40","33","0","1/30/2022 12:00:00 AM","2019","18015","NYTIMES-USCENSUS"
"1/31/2022 12:00:00 AM","Sullivan County","Pennsylvania","Northeast","Middle Atlantic","42113","41.439285","-76.511717 ","1003","32","2","0","1/30/2022 12:00:00 AM","2019","6066","NYTIMES-USCENSUS"
"1/31/2022 12:00:00 AM","Lawrence County","Illinois","Midwest","East North Central","17101","38.718954","-87.730221 ","5168","49","108","0","1/30/2022 12:00:00 AM","2019","15678","NYTIMES-USCENSUS"
"1/31/2022 12:00:00 AM","Miami County","Kansas","Midwest","West North Central","20121","38.566772","-94.832963 ","7322","80","87","0","1/30/2022 12:00:00 AM","2019","34237","NYTIMES-USCENSUS"
"1/31/2022 12:00:00 AM","Crawford County","Pennsylvania","Northeast","Middle Atlantic","42039","41.687876","-80.107795 ","18931","278","37","0","1/30/2022 12:00:00 AM","2019","84629","NYTIMES-USCENSUS"
"1/31/2022 12:00:00 AM","Lafayette County","Arkansas","South","West South Central","05073","33.240629","-93.611514 ","1206","28","13","0","1/30/2022 12:00:00 AM","2019","6624","NYTIMES-USCENSUS"
"1/31/2022 12:00:00 AM","Fayette County","Texas","South","West South Central","48149","29.877886","-96.921231 ","4500","98","15","0","1/30/2022 12:00:00 AM","2019","25346","NYTIMES-USCENSUS"
"1/31/2022 12:00:00 AM","Iosco County","Michigan","Midwest","East North Central","26069","44.386912","-83.380141 ","4491","128","25","2","1/30/2022 12:00:00 AM","2019","25127","NYTIMES-USCENSUS"
"1/31/2022 12:00:00 AM","San Joaquin County","California","West","Pacific","06077","37.934982","-121.272244 ","164324","1985","4316","14","1/30/2022 12:00:00 AM","2019","762148","NYTIMES-USCENSUS"
"1/31/2022 12:00:00 AM","Sevier County","Tennessee","South","East South Central","47155","35.787822","-83.5249 ","26992","357","0","0","1/30/2022 12:00:00 AM","2019","98250","NYTIMES-USCENSUS"
"1/31/2022 12:00:00 AM","Colonial Heights city","Virginia","South","South Atlantic","51570","37.261685","-77.396804 ","4463","74","63","2","1/30/2022 12:00:00 AM","2019","17370","NYTIMES-USCENSUS"
"1/31/2022 12:00:00 AM","Henderson County","Texas","South","West South Central","48213","32.211633","-95.853418 ","13899","372","75","0","1/30/2022 12:00:00 AM","2019","82737","NYTIMES-USCENSUS"
"1/31/2022 12:00:00 AM","Vernon Parish","Louisiana","South","West South Central","22115","31.102841","-93.18833 ","9231","173","106","0","1/30/2022 12:00:00 AM","2019","47429","NYTIMES-USCENSUS"
"1/31/2022 12:00:00 AM","Montgomery County","North Carolina","South","South Atlantic","37123","35.327548","-79.910752 ","6867","115","127","1","1/30/2022 12:00:00 AM","2019","27173","NYTIMES-USCENSUS"
"1/31/2022 12:00:00 AM","Teton County","Idaho","West","Mountain","16081","43.760994","-111.211765 ","2588","8","7","0","1/30/2022 12:00:00 AM","2019","12142","NYTIMES-USCENSUS"
"1/31/2022 12:00:00 AM","Bryan County","Georgia","South","South Atlantic","13029","32.017969","-81.438543 ","8530","80","126","1","1/30/2022 12:00:00 AM","2019","39627","NYTIMES-USCENSUS"
"1/31/2022 12:00:00 AM","Livingston County","Kentucky","South","East South Central","21139","37.209517","-88.363426 ","2045","51","43","0","1/30/2022 12:00:00 AM","2019","9194","NYTIMES-USCENSUS"
"1/31/2022 12:00:00 AM","Wheatland County","Montana","West","Mountain","30107","46.496967","-109.857684 ","329","13","13","0","1/30/2022 12:00:00 AM","2019","2126","NYTIMES-USCENSUS"
"1/31/2022 12:00:00 AM","Jasper County","Illinois","Midwest","East North Central","17079","39.004886","-88.150725 ","2555","26","33","0","1/30/2022 12:00:00 AM","2019","9610","NYTIMES-USCENSUS"
"1/31/2022 12:00:00 AM","Ozaukee County","Wisconsin","Midwest","East North Central","55089","43.501845","-87.847567 ","21155","141","140","0","1/30/2022 12:00:00 AM","2019","89221","NYTIMES-USCENSUS"
"1/31/2022 12:00:00 AM","Woodford County","Kentucky","South","East South Central","21239","38.043103","-84.748855 ","6083","40","120","0","1/30/2022 12:00:00 AM","2019","26734","NYTIMES-USCENSUS"
"1/31/2022 12:00:00 AM","Smith County","Kansas","Midwest","West North Central","20183","39.78466","-98.785429 ","613","7","6","0","1/30/2022 12:00:00 AM","2019","3583","NYTIMES-USCENSUS"
"1/31/2022 12:00:00 AM","Clinton County","Michigan","Midwest","East North Central","26037","42.950455","-84.591695 ","19189","185","399","0","1/30/2022 12:00:00 AM","2019","79595","NYTIMES-USCENSUS"
"1/31/2022 12:00:00 AM","Cheshire County","New Hampshire","Northeast","New England","33005","42.92546","-72.248183 ","12829","91","320","0","1/30/2022 12:00:00 AM","2019","76085","NYTIMES-USCENSUS"
"1/31/2022 12:00:00 AM","Tippah County","Mississippi","South","East South Central","28139","34.763618","-88.918819 ","6397","93","71","2","1/30/2022 12:00:00 AM","2019","22015","NYTIMES-USCENSUS"
"1/31/2022 12:00:00 AM","Clearfield County","Pennsylvania","Northeast","Middle Atlantic","42033","41.006862","-78.477724 ","17977","296","44","0","1/30/2022 12:00:00 AM","2019","79255","NYTIMES-USCENSUS"
"1/31/2022 12:00:00 AM","Des Moines County","Iowa","Midwest","West North Central","19057","40.915339","-91.186925 ","8420","121","0","0","1/30/2022 12:00:00 AM","2019","38967","NYTIMES-USCENSUS"
"1/31/2022 12:00:00 AM","Pottawatomie County","Oklahoma","South","West South Central","40125","35.211391","-96.957004 ","18315","232","0","0","1/30/2022 12:00:00 AM","2019","72592","NYTIMES-USCENSUS"
"1/31/2022 12:00:00 AM","Pike County","Arkansas","South","West South Central","05109","34.158191","-93.658659 ","2374","39","12","0","1/30/2022 12:00:00 AM","2019","10718","NYTIMES-USCENSUS"
"1/31/2022 12:00:00 AM","Crosby County","Texas","South","West South Central","48107","33.609144","-101.29871 ","1779","44","9","0","1/30/2022 12:00:00 AM","2019","5737","NYTIMES-USCENSUS"
"1/31/2022 12:00:00 AM","Pipestone County","Minnesota","Midwest","West North Central","27117","44.015361","-96.257015 ","1883","32","18","0","1/30/2022 12:00:00 AM","2019","9126","NYTIMES-USCENSUS"
"1/31/2022 12:00:00 AM","Screven County","Georgia","South","South Atlantic","13251","32.744751","-81.617585 ","2523","62","28","0","1/30/2022 12:00:00 AM","2019","13966","NYTIMES-USCENSUS"
"1/31/2022 12:00:00 AM","Wilcox County","Alabama","South","East South Central","01131","31.990082","-87.304935 ","2682","38","7","0","1/30/2022 12:00:00 AM","2019","10373","NYTIMES-USCENSUS"
"1/31/2022 12:00:00 AM","Oneida County","New York","Northeast","Middle Atlantic","36065","43.242727","-75.434282 ","50088","746","115","1","1/30/2022 12:00:00 AM","2019","228671","NYTIMES-USCENSUS"
"1/31/2022 12:00:00 AM","El Paso County","Colorado","West","Mountain","08041","38.827383","-104.527472 ","170043","1511","1725","4","1/30/2022 12:00:00 AM","2019","720403","NYTIMES-USCENSUS"
"1/31/2022 12:00:00 AM","Madison County","Idaho","West","Mountain","16065","43.788614","-111.656993 ","12185","43","91","0","1/30/2022 12:00:00 AM","2019","39907","NYTIMES-USCENSUS"
"1/31/2022 12:00:00 AM","Oglethorpe County","Georgia","South","South Atlantic","13221","33.866806","-83.074081 ","3103","46","20","0","1/30/2022 12:00:00 AM","2019","15259","NYTIMES-USCENSUS"
"1/31/2022 12:00:00 AM","Gila County","Arizona","West","Mountain","04007","33.789618","-110.81187 ","15606","338","88","0","1/30/2022 12:00:00 AM","2019","54018","NYTIMES-USCENSUS"
"1/31/2022 12:00:00 AM","Hardee County","Florida","South","South Atlantic","12049","27.492846","-81.82158 ","8097","105","0","0","1/30/2022 12:00:00 AM","2019","26937","NYTIMES-USCENSUS"
"1/31/2022 12:00:00 AM","Dewey County","South Dakota","Midwest","West North Central","46041","45.148049","-100.837953 ","2385","38","4","1","1/30/2022 12:00:00 AM","2019","5892","NYTIMES-USCENSUS"
"1/31/2022 12:00:00 AM","Dubois County","Indiana","Midwest","East North Central","18037","38.373344","-86.873385 ","12273","156","153","0","1/30/2022 12:00:00 AM","2019","42736","NYTIMES-USCENSUS"
"1/31/2022 12:00:00 AM","Sevier County","Arkansas","South","West South Central","05133","33.994877","-94.243279 ","5451","63","48","0","1/30/2022 12:00:00 AM","2019","17007","NYTIMES-USCENSUS"
"1/31/2022 12:00:00 AM","Bartow County","Georgia","South","South Atlantic","13015","34.240917","-84.838188 ","27822","409","186","2","1/30/2022 12:00:00 AM","2019","107738","NYTIMES-USCENSUS"
"1/31/2022 12:00:00 AM","Creek County","Oklahoma","South","West South Central","40037","35.907398","-96.380177 ","15587","287","0","0","1/30/2022 12:00:00 AM","2019","71522","NYTIMES-USCENSUS"
"1/31/2022 12:00:00 AM","Bedford County","Tennessee","South","East South Central","47003","35.51366","-86.458294 ","12723","209","0","0","1/30/2022 12:00:00 AM","2019","49713","NYTIMES-USCENSUS"
"1/31/2022 12:00:00 AM","Wasco County","Oregon","West","Pacific","41065","45.164536","-121.165069 ","4587","53","69","2","1/30/2022 12:00:00 AM","2019","26682","NYTIMES-USCENSUS"
"1/31/2022 12:00:00 AM","Muskogee County","Oklahoma","South","West South Central","40101","35.617551","-95.383911 ","17427","291","0","0","1/30/2022 12:00:00 AM","2019","67997","NYTIMES-USCENSUS"
"1/31/2022 12:00:00 AM","Delaware County","Ohio","Midwest","East North Central","39041","40.278941","-83.007462 ","42549","231","86","0","1/30/2022 12:00:00 AM","2019","209177","NYTIMES-USCENSUS"
"1/31/2022 12:00:00 AM","Ochiltree County","Texas","South","West South Central","48357","36.278744","-100.815864 ","1949","42","0","0","1/30/2022 12:00:00 AM","2019","9836","NYTIMES-USCENSUS"
"1/31/2022 12:00:00 AM","Braxton County","West Virginia","South","South Atlantic","54007","38.69933","-80.73166 ","3417","35","8","0","1/30/2022 12:00:00 AM","2019","13957","NYTIMES-USCENSUS"
"1/31/2022 12:00:00 AM","Putnam County","Ohio","Midwest","East North Central","39137","41.024533","-84.129879 ","8239","139","11","0","1/30/2022 12:00:00 AM","2019","33861","NYTIMES-USCENSUS"
"1/31/2022 12:00:00 AM","Cortland County","New York","Northeast","Middle Atlantic","36023","42.594039","-76.07624 ","9798","106","44","0","1/30/2022 12:00:00 AM","2019","47581","NYTIMES-USCENSUS"
"1/31/2022 12:00:00 AM","Madison Parish","Louisiana","South","West South Central","22065","32.346878","-91.231932 ","3164","56","8","0","1/30/2022 12:00:00 AM","2019","10951","NYTIMES-USCENSUS"
"1/31/2022 12:00:00 AM","Sharkey County","Mississippi","South","East South Central","28125","32.892395","-90.827613 ","877","22","9","1","1/30/2022 12:00:00 AM","2019","4321","NYTIMES-USCENSUS"
"1/31/2022 12:00:00 AM","Litchfield County","Connecticut","Northeast","New England","09005","41.791883","-73.235404 ","29959","413","206","1","1/30/2022 12:00:00 AM","2019","180333","NYTIMES-USCENSUS"
"1/31/2022 12:00:00 AM","Roane County","Tennessee","South","East South Central","47145","35.84725","-84.523929 ","13300","196","0","0","1/30/2022 12:00:00 AM","2019","53382","NYTIMES-USCENSUS"
"1/31/2022 12:00:00 AM","Chickasaw County","Iowa","Midwest","West North Central","19037","43.059741","-92.31721 ","2518","29","0","0","1/30/2022 12:00:00 AM","2019","11933","NYTIMES-USCENSUS"
"1/31/2022 12:00:00 AM","Atchison County","Missouri","Midwest","West North Central","29005","40.431846","-95.437555 ","1187","19","1","0","1/30/2022 12:00:00 AM","2019","5143","NYTIMES-USCENSUS"
"1/31/2022 12:00:00 AM","Putnam County","Florida","South","South Atlantic","12107","29.593896","-81.732039 ","16377","387","0","0","1/30/2022 12:00:00 AM","2019","74521","NYTIMES-USCENSUS"
"1/31/2022 12:00:00 AM","Glenn County","California","West","Pacific","06021","39.602546","-122.4017 ","5986","55","103","0","1/30/2022 12:00:00 AM","2019","28393","NYTIMES-USCENSUS"
"1/31/2022 12:00:00 AM","Crook County","Wyoming","West","Mountain","56011","44.589266","-104.567298 ","1249","22","17","0","1/30/2022 12:00:00 AM","2019","7584","NYTIMES-USCENSUS"
"1/31/2022 12:00:00 AM","Marshall County","Kentucky","South","East South Central","21157","36.882017","-88.332752 ","7724","91","197","0","1/30/2022 12:00:00 AM","2019","31100","NYTIMES-USCENSUS"
"1/31/2022 12:00:00 AM","Greenwood County","South Carolina","South","South Atlantic","45047","34.155796","-82.127876 ","20672","254","530","2","1/30/2022 12:00:00 AM","2019","70811","NYTIMES-USCENSUS"
"1/31/2022 12:00:00 AM","Greene County","New York","Northeast","Middle Atlantic","36039","42.279821","-74.142025 ","8125","112","6","0","1/30/2022 12:00:00 AM","2019","47188","NYTIMES-USCENSUS"
"1/31/2022 12:00:00 AM","Chautauqua County","Kansas","Midwest","West North Central","20019","37.154259","-96.245396 ","809","16","4","0","1/30/2022 12:00:00 AM","2019","3250","NYTIMES-USCENSUS"
"1/31/2022 12:00:00 AM","Shelby County","Indiana","Midwest","East North Central","18145","39.524135","-85.792174 ","14024","167","212","1","1/30/2022 12:00:00 AM","2019","44729","NYTIMES-USCENSUS"
"1/31/2022 12:00:00 AM","Athens County","Ohio","Midwest","East North Central","39009","39.332755","-82.045885 ","13418","111","36","0","1/30/2022 12:00:00 AM","2019","65327","NYTIMES-USCENSUS"
"1/31/2022 12:00:00 AM","Fulton County","Ohio","Midwest","East North Central","39051","41.597264","-84.124267 ","10021","161","14","0","1/30/2022 12:00:00 AM","2019","42126","NYTIMES-USCENSUS"
"1/31/2022 12:00:00 AM","Dickey County","North Dakota","Midwest","West North Central","38021","46.107756","-98.496518 ","1405","38","1","0","1/30/2022 12:00:00 AM","2019","4872","NYTIMES-USCENSUS"
"1/31/2022 12:00:00 AM","Brunswick County","North Carolina","South","South Atlantic","37019","34.038754","-78.227765 ","26714","270","587","1","1/30/2022 12:00:00 AM","2019","142820","NYTIMES-USCENSUS"
"1/31/2022 12:00:00 AM","Murray County","Georgia","South","South Atlantic","13213","34.797097","-84.73799 ","10771","158","151","2","1/30/2022 12:00:00 AM","2019","40096","NYTIMES-USCENSUS"
"1/31/2022 12:00:00 AM","Ritchie County","West Virginia","South","South Atlantic","54085","39.177112","-81.066317 ","2137","27","11","0","1/30/2022 12:00:00 AM","2019","9554","NYTIMES-USCENSUS"
"1/31/2022 12:00:00 AM","Scurry County","Texas","South","West South Central","48415","32.744353","-100.913346 ","4813","95","11","0","1/30/2022 12:00:00 AM","2019","16703","NYTIMES-USCENSUS"
"1/31/2022 12:00:00 AM","Bottineau County","North Dakota","Midwest","West North Central","38009","48.794412","-100.831257 ","1472","24","4","0","1/30/2022 12:00:00 AM","2019","6282","NYTIMES-USCENSUS"
"1/31/2022 12:00:00 AM","Osceola County","Florida","South","South Atlantic","12097","28.059027","-81.139312 ","107029","952","0","0","1/30/2022 12:00:00 AM","2019","375751","NYTIMES-USCENSUS"
"1/31/2022 12:00:00 AM","Clear Creek County","Colorado","West","Mountain","08019","39.689403","-105.670783 ","1442","10","7","0","1/30/2022 12:00:00 AM","2019","9700","NYTIMES-USCENSUS"
"1/31/2022 12:00:00 AM","Boone County","Nebraska","Midwest","West North Central","31011","41.703934","-98.070476 ","1009","4","8","0","1/30/2022 12:00:00 AM","2019","5192","NYTIMES-USCENSUS"
"1/31/2022 12:00:00 AM","Clinton County","Indiana","Midwest","East North Central","18023","40.305944","-86.477567 ","8849","108","101","0","1/30/2022 12:00:00 AM","2019","32399","NYTIMES-USCENSUS"
"1/31/2022 12:00:00 AM","Gilmer County","West Virginia","South","South Atlantic","54021","38.915867","-80.849413 ","1895","17","9","0","1/30/2022 12:00:00 AM","2019","7823","NYTIMES-USCENSUS"
"1/31/2022 12:00:00 AM","Somerset County","Maine","Northeast","New England","23025","45.503646","-69.95611 ","7367","80","0","0","1/30/2022 12:00:00 AM","2019","50484","NYTIMES-USCENSUS"
"1/31/2022 12:00:00 AM","Lake County","Tennessee","South","East South Central","47095","36.333905","-89.485536 ","2489","34","0","0","1/30/2022 12:00:00 AM","2019","7016","NYTIMES-USCENSUS"
"1/31/2022 12:00:00 AM","Garrard County","Kentucky","South","East South Central","21079","37.630162","-84.545856 ","4276","64","132","0","1/30/2022 12:00:00 AM","2019","17666","NYTIMES-USCENSUS"
"1/31/2022 12:00:00 AM","Macon County","Georgia","South","South Atlantic","13193","32.362686","-84.051231 ","2042","47","17","0","1/30/2022 12:00:00 AM","2019","12947","NYTIMES-USCENSUS"
"1/31/2022 12:00:00 AM","Clark County","Nevada","West","Mountain","32003","36.21413","-115.014398 ","494743","6893","6444","27","1/30/2022 12:00:00 AM","2019","2266715","NYTIMES-USCENSUS"
"1/31/2022 12:00:00 AM","St. Charles County","Missouri","Midwest","West North Central","29183","38.781102","-90.674915 ","98013","783","769","7","1/30/2022 12:00:00 AM","2019","402022","NYTIMES-USCENSUS"
"1/31/2022 12:00:00 AM","Benton County","Mississippi","South","East South Central","28009","34.809593","-89.200213 ","2054","44","14","1","1/30/2022 12:00:00 AM","2019","8259","NYTIMES-USCENSUS"
"1/31/2022 12:00:00 AM","Wright County","Missouri","Midwest","West North Central","29229","37.267633","-92.479989 ","3618","71","4","0","1/30/2022 12:00:00 AM","2019","18289","NYTIMES-USCENSUS"
"1/31/2022 12:00:00 AM","Rappahannock County","Virginia","South","South Atlantic","51157","38.684522","-78.168824 ","881","7","6","0","1/30/2022 12:00:00 AM","2019","7370","NYTIMES-USCENSUS"
"1/31/2022 12:00:00 AM","Decatur County","Indiana","Midwest","East North Central","18031","39.30598","-85.499831 ","6696","134","100","0","1/30/2022 12:00:00 AM","2019","26559","NYTIMES-USCENSUS"
"1/31/2022 12:00:00 AM","Placer County","California","West","Pacific","06061","39.062032","-120.722718 ","64304","523","1468","0","1/30/2022 12:00:00 AM","2019","398329","NYTIMES-USCENSUS"
"1/31/2022 12:00:00 AM","Sherman County","Texas","South","West South Central","48421","36.278593","-101.899265 ","457","16","0","0","1/30/2022 12:00:00 AM","2019","3022","NYTIMES-USCENSUS"
"1/31/2022 12:00:00 AM","Leslie County","Kentucky","South","East South Central","21131","37.087846","-83.388617 ","3011","39","73","0","1/30/2022 12:00:00 AM","2019","9877","NYTIMES-USCENSUS"
"1/31/2022 12:00:00 AM","Caswell County","North Carolina","South","South Atlantic","37033","36.394298","-79.339609 ","4875","39","102","0","1/30/2022 12:00:00 AM","2019","22604","NYTIMES-USCENSUS"
"1/31/2022 12:00:00 AM","Van Wert County","Ohio","Midwest","East North Central","39161","40.85552","-84.585775 ","6296","126","12","0","1/30/2022 12:00:00 AM","2019","28275","NYTIMES-USCENSUS"
"1/31/2022 12:00:00 AM","Marshall County","Minnesota","Midwest","West North Central","27089","48.362728","-96.357761 ","1870","23","35","0","1/30/2022 12:00:00 AM","2019","9336","NYTIMES-USCENSUS"
"1/31/2022 12:00:00 AM","Grafton County","New Hampshire","Northeast","New England","33009","43.926439","-71.842424 ","14956","53","449","0","1/30/2022 12:00:00 AM","2019","89886","NYTIMES-USCENSUS"
"1/31/2022 12:00:00 AM","Mercer County","New Jersey","Northeast","Middle Atlantic","34021","40.282503","-74.703724 ","72305","1178","98","0","1/30/2022 12:00:00 AM","2019","367430","NYTIMES-USCENSUS"
"1/31/2022 12:00:00 AM","Lake County","California","West","Pacific","06033","39.094802","-122.746757 ","9910","119","333","0","1/30/2022 12:00:00 AM","2019","64386","NYTIMES-USCENSUS"
"1/31/2022 12:00:00 AM","Dunn County","Wisconsin","Midwest","East North Central","55033","44.947751","-91.897645 ","12573","65","154","0","1/30/2022 12:00:00 AM","2019","45368","NYTIMES-USCENSUS"
"1/31/2022 12:00:00 AM","Tippecanoe County","Indiana","Midwest","East North Central","18157","40.389133","-86.893554 ","47871","353","731","1","1/30/2022 12:00:00 AM","2019","195732","NYTIMES-USCENSUS"
"1/31/2022 12:00:00 AM","Dooly County","Georgia","South","South Atlantic","13093","32.151995","-83.807167 ","2281","63","56","0","1/30/2022 12:00:00 AM","2019","13390","NYTIMES-USCENSUS"
"1/31/2022 12:00:00 AM","Bradford County","Florida","South","South Atlantic","12007","29.952386","-82.166698 ","6868","130","0","0","1/30/2022 12:00:00 AM","2019","28201","NYTIMES-USCENSUS"
"1/31/2022 12:00:00 AM","Clay County","Kentucky","South","East South Central","21051","37.164273","-83.715473 ","6701","71","171","1","1/30/2022 12:00:00 AM","2019","19901","NYTIMES-USCENSUS"
"1/31/2022 12:00:00 AM","Monroe County","West Virginia","South","South Atlantic","54063","37.554062","-80.550329 ","3666","34","37","0","1/30/2022 12:00:00 AM","2019","13275","NYTIMES-USCENSUS"
"1/31/2022 12:00:00 AM","Trousdale County","Tennessee","South","East South Central","47169","36.39303","-86.156691 ","3793","41","0","0","1/30/2022 12:00:00 AM","2019","11284","NYTIMES-USCENSUS"
"1/31/2022 12:00:00 AM","Peach County","Georgia","South","South Atlantic","13225","32.571324","-83.831978 ","5814","117","55","1","1/30/2022 12:00:00 AM","2019","27546","NYTIMES-USCENSUS"
"1/31/2022 12:00:00 AM","Bradford County","Pennsylvania","Northeast","Middle Atlantic","42015","41.791504","-76.502123 ","14056","185","29","0","1/30/2022 12:00:00 AM","2019","60323","NYTIMES-USCENSUS"
"1/31/2022 12:00:00 AM","Edwards County","Illinois","Midwest","East North Central","17047","38.417095","-88.047941 ","1700","26","44","0","1/30/2022 12:00:00 AM","2019","6395","NYTIMES-USCENSUS"
"1/31/2022 12:00:00 AM","Summit County","Colorado","West","Mountain","08117","39.621023","-106.137555 ","9293","12","73","0","1/30/2022 12:00:00 AM","2019","31011","NYTIMES-USCENSUS"
"1/31/2022 12:00:00 AM","Pulaski County","Arkansas","South","West South Central","05119","34.770311","-92.312996 ","97075","1028","1025","3","1/30/2022 12:00:00 AM","2019","391911","NYTIMES-USCENSUS"
"1/31/2022 12:00:00 AM","Kaufman County","Texas","South","West South Central","48257","32.598944","-96.288377 ","33317","477","104","0","1/30/2022 12:00:00 AM","2019","136154","NYTIMES-USCENSUS"
"1/31/2022 12:00:00 AM","Adams County","Nebraska","Midwest","West North Central","31001","40.520632","-98.500044 ","5996","56","38","0","1/30/2022 12:00:00 AM","2019","31363","NYTIMES-USCENSUS"
"1/31/2022 12:00:00 AM","Mercer County","Illinois","Midwest","East North Central","17131","41.205605","-90.74177 ","3787","40","32","0","1/30/2022 12:00:00 AM","2019","15437","NYTIMES-USCENSUS"
"1/31/2022 12:00:00 AM","Knox County","Indiana","Midwest","East North Central","18083","38.688391","-87.420354 ","10116","131","279","0","1/30/2022 12:00:00 AM","2019","36594","NYTIMES-USCENSUS"
