"monitor_date","county","state_name","region","subregion","fips","latitude","longitude","case_count_to_date","death_count_to_date","case_count","death_count","previous_monitor_date","population_year","population","source"
"8/20/2021 12:00:00 AM","Acadia Parish","Louisiana","South","West South Central","22001","30.291497","-92.411037 ","8929","218","89","0","8/19/2021 12:00:00 AM","2019","62045","NYTIMES-USCENSUS"
"8/20/2021 12:00:00 AM","Wayne County","Michigan","Midwest","East North Central","26163","42.284664","-83.261953 ","172976","5252","665","7","8/19/2021 12:00:00 AM","2019","1749343","NYTIMES-USCENSUS"
"8/20/2021 12:00:00 AM","Hartford County","Connecticut","Northeast","New England","09003","41.806053","-72.732916 ","89087","2455","118","2","8/19/2021 12:00:00 AM","2019","891720","NYTIMES-USCENSUS"
"8/20/2021 12:00:00 AM","Faulk County","South Dakota","Midwest","West North Central","46049","45.065476","-99.153564 ","376","14","0","0","8/19/2021 12:00:00 AM","2019","2299","NYTIMES-USCENSUS"
"8/20/2021 12:00:00 AM","Stewart County","Georgia","South","South Atlantic","13259","32.073225","-84.834912 ","1206","26","5","0","8/19/2021 12:00:00 AM","2019","6621","NYTIMES-USCENSUS"
"8/20/2021 12:00:00 AM","Decatur County","Indiana","Midwest","East North Central","18031","39.30598","-85.499831 ","3216","97","21","0","8/19/2021 12:00:00 AM","2019","26559","NYTIMES-USCENSUS"
"8/20/2021 12:00:00 AM","Obion County","Tennessee","South","East South Central","47131","36.361892","-89.148078 ","5042","99","32","0","8/19/2021 12:00:00 AM","2019","30069","NYTIMES-USCENSUS"
"8/20/2021 12:00:00 AM","Adair County","Iowa","Midwest","West North Central","19001","41.328528","-94.478164 ","915","32","0","0","8/19/2021 12:00:00 AM","2019","7152","NYTIMES-USCENSUS"
"8/20/2021 12:00:00 AM","San Miguel County","Colorado","West","Mountain","08113","38.009319","-108.427263 ","988","1","2","0","8/19/2021 12:00:00 AM","2019","8179","NYTIMES-USCENSUS"
"8/20/2021 12:00:00 AM","Brazoria County","Texas","South","West South Central","48039","29.167817","-95.434647 ","46416","581","265","2","8/19/2021 12:00:00 AM","2019","374264","NYTIMES-USCENSUS"
"8/20/2021 12:00:00 AM","Brown County","Texas","South","West South Central","48049","31.764137","-98.998456 ","5197","150","186","6","8/19/2021 12:00:00 AM","2019","37864","NYTIMES-USCENSUS"
"8/20/2021 12:00:00 AM","Pike County","Pennsylvania","Northeast","Middle Atlantic","42103","41.325949","-75.031514 ","4273","54","9","0","8/19/2021 12:00:00 AM","2019","55809","NYTIMES-USCENSUS"
"8/20/2021 12:00:00 AM","Deuel County","South Dakota","Midwest","West North Central","46039","44.75629","-96.690239 ","578","10","2","0","8/19/2021 12:00:00 AM","2019","4351","NYTIMES-USCENSUS"
"8/20/2021 12:00:00 AM","Walsh County","North Dakota","Midwest","West North Central","38099","48.376979","-97.72223 ","1937","27","2","0","8/19/2021 12:00:00 AM","2019","10641","NYTIMES-USCENSUS"
"8/20/2021 12:00:00 AM","Jones County","Mississippi","South","East South Central","28067","31.616601","-89.168532 ","11039","180","175","1","8/19/2021 12:00:00 AM","2019","68098","NYTIMES-USCENSUS"
"8/20/2021 12:00:00 AM","Cuming County","Nebraska","Midwest","West North Central","31039","41.915865","-96.788517 ","1056","15","0","0","8/19/2021 12:00:00 AM","2019","8846","NYTIMES-USCENSUS"
"8/20/2021 12:00:00 AM","Major County","Oklahoma","South","West South Central","40093","36.313119","-98.542015 ","1019","24","0","0","8/19/2021 12:00:00 AM","2019","7629","NYTIMES-USCENSUS"
"8/20/2021 12:00:00 AM","Fort Bend County","Texas","South","West South Central","48157","29.526602","-95.771015 ","80530","777","351","8","8/19/2021 12:00:00 AM","2019","811688","NYTIMES-USCENSUS"
"8/20/2021 12:00:00 AM","Moore County","Texas","South","West South Central","48341","35.835676","-101.890502 ","2979","76","9","1","8/19/2021 12:00:00 AM","2019","20940","NYTIMES-USCENSUS"
"8/20/2021 12:00:00 AM","Carteret County","North Carolina","South","South Atlantic","37031","34.858343","-76.53586 ","6125","57","58","0","8/19/2021 12:00:00 AM","2019","69473","NYTIMES-USCENSUS"
"8/20/2021 12:00:00 AM","Suwannee County","Florida","South","South Atlantic","12121","30.189244","-82.992754 ","7195","140","478","0","8/19/2021 12:00:00 AM","2019","44417","NYTIMES-USCENSUS"
"8/20/2021 12:00:00 AM","Pike County","Arkansas","South","West South Central","05109","34.158191","-93.658659 ","1303","27","16","0","8/19/2021 12:00:00 AM","2019","10718","NYTIMES-USCENSUS"
"8/20/2021 12:00:00 AM","Edmonson County","Kentucky","South","East South Central","21061","37.227514","-86.218015 ","1033","25","9","0","8/19/2021 12:00:00 AM","2019","12150","NYTIMES-USCENSUS"
"8/20/2021 12:00:00 AM","Franklin County","Texas","South","West South Central","48159","33.175846","-95.219066 ","949","27","6","0","8/19/2021 12:00:00 AM","2019","10725","NYTIMES-USCENSUS"
"8/20/2021 12:00:00 AM","Osceola County","Iowa","Midwest","West North Central","19143","43.378542","-95.633788 ","812","17","0","0","8/19/2021 12:00:00 AM","2019","5958","NYTIMES-USCENSUS"
"8/20/2021 12:00:00 AM","Lafayette County","Arkansas","South","West South Central","05073","33.240629","-93.611514 ","692","11","3","0","8/19/2021 12:00:00 AM","2019","6624","NYTIMES-USCENSUS"
"8/20/2021 12:00:00 AM","Montgomery County","Mississippi","South","East South Central","28097","33.500714","-89.639625 ","1472","47","11","0","8/19/2021 12:00:00 AM","2019","9775","NYTIMES-USCENSUS"
"8/20/2021 12:00:00 AM","De Soto Parish","Louisiana","South","West South Central","22031","32.059248","-93.740797 ","3927","90","59","1","8/19/2021 12:00:00 AM","2019","27463","NYTIMES-USCENSUS"
"8/20/2021 12:00:00 AM","Hillsborough County","New Hampshire","Northeast","New England","33011","42.911532","-71.723055 ","37882","652","99","0","8/19/2021 12:00:00 AM","2019","417025","NYTIMES-USCENSUS"
"8/20/2021 12:00:00 AM","Medina County","Texas","South","West South Central","48325","29.353661","-99.111085 ","5573","120","13","2","8/19/2021 12:00:00 AM","2019","51584","NYTIMES-USCENSUS"
"8/20/2021 12:00:00 AM","Somerset County","Maryland","South","South Atlantic","24039","38.07445","-75.853323 ","2725","42","2","0","8/19/2021 12:00:00 AM","2019","25616","NYTIMES-USCENSUS"
"8/20/2021 12:00:00 AM","Cedar County","Nebraska","Midwest","West North Central","31027","42.60456","-97.25687 ","956","11","0","0","8/19/2021 12:00:00 AM","2019","8402","NYTIMES-USCENSUS"
"8/20/2021 12:00:00 AM","Kalkaska County","Michigan","Midwest","East North Central","26079","44.678881","-85.088992 ","1219","29","4","0","8/19/2021 12:00:00 AM","2019","18038","NYTIMES-USCENSUS"
"8/20/2021 12:00:00 AM","Hart County","Kentucky","South","East South Central","21099","37.305827","-85.878443 ","2482","55","17","1","8/19/2021 12:00:00 AM","2019","19035","NYTIMES-USCENSUS"
"8/20/2021 12:00:00 AM","Trempealeau County","Wisconsin","Midwest","East North Central","55121","44.30305","-91.358867 ","3854","49","11","0","8/19/2021 12:00:00 AM","2019","29649","NYTIMES-USCENSUS"
"8/20/2021 12:00:00 AM","St. Lucie County","Florida","South","South Atlantic","12111","27.379814","-80.443536 ","37879","657","2199","0","8/19/2021 12:00:00 AM","2019","328297","NYTIMES-USCENSUS"
"8/20/2021 12:00:00 AM","Passaic County","New Jersey","Northeast","Middle Atlantic","34031","41.036655","-74.299408 ","75672","1956","132","0","8/19/2021 12:00:00 AM","2019","501826","NYTIMES-USCENSUS"
"8/20/2021 12:00:00 AM","Limestone County","Texas","South","West South Central","48293","31.547543","-96.593623 ","3126","85","4","0","8/19/2021 12:00:00 AM","2019","23437","NYTIMES-USCENSUS"
"8/20/2021 12:00:00 AM","Evangeline Parish","Louisiana","South","West South Central","22039","30.720693","-92.404086 ","4774","102","50","0","8/19/2021 12:00:00 AM","2019","33395","NYTIMES-USCENSUS"
"8/20/2021 12:00:00 AM","Manitowoc County","Wisconsin","Midwest","East North Central","55071","44.156137","-87.577352 ","9246","97","11","0","8/19/2021 12:00:00 AM","2019","78981","NYTIMES-USCENSUS"
"8/20/2021 12:00:00 AM","Holt County","Nebraska","Midwest","West North Central","31089","42.459287","-98.784766 ","916","15","0","0","8/19/2021 12:00:00 AM","2019","10067","NYTIMES-USCENSUS"
"8/20/2021 12:00:00 AM","Sanpete County","Utah","West","Mountain","49039","39.373426","-111.576933 ","4269","25","14","0","8/19/2021 12:00:00 AM","2019","30939","NYTIMES-USCENSUS"
"8/20/2021 12:00:00 AM","Butler County","Pennsylvania","Northeast","Middle Atlantic","42019","40.913847","-79.918978 ","18400","426","36","1","8/19/2021 12:00:00 AM","2019","187853","NYTIMES-USCENSUS"
"8/20/2021 12:00:00 AM","Cocke County","Tennessee","South","East South Central","47029","35.916198","-83.119224 ","5340","102","90","0","8/19/2021 12:00:00 AM","2019","36004","NYTIMES-USCENSUS"
"8/20/2021 12:00:00 AM","Gem County","Idaho","West","Mountain","16045","44.061473","-116.398784 ","2070","47","5","1","8/19/2021 12:00:00 AM","2019","18112","NYTIMES-USCENSUS"
"8/20/2021 12:00:00 AM","San Diego County","California","West","Pacific","06073","33.023604","-116.776117 ","336417","3839","1430","5","8/19/2021 12:00:00 AM","2019","3338330","NYTIMES-USCENSUS"
"8/20/2021 12:00:00 AM","Gwinnett County","Georgia","South","South Atlantic","13135","33.958756","-84.025735 ","111868","1236","400","0","8/19/2021 12:00:00 AM","2019","936250","NYTIMES-USCENSUS"
"8/20/2021 12:00:00 AM","Warren County","Kentucky","South","East South Central","21227","36.995634","-86.423579 ","18860","195","145","0","8/19/2021 12:00:00 AM","2019","132896","NYTIMES-USCENSUS"
"8/20/2021 12:00:00 AM","York County","Virginia","South","South Atlantic","51199","37.220914","-76.395533 ","4218","60","15","0","8/19/2021 12:00:00 AM","2019","68280","NYTIMES-USCENSUS"
"8/20/2021 12:00:00 AM","George County","Mississippi","South","East South Central","28039","30.855431","-88.642268 ","3640","58","43","1","8/19/2021 12:00:00 AM","2019","24500","NYTIMES-USCENSUS"
"8/20/2021 12:00:00 AM","Ottawa County","Kansas","Midwest","West North Central","20143","39.137963","-97.654802 ","620","14","9","0","8/19/2021 12:00:00 AM","2019","5704","NYTIMES-USCENSUS"
"8/20/2021 12:00:00 AM","Ketchikan Gateway Borough","Alaska","West","Pacific","02130","55.449938","-131.106685 ","949","2","17","0","8/19/2021 12:00:00 AM","2019","13901","NYTIMES-USCENSUS"
"8/20/2021 12:00:00 AM","Ogle County","Illinois","Midwest","East North Central","17141","42.041884","-89.320176 ","6507","92","18","0","8/19/2021 12:00:00 AM","2019","50643","NYTIMES-USCENSUS"
"8/20/2021 12:00:00 AM","Barnes County","North Dakota","Midwest","West North Central","38003","46.94255","-98.070195 ","1452","32","3","0","8/19/2021 12:00:00 AM","2019","10415","NYTIMES-USCENSUS"
"8/20/2021 12:00:00 AM","Idaho County","Idaho","West","Mountain","16049","45.849644","-115.467337 ","1565","18","11","0","8/19/2021 12:00:00 AM","2019","16667","NYTIMES-USCENSUS"
"8/20/2021 12:00:00 AM","Knox County","Texas","South","West South Central","48275","33.61189","-99.730356 ","268","18","0","0","8/19/2021 12:00:00 AM","2019","3664","NYTIMES-USCENSUS"
"8/20/2021 12:00:00 AM","Charles Mix County","South Dakota","Midwest","West North Central","46023","43.206185","-98.595143 ","1455","23","7","0","8/19/2021 12:00:00 AM","2019","9292","NYTIMES-USCENSUS"
"8/20/2021 12:00:00 AM","Lincoln County","Tennessee","South","East South Central","47103","35.142784","-86.593403 ","5072","70","69","0","8/19/2021 12:00:00 AM","2019","34366","NYTIMES-USCENSUS"
"8/20/2021 12:00:00 AM","Franklin County","Georgia","South","South Atlantic","13119","34.375266","-83.227532 ","3090","60","29","0","8/19/2021 12:00:00 AM","2019","23349","NYTIMES-USCENSUS"
"8/20/2021 12:00:00 AM","Cumberland County","Kentucky","South","East South Central","21057","36.782372","-85.388484 ","770","14","5","0","8/19/2021 12:00:00 AM","2019","6614","NYTIMES-USCENSUS"
"8/20/2021 12:00:00 AM","Surry County","North Carolina","South","South Atlantic","37171","36.415416","-80.686463 ","9371","179","42","0","8/19/2021 12:00:00 AM","2019","71783","NYTIMES-USCENSUS"
"8/20/2021 12:00:00 AM","Cuyahoga County","Ohio","Midwest","East North Central","39035","41.555037","-81.604957 ","121330","2279","276","1","8/19/2021 12:00:00 AM","2019","1235072","NYTIMES-USCENSUS"
"8/20/2021 12:00:00 AM","Halifax County","Virginia","South","South Atlantic","51083","36.766461","-78.939614 ","3067","80","8","0","8/19/2021 12:00:00 AM","2019","33911","NYTIMES-USCENSUS"
"8/20/2021 12:00:00 AM","McDonald County","Missouri","Midwest","West North Central","29119","36.627955","-94.343716 ","3525","46","9","0","8/19/2021 12:00:00 AM","2019","22837","NYTIMES-USCENSUS"
"8/20/2021 12:00:00 AM","Perry County","Missouri","Midwest","West North Central","29157","37.71113","-89.802125 ","2501","30","2","0","8/19/2021 12:00:00 AM","2019","19136","NYTIMES-USCENSUS"
"8/20/2021 12:00:00 AM","Stephens County","Oklahoma","South","West South Central","40137","34.481361","-97.855607 ","5562","107","0","0","8/19/2021 12:00:00 AM","2019","43143","NYTIMES-USCENSUS"
"8/20/2021 12:00:00 AM","Jackson County","Illinois","Midwest","East North Central","17077","37.786096","-89.381212 ","6387","80","64","0","8/19/2021 12:00:00 AM","2019","56750","NYTIMES-USCENSUS"
"8/20/2021 12:00:00 AM","Attala County","Mississippi","South","East South Central","28007","33.090468","-89.588622 ","2759","78","31","1","8/19/2021 12:00:00 AM","2019","18174","NYTIMES-USCENSUS"
"8/20/2021 12:00:00 AM","Essex County","New York","Northeast","Middle Atlantic","36031","44.109601","-73.778431 ","1738","26","10","0","8/19/2021 12:00:00 AM","2019","36885","NYTIMES-USCENSUS"
"8/20/2021 12:00:00 AM","Monroe County","Indiana","Midwest","East North Central","18105","39.160729","-86.52331 ","13154","186","30","0","8/19/2021 12:00:00 AM","2019","148431","NYTIMES-USCENSUS"
"8/20/2021 12:00:00 AM","Person County","North Carolina","South","South Atlantic","37145","36.38635","-78.965623 ","3946","76","20","0","8/19/2021 12:00:00 AM","2019","39490","NYTIMES-USCENSUS"
"8/20/2021 12:00:00 AM","Logan County","Ohio","Midwest","East North Central","39091","40.387553","-83.766343 ","4177","79","18","0","8/19/2021 12:00:00 AM","2019","45672","NYTIMES-USCENSUS"
"8/20/2021 12:00:00 AM","Escambia County","Alabama","South","East South Central","01053","31.122287","-87.16841 ","5376","85","61","0","8/19/2021 12:00:00 AM","2019","36633","NYTIMES-USCENSUS"
"8/20/2021 12:00:00 AM","Dent County","Missouri","Midwest","West North Central","29065","37.603072","-91.489717 ","1517","23","7","0","8/19/2021 12:00:00 AM","2019","15573","NYTIMES-USCENSUS"
"8/20/2021 12:00:00 AM","Providence County","Rhode Island","Northeast","New England","44007","41.869768","-71.578625 ","102857","2012","0","0","8/19/2021 12:00:00 AM","2019","638931","NYTIMES-USCENSUS"
"8/20/2021 12:00:00 AM","Northumberland County","Pennsylvania","Northeast","Middle Atlantic","42097","40.851524","-76.709877 ","9967","366","14","0","8/19/2021 12:00:00 AM","2019","90843","NYTIMES-USCENSUS"
"8/20/2021 12:00:00 AM","Polk County","Nebraska","Midwest","West North Central","31143","41.187925","-97.570663 ","593","18","0","0","8/19/2021 12:00:00 AM","2019","5213","NYTIMES-USCENSUS"
"8/20/2021 12:00:00 AM","Logan County","Nebraska","Midwest","West North Central","31113","41.542155","-100.443665 ","81","0","0","0","8/19/2021 12:00:00 AM","2019","748","NYTIMES-USCENSUS"
"8/20/2021 12:00:00 AM","Catron County","New Mexico","West","Mountain","35003","33.901621","-108.391928 ","118","6","1","0","8/19/2021 12:00:00 AM","2019","3527","NYTIMES-USCENSUS"
"8/20/2021 12:00:00 AM","Morgan County","Ohio","Midwest","East North Central","39115","39.624946","-81.861697 ","1167","25","12","0","8/19/2021 12:00:00 AM","2019","14508","NYTIMES-USCENSUS"
"8/20/2021 12:00:00 AM","Deaf Smith County","Texas","South","West South Central","48117","34.940766","-102.607564 ","3086","68","0","0","8/19/2021 12:00:00 AM","2019","18546","NYTIMES-USCENSUS"
"8/20/2021 12:00:00 AM","Stark County","North Dakota","Midwest","West North Central","38089","46.817031","-102.662026 ","5235","52","27","0","8/19/2021 12:00:00 AM","2019","31489","NYTIMES-USCENSUS"
"8/20/2021 12:00:00 AM","Clarke County","Georgia","South","South Atlantic","13059","33.952185","-83.367152 ","16690","151","81","0","8/19/2021 12:00:00 AM","2019","128331","NYTIMES-USCENSUS"
"8/20/2021 12:00:00 AM","Juneau County","Wisconsin","Midwest","East North Central","55057","43.932836","-90.113984 ","3471","32","12","0","8/19/2021 12:00:00 AM","2019","26687","NYTIMES-USCENSUS"
"8/20/2021 12:00:00 AM","Dodge County","Nebraska","Midwest","West North Central","31053","41.577008","-96.645852 ","5023","83","0","0","8/19/2021 12:00:00 AM","2019","36565","NYTIMES-USCENSUS"
"8/20/2021 12:00:00 AM","Copiah County","Mississippi","South","East South Central","28029","31.866915","-90.448758 ","3673","71","58","0","8/19/2021 12:00:00 AM","2019","28065","NYTIMES-USCENSUS"
"8/20/2021 12:00:00 AM","Sevier County","Arkansas","South","West South Central","05133","33.994877","-94.243279 ","3173","29","13","0","8/19/2021 12:00:00 AM","2019","17007","NYTIMES-USCENSUS"
"8/20/2021 12:00:00 AM","Franklin County","Washington","West","Pacific","53021","46.537502","-118.903891 ","15501","131","35","1","8/19/2021 12:00:00 AM","2019","95222","NYTIMES-USCENSUS"
"8/20/2021 12:00:00 AM","Osceola County","Michigan","Midwest","East North Central","26133","43.997552","-85.322283 ","2022","31","23","0","8/19/2021 12:00:00 AM","2019","23460","NYTIMES-USCENSUS"
"8/20/2021 12:00:00 AM","Grand Isle County","Vermont","Northeast","New England","50013","44.795742","-73.295082 ","239","2","1","0","8/19/2021 12:00:00 AM","2019","7235","NYTIMES-USCENSUS"
"8/20/2021 12:00:00 AM","Titus County","Texas","South","West South Central","48449","33.214599","-94.966783 ","4603","85","17","0","8/19/2021 12:00:00 AM","2019","32750","NYTIMES-USCENSUS"
"8/20/2021 12:00:00 AM","Conecuh County","Alabama","South","East South Central","01035","31.430926","-86.988722 ","1412","34","8","0","8/19/2021 12:00:00 AM","2019","12067","NYTIMES-USCENSUS"
"8/20/2021 12:00:00 AM","Ford County","Kansas","Midwest","West North Central","20057","37.688416","-99.884748 ","6193","84","84","2","8/19/2021 12:00:00 AM","2019","33619","NYTIMES-USCENSUS"
"8/20/2021 12:00:00 AM","Williamson County","Tennessee","South","East South Central","47187","35.894807","-86.898068 ","32104","231","159","2","8/19/2021 12:00:00 AM","2019","238412","NYTIMES-USCENSUS"
"8/20/2021 12:00:00 AM","Winneshiek County","Iowa","Midwest","West North Central","19191","43.292989","-91.850788 ","2039","37","0","0","8/19/2021 12:00:00 AM","2019","19991","NYTIMES-USCENSUS"
"8/20/2021 12:00:00 AM","Jessamine County","Kentucky","South","East South Central","21113","37.873291","-84.58396 ","5497","75","49","0","8/19/2021 12:00:00 AM","2019","54115","NYTIMES-USCENSUS"
"8/20/2021 12:00:00 AM","Platte County","Missouri","Midwest","West North Central","29165","39.37869","-94.761477 ","5095","53","26","0","8/19/2021 12:00:00 AM","2019","104418","NYTIMES-USCENSUS"
"8/20/2021 12:00:00 AM","Niobrara County","Wyoming","West","Mountain","56027","43.062159","-104.468373 ","192","3","3","0","8/19/2021 12:00:00 AM","2019","2356","NYTIMES-USCENSUS"
"8/20/2021 12:00:00 AM","Grant County","Kansas","Midwest","West North Central","20067","37.547537","-101.299362 ","1063","22","0","1","8/19/2021 12:00:00 AM","2019","7150","NYTIMES-USCENSUS"
"8/20/2021 12:00:00 AM","St. Lawrence County","New York","Northeast","Middle Atlantic","36089","44.488112","-75.074311 ","7109","97","28","0","8/19/2021 12:00:00 AM","2019","107740","NYTIMES-USCENSUS"
"8/20/2021 12:00:00 AM","Ida County","Iowa","Midwest","West North Central","19093","42.39186","-95.507421 ","991","35","0","0","8/19/2021 12:00:00 AM","2019","6860","NYTIMES-USCENSUS"
"8/20/2021 12:00:00 AM","Lake County","Ohio","Midwest","East North Central","39085","41.778142","-81.19733 ","22260","401","55","2","8/19/2021 12:00:00 AM","2019","230149","NYTIMES-USCENSUS"
"8/20/2021 12:00:00 AM","Hall County","Texas","South","West South Central","48191","34.453189","-100.576343 ","510","15","0","1","8/19/2021 12:00:00 AM","2019","2964","NYTIMES-USCENSUS"
"8/20/2021 12:00:00 AM","Motley County","Texas","South","West South Central","48345","34.057899","-100.793152 ","141","8","0","0","8/19/2021 12:00:00 AM","2019","1200","NYTIMES-USCENSUS"
"8/20/2021 12:00:00 AM","Glacier County","Montana","West","Mountain","30035","48.705671","-112.990502 ","1596","45","2","0","8/19/2021 12:00:00 AM","2019","13753","NYTIMES-USCENSUS"
"8/20/2021 12:00:00 AM","Bremer County","Iowa","Midwest","West North Central","19017","42.780895","-92.327356 ","3023","63","0","0","8/19/2021 12:00:00 AM","2019","25062","NYTIMES-USCENSUS"
"8/20/2021 12:00:00 AM","Keokuk County","Iowa","Midwest","West North Central","19107","41.331182","-92.167721 ","1037","32","0","0","8/19/2021 12:00:00 AM","2019","10246","NYTIMES-USCENSUS"
"8/20/2021 12:00:00 AM","Carroll County","Maryland","South","South Atlantic","24013","39.563328","-77.01533 ","9887","259","27","0","8/19/2021 12:00:00 AM","2019","168447","NYTIMES-USCENSUS"
"8/20/2021 12:00:00 AM","Nowata County","Oklahoma","South","West South Central","40105","36.789615","-95.613312 ","1372","21","0","0","8/19/2021 12:00:00 AM","2019","10076","NYTIMES-USCENSUS"
"8/20/2021 12:00:00 AM","Bingham County","Idaho","West","Mountain","16011","43.216357","-112.399206 ","5067","78","15","0","8/19/2021 12:00:00 AM","2019","46811","NYTIMES-USCENSUS"
"8/20/2021 12:00:00 AM","Larue County","Kentucky","South","East South Central","21123","37.544462","-85.696841 ","1644","29","27","0","8/19/2021 12:00:00 AM","2019","14398","NYTIMES-USCENSUS"
"8/20/2021 12:00:00 AM","Montgomery County","Virginia","South","South Atlantic","51121","37.175538","-80.387794 ","9769","81","26","0","8/19/2021 12:00:00 AM","2019","98535","NYTIMES-USCENSUS"
"8/20/2021 12:00:00 AM","Oconee County","Georgia","South","South Atlantic","13219","33.834125","-83.437728 ","4529","74","30","0","8/19/2021 12:00:00 AM","2019","40280","NYTIMES-USCENSUS"
"8/20/2021 12:00:00 AM","Crawford County","Wisconsin","Midwest","East North Central","55023","43.242768","-90.935185 ","1841","19","1","0","8/19/2021 12:00:00 AM","2019","16131","NYTIMES-USCENSUS"
"8/20/2021 12:00:00 AM","Wake County","North Carolina","South","South Atlantic","37183","35.789846","-78.650624 ","103805","763","747","-2","8/19/2021 12:00:00 AM","2019","1111761","NYTIMES-USCENSUS"
"8/20/2021 12:00:00 AM","Rockland County","New York","Northeast","Middle Atlantic","36087","41.154628","-74.024662 ","48613","761","44","0","8/19/2021 12:00:00 AM","2019","325789","NYTIMES-USCENSUS"
"8/20/2021 12:00:00 AM","Johnson County","Arkansas","South","West South Central","05071","35.573359","-93.466322 ","3642","43","38","0","8/19/2021 12:00:00 AM","2019","26578","NYTIMES-USCENSUS"
"8/20/2021 12:00:00 AM","Trimble County","Kentucky","South","East South Central","21223","38.62004","-85.351208 ","852","8","8","0","8/19/2021 12:00:00 AM","2019","8471","NYTIMES-USCENSUS"
"8/20/2021 12:00:00 AM","Vigo County","Indiana","Midwest","East North Central","18167","39.429143","-87.390375 ","13643","265","81","0","8/19/2021 12:00:00 AM","2019","107038","NYTIMES-USCENSUS"
"8/20/2021 12:00:00 AM","Hancock County","Georgia","South","South Atlantic","13141","33.26922","-83.000465 ","994","70","7","0","8/19/2021 12:00:00 AM","2019","8457","NYTIMES-USCENSUS"
"8/20/2021 12:00:00 AM","Chicot County","Arkansas","South","West South Central","05017","33.267139","-91.297158 ","1787","42","14","0","8/19/2021 12:00:00 AM","2019","10118","NYTIMES-USCENSUS"
"8/20/2021 12:00:00 AM","Union County","Ohio","Midwest","East North Central","39159","40.295901","-83.367042 ","6149","49","12","0","8/19/2021 12:00:00 AM","2019","58988","NYTIMES-USCENSUS"
"8/20/2021 12:00:00 AM","Corson County","South Dakota","Midwest","West North Central","46031","45.685671","-101.179665 ","531","12","4","0","8/19/2021 12:00:00 AM","2019","4086","NYTIMES-USCENSUS"
"8/20/2021 12:00:00 AM","Upson County","Georgia","South","South Atlantic","13293","32.881837","-84.292283 ","4127","135","48","0","8/19/2021 12:00:00 AM","2019","26320","NYTIMES-USCENSUS"
"8/20/2021 12:00:00 AM","Dane County","Wisconsin","Midwest","East North Central","55025","43.067468","-89.417852 ","49451","342","113","1","8/19/2021 12:00:00 AM","2019","546695","NYTIMES-USCENSUS"
"8/20/2021 12:00:00 AM","Franklin County","Ohio","Midwest","East North Central","39049","39.969875","-83.009086 ","135666","1507","379","3","8/19/2021 12:00:00 AM","2019","1316756","NYTIMES-USCENSUS"
"8/20/2021 12:00:00 AM","Rush County","Indiana","Midwest","East North Central","18139","39.622362","-85.466529 ","1961","27","7","0","8/19/2021 12:00:00 AM","2019","16581","NYTIMES-USCENSUS"
"8/20/2021 12:00:00 AM","Catawba County","North Carolina","South","South Atlantic","37035","35.661883","-81.214906 ","22039","315","121","1","8/19/2021 12:00:00 AM","2019","159551","NYTIMES-USCENSUS"
"8/20/2021 12:00:00 AM","Marion County","Oregon","West","Pacific","41047","44.900898","-122.57626 ","26895","342","166","0","8/19/2021 12:00:00 AM","2019","347818","NYTIMES-USCENSUS"
"8/20/2021 12:00:00 AM","Tyler County","Texas","South","West South Central","48457","30.769295","-94.375656 ","1728","49","18","0","8/19/2021 12:00:00 AM","2019","21672","NYTIMES-USCENSUS"
"8/20/2021 12:00:00 AM","Hardin County","Illinois","Midwest","East North Central","17069","37.517852","-88.266148 ","480","12","11","0","8/19/2021 12:00:00 AM","2019","3821","NYTIMES-USCENSUS"
"8/20/2021 12:00:00 AM","Ashtabula County","Ohio","Midwest","East North Central","39007","41.906637","-80.745592 ","7468","182","16","0","8/19/2021 12:00:00 AM","2019","97241","NYTIMES-USCENSUS"
"8/20/2021 12:00:00 AM","Victoria County","Texas","South","West South Central","48469","28.79637","-96.971198 ","10941","248","55","0","8/19/2021 12:00:00 AM","2019","92084","NYTIMES-USCENSUS"
"8/20/2021 12:00:00 AM","Franklin County","Florida","South","South Atlantic","12037","29.677794","-84.815213 ","1787","20","89","0","8/19/2021 12:00:00 AM","2019","12125","NYTIMES-USCENSUS"
"8/20/2021 12:00:00 AM","Audrain County","Missouri","Midwest","West North Central","29007","39.214481","-91.843418 ","3302","59","3","0","8/19/2021 12:00:00 AM","2019","25388","NYTIMES-USCENSUS"
"8/20/2021 12:00:00 AM","Roberts County","South Dakota","Midwest","West North Central","46109","45.623397","-96.947551 ","1424","43","1","0","8/19/2021 12:00:00 AM","2019","10394","NYTIMES-USCENSUS"
"8/20/2021 12:00:00 AM","Montgomery County","Ohio","Midwest","East North Central","39113","39.753736","-84.290591 ","56908","1077","209","3","8/19/2021 12:00:00 AM","2019","531687","NYTIMES-USCENSUS"
"8/20/2021 12:00:00 AM","Crawford County","Iowa","Midwest","West North Central","19047","42.043119","-95.38909 ","2887","43","0","0","8/19/2021 12:00:00 AM","2019","16820","NYTIMES-USCENSUS"
"8/20/2021 12:00:00 AM","Warren County","Pennsylvania","Northeast","Middle Atlantic","42123","41.834298","-79.298182 ","2727","107","9","0","8/19/2021 12:00:00 AM","2019","39191","NYTIMES-USCENSUS"
"8/20/2021 12:00:00 AM","Bristol city","Virginia","South","South Atlantic","51520","36.616954","-82.157564 ","1755","39","7","0","8/19/2021 12:00:00 AM","2019","16762","NYTIMES-USCENSUS"
"8/20/2021 12:00:00 AM","Virginia Beach city","Virginia","South","South Atlantic","51810","36.779525","-76.029142 ","40203","426","183","0","8/19/2021 12:00:00 AM","2019","449974","NYTIMES-USCENSUS"
"8/20/2021 12:00:00 AM","McClain County","Oklahoma","South","West South Central","40087","35.016436","-97.449803 ","6093","75","0","0","8/19/2021 12:00:00 AM","2019","40474","NYTIMES-USCENSUS"
"8/20/2021 12:00:00 AM","Marquette County","Michigan","Midwest","East North Central","26103","46.656596","-87.584028 ","6040","66","26","0","8/19/2021 12:00:00 AM","2019","66699","NYTIMES-USCENSUS"
"8/20/2021 12:00:00 AM","Archuleta County","Colorado","West","Mountain","08007","37.202395","-107.050863 ","1225","2","9","0","8/19/2021 12:00:00 AM","2019","14029","NYTIMES-USCENSUS"
"8/20/2021 12:00:00 AM","Williamson County","Texas","South","West South Central","48491","30.649082","-97.605065 ","58613","516","274","4","8/19/2021 12:00:00 AM","2019","590551","NYTIMES-USCENSUS"
"8/20/2021 12:00:00 AM","Allen County","Kentucky","South","East South Central","21003","36.75077","-86.192458 ","2544","48","33","1","8/19/2021 12:00:00 AM","2019","21315","NYTIMES-USCENSUS"
"8/20/2021 12:00:00 AM","Todd County","Minnesota","Midwest","West North Central","27153","46.066569","-94.900576 ","2982","33","7","0","8/19/2021 12:00:00 AM","2019","24664","NYTIMES-USCENSUS"
"8/20/2021 12:00:00 AM","Camden County","North Carolina","South","South Atlantic","37029","36.342344","-76.162488 ","745","7","4","0","8/19/2021 12:00:00 AM","2019","10867","NYTIMES-USCENSUS"
"8/20/2021 12:00:00 AM","Kit Carson County","Colorado","West","Mountain","08063","39.30534","-102.603023 ","706","14","0","0","8/19/2021 12:00:00 AM","2019","7097","NYTIMES-USCENSUS"
"8/20/2021 12:00:00 AM","Phillips County","Colorado","West","Mountain","08095","40.594712","-102.345105 ","413","13","0","0","8/19/2021 12:00:00 AM","2019","4265","NYTIMES-USCENSUS"
"8/20/2021 12:00:00 AM","Callahan County","Texas","South","West South Central","48059","32.29315","-99.372249 ","1353","43","6","0","8/19/2021 12:00:00 AM","2019","13943","NYTIMES-USCENSUS"
"8/20/2021 12:00:00 AM","Muskegon County","Michigan","Midwest","East North Central","26121","43.428739","-86.420908 ","19096","386","96","0","8/19/2021 12:00:00 AM","2019","173566","NYTIMES-USCENSUS"
"8/20/2021 12:00:00 AM","Kimble County","Texas","South","West South Central","48267","30.479472","-99.746396 ","348","8","0","0","8/19/2021 12:00:00 AM","2019","4337","NYTIMES-USCENSUS"
"8/20/2021 12:00:00 AM","Ottawa County","Ohio","Midwest","East North Central","39123","41.545495","-83.012613 ","3889","82","11","0","8/19/2021 12:00:00 AM","2019","40525","NYTIMES-USCENSUS"
"8/20/2021 12:00:00 AM","Monroe County","Tennessee","South","East South Central","47123","35.447818","-84.249705 ","6757","98","72","0","8/19/2021 12:00:00 AM","2019","46545","NYTIMES-USCENSUS"
"8/20/2021 12:00:00 AM","Jerome County","Idaho","West","Mountain","16053","42.691395","-114.262086 ","2922","27","31","0","8/19/2021 12:00:00 AM","2019","24412","NYTIMES-USCENSUS"
"8/20/2021 12:00:00 AM","Hardin County","Ohio","Midwest","East North Central","39065","40.660415","-83.664077 ","2888","66","10","0","8/19/2021 12:00:00 AM","2019","31365","NYTIMES-USCENSUS"
"8/20/2021 12:00:00 AM","Converse County","Wyoming","West","Mountain","56009","42.984623","-105.524752 ","1303","20","13","0","8/19/2021 12:00:00 AM","2019","13822","NYTIMES-USCENSUS"
"8/20/2021 12:00:00 AM","Frederick County","Virginia","South","South Atlantic","51069","39.20366","-78.263829 ","8806","104","39","0","8/19/2021 12:00:00 AM","2019","89313","NYTIMES-USCENSUS"
"8/20/2021 12:00:00 AM","Lavaca County","Texas","South","West South Central","48285","29.382578","-96.923633 ","2769","77","18","0","8/19/2021 12:00:00 AM","2019","20154","NYTIMES-USCENSUS"
"8/20/2021 12:00:00 AM","Montgomery County","Maryland","South","South Atlantic","24031","39.137381","-77.203063 ","74428","1642","168","0","8/19/2021 12:00:00 AM","2019","1050688","NYTIMES-USCENSUS"
"8/20/2021 12:00:00 AM","Wright County","Minnesota","Midwest","West North Central","27171","45.175091","-93.966396 ","17067","156","38","0","8/19/2021 12:00:00 AM","2019","138377","NYTIMES-USCENSUS"
"8/20/2021 12:00:00 AM","Grant County","Indiana","Midwest","East North Central","18053","40.515758","-85.654946 ","8231","190","23","0","8/19/2021 12:00:00 AM","2019","65769","NYTIMES-USCENSUS"
"8/20/2021 12:00:00 AM","St. James Parish","Louisiana","South","West South Central","22093","30.024777","-90.793956 ","2881","57","24","0","8/19/2021 12:00:00 AM","2019","21096","NYTIMES-USCENSUS"
"8/20/2021 12:00:00 AM","Pasquotank County","North Carolina","South","South Atlantic","37139","36.265199","-76.260691 ","3716","88","20","0","8/19/2021 12:00:00 AM","2019","39824","NYTIMES-USCENSUS"
"8/20/2021 12:00:00 AM","Livingston County","Michigan","Midwest","East North Central","26093","42.602532","-83.911718 ","17736","200","136","0","8/19/2021 12:00:00 AM","2019","191995","NYTIMES-USCENSUS"
"8/20/2021 12:00:00 AM","Sullivan County","Pennsylvania","Northeast","Middle Atlantic","42113","41.439285","-76.511717 ","453","21","2","0","8/19/2021 12:00:00 AM","2019","6066","NYTIMES-USCENSUS"
"8/20/2021 12:00:00 AM","Sebastian County","Arkansas","South","West South Central","05131","35.196981","-94.274989 ","18458","302","101","3","8/19/2021 12:00:00 AM","2019","127827","NYTIMES-USCENSUS"
"8/20/2021 12:00:00 AM","Effingham County","Georgia","South","South Atlantic","13103","32.361688","-81.343355 ","6181","82","103","3","8/19/2021 12:00:00 AM","2019","64296","NYTIMES-USCENSUS"
"8/20/2021 12:00:00 AM","Santa Rosa County","Florida","South","South Atlantic","12113","30.675348","-87.018919 ","24195","291","1536","0","8/19/2021 12:00:00 AM","2019","184313","NYTIMES-USCENSUS"
"8/20/2021 12:00:00 AM","Henry County","Ohio","Midwest","East North Central","39069","41.331584","-84.0689 ","2855","67","7","0","8/19/2021 12:00:00 AM","2019","27006","NYTIMES-USCENSUS"
"8/20/2021 12:00:00 AM","Lafayette County","Florida","South","South Atlantic","12067","29.990066","-83.17851 ","1920","26","71","0","8/19/2021 12:00:00 AM","2019","8422","NYTIMES-USCENSUS"
"8/20/2021 12:00:00 AM","Decatur County","Georgia","South","South Atlantic","13087","30.880643","-84.58389 ","3666","78","61","0","8/19/2021 12:00:00 AM","2019","26404","NYTIMES-USCENSUS"
"8/20/2021 12:00:00 AM","Kenton County","Kentucky","South","East South Central","21117","38.930503","-84.533438 ","18757","220","82","0","8/19/2021 12:00:00 AM","2019","166998","NYTIMES-USCENSUS"
"8/20/2021 12:00:00 AM","Maverick County","Texas","South","West South Central","48323","28.729787","-100.316678 ","11722","366","9","0","8/19/2021 12:00:00 AM","2019","58722","NYTIMES-USCENSUS"
"8/20/2021 12:00:00 AM","St. Mary Parish","Louisiana","South","West South Central","22101","29.629349","-91.463804 ","7498","171","80","1","8/19/2021 12:00:00 AM","2019","49348","NYTIMES-USCENSUS"
"8/20/2021 12:00:00 AM","Chattahoochee County","Georgia","South","South Atlantic","13053","32.347445","-84.788021 ","5030","17","7","0","8/19/2021 12:00:00 AM","2019","10907","NYTIMES-USCENSUS"
"8/20/2021 12:00:00 AM","Iredell County","North Carolina","South","South Atlantic","37097","35.806251","-80.874524 ","21762","240","117","0","8/19/2021 12:00:00 AM","2019","181806","NYTIMES-USCENSUS"
"8/20/2021 12:00:00 AM","Lee County","North Carolina","South","South Atlantic","37105","35.476336","-79.172117 ","7172","87","34","0","8/19/2021 12:00:00 AM","2019","61779","NYTIMES-USCENSUS"
"8/20/2021 12:00:00 AM","Gulf County","Florida","South","South Atlantic","12045","29.859238","-85.272013 ","2600","45","78","0","8/19/2021 12:00:00 AM","2019","13639","NYTIMES-USCENSUS"
"8/20/2021 12:00:00 AM","Lee County","Virginia","South","South Atlantic","51105","36.701721","-83.130112 ","2575","48","4","0","8/19/2021 12:00:00 AM","2019","23423","NYTIMES-USCENSUS"
"8/20/2021 12:00:00 AM","Autauga County","Alabama","South","East South Central","01001","32.532237","-86.64644 ","8199","115","37","0","8/19/2021 12:00:00 AM","2019","55869","NYTIMES-USCENSUS"
"8/20/2021 12:00:00 AM","Gray County","Texas","South","West South Central","48179","35.402542","-100.812374 ","2720","59","18","0","8/19/2021 12:00:00 AM","2019","21886","NYTIMES-USCENSUS"
"8/20/2021 12:00:00 AM","St. John the Baptist Parish","Louisiana","South","West South Central","22095","30.144068","-90.49096 ","5497","149","45","0","8/19/2021 12:00:00 AM","2019","42837","NYTIMES-USCENSUS"
"8/20/2021 12:00:00 AM","Clark County","Nevada","West","Mountain","32003","36.21413","-115.014398 ","296722","5032","700","18","8/19/2021 12:00:00 AM","2019","2266715","NYTIMES-USCENSUS"
"8/20/2021 12:00:00 AM","Live Oak County","Texas","South","West South Central","48297","28.351535","-98.126961 ","1266","23","0","0","8/19/2021 12:00:00 AM","2019","12207","NYTIMES-USCENSUS"
"8/20/2021 12:00:00 AM","Choctaw County","Mississippi","South","East South Central","28019","33.345964","-89.251332 ","1005","21","15","0","8/19/2021 12:00:00 AM","2019","8210","NYTIMES-USCENSUS"
"8/20/2021 12:00:00 AM","Duval County","Florida","South","South Atlantic","12031","30.335245","-81.648113 ","144249","1483","5346","0","8/19/2021 12:00:00 AM","2019","957755","NYTIMES-USCENSUS"
"8/20/2021 12:00:00 AM","Saline County","Missouri","Midwest","West North Central","29195","39.13584","-93.204164 ","3368","40","21","0","8/19/2021 12:00:00 AM","2019","22761","NYTIMES-USCENSUS"
"8/20/2021 12:00:00 AM","Henry County","Kentucky","South","East South Central","21103","38.451383","-85.119647 ","1734","21","15","0","8/19/2021 12:00:00 AM","2019","16126","NYTIMES-USCENSUS"
"8/20/2021 12:00:00 AM","Vermilion Parish","Louisiana","South","West South Central","22113","29.789722","-92.291568 ","8376","143","68","0","8/19/2021 12:00:00 AM","2019","59511","NYTIMES-USCENSUS"
"8/20/2021 12:00:00 AM","Fentress County","Tennessee","South","East South Central","47049","36.369892","-84.937764 ","2685","50","6","0","8/19/2021 12:00:00 AM","2019","18523","NYTIMES-USCENSUS"
"8/20/2021 12:00:00 AM","Clark County","South Dakota","Midwest","West North Central","46025","44.855211","-97.724912 ","468","5","0","0","8/19/2021 12:00:00 AM","2019","3736","NYTIMES-USCENSUS"
"8/20/2021 12:00:00 AM","Humphreys County","Tennessee","South","East South Central","47085","36.040822","-87.790453 ","2259","32","26","0","8/19/2021 12:00:00 AM","2019","18582","NYTIMES-USCENSUS"
"8/20/2021 12:00:00 AM","Caldwell Parish","Louisiana","South","West South Central","22021","32.101219","-92.114231 ","1474","30","13","0","8/19/2021 12:00:00 AM","2019","9918","NYTIMES-USCENSUS"
"8/20/2021 12:00:00 AM","Morgan County","Missouri","Midwest","West North Central","29141","38.420806","-92.874835 ","2290","49","14","0","8/19/2021 12:00:00 AM","2019","20627","NYTIMES-USCENSUS"
"8/20/2021 12:00:00 AM","Buffalo County","Wisconsin","Midwest","East North Central","55011","44.385633","-91.761294 ","1496","7","4","0","8/19/2021 12:00:00 AM","2019","13031","NYTIMES-USCENSUS"
"8/20/2021 12:00:00 AM","Martin County","Indiana","Midwest","East North Central","18101","38.705322","-86.801847 ","1002","15","9","0","8/19/2021 12:00:00 AM","2019","10255","NYTIMES-USCENSUS"
"8/20/2021 12:00:00 AM","Garrard County","Kentucky","South","East South Central","21079","37.630162","-84.545856 ","1777","37","7","0","8/19/2021 12:00:00 AM","2019","17666","NYTIMES-USCENSUS"
"8/20/2021 12:00:00 AM","Perquimans County","North Carolina","South","South Atlantic","37143","36.180897","-76.403244 ","1128","11","5","0","8/19/2021 12:00:00 AM","2019","13463","NYTIMES-USCENSUS"
"8/20/2021 12:00:00 AM","Weld County","Colorado","West","Mountain","08123","40.555961","-104.383666 ","36232","360","148","0","8/19/2021 12:00:00 AM","2019","324492","NYTIMES-USCENSUS"
"8/20/2021 12:00:00 AM","Mineral County","Nevada","West","Mountain","32021","38.516647","-118.416279 ","378","8","7","0","8/19/2021 12:00:00 AM","2019","4505","NYTIMES-USCENSUS"
"8/20/2021 12:00:00 AM","Horry County","South Carolina","South","South Atlantic","45051","33.909269","-78.976675 ","47401","635","397","3","8/19/2021 12:00:00 AM","2019","354081","NYTIMES-USCENSUS"
"8/20/2021 12:00:00 AM","Coal County","Oklahoma","South","West South Central","40029","34.582861","-96.288039 ","804","15","0","0","8/19/2021 12:00:00 AM","2019","5495","NYTIMES-USCENSUS"
"8/20/2021 12:00:00 AM","Elkhart County","Indiana","Midwest","East North Central","18039","41.600693","-85.863986 ","30655","492","63","0","8/19/2021 12:00:00 AM","2019","206341","NYTIMES-USCENSUS"
"8/20/2021 12:00:00 AM","Columbia County","Arkansas","South","West South Central","05027","33.223038","-93.232843 ","2829","60","24","0","8/19/2021 12:00:00 AM","2019","23457","NYTIMES-USCENSUS"
"8/20/2021 12:00:00 AM","Lackawanna County","Pennsylvania","Northeast","Middle Atlantic","42069","41.440284","-75.609666 ","19132","489","29","2","8/19/2021 12:00:00 AM","2019","209674","NYTIMES-USCENSUS"
"8/20/2021 12:00:00 AM","Carbon County","Montana","West","Mountain","30009","45.224468","-109.028554 ","977","18","6","0","8/19/2021 12:00:00 AM","2019","10725","NYTIMES-USCENSUS"
"8/20/2021 12:00:00 AM","Clatsop County","Oregon","West","Pacific","41007","46.024509","-123.705037 ","1664","11","34","0","8/19/2021 12:00:00 AM","2019","40224","NYTIMES-USCENSUS"
"8/20/2021 12:00:00 AM","Sac County","Iowa","Midwest","West North Central","19161","42.387526","-95.105224 ","1365","20","0","0","8/19/2021 12:00:00 AM","2019","9721","NYTIMES-USCENSUS"
"8/20/2021 12:00:00 AM","Quitman County","Georgia","South","South Atlantic","13239","31.862938","-85.004798 ","193","3","0","0","8/19/2021 12:00:00 AM","2019","2299","NYTIMES-USCENSUS"
"8/20/2021 12:00:00 AM","Wilcox County","Alabama","South","East South Central","01131","31.990082","-87.304935 ","1378","32","0","0","8/19/2021 12:00:00 AM","2019","10373","NYTIMES-USCENSUS"
"8/20/2021 12:00:00 AM","Greene County","Georgia","South","South Atlantic","13133","33.576704","-83.166625 ","2209","64","25","0","8/19/2021 12:00:00 AM","2019","18324","NYTIMES-USCENSUS"
"8/20/2021 12:00:00 AM","Storey County","Nevada","West","Mountain","32029","39.438385","-119.524646 ","137","4","1","0","8/19/2021 12:00:00 AM","2019","4123","NYTIMES-USCENSUS"
"8/20/2021 12:00:00 AM","Bastrop County","Texas","South","West South Central","48021","30.100772","-97.310639 ","11622","116","51","0","8/19/2021 12:00:00 AM","2019","88723","NYTIMES-USCENSUS"
"8/20/2021 12:00:00 AM","Tooele County","Utah","West","Mountain","49045","40.467753","-113.123979 ","8646","50","15","0","8/19/2021 12:00:00 AM","2019","72259","NYTIMES-USCENSUS"
"8/20/2021 12:00:00 AM","Madison County","Alabama","South","East South Central","01089","34.764238","-86.55108 ","40694","539","235","0","8/19/2021 12:00:00 AM","2019","372909","NYTIMES-USCENSUS"
"8/20/2021 12:00:00 AM","Gates County","North Carolina","South","South Atlantic","37073","36.442135","-76.702355 ","813","13","2","0","8/19/2021 12:00:00 AM","2019","11562","NYTIMES-USCENSUS"
"8/20/2021 12:00:00 AM","Petersburg city","Virginia","South","South Atlantic","51730","37.20473","-77.392368 ","4263","92","16","0","8/19/2021 12:00:00 AM","2019","31346","NYTIMES-USCENSUS"
"8/20/2021 12:00:00 AM","Polk County","Tennessee","South","East South Central","47139","35.109437","-84.541112 ","2368","25","17","0","8/19/2021 12:00:00 AM","2019","16832","NYTIMES-USCENSUS"
"8/20/2021 12:00:00 AM","Livingston County","New York","Northeast","Middle Atlantic","36051","42.729042","-77.778463 ","4660","60","9","0","8/19/2021 12:00:00 AM","2019","62914","NYTIMES-USCENSUS"
"8/20/2021 12:00:00 AM","Washington County","Oregon","West","Pacific","41067","45.553542","-123.097615 ","30158","262","169","-1","8/19/2021 12:00:00 AM","2019","601592","NYTIMES-USCENSUS"
"8/20/2021 12:00:00 AM","Lee County","Alabama","South","East South Central","01081","32.604064","-85.353048 ","18994","191","119","0","8/19/2021 12:00:00 AM","2019","164542","NYTIMES-USCENSUS"
"8/20/2021 12:00:00 AM","Okmulgee County","Oklahoma","South","West South Central","40111","35.6435","-95.965947 ","4581","89","0","0","8/19/2021 12:00:00 AM","2019","38465","NYTIMES-USCENSUS"
"8/20/2021 12:00:00 AM","Monroe County","Missouri","Midwest","West North Central","29137","39.49827","-92.006458 ","1163","12","6","0","8/19/2021 12:00:00 AM","2019","8644","NYTIMES-USCENSUS"
"8/20/2021 12:00:00 AM","Faulkner County","Arkansas","South","West South Central","05045","35.146548","-92.336928 ","16825","182","73","0","8/19/2021 12:00:00 AM","2019","126007","NYTIMES-USCENSUS"
"8/20/2021 12:00:00 AM","Hillsborough County","Florida","South","South Atlantic","12057","27.88761","-82.374417 ","193819","1832","11263","0","8/19/2021 12:00:00 AM","2019","1471968","NYTIMES-USCENSUS"
"8/20/2021 12:00:00 AM","Warrick County","Indiana","Midwest","East North Central","18173","38.097728","-87.272049 ","8993","161","54","0","8/19/2021 12:00:00 AM","2019","62998","NYTIMES-USCENSUS"
"8/20/2021 12:00:00 AM","Franklin County","Idaho","West","Mountain","16041","42.173609","-111.822965 ","1308","19","10","0","8/19/2021 12:00:00 AM","2019","13876","NYTIMES-USCENSUS"
"8/20/2021 12:00:00 AM","Henderson County","Tennessee","South","East South Central","47077","35.653994","-88.387674 ","4209","80","24","0","8/19/2021 12:00:00 AM","2019","28117","NYTIMES-USCENSUS"
"8/20/2021 12:00:00 AM","Scott County","Tennessee","South","East South Central","47151","36.435234","-84.50352 ","3451","49","21","0","8/19/2021 12:00:00 AM","2019","22068","NYTIMES-USCENSUS"
"8/20/2021 12:00:00 AM","Washington County","Texas","South","West South Central","48477","30.215075","-96.410272 ","4779","102","8","0","8/19/2021 12:00:00 AM","2019","35882","NYTIMES-USCENSUS"
"8/20/2021 12:00:00 AM","Huron County","Michigan","Midwest","East North Central","26063","43.907616","-82.857045 ","4209","84","12","0","8/19/2021 12:00:00 AM","2019","30981","NYTIMES-USCENSUS"
"8/20/2021 12:00:00 AM","Yankton County","South Dakota","Midwest","West North Central","46135","43.006603","-97.388361 ","3147","33","4","0","8/19/2021 12:00:00 AM","2019","22814","NYTIMES-USCENSUS"
"8/20/2021 12:00:00 AM","Coles County","Illinois","Midwest","East North Central","17029","39.51368","-88.220782 ","6288","104","36","0","8/19/2021 12:00:00 AM","2019","50621","NYTIMES-USCENSUS"
"8/20/2021 12:00:00 AM","Lake County","South Dakota","Midwest","West North Central","46079","44.02845","-97.123223 ","1413","20","1","0","8/19/2021 12:00:00 AM","2019","12797","NYTIMES-USCENSUS"
"8/20/2021 12:00:00 AM","Yell County","Arkansas","South","West South Central","05149","34.997713","-93.408303 ","3887","66","21","0","8/19/2021 12:00:00 AM","2019","21341","NYTIMES-USCENSUS"
"8/20/2021 12:00:00 AM","Howard County","Missouri","Midwest","West North Central","29089","39.143365","-92.695926 ","1227","9","2","0","8/19/2021 12:00:00 AM","2019","10001","NYTIMES-USCENSUS"
"8/20/2021 12:00:00 AM","Erie County","New York","Northeast","Middle Atlantic","36029","42.752759","-78.778192 ","92828","1832","140","2","8/19/2021 12:00:00 AM","2019","918702","NYTIMES-USCENSUS"
"8/20/2021 12:00:00 AM","Nassau County","Florida","South","South Atlantic","12089","30.605963","-81.765087 ","12665","127","549","0","8/19/2021 12:00:00 AM","2019","88625","NYTIMES-USCENSUS"
"8/20/2021 12:00:00 AM","Bell County","Texas","South","West South Central","48027","31.04275","-97.481268 ","30203","496","303","3","8/19/2021 12:00:00 AM","2019","362924","NYTIMES-USCENSUS"
"8/20/2021 12:00:00 AM","Conejos County","Colorado","West","Mountain","08021","37.213406","-106.176447 ","780","27","2","0","8/19/2021 12:00:00 AM","2019","8205","NYTIMES-USCENSUS"
"8/20/2021 12:00:00 AM","Ohio County","West Virginia","South","South Atlantic","54069","40.100323","-80.6199 ","4643","88","17","1","8/19/2021 12:00:00 AM","2019","41411","NYTIMES-USCENSUS"
"8/20/2021 12:00:00 AM","McIntosh County","Oklahoma","South","West South Central","40091","35.369108","-95.671787 ","2296","63","0","0","8/19/2021 12:00:00 AM","2019","19596","NYTIMES-USCENSUS"
"8/20/2021 12:00:00 AM","Bradford County","Pennsylvania","Northeast","Middle Atlantic","42015","41.791504","-76.502123 ","6242","97","7","0","8/19/2021 12:00:00 AM","2019","60323","NYTIMES-USCENSUS"
"8/20/2021 12:00:00 AM","Daviess County","Kentucky","South","East South Central","21059","37.731671","-87.087139 ","12915","207","105","0","8/19/2021 12:00:00 AM","2019","101511","NYTIMES-USCENSUS"
"8/20/2021 12:00:00 AM","Andrews County","Texas","South","West South Central","48003","32.312258","-102.640206 ","2036","48","0","0","8/19/2021 12:00:00 AM","2019","18705","NYTIMES-USCENSUS"
"8/20/2021 12:00:00 AM","Merced County","California","West","Pacific","06047","37.194806","-120.722802 ","35485","499","635","7","8/19/2021 12:00:00 AM","2019","277680","NYTIMES-USCENSUS"
"8/20/2021 12:00:00 AM","Phillips County","Arkansas","South","West South Central","05107","34.423687","-90.855593 ","2512","53","23","0","8/19/2021 12:00:00 AM","2019","17782","NYTIMES-USCENSUS"
"8/20/2021 12:00:00 AM","Morris County","Texas","South","West South Central","48343","33.116466","-94.731265 ","1188","40","11","0","8/19/2021 12:00:00 AM","2019","12388","NYTIMES-USCENSUS"
"8/20/2021 12:00:00 AM","Antelope County","Nebraska","Midwest","West North Central","31003","42.183225","-98.058037 ","622","8","0","0","8/19/2021 12:00:00 AM","2019","6298","NYTIMES-USCENSUS"
"8/20/2021 12:00:00 AM","DeKalb County","Tennessee","South","East South Central","47041","35.982219","-85.833596 ","3119","57","41","0","8/19/2021 12:00:00 AM","2019","20490","NYTIMES-USCENSUS"
"8/20/2021 12:00:00 AM","Webster County","Nebraska","Midwest","West North Central","31181","40.180646","-98.49859 ","424","8","0","0","8/19/2021 12:00:00 AM","2019","3487","NYTIMES-USCENSUS"
"8/20/2021 12:00:00 AM","Scotland County","North Carolina","South","South Atlantic","37165","34.840023","-79.477337 ","4466","94","36","0","8/19/2021 12:00:00 AM","2019","34823","NYTIMES-USCENSUS"
"8/20/2021 12:00:00 AM","Douglas County","Illinois","Midwest","East North Central","17041","39.766078","-88.222866 ","2780","42","13","0","8/19/2021 12:00:00 AM","2019","19465","NYTIMES-USCENSUS"
"8/20/2021 12:00:00 AM","Cherokee County","Georgia","South","South Atlantic","13057","34.244317","-84.475057 ","35897","347","242","0","8/19/2021 12:00:00 AM","2019","258773","NYTIMES-USCENSUS"
"8/20/2021 12:00:00 AM","Brown County","Indiana","Midwest","East North Central","18013","39.195113","-86.230121 ","1144","44","8","0","8/19/2021 12:00:00 AM","2019","15092","NYTIMES-USCENSUS"
"8/20/2021 12:00:00 AM","Winona County","Minnesota","Midwest","West North Central","27169","43.981353","-91.777044 ","4905","52","14","0","8/19/2021 12:00:00 AM","2019","50484","NYTIMES-USCENSUS"
"8/20/2021 12:00:00 AM","Bergen County","New Jersey","Northeast","Middle Atlantic","34003","40.959698","-74.074727 ","109346","2917","277","1","8/19/2021 12:00:00 AM","2019","932202","NYTIMES-USCENSUS"
"8/20/2021 12:00:00 AM","Washakie County","Wyoming","West","Mountain","56043","43.878831","-107.669052 ","984","26","2","0","8/19/2021 12:00:00 AM","2019","7805","NYTIMES-USCENSUS"
"8/20/2021 12:00:00 AM","Sumter County","Georgia","South","South Atlantic","13261","32.042266","-84.204294 ","3179","107","31","0","8/19/2021 12:00:00 AM","2019","29524","NYTIMES-USCENSUS"
"8/20/2021 12:00:00 AM","Douglas County","Nebraska","Midwest","West North Central","31055","41.297091","-96.154066 ","76231","743","141","0","8/19/2021 12:00:00 AM","2019","571327","NYTIMES-USCENSUS"
"8/20/2021 12:00:00 AM","Newberry County","South Carolina","South","South Atlantic","45071","34.289881","-81.599676 ","5714","111","37","0","8/19/2021 12:00:00 AM","2019","38440","NYTIMES-USCENSUS"
"8/20/2021 12:00:00 AM","Clay County","Iowa","Midwest","West North Central","19041","43.081224","-95.149875 ","2208","27","0","0","8/19/2021 12:00:00 AM","2019","16016","NYTIMES-USCENSUS"
"8/20/2021 12:00:00 AM","Eddy County","North Dakota","Midwest","West North Central","38027","47.723436","-98.900474 ","471","6","1","0","8/19/2021 12:00:00 AM","2019","2287","NYTIMES-USCENSUS"
"8/20/2021 12:00:00 AM","Reno County","Kansas","Midwest","West North Central","20155","37.948185","-98.078346 ","9176","143","103","1","8/19/2021 12:00:00 AM","2019","61998","NYTIMES-USCENSUS"
"8/20/2021 12:00:00 AM","Mahnomen County","Minnesota","Midwest","West North Central","27087","47.328387","-95.811089 ","587","9","3","0","8/19/2021 12:00:00 AM","2019","5527","NYTIMES-USCENSUS"
"8/20/2021 12:00:00 AM","Camden County","Georgia","South","South Atlantic","13039","30.913358","-81.642019 ","5802","48","59","0","8/19/2021 12:00:00 AM","2019","54666","NYTIMES-USCENSUS"
"8/20/2021 12:00:00 AM","Oconto County","Wisconsin","Midwest","East North Central","55083","44.996575","-88.206516 ","5365","74","15","0","8/19/2021 12:00:00 AM","2019","37930","NYTIMES-USCENSUS"
"8/20/2021 12:00:00 AM","Orange County","Vermont","Northeast","New England","50017","44.003349","-72.369464 ","881","3","6","0","8/19/2021 12:00:00 AM","2019","28892","NYTIMES-USCENSUS"
"8/20/2021 12:00:00 AM","Douglas County","Missouri","Midwest","West North Central","29067","36.946517","-92.515892 ","1426","33","4","0","8/19/2021 12:00:00 AM","2019","13185","NYTIMES-USCENSUS"
"8/20/2021 12:00:00 AM","Claiborne County","Tennessee","South","East South Central","47025","36.501572","-83.660698 ","3605","79","36","1","8/19/2021 12:00:00 AM","2019","31959","NYTIMES-USCENSUS"
"8/20/2021 12:00:00 AM","Loudoun County","Virginia","South","South Atlantic","51107","39.0812","-77.638898 ","29644","284","63","0","8/19/2021 12:00:00 AM","2019","413538","NYTIMES-USCENSUS"
"8/20/2021 12:00:00 AM","Dillon County","South Carolina","South","South Atlantic","45033","34.390172","-79.374964 ","4895","88","22","1","8/19/2021 12:00:00 AM","2019","30479","NYTIMES-USCENSUS"
"8/20/2021 12:00:00 AM","Martin County","Florida","South","South Atlantic","12085","27.083604","-80.398201 ","16371","335","679","0","8/19/2021 12:00:00 AM","2019","161000","NYTIMES-USCENSUS"
"8/20/2021 12:00:00 AM","Lancaster County","Nebraska","Midwest","West North Central","31109","40.783547","-96.688658 ","34104","257","111","1","8/19/2021 12:00:00 AM","2019","319090","NYTIMES-USCENSUS"
"8/20/2021 12:00:00 AM","Mason County","Washington","West","Pacific","53045","47.350832","-123.173103 ","3500","41","35","0","8/19/2021 12:00:00 AM","2019","66768","NYTIMES-USCENSUS"
"8/20/2021 12:00:00 AM","Cerro Gordo County","Iowa","Midwest","West North Central","19033","43.074975","-93.250965 ","5830","98","0","0","8/19/2021 12:00:00 AM","2019","42450","NYTIMES-USCENSUS"
"8/20/2021 12:00:00 AM","Snyder County","Pennsylvania","Northeast","Middle Atlantic","42109","40.755407","-77.072929 ","3791","86","9","0","8/19/2021 12:00:00 AM","2019","40372","NYTIMES-USCENSUS"
"8/20/2021 12:00:00 AM","Washington County","Minnesota","Midwest","West North Central","27163","45.037929","-92.890117 ","28699","301","77","0","8/19/2021 12:00:00 AM","2019","262440","NYTIMES-USCENSUS"
"8/20/2021 12:00:00 AM","Bossier Parish","Louisiana","South","West South Central","22015","32.698481","-93.626561 ","18126","332","227","2","8/19/2021 12:00:00 AM","2019","127039","NYTIMES-USCENSUS"
"8/20/2021 12:00:00 AM","Blaine County","Idaho","West","Mountain","16013","43.394192","-113.955371 ","2500","19","4","0","8/19/2021 12:00:00 AM","2019","23021","NYTIMES-USCENSUS"
"8/20/2021 12:00:00 AM","Donley County","Texas","South","West South Central","48129","34.955036","-100.815846 ","448","15","0","0","8/19/2021 12:00:00 AM","2019","3278","NYTIMES-USCENSUS"
"8/20/2021 12:00:00 AM","Lorain County","Ohio","Midwest","East North Central","39093","41.438805","-82.179722 ","27221","515","72","2","8/19/2021 12:00:00 AM","2019","309833","NYTIMES-USCENSUS"
"8/20/2021 12:00:00 AM","Sangamon County","Illinois","Midwest","East North Central","17167","39.756886","-89.662435 ","21674","291","107","0","8/19/2021 12:00:00 AM","2019","194672","NYTIMES-USCENSUS"
"8/20/2021 12:00:00 AM","Millard County","Utah","West","Mountain","49027","38.956744","-113.133092 ","1670","17","10","0","8/19/2021 12:00:00 AM","2019","13188","NYTIMES-USCENSUS"
"8/20/2021 12:00:00 AM","Caldwell County","Texas","South","West South Central","48055","29.832399","-97.628141 ","6693","110","19","1","8/19/2021 12:00:00 AM","2019","43664","NYTIMES-USCENSUS"
"8/20/2021 12:00:00 AM","Lenoir County","North Carolina","South","South Atlantic","37107","35.240066","-77.635514 ","7009","130","44","1","8/19/2021 12:00:00 AM","2019","55949","NYTIMES-USCENSUS"
"8/20/2021 12:00:00 AM","Ste. Genevieve County","Missouri","Midwest","West North Central","29186","37.885845","-90.161531 ","2028","18","22","1","8/19/2021 12:00:00 AM","2019","17894","NYTIMES-USCENSUS"
"8/20/2021 12:00:00 AM","Wallowa County","Oregon","West","Pacific","41063","45.593753","-117.18558 ","332","6","5","0","8/19/2021 12:00:00 AM","2019","7208","NYTIMES-USCENSUS"
"8/20/2021 12:00:00 AM","Mille Lacs County","Minnesota","Midwest","West North Central","27095","45.929043","-93.632996 ","3265","58","13","0","8/19/2021 12:00:00 AM","2019","26277","NYTIMES-USCENSUS"
"8/20/2021 12:00:00 AM","Evans County","Georgia","South","South Atlantic","13109","32.153083","-81.890153 ","1298","35","7","0","8/19/2021 12:00:00 AM","2019","10654","NYTIMES-USCENSUS"
"8/20/2021 12:00:00 AM","Granville County","North Carolina","South","South Atlantic","37077","36.299884","-78.657634 ","6465","85","41","0","8/19/2021 12:00:00 AM","2019","60443","NYTIMES-USCENSUS"
"8/20/2021 12:00:00 AM","Lake County","Oregon","West","Pacific","41037","42.788401","-120.38979 ","493","8","0","0","8/19/2021 12:00:00 AM","2019","7869","NYTIMES-USCENSUS"
"8/20/2021 12:00:00 AM","Louisa County","Virginia","South","South Atlantic","51109","37.972704","-77.959795 ","2195","36","12","1","8/19/2021 12:00:00 AM","2019","37591","NYTIMES-USCENSUS"
"8/20/2021 12:00:00 AM","Wilson County","Texas","South","West South Central","48493","29.173883","-98.086734 ","5697","77","31","0","8/19/2021 12:00:00 AM","2019","51070","NYTIMES-USCENSUS"
"8/20/2021 12:00:00 AM","Todd County","South Dakota","Midwest","West North Central","46121","43.208794","-100.707664 ","1268","33","2","0","8/19/2021 12:00:00 AM","2019","10177","NYTIMES-USCENSUS"
"8/20/2021 12:00:00 AM","Ouray County","Colorado","West","Mountain","08091","38.154731","-107.78848 ","338","5","1","0","8/19/2021 12:00:00 AM","2019","4952","NYTIMES-USCENSUS"
"8/20/2021 12:00:00 AM","Simpson County","Mississippi","South","East South Central","28127","31.902505","-89.917709 ","3705","97","41","0","8/19/2021 12:00:00 AM","2019","26658","NYTIMES-USCENSUS"
"8/20/2021 12:00:00 AM","Wicomico County","Maryland","South","South Atlantic","24045","38.36737","-75.632083 ","8441","181","50","0","8/19/2021 12:00:00 AM","2019","103609","NYTIMES-USCENSUS"
"8/20/2021 12:00:00 AM","Unicoi County","Tennessee","South","East South Central","47171","36.100129","-82.418218 ","2254","52","21","1","8/19/2021 12:00:00 AM","2019","17883","NYTIMES-USCENSUS"
"8/20/2021 12:00:00 AM","Jefferson Davis Parish","Louisiana","South","West South Central","22053","30.269529","-92.816221 ","3981","104","34","1","8/19/2021 12:00:00 AM","2019","31368","NYTIMES-USCENSUS"
"8/20/2021 12:00:00 AM","Berrien County","Michigan","Midwest","East North Central","26021","41.791382","-86.742543 ","16213","303","96","0","8/19/2021 12:00:00 AM","2019","153401","NYTIMES-USCENSUS"
"8/20/2021 12:00:00 AM","Clark County","Ohio","Midwest","East North Central","39023","39.917032","-83.783676 ","14960","315","55","0","8/19/2021 12:00:00 AM","2019","134083","NYTIMES-USCENSUS"
"8/20/2021 12:00:00 AM","Worth County","Iowa","Midwest","West North Central","19195","43.373491","-93.248533 ","800","8","0","0","8/19/2021 12:00:00 AM","2019","7381","NYTIMES-USCENSUS"
"8/20/2021 12:00:00 AM","Coahoma County","Mississippi","South","East South Central","28027","34.230316","-90.60401 ","3385","88","19","2","8/19/2021 12:00:00 AM","2019","22124","NYTIMES-USCENSUS"
"8/20/2021 12:00:00 AM","Teller County","Colorado","West","Mountain","08119","38.869976","-105.187365 ","2042","19","1","0","8/19/2021 12:00:00 AM","2019","25388","NYTIMES-USCENSUS"
"8/20/2021 12:00:00 AM","Ray County","Missouri","Midwest","West North Central","29177","39.308401","-93.995746 ","2406","37","18","0","8/19/2021 12:00:00 AM","2019","23018","NYTIMES-USCENSUS"
"8/20/2021 12:00:00 AM","Ashland County","Ohio","Midwest","East North Central","39005","40.843273","-82.270127 ","4765","101","28","1","8/19/2021 12:00:00 AM","2019","53484","NYTIMES-USCENSUS"
"8/20/2021 12:00:00 AM","Pottawattamie County","Iowa","Midwest","West North Central","19155","41.340184","-95.544905 ","11921","178","0","0","8/19/2021 12:00:00 AM","2019","93206","NYTIMES-USCENSUS"
"8/20/2021 12:00:00 AM","Worth County","Missouri","Midwest","West North Central","29227","40.480499","-94.419198 ","203","2","1","0","8/19/2021 12:00:00 AM","2019","2013","NYTIMES-USCENSUS"
"8/20/2021 12:00:00 AM","Bedford County","Tennessee","South","East South Central","47003","35.51366","-86.458294 ","7280","135","49","0","8/19/2021 12:00:00 AM","2019","49713","NYTIMES-USCENSUS"
"8/20/2021 12:00:00 AM","Harrison County","Texas","South","West South Central","48203","32.547991","-94.374434 ","6603","118","48","1","8/19/2021 12:00:00 AM","2019","66553","NYTIMES-USCENSUS"
"8/20/2021 12:00:00 AM","Hampton County","South Carolina","South","South Atlantic","45049","32.778334","-81.143822 ","2302","55","40","1","8/19/2021 12:00:00 AM","2019","19222","NYTIMES-USCENSUS"
"8/20/2021 12:00:00 AM","Plaquemines Parish","Louisiana","South","West South Central","22075","29.282447","-89.576068 ","3411","31","11","0","8/19/2021 12:00:00 AM","2019","23197","NYTIMES-USCENSUS"
"8/20/2021 12:00:00 AM","Mercer County","Missouri","Midwest","West North Central","29129","40.421413","-93.567631 ","352","2","2","0","8/19/2021 12:00:00 AM","2019","3617","NYTIMES-USCENSUS"
"8/20/2021 12:00:00 AM","Gilpin County","Colorado","West","Mountain","08047","39.861156","-105.528878 ","310","3","1","0","8/19/2021 12:00:00 AM","2019","6243","NYTIMES-USCENSUS"
"8/20/2021 12:00:00 AM","Moniteau County","Missouri","Midwest","West North Central","29135","38.633037","-92.583642 ","2241","33","12","0","8/19/2021 12:00:00 AM","2019","16132","NYTIMES-USCENSUS"
"8/20/2021 12:00:00 AM","Crockett County","Tennessee","South","East South Central","47033","35.818795","-89.132494 ","2588","53","31","0","8/19/2021 12:00:00 AM","2019","14230","NYTIMES-USCENSUS"
"8/20/2021 12:00:00 AM","Polk County","Missouri","Midwest","West North Central","29167","37.616761","-93.400817 ","4691","51","21","0","8/19/2021 12:00:00 AM","2019","32149","NYTIMES-USCENSUS"
"8/20/2021 12:00:00 AM","Crow Wing County","Minnesota","Midwest","West North Central","27035","46.491653","-94.070718 ","7179","100","41","0","8/19/2021 12:00:00 AM","2019","65055","NYTIMES-USCENSUS"
"8/20/2021 12:00:00 AM","Richmond County","Virginia","South","South Atlantic","51159","37.942894","-76.730561 ","1362","12","7","0","8/19/2021 12:00:00 AM","2019","9023","NYTIMES-USCENSUS"
"8/20/2021 12:00:00 AM","Roane County","West Virginia","South","South Atlantic","54087","38.74295","-81.354494 ","746","9","11","-1","8/19/2021 12:00:00 AM","2019","13688","NYTIMES-USCENSUS"
"8/20/2021 12:00:00 AM","Centre County","Pennsylvania","Northeast","Middle Atlantic","42027","40.909128","-77.847877 ","17376","230","25","0","8/19/2021 12:00:00 AM","2019","162385","NYTIMES-USCENSUS"
"8/20/2021 12:00:00 AM","East Baton Rouge Parish","Louisiana","South","West South Central","22033","30.54393","-91.093131 ","56023","979","430","10","8/19/2021 12:00:00 AM","2019","440059","NYTIMES-USCENSUS"
"8/20/2021 12:00:00 AM","Randall County","Texas","South","West South Central","48381","34.962529","-101.895547 ","19374","326","84","3","8/19/2021 12:00:00 AM","2019","137713","NYTIMES-USCENSUS"
"8/20/2021 12:00:00 AM","Brown County","Illinois","Midwest","East North Central","17009","39.962069","-90.750309 ","935","12","11","0","8/19/2021 12:00:00 AM","2019","6578","NYTIMES-USCENSUS"
"8/20/2021 12:00:00 AM","Hardin County","Kentucky","South","East South Central","21093","37.695836","-85.963183 ","12143","175","144","0","8/19/2021 12:00:00 AM","2019","110958","NYTIMES-USCENSUS"
"8/20/2021 12:00:00 AM","Grant County","Washington","West","Pacific","53025","47.213633","-119.467788 ","12219","133","133","0","8/19/2021 12:00:00 AM","2019","97733","NYTIMES-USCENSUS"
"8/20/2021 12:00:00 AM","Grimes County","Texas","South","West South Central","48185","30.543231","-95.988082 ","4422","74","22","0","8/19/2021 12:00:00 AM","2019","28880","NYTIMES-USCENSUS"
"8/20/2021 12:00:00 AM","Hale County","Texas","South","West South Central","48189","34.068436","-101.822888 ","6548","161","0","0","8/19/2021 12:00:00 AM","2019","33406","NYTIMES-USCENSUS"
"8/20/2021 12:00:00 AM","Wood County","West Virginia","South","South Atlantic","54107","39.211602","-81.516234 ","8600","180","61","2","8/19/2021 12:00:00 AM","2019","83518","NYTIMES-USCENSUS"
"8/20/2021 12:00:00 AM","Ascension Parish","Louisiana","South","West South Central","22005","30.206444","-90.912502 ","19106","196","210","2","8/19/2021 12:00:00 AM","2019","126604","NYTIMES-USCENSUS"
"8/20/2021 12:00:00 AM","Lawrence County","Alabama","South","East South Central","01079","34.529776","-87.321865 ","3501","100","18","0","8/19/2021 12:00:00 AM","2019","32924","NYTIMES-USCENSUS"
"8/20/2021 12:00:00 AM","Beaufort County","South Carolina","South","South Atlantic","45013","32.358112","-80.689422 ","21167","223","267","2","8/19/2021 12:00:00 AM","2019","192122","NYTIMES-USCENSUS"
"8/20/2021 12:00:00 AM","Hancock County","Tennessee","South","East South Central","47067","36.521353","-83.227493 ","731","13","7","0","8/19/2021 12:00:00 AM","2019","6620","NYTIMES-USCENSUS"
"8/20/2021 12:00:00 AM","Washington County","Oklahoma","South","West South Central","40147","36.704403","-95.906253 ","6540","130","0","0","8/19/2021 12:00:00 AM","2019","51527","NYTIMES-USCENSUS"
"8/20/2021 12:00:00 AM","Jim Wells County","Texas","South","West South Central","48249","27.733516","-98.090814 ","5609","118","39","2","8/19/2021 12:00:00 AM","2019","40482","NYTIMES-USCENSUS"
"8/20/2021 12:00:00 AM","Gonzales County","Texas","South","West South Central","48177","29.461912","-97.49192 ","2999","60","7","0","8/19/2021 12:00:00 AM","2019","20837","NYTIMES-USCENSUS"
"8/20/2021 12:00:00 AM","Tate County","Mississippi","South","East South Central","28137","34.649553","-89.943105 ","3731","89","25","0","8/19/2021 12:00:00 AM","2019","28321","NYTIMES-USCENSUS"
"8/20/2021 12:00:00 AM","Pettis County","Missouri","Midwest","West North Central","29159","38.727367","-93.285207 ","6324","83","23","0","8/19/2021 12:00:00 AM","2019","42339","NYTIMES-USCENSUS"
"8/20/2021 12:00:00 AM","McIntosh County","Georgia","South","South Atlantic","13191","31.485629","-81.372141 ","1172","17","32","1","8/19/2021 12:00:00 AM","2019","14378","NYTIMES-USCENSUS"
"8/20/2021 12:00:00 AM","Northampton County","Virginia","South","South Atlantic","51131","37.302775","-75.924018 ","852","37","3","0","8/19/2021 12:00:00 AM","2019","11710","NYTIMES-USCENSUS"
"8/20/2021 12:00:00 AM","Benton County","Oregon","West","Pacific","41003","44.493882","-123.424664 ","3867","22","19","0","8/19/2021 12:00:00 AM","2019","93053","NYTIMES-USCENSUS"
"8/20/2021 12:00:00 AM","Green County","Kentucky","South","East South Central","21087","37.278065","-85.537925 ","1509","18","46","0","8/19/2021 12:00:00 AM","2019","10941","NYTIMES-USCENSUS"
"8/20/2021 12:00:00 AM","Blount County","Alabama","South","East South Central","01009","33.977358","-86.56644 ","8018","142","41","0","8/19/2021 12:00:00 AM","2019","57826","NYTIMES-USCENSUS"
"8/20/2021 12:00:00 AM","Walton County","Georgia","South","South Atlantic","13297","33.783887","-83.731829 ","12343","268","89","0","8/19/2021 12:00:00 AM","2019","94593","NYTIMES-USCENSUS"
"8/20/2021 12:00:00 AM","San Joaquin County","California","West","Pacific","06077","37.934982","-121.272244 ","86514","1491","446","0","8/19/2021 12:00:00 AM","2019","762148","NYTIMES-USCENSUS"
"8/20/2021 12:00:00 AM","Bexar County","Texas","South","West South Central","48029","29.448671","-98.520147 ","270223","3834","1241","20","8/19/2021 12:00:00 AM","2019","2003554","NYTIMES-USCENSUS"
"8/20/2021 12:00:00 AM","Cameron County","Texas","South","West South Central","48061","26.102923","-97.478958 ","56720","1750","413","8","8/19/2021 12:00:00 AM","2019","423163","NYTIMES-USCENSUS"
"8/20/2021 12:00:00 AM","Blackford County","Indiana","Midwest","East North Central","18009","40.472672","-85.32373 ","1440","33","6","0","8/19/2021 12:00:00 AM","2019","11758","NYTIMES-USCENSUS"
"8/20/2021 12:00:00 AM","Chautauqua County","Kansas","Midwest","West North Central","20019","37.154259","-96.245396 ","323","7","8","0","8/19/2021 12:00:00 AM","2019","3250","NYTIMES-USCENSUS"
"8/20/2021 12:00:00 AM","Miller County","Arkansas","South","West South Central","05091","33.305505","-93.901502 ","5213","39","30","0","8/19/2021 12:00:00 AM","2019","43257","NYTIMES-USCENSUS"
"8/20/2021 12:00:00 AM","Oldham County","Kentucky","South","East South Central","21185","38.400127","-85.45615 ","8415","86","38","1","8/19/2021 12:00:00 AM","2019","66799","NYTIMES-USCENSUS"
"8/20/2021 12:00:00 AM","Le Sueur County","Minnesota","Midwest","West North Central","27079","44.373424","-93.730143 ","3127","28","6","0","8/19/2021 12:00:00 AM","2019","28887","NYTIMES-USCENSUS"
"8/20/2021 12:00:00 AM","Newaygo County","Michigan","Midwest","East North Central","26123","43.562712","-85.791372 ","5034","70","23","0","8/19/2021 12:00:00 AM","2019","48980","NYTIMES-USCENSUS"
"8/20/2021 12:00:00 AM","Queen Anne's County","Maryland","South","South Atlantic","24035","39.040693","-76.082405 ","3167","56","9","0","8/19/2021 12:00:00 AM","2019","50381","NYTIMES-USCENSUS"
"8/20/2021 12:00:00 AM","Anoka County","Minnesota","Midwest","West North Central","27003","45.27411","-93.242723 ","44898","470","116","0","8/19/2021 12:00:00 AM","2019","356921","NYTIMES-USCENSUS"
"8/20/2021 12:00:00 AM","Allegan County","Michigan","Midwest","East North Central","26005","42.421251","-86.261403 ","11765","164","66","0","8/19/2021 12:00:00 AM","2019","118081","NYTIMES-USCENSUS"
"8/20/2021 12:00:00 AM","Prince George's County","Maryland","South","South Atlantic","24033","38.829278","-76.848188 ","89880","1616","196","0","8/19/2021 12:00:00 AM","2019","909327","NYTIMES-USCENSUS"
"8/20/2021 12:00:00 AM","St. Martin Parish","Louisiana","South","West South Central","22099","30.121433","-91.611481 ","7352","128","32","1","8/19/2021 12:00:00 AM","2019","53431","NYTIMES-USCENSUS"
"8/20/2021 12:00:00 AM","De Baca County","New Mexico","West","Mountain","35011","34.359273","-104.368696 ","202","2","0","0","8/19/2021 12:00:00 AM","2019","1748","NYTIMES-USCENSUS"
"8/20/2021 12:00:00 AM","Logan County","Oklahoma","South","West South Central","40083","35.914277","-97.450952 ","4756","67","0","0","8/19/2021 12:00:00 AM","2019","48011","NYTIMES-USCENSUS"
"8/20/2021 12:00:00 AM","Laclede County","Missouri","Midwest","West North Central","29105","37.659698","-92.594843 ","4768","98","17","0","8/19/2021 12:00:00 AM","2019","35723","NYTIMES-USCENSUS"
"8/20/2021 12:00:00 AM","Lanier County","Georgia","South","South Atlantic","13173","31.038197","-83.063164 ","1084","14","14","0","8/19/2021 12:00:00 AM","2019","10423","NYTIMES-USCENSUS"
"8/20/2021 12:00:00 AM","Shelby County","Missouri","Midwest","West North Central","29205","39.797531","-92.088719 ","760","7","6","0","8/19/2021 12:00:00 AM","2019","5930","NYTIMES-USCENSUS"
"8/20/2021 12:00:00 AM","Norman County","Minnesota","Midwest","West North Central","27107","47.329453","-96.463776 ","575","9","3","0","8/19/2021 12:00:00 AM","2019","6375","NYTIMES-USCENSUS"
"8/20/2021 12:00:00 AM","Lunenburg County","Virginia","South","South Atlantic","51111","36.945555","-78.240528 ","842","17","3","0","8/19/2021 12:00:00 AM","2019","12196","NYTIMES-USCENSUS"
"8/20/2021 12:00:00 AM","Montgomery County","Tennessee","South","East South Central","47125","36.500354","-87.380887 ","23879","238","126","0","8/19/2021 12:00:00 AM","2019","208993","NYTIMES-USCENSUS"
"8/20/2021 12:00:00 AM","Cache County","Utah","West","Mountain","49005","41.734117","-111.745399 ","17728","56","40","0","8/19/2021 12:00:00 AM","2019","128289","NYTIMES-USCENSUS"
"8/20/2021 12:00:00 AM","Stanley County","South Dakota","Midwest","West North Central","46117","44.413984","-100.747822 ","364","2","2","0","8/19/2021 12:00:00 AM","2019","3098","NYTIMES-USCENSUS"
"8/20/2021 12:00:00 AM","Cumberland County","Pennsylvania","Northeast","Middle Atlantic","42041","40.164805","-77.263442 ","21640","535","53","0","8/19/2021 12:00:00 AM","2019","253370","NYTIMES-USCENSUS"
"8/20/2021 12:00:00 AM","Marshall County","Indiana","Midwest","East North Central","18099","41.325003","-86.269036 ","6601","119","36","0","8/19/2021 12:00:00 AM","2019","46258","NYTIMES-USCENSUS"
"8/20/2021 12:00:00 AM","Calhoun County","Illinois","Midwest","East North Central","17013","39.164262","-90.666295 ","581","5","9","0","8/19/2021 12:00:00 AM","2019","4739","NYTIMES-USCENSUS"
"8/20/2021 12:00:00 AM","Harrison County","Iowa","Midwest","West North Central","19085","41.688584","-95.827149 ","1870","75","0","0","8/19/2021 12:00:00 AM","2019","14049","NYTIMES-USCENSUS"
"8/20/2021 12:00:00 AM","Clay County","Tennessee","South","East South Central","47027","36.545749","-85.545717 ","1175","30","11","0","8/19/2021 12:00:00 AM","2019","7615","NYTIMES-USCENSUS"
"8/20/2021 12:00:00 AM","Madison County","Georgia","South","South Atlantic","13195","34.128526","-83.203737 ","3697","57","21","0","8/19/2021 12:00:00 AM","2019","29880","NYTIMES-USCENSUS"
"8/20/2021 12:00:00 AM","Fresno County","California","West","Pacific","06019","36.761006","-119.655019 ","120949","1759","424","0","8/19/2021 12:00:00 AM","2019","999101","NYTIMES-USCENSUS"
"8/20/2021 12:00:00 AM","Cochise County","Arizona","West","Mountain","04003","31.840129","-109.775163 ","12774","302","30","1","8/19/2021 12:00:00 AM","2019","125922","NYTIMES-USCENSUS"
"8/20/2021 12:00:00 AM","Covington city","Virginia","South","South Atlantic","51580","37.78106","-79.985434 ","632","14","2","0","8/19/2021 12:00:00 AM","2019","5538","NYTIMES-USCENSUS"
"8/20/2021 12:00:00 AM","Sevier County","Tennessee","South","East South Central","47155","35.787822","-83.5249 ","15324","190","98","3","8/19/2021 12:00:00 AM","2019","98250","NYTIMES-USCENSUS"
"8/20/2021 12:00:00 AM","Sierra County","California","West","Pacific","06091","39.576925","-120.521993 ","97","0","0","0","8/19/2021 12:00:00 AM","2019","3005","NYTIMES-USCENSUS"
"8/20/2021 12:00:00 AM","Robertson County","Texas","South","West South Central","48395","31.025481","-96.514941 ","2474","51","9","1","8/19/2021 12:00:00 AM","2019","17074","NYTIMES-USCENSUS"
"8/20/2021 12:00:00 AM","Tippah County","Mississippi","South","East South Central","28139","34.763618","-88.918819 ","3713","74","79","0","8/19/2021 12:00:00 AM","2019","22015","NYTIMES-USCENSUS"
"8/20/2021 12:00:00 AM","Hancock County","Iowa","Midwest","West North Central","19081","43.075411","-93.743697 ","1581","34","0","0","8/19/2021 12:00:00 AM","2019","10630","NYTIMES-USCENSUS"
"8/20/2021 12:00:00 AM","Carbon County","Utah","West","Mountain","49007","39.673284","-110.588484 ","1971","20","3","0","8/19/2021 12:00:00 AM","2019","20463","NYTIMES-USCENSUS"
"8/20/2021 12:00:00 AM","Fountain County","Indiana","Midwest","East North Central","18045","40.121237","-87.234872 ","2558","53","15","0","8/19/2021 12:00:00 AM","2019","16346","NYTIMES-USCENSUS"
"8/20/2021 12:00:00 AM","Alpine County","California","West","Pacific","06003","38.621783","-119.798352 ","91","0","0","0","8/19/2021 12:00:00 AM","2019","1129","NYTIMES-USCENSUS"
"8/20/2021 12:00:00 AM","Allen Parish","Louisiana","South","West South Central","22003","30.652744","-92.819605 ","3945","94","19","0","8/19/2021 12:00:00 AM","2019","25627","NYTIMES-USCENSUS"
"8/20/2021 12:00:00 AM","York County","Maine","Northeast","New England","23031","43.426019","-70.668425 ","14312","143","41","0","8/19/2021 12:00:00 AM","2019","207641","NYTIMES-USCENSUS"
"8/20/2021 12:00:00 AM","Litchfield County","Connecticut","Northeast","New England","09005","41.791883","-73.235404 ","15304","299","16","0","8/19/2021 12:00:00 AM","2019","180333","NYTIMES-USCENSUS"
"8/20/2021 12:00:00 AM","Newton County","Texas","South","West South Central","48351","30.786718","-93.73925 ","738","38","7","0","8/19/2021 12:00:00 AM","2019","13595","NYTIMES-USCENSUS"
"8/20/2021 12:00:00 AM","Wasatch County","Utah","West","Mountain","49051","40.334884","-111.161568 ","5141","23","15","1","8/19/2021 12:00:00 AM","2019","34091","NYTIMES-USCENSUS"
"8/20/2021 12:00:00 AM","Cumberland County","North Carolina","South","South Atlantic","37051","35.050192","-78.828719 ","35643","365","193","11","8/19/2021 12:00:00 AM","2019","335509","NYTIMES-USCENSUS"
"8/20/2021 12:00:00 AM","Lincoln County","Montana","West","Mountain","30053","48.552385","-115.463185 ","1866","28","11","0","8/19/2021 12:00:00 AM","2019","19980","NYTIMES-USCENSUS"
"8/20/2021 12:00:00 AM","Benton County","Arkansas","South","West South Central","05007","36.337819","-94.256298 ","36048","475","158","0","8/19/2021 12:00:00 AM","2019","279141","NYTIMES-USCENSUS"
"8/20/2021 12:00:00 AM","Sullivan County","New Hampshire","Northeast","New England","33019","43.361188","-72.222084 ","2026","27","15","0","8/19/2021 12:00:00 AM","2019","43146","NYTIMES-USCENSUS"
"8/20/2021 12:00:00 AM","Lewis County","Kentucky","South","East South Central","21135","38.535047","-83.370143 ","1674","44","16","0","8/19/2021 12:00:00 AM","2019","13275","NYTIMES-USCENSUS"
"8/20/2021 12:00:00 AM","Barbour County","Alabama","South","East South Central","01005","31.870253","-85.405104 ","2833","65","12","0","8/19/2021 12:00:00 AM","2019","24686","NYTIMES-USCENSUS"
"8/20/2021 12:00:00 AM","Juneau City and Borough","Alaska","West","Pacific","02110","58.37291","-134.178445 ","1990","3","28","0","8/19/2021 12:00:00 AM","2019","31974","NYTIMES-USCENSUS"
"8/20/2021 12:00:00 AM","Douglas County","Washington","West","Pacific","53017","47.741763","-119.694622 ","4374","25","36","0","8/19/2021 12:00:00 AM","2019","43429","NYTIMES-USCENSUS"
"8/20/2021 12:00:00 AM","Van Wert County","Ohio","Midwest","East North Central","39161","40.85552","-84.585775 ","2667","65","6","0","8/19/2021 12:00:00 AM","2019","28275","NYTIMES-USCENSUS"
"8/20/2021 12:00:00 AM","Lenawee County","Michigan","Midwest","East North Central","26091","41.896022","-84.074356 ","11277","181","62","0","8/19/2021 12:00:00 AM","2019","98451","NYTIMES-USCENSUS"
"8/20/2021 12:00:00 AM","Calvert County","Maryland","South","South Atlantic","24009","38.522719","-76.529762 ","4507","87","8","0","8/19/2021 12:00:00 AM","2019","92525","NYTIMES-USCENSUS"
"8/20/2021 12:00:00 AM","Matanuska-Susitna Borough","Alaska","West","Pacific","02170","62.265626","-149.503993 ","12963","63","77","0","8/19/2021 12:00:00 AM","2019","108317","NYTIMES-USCENSUS"
"8/20/2021 12:00:00 AM","Lincoln County","South Dakota","Midwest","West North Central","46083","43.27942","-96.722286 ","8939","78","21","0","8/19/2021 12:00:00 AM","2019","61128","NYTIMES-USCENSUS"
"8/20/2021 12:00:00 AM","Nemaha County","Kansas","Midwest","West North Central","20131","39.791043","-96.005381 ","1673","56","26","1","8/19/2021 12:00:00 AM","2019","10231","NYTIMES-USCENSUS"
"8/20/2021 12:00:00 AM","Davison County","South Dakota","Midwest","West North Central","46035","43.680439","-98.155868 ","3296","69","3","0","8/19/2021 12:00:00 AM","2019","19775","NYTIMES-USCENSUS"
"8/20/2021 12:00:00 AM","Stevens County","Washington","West","Pacific","53065","48.388728","-117.854455 ","2795","33","20","0","8/19/2021 12:00:00 AM","2019","45723","NYTIMES-USCENSUS"
"8/20/2021 12:00:00 AM","Montezuma County","Colorado","West","Mountain","08083","37.338025","-108.595786 ","2275","28","13","0","8/19/2021 12:00:00 AM","2019","26183","NYTIMES-USCENSUS"
"8/20/2021 12:00:00 AM","Brooks County","Georgia","South","South Atlantic","13027","30.822934","-83.581905 ","1899","52","19","1","8/19/2021 12:00:00 AM","2019","15457","NYTIMES-USCENSUS"
"8/20/2021 12:00:00 AM","LaSalle Parish","Louisiana","South","West South Central","22059","31.680083","-92.161596 ","2228","39","19","0","8/19/2021 12:00:00 AM","2019","14892","NYTIMES-USCENSUS"
"8/20/2021 12:00:00 AM","Pickens County","Georgia","South","South Atlantic","13227","34.456746","-84.490351 ","4154","81","27","0","8/19/2021 12:00:00 AM","2019","32591","NYTIMES-USCENSUS"
"8/20/2021 12:00:00 AM","Stephens County","Georgia","South","South Atlantic","13257","34.553582","-83.290588 ","3475","81","22","0","8/19/2021 12:00:00 AM","2019","25925","NYTIMES-USCENSUS"
"8/20/2021 12:00:00 AM","Oscoda County","Michigan","Midwest","East North Central","26135","44.687257","-84.126905 ","706","31","1","0","8/19/2021 12:00:00 AM","2019","8241","NYTIMES-USCENSUS"
"8/20/2021 12:00:00 AM","Carter County","Missouri","Midwest","West North Central","29035","36.944858","-90.945705 ","754","11","31","0","8/19/2021 12:00:00 AM","2019","5982","NYTIMES-USCENSUS"
"8/20/2021 12:00:00 AM","Bacon County","Georgia","South","South Atlantic","13005","31.55021","-82.451433 ","1999","43","14","1","8/19/2021 12:00:00 AM","2019","11164","NYTIMES-USCENSUS"
"8/20/2021 12:00:00 AM","Henry County","Virginia","South","South Atlantic","51089","36.620612","-79.980662 ","4974","125","15","1","8/19/2021 12:00:00 AM","2019","50557","NYTIMES-USCENSUS"
"8/20/2021 12:00:00 AM","Fayette County","Pennsylvania","Northeast","Middle Atlantic","42051","39.918907","-79.640119 ","13847","335","33","0","8/19/2021 12:00:00 AM","2019","129274","NYTIMES-USCENSUS"
"8/20/2021 12:00:00 AM","Muscatine County","Iowa","Midwest","West North Central","19139","41.483776","-91.118699 ","5131","106","0","0","8/19/2021 12:00:00 AM","2019","42664","NYTIMES-USCENSUS"
"8/20/2021 12:00:00 AM","Chambers County","Texas","South","West South Central","48071","29.696374","-94.669445 ","6696","72","49","1","8/19/2021 12:00:00 AM","2019","43837","NYTIMES-USCENSUS"
"8/20/2021 12:00:00 AM","DeKalb County","Missouri","Midwest","West North Central","29063","39.894665","-94.40719 ","1302","33","4","0","8/19/2021 12:00:00 AM","2019","12547","NYTIMES-USCENSUS"
"8/20/2021 12:00:00 AM","Arenac County","Michigan","Midwest","East North Central","26011","44.036833","-83.740675 ","1261","29","8","0","8/19/2021 12:00:00 AM","2019","14883","NYTIMES-USCENSUS"
"8/20/2021 12:00:00 AM","Manassas city","Virginia","South","South Atlantic","51683","38.746808","-77.482633 ","4458","49","13","1","8/19/2021 12:00:00 AM","2019","41085","NYTIMES-USCENSUS"
"8/20/2021 12:00:00 AM","Sheridan County","Nebraska","Midwest","West North Central","31161","42.512289","-102.36828 ","547","21","0","0","8/19/2021 12:00:00 AM","2019","5246","NYTIMES-USCENSUS"
"8/20/2021 12:00:00 AM","Wythe County","Virginia","South","South Atlantic","51197","36.899867","-81.083001 ","3148","82","22","0","8/19/2021 12:00:00 AM","2019","28684","NYTIMES-USCENSUS"
"8/20/2021 12:00:00 AM","Mitchell County","Texas","South","West South Central","48335","32.304117","-100.924392 ","678","32","0","0","8/19/2021 12:00:00 AM","2019","8545","NYTIMES-USCENSUS"
"8/20/2021 12:00:00 AM","Washington County","Colorado","West","Mountain","08121","39.96579","-103.209744 ","482","13","1","0","8/19/2021 12:00:00 AM","2019","4908","NYTIMES-USCENSUS"
"8/20/2021 12:00:00 AM","Saguache County","Colorado","West","Mountain","08109","38.031651","-106.234666 ","489","8","2","0","8/19/2021 12:00:00 AM","2019","6824","NYTIMES-USCENSUS"
"8/20/2021 12:00:00 AM","Webster County","Mississippi","South","East South Central","28155","33.612061","-89.283961 ","1511","32","12","0","8/19/2021 12:00:00 AM","2019","9689","NYTIMES-USCENSUS"
"8/20/2021 12:00:00 AM","Cass County","Indiana","Midwest","East North Central","18017","40.753799","-86.355168 ","6354","115","15","0","8/19/2021 12:00:00 AM","2019","37689","NYTIMES-USCENSUS"
"8/20/2021 12:00:00 AM","Harrison County","Ohio","Midwest","East North Central","39067","40.292318","-81.091565 ","1218","38","5","0","8/19/2021 12:00:00 AM","2019","15040","NYTIMES-USCENSUS"
"8/20/2021 12:00:00 AM","Mason County","West Virginia","South","South Atlantic","54053","38.770914","-82.029007 ","2298","40","10","0","8/19/2021 12:00:00 AM","2019","26516","NYTIMES-USCENSUS"
"8/20/2021 12:00:00 AM","Hays County","Texas","South","West South Central","48209","30.061225","-98.029267 ","26438","296","134","0","8/19/2021 12:00:00 AM","2019","230191","NYTIMES-USCENSUS"
"8/20/2021 12:00:00 AM","Harlan County","Nebraska","Midwest","West North Central","31083","40.178766","-99.403418 ","241","0","11","0","8/19/2021 12:00:00 AM","2019","3380","NYTIMES-USCENSUS"
"8/20/2021 12:00:00 AM","Wells County","Indiana","Midwest","East North Central","18179","40.735273","-85.212974 ","3264","83","8","0","8/19/2021 12:00:00 AM","2019","28296","NYTIMES-USCENSUS"
"8/20/2021 12:00:00 AM","Giles County","Virginia","South","South Atlantic","51071","37.318072","-80.698321 ","1434","24","9","0","8/19/2021 12:00:00 AM","2019","16720","NYTIMES-USCENSUS"
"8/20/2021 12:00:00 AM","Colbert County","Alabama","South","East South Central","01033","34.703112","-87.801457 ","7314","145","26","0","8/19/2021 12:00:00 AM","2019","55241","NYTIMES-USCENSUS"
"8/20/2021 12:00:00 AM","Shelby County","Indiana","Midwest","East North Central","18145","39.524135","-85.792174 ","6425","109","19","0","8/19/2021 12:00:00 AM","2019","44729","NYTIMES-USCENSUS"
"8/20/2021 12:00:00 AM","Sioux County","North Dakota","Midwest","West North Central","38085","46.110618","-101.061284 ","687","12","3","0","8/19/2021 12:00:00 AM","2019","4230","NYTIMES-USCENSUS"
"8/20/2021 12:00:00 AM","Perry County","Indiana","Midwest","East North Central","18123","38.081436","-86.62654 ","2141","41","21","0","8/19/2021 12:00:00 AM","2019","19169","NYTIMES-USCENSUS"
"8/20/2021 12:00:00 AM","Wagoner County","Oklahoma","South","West South Central","40145","35.963388","-95.514201 ","9733","131","0","0","8/19/2021 12:00:00 AM","2019","81289","NYTIMES-USCENSUS"
"8/20/2021 12:00:00 AM","Wahkiakum County","Washington","West","Pacific","53069","46.294638","-123.424458 ","193","5","1","0","8/19/2021 12:00:00 AM","2019","4488","NYTIMES-USCENSUS"
"8/20/2021 12:00:00 AM","Lampasas County","Texas","South","West South Central","48281","31.196731","-98.240889 ","2671","39","20","1","8/19/2021 12:00:00 AM","2019","21428","NYTIMES-USCENSUS"
"8/20/2021 12:00:00 AM","Owen County","Indiana","Midwest","East North Central","18119","39.317339","-86.838845 ","2421","62","15","0","8/19/2021 12:00:00 AM","2019","20799","NYTIMES-USCENSUS"
"8/20/2021 12:00:00 AM","Johnston County","North Carolina","South","South Atlantic","37101","35.513419","-78.367348 ","25575","252","189","1","8/19/2021 12:00:00 AM","2019","209339","NYTIMES-USCENSUS"
"8/20/2021 12:00:00 AM","Rock Island County","Illinois","Midwest","East North Central","17161","41.468421","-90.572125 ","16132","374","71","0","8/19/2021 12:00:00 AM","2019","141879","NYTIMES-USCENSUS"
"8/20/2021 12:00:00 AM","Henderson County","Illinois","Midwest","East North Central","17071","40.814471","-90.941246 ","565","23","5","0","8/19/2021 12:00:00 AM","2019","6646","NYTIMES-USCENSUS"
"8/20/2021 12:00:00 AM","Muskogee County","Oklahoma","South","West South Central","40101","35.617551","-95.383911 ","10804","189","0","0","8/19/2021 12:00:00 AM","2019","67997","NYTIMES-USCENSUS"
"8/20/2021 12:00:00 AM","Dubois County","Indiana","Midwest","East North Central","18037","38.373344","-86.873385 ","6631","119","22","0","8/19/2021 12:00:00 AM","2019","42736","NYTIMES-USCENSUS"
"8/20/2021 12:00:00 AM","Charlton County","Georgia","South","South Atlantic","13049","30.779904","-82.139644 ","1935","40","7","0","8/19/2021 12:00:00 AM","2019","13392","NYTIMES-USCENSUS"
"8/20/2021 12:00:00 AM","Johnson County","Kansas","Midwest","West North Central","20091","38.883907","-94.82233 ","67490","816","962","6","8/19/2021 12:00:00 AM","2019","602401","NYTIMES-USCENSUS"
"8/20/2021 12:00:00 AM","Metcalfe County","Kentucky","South","East South Central","21169","36.99243","-85.633456 ","1288","31","6","0","8/19/2021 12:00:00 AM","2019","10071","NYTIMES-USCENSUS"
"8/20/2021 12:00:00 AM","Highlands County","Florida","South","South Atlantic","12055","27.34108","-81.342353 ","11346","366","734","0","8/19/2021 12:00:00 AM","2019","106221","NYTIMES-USCENSUS"
"8/20/2021 12:00:00 AM","Santa Cruz County","California","West","Pacific","06087","37.012347","-122.007789 ","18597","209","78","0","8/19/2021 12:00:00 AM","2019","273213","NYTIMES-USCENSUS"
"8/20/2021 12:00:00 AM","Cherokee County","Oklahoma","South","West South Central","40021","35.904367","-94.996796 ","6717","80","0","0","8/19/2021 12:00:00 AM","2019","48657","NYTIMES-USCENSUS"
"8/20/2021 12:00:00 AM","Grant County","North Dakota","Midwest","West North Central","38037","46.357827","-101.639049 ","216","7","1","0","8/19/2021 12:00:00 AM","2019","2274","NYTIMES-USCENSUS"
"8/20/2021 12:00:00 AM","Cannon County","Tennessee","South","East South Central","47015","35.808394","-86.062404 ","2117","32","16","0","8/19/2021 12:00:00 AM","2019","14678","NYTIMES-USCENSUS"
"8/20/2021 12:00:00 AM","Rio Grande County","Colorado","West","Mountain","08105","37.485853","-106.453128 ","997","20","4","0","8/19/2021 12:00:00 AM","2019","11267","NYTIMES-USCENSUS"
"8/20/2021 12:00:00 AM","Webster County","Missouri","Midwest","West North Central","29225","37.280804","-92.87608 ","5109","78","7","0","8/19/2021 12:00:00 AM","2019","39592","NYTIMES-USCENSUS"
"8/20/2021 12:00:00 AM","Franklin city","Virginia","South","South Atlantic","51620","36.684014","-76.941396 ","1219","33","2","0","8/19/2021 12:00:00 AM","2019","7967","NYTIMES-USCENSUS"
"8/20/2021 12:00:00 AM","Chesterfield County","Virginia","South","South Atlantic","51041","37.378434","-77.585847 ","31012","458","144","0","8/19/2021 12:00:00 AM","2019","352802","NYTIMES-USCENSUS"
"8/20/2021 12:00:00 AM","Lincoln County","Oklahoma","South","West South Central","40081","35.703117","-96.881392 ","3756","76","0","0","8/19/2021 12:00:00 AM","2019","34877","NYTIMES-USCENSUS"
"8/20/2021 12:00:00 AM","Gage County","Nebraska","Midwest","West North Central","31067","40.255234","-96.683453 ","2155","20","0","0","8/19/2021 12:00:00 AM","2019","21513","NYTIMES-USCENSUS"
"8/20/2021 12:00:00 AM","Ouachita County","Arkansas","South","West South Central","05103","33.591168","-92.878413 ","2971","67","10","0","8/19/2021 12:00:00 AM","2019","23382","NYTIMES-USCENSUS"
"8/20/2021 12:00:00 AM","Hale County","Alabama","South","East South Central","01065","32.752796","-87.623061 ","2522","80","5","1","8/19/2021 12:00:00 AM","2019","14651","NYTIMES-USCENSUS"
"8/20/2021 12:00:00 AM","Valley County","Nebraska","Midwest","West North Central","31175","41.564094","-98.983484 ","344","2","0","0","8/19/2021 12:00:00 AM","2019","4158","NYTIMES-USCENSUS"
"8/20/2021 12:00:00 AM","Pontotoc County","Mississippi","South","East South Central","28115","34.227081","-89.037239 ","5039","80","51","2","8/19/2021 12:00:00 AM","2019","32174","NYTIMES-USCENSUS"
"8/20/2021 12:00:00 AM","Poquoson city","Virginia","South","South Atlantic","51735","37.12836","-76.303534 ","971","18","3","0","8/19/2021 12:00:00 AM","2019","12271","NYTIMES-USCENSUS"
"8/20/2021 12:00:00 AM","Coffey County","Kansas","Midwest","West North Central","20031","38.23645","-95.729137 ","832","24","22","0","8/19/2021 12:00:00 AM","2019","8179","NYTIMES-USCENSUS"
"8/20/2021 12:00:00 AM","Sarpy County","Nebraska","Midwest","West North Central","31153","41.115064","-96.109125 ","23439","136","50","0","8/19/2021 12:00:00 AM","2019","187196","NYTIMES-USCENSUS"
"8/20/2021 12:00:00 AM","Sanilac County","Michigan","Midwest","East North Central","26151","43.449155","-82.642815 ","4338","126","13","0","8/19/2021 12:00:00 AM","2019","41170","NYTIMES-USCENSUS"
"8/20/2021 12:00:00 AM","Shackelford County","Texas","South","West South Central","48417","32.74382","-99.347005 ","310","5","4","0","8/19/2021 12:00:00 AM","2019","3265","NYTIMES-USCENSUS"
"8/20/2021 12:00:00 AM","Jackson County","Texas","South","West South Central","48239","28.959802","-96.58908 ","2136","33","5","0","8/19/2021 12:00:00 AM","2019","14760","NYTIMES-USCENSUS"
"8/20/2021 12:00:00 AM","Marshall County","Minnesota","Midwest","West North Central","27089","48.362728","-96.357761 ","929","18","3","0","8/19/2021 12:00:00 AM","2019","9336","NYTIMES-USCENSUS"
"8/20/2021 12:00:00 AM","Custer County","Oklahoma","South","West South Central","40039","35.645601","-98.997386 ","4329","106","0","0","8/19/2021 12:00:00 AM","2019","29003","NYTIMES-USCENSUS"
"8/20/2021 12:00:00 AM","Watauga County","North Carolina","South","South Atlantic","37189","36.235368","-81.709888 ","5294","33","19","0","8/19/2021 12:00:00 AM","2019","56177","NYTIMES-USCENSUS"
"8/20/2021 12:00:00 AM","Huntington County","Indiana","Midwest","East North Central","18069","40.826394","-85.478597 ","5009","86","59","0","8/19/2021 12:00:00 AM","2019","36520","NYTIMES-USCENSUS"
"8/20/2021 12:00:00 AM","Mercer County","Illinois","Midwest","East North Central","17131","41.205605","-90.74177 ","1617","34","12","0","8/19/2021 12:00:00 AM","2019","15437","NYTIMES-USCENSUS"
"8/20/2021 12:00:00 AM","Bibb County","Georgia","South","South Atlantic","13021","32.808845","-83.694194 ","20011","480","181","0","8/19/2021 12:00:00 AM","2019","153159","NYTIMES-USCENSUS"
"8/20/2021 12:00:00 AM","Craven County","North Carolina","South","South Atlantic","37049","35.116829","-77.08132 ","10452","130","90","0","8/19/2021 12:00:00 AM","2019","102139","NYTIMES-USCENSUS"
"8/20/2021 12:00:00 AM","Flathead County","Montana","West","Mountain","30029","48.295422","-114.052059 ","14063","116","61","0","8/19/2021 12:00:00 AM","2019","103806","NYTIMES-USCENSUS"
"8/20/2021 12:00:00 AM","Geauga County","Ohio","Midwest","East North Central","39055","41.499322","-81.173505 ","7270","153","19","0","8/19/2021 12:00:00 AM","2019","93649","NYTIMES-USCENSUS"
"8/20/2021 12:00:00 AM","DeKalb County","Georgia","South","South Atlantic","13089","33.770661","-84.226343 ","76226","1104","323","3","8/19/2021 12:00:00 AM","2019","759297","NYTIMES-USCENSUS"
"8/20/2021 12:00:00 AM","Toombs County","Georgia","South","South Atlantic","13279","32.117753","-82.330597 ","4353","124","30","0","8/19/2021 12:00:00 AM","2019","26830","NYTIMES-USCENSUS"
"8/20/2021 12:00:00 AM","Sussex County","Virginia","South","South Atlantic","51183","36.926645","-77.259732 ","1283","23","5","0","8/19/2021 12:00:00 AM","2019","11159","NYTIMES-USCENSUS"
"8/20/2021 12:00:00 AM","Caldwell County","Kentucky","South","East South Central","21033","37.148642","-87.870509 ","1676","32","13","0","8/19/2021 12:00:00 AM","2019","12747","NYTIMES-USCENSUS"
"8/20/2021 12:00:00 AM","Apache County","Arizona","West","Mountain","04001","35.385084","-109.490172 ","12172","445","31","2","8/19/2021 12:00:00 AM","2019","71887","NYTIMES-USCENSUS"
"8/20/2021 12:00:00 AM","Caldwell County","Missouri","Midwest","West North Central","29025","39.658998","-93.979179 ","1012","18","5","0","8/19/2021 12:00:00 AM","2019","9020","NYTIMES-USCENSUS"
"8/20/2021 12:00:00 AM","Marshall County","Oklahoma","South","West South Central","40095","34.027007","-96.770533 ","2289","24","0","0","8/19/2021 12:00:00 AM","2019","16931","NYTIMES-USCENSUS"
"8/20/2021 12:00:00 AM","Towns County","Georgia","South","South Atlantic","13281","34.902529","-83.732264 ","1437","61","9","0","8/19/2021 12:00:00 AM","2019","12037","NYTIMES-USCENSUS"
"8/20/2021 12:00:00 AM","Kaufman County","Texas","South","West South Central","48257","32.598944","-96.288377 ","18763","285","60","0","8/19/2021 12:00:00 AM","2019","136154","NYTIMES-USCENSUS"
"8/20/2021 12:00:00 AM","Talbot County","Maryland","South","South Atlantic","24041","38.748349","-76.178476 ","2300","46","3","0","8/19/2021 12:00:00 AM","2019","37181","NYTIMES-USCENSUS"
"8/20/2021 12:00:00 AM","Chariton County","Missouri","Midwest","West North Central","29041","39.517968","-92.96162 ","901","8","6","0","8/19/2021 12:00:00 AM","2019","7426","NYTIMES-USCENSUS"
"8/20/2021 12:00:00 AM","Warren County","North Carolina","South","South Atlantic","37185","36.398105","-78.099899 ","1901","20","4","0","8/19/2021 12:00:00 AM","2019","19731","NYTIMES-USCENSUS"
"8/20/2021 12:00:00 AM","Turner County","Georgia","South","South Atlantic","13287","31.7248","-83.620319 ","1330","42","11","0","8/19/2021 12:00:00 AM","2019","7985","NYTIMES-USCENSUS"
"8/20/2021 12:00:00 AM","Jackson County","Mississippi","South","East South Central","28059","30.456005","-88.625101 ","19371","275","257","2","8/19/2021 12:00:00 AM","2019","143617","NYTIMES-USCENSUS"
"8/20/2021 12:00:00 AM","Stephenson County","Illinois","Midwest","East North Central","17177","42.349726","-89.665994 ","5036","106","8","0","8/19/2021 12:00:00 AM","2019","44498","NYTIMES-USCENSUS"
"8/20/2021 12:00:00 AM","Skamania County","Washington","West","Pacific","53059","46.024785","-121.953232 ","464","2","2","0","8/19/2021 12:00:00 AM","2019","12083","NYTIMES-USCENSUS"
"8/20/2021 12:00:00 AM","Oglala Lakota County","South Dakota","Midwest","West North Central","46102","43.333393","-102.561486 ","2154","50","1","0","8/19/2021 12:00:00 AM","2019","14177","NYTIMES-USCENSUS"
"8/20/2021 12:00:00 AM","Gentry County","Missouri","Midwest","West North Central","29075","40.208127","-94.405321 ","1065","23","6","0","8/19/2021 12:00:00 AM","2019","6571","NYTIMES-USCENSUS"
"8/20/2021 12:00:00 AM","Zavala County","Texas","South","West South Central","48507","28.864652","-99.75983 ","2095","46","4","3","8/19/2021 12:00:00 AM","2019","11840","NYTIMES-USCENSUS"
"8/20/2021 12:00:00 AM","Clay County","Kansas","Midwest","West North Central","20027","39.344964","-97.168853 ","913","30","13","0","8/19/2021 12:00:00 AM","2019","8002","NYTIMES-USCENSUS"
"8/20/2021 12:00:00 AM","Muscogee County","Georgia","South","South Atlantic","13215","32.510197","-84.874946 ","19554","515","86","1","8/19/2021 12:00:00 AM","2019","195769","NYTIMES-USCENSUS"
"8/20/2021 12:00:00 AM","Hamilton County","Kansas","Midwest","West North Central","20075","37.995244","-101.793689 ","217","1","2","0","8/19/2021 12:00:00 AM","2019","2539","NYTIMES-USCENSUS"
"8/20/2021 12:00:00 AM","Shawano County","Wisconsin","Midwest","East North Central","55115","44.789641","-88.755813 ","5569","85","15","0","8/19/2021 12:00:00 AM","2019","40899","NYTIMES-USCENSUS"
"8/20/2021 12:00:00 AM","Avoyelles Parish","Louisiana","South","West South Central","22009","31.088503","-91.983275 ","5880","138","74","2","8/19/2021 12:00:00 AM","2019","40144","NYTIMES-USCENSUS"
"8/20/2021 12:00:00 AM","Becker County","Minnesota","Midwest","West North Central","27005","46.937629","-95.741757 ","3985","58","11","0","8/19/2021 12:00:00 AM","2019","34423","NYTIMES-USCENSUS"
"8/20/2021 12:00:00 AM","Yuma County","Colorado","West","Mountain","08125","40.00077","-102.421649 ","996","18","0","0","8/19/2021 12:00:00 AM","2019","10019","NYTIMES-USCENSUS"
"8/20/2021 12:00:00 AM","Meeker County","Minnesota","Midwest","West North Central","27093","45.123155","-94.527346 ","2769","46","8","1","8/19/2021 12:00:00 AM","2019","23222","NYTIMES-USCENSUS"
"8/20/2021 12:00:00 AM","Mower County","Minnesota","Midwest","West North Central","27099","43.666249","-92.759514 ","5021","34","29","0","8/19/2021 12:00:00 AM","2019","40062","NYTIMES-USCENSUS"
"8/20/2021 12:00:00 AM","Pennington County","Minnesota","Midwest","West North Central","27113","48.069247","-96.037725 ","1592","20","5","0","8/19/2021 12:00:00 AM","2019","14119","NYTIMES-USCENSUS"
"8/20/2021 12:00:00 AM","Jewell County","Kansas","Midwest","West North Central","20089","39.777005","-98.222619 ","219","6","1","0","8/19/2021 12:00:00 AM","2019","2879","NYTIMES-USCENSUS"
"8/20/2021 12:00:00 AM","Stark County","Illinois","Midwest","East North Central","17175","41.096908","-89.797411 ","695","26","7","0","8/19/2021 12:00:00 AM","2019","5342","NYTIMES-USCENSUS"
"8/20/2021 12:00:00 AM","Linn County","Kansas","Midwest","West North Central","20107","38.216549","-94.844932 ","1063","12","26","0","8/19/2021 12:00:00 AM","2019","9703","NYTIMES-USCENSUS"
