"monitor_date","county","state_name","region","subregion","fips","latitude","longitude","case_count_to_date","death_count_to_date","case_count","death_count","previous_monitor_date","population_year","population","source"
"1/5/2022 12:00:00 AM","Castro County","Texas","South","West South Central","48069","34.533621","-102.258786 ","1508","42","1","0","1/4/2022 12:00:00 AM","2019","7530","NYTIMES-USCENSUS"
"1/5/2022 12:00:00 AM","Polk County","Nebraska","Midwest","West North Central","31143","41.187925","-97.570663 ","910","18","4","0","1/4/2022 12:00:00 AM","2019","5213","NYTIMES-USCENSUS"
"1/5/2022 12:00:00 AM","Warren County","Tennessee","South","East South Central","47177","35.67825","-85.777343 ","9216","152","0","0","1/4/2022 12:00:00 AM","2019","41277","NYTIMES-USCENSUS"
"1/5/2022 12:00:00 AM","Crawford County","Missouri","Midwest","West North Central","29055","37.966559","-91.313936 ","4255","80","40","0","1/4/2022 12:00:00 AM","2019","23920","NYTIMES-USCENSUS"
"1/5/2022 12:00:00 AM","Sullivan County","Indiana","Midwest","East North Central","18153","39.089225","-87.415843 ","3892","61","29","0","1/4/2022 12:00:00 AM","2019","20669","NYTIMES-USCENSUS"
"1/5/2022 12:00:00 AM","Benewah County","Idaho","West","Mountain","16009","47.218451","-116.633541 ","1772","31","0","0","1/4/2022 12:00:00 AM","2019","9298","NYTIMES-USCENSUS"
"1/5/2022 12:00:00 AM","Middlesex County","Massachusetts","Northeast","New England","25017","42.481718","-71.394916 ","229701","4153","6440","9","1/4/2022 12:00:00 AM","2019","1611699","NYTIMES-USCENSUS"
"1/5/2022 12:00:00 AM","Wright County","Minnesota","Midwest","West North Central","27171","45.175091","-93.966396 ","29177","262","140","2","1/4/2022 12:00:00 AM","2019","138377","NYTIMES-USCENSUS"
"1/5/2022 12:00:00 AM","Morrow County","Oregon","West","Pacific","41049","45.425496","-119.602311 ","2100","26","29","0","1/4/2022 12:00:00 AM","2019","11603","NYTIMES-USCENSUS"
"1/5/2022 12:00:00 AM","Oconto County","Wisconsin","Midwest","East North Central","55083","44.996575","-88.206516 ","9021","89","62","0","1/4/2022 12:00:00 AM","2019","37930","NYTIMES-USCENSUS"
"1/5/2022 12:00:00 AM","Clinton County","Michigan","Midwest","East North Central","26037","42.950455","-84.591695 ","14986","166","367","1","1/4/2022 12:00:00 AM","2019","79595","NYTIMES-USCENSUS"
"1/5/2022 12:00:00 AM","Montgomery County","Arkansas","South","West South Central","05097","34.545656","-93.664153 ","1205","53","4","0","1/4/2022 12:00:00 AM","2019","8986","NYTIMES-USCENSUS"
"1/5/2022 12:00:00 AM","Chelan County","Washington","West","Pacific","53007","47.860974","-120.619041 ","13320","136","74","0","1/4/2022 12:00:00 AM","2019","77200","NYTIMES-USCENSUS"
"1/5/2022 12:00:00 AM","Concordia Parish","Louisiana","South","West South Central","22029","31.469805","-91.626315 ","3526","80","27","0","1/4/2022 12:00:00 AM","2019","19259","NYTIMES-USCENSUS"
"1/5/2022 12:00:00 AM","El Paso County","Colorado","West","Mountain","08041","38.827383","-104.527472 ","130428","1426","1192","3","1/4/2022 12:00:00 AM","2019","720403","NYTIMES-USCENSUS"
"1/5/2022 12:00:00 AM","Jones County","North Carolina","South","South Atlantic","37103","35.032268","-77.356195 ","1490","38","13","0","1/4/2022 12:00:00 AM","2019","9419","NYTIMES-USCENSUS"
"1/5/2022 12:00:00 AM","Shelby County","Alabama","South","East South Central","01117","33.263043","-86.678089 ","43006","381","514","0","1/4/2022 12:00:00 AM","2019","217702","NYTIMES-USCENSUS"
"1/5/2022 12:00:00 AM","Crow Wing County","Minnesota","Midwest","West North Central","27035","46.491653","-94.070718 ","12284","141","21","2","1/4/2022 12:00:00 AM","2019","65055","NYTIMES-USCENSUS"
"1/5/2022 12:00:00 AM","Redwood County","Minnesota","Midwest","West North Central","27127","44.403536","-95.254241 ","3054","49","7","0","1/4/2022 12:00:00 AM","2019","15170","NYTIMES-USCENSUS"
"1/5/2022 12:00:00 AM","Bradford County","Florida","South","South Atlantic","12007","29.952386","-82.166698 ","5490","128","0","0","1/4/2022 12:00:00 AM","2019","28201","NYTIMES-USCENSUS"
"1/5/2022 12:00:00 AM","Cochran County","Texas","South","West South Central","48079","33.60844","-102.830449 ","544","20","4","0","1/4/2022 12:00:00 AM","2019","2853","NYTIMES-USCENSUS"
"1/5/2022 12:00:00 AM","Huron County","Ohio","Midwest","East North Central","39077","41.14508","-82.594641 ","11881","175","107","0","1/4/2022 12:00:00 AM","2019","58266","NYTIMES-USCENSUS"
"1/5/2022 12:00:00 AM","Providence County","Rhode Island","Northeast","New England","44007","41.869768","-71.578625 ","150844","2237","11919","33","1/4/2022 12:00:00 AM","2019","638931","NYTIMES-USCENSUS"
"1/5/2022 12:00:00 AM","Cobb County","Georgia","South","South Atlantic","13067","33.939929","-84.574121 ","137449","1470","2009","0","1/4/2022 12:00:00 AM","2019","760141","NYTIMES-USCENSUS"
"1/5/2022 12:00:00 AM","Yell County","Arkansas","South","West South Central","05149","34.997713","-93.408303 ","5034","89","28","0","1/4/2022 12:00:00 AM","2019","21341","NYTIMES-USCENSUS"
"1/5/2022 12:00:00 AM","Jim Wells County","Texas","South","West South Central","48249","27.733516","-98.090814 ","7675","184","26","1","1/4/2022 12:00:00 AM","2019","40482","NYTIMES-USCENSUS"
"1/5/2022 12:00:00 AM","Scott County","Arkansas","South","West South Central","05127","34.858869","-94.063641 ","1853","34","6","0","1/4/2022 12:00:00 AM","2019","10281","NYTIMES-USCENSUS"
"1/5/2022 12:00:00 AM","McDonald County","Missouri","Midwest","West North Central","29119","36.627955","-94.343716 ","4371","64","21","0","1/4/2022 12:00:00 AM","2019","22837","NYTIMES-USCENSUS"
"1/5/2022 12:00:00 AM","Stevens County","Minnesota","Midwest","West North Central","27149","45.593461","-95.992315 ","1917","11","0","0","1/4/2022 12:00:00 AM","2019","9805","NYTIMES-USCENSUS"
"1/5/2022 12:00:00 AM","Fisher County","Texas","South","West South Central","48151","32.740473","-100.40312 ","462","19","1","0","1/4/2022 12:00:00 AM","2019","3830","NYTIMES-USCENSUS"
"1/5/2022 12:00:00 AM","Kootenai County","Idaho","West","Mountain","16055","47.675957","-116.695919 ","32686","490","101","0","1/4/2022 12:00:00 AM","2019","165697","NYTIMES-USCENSUS"
"1/5/2022 12:00:00 AM","Russell County","Kentucky","South","East South Central","21207","36.990587","-85.05495 ","4445","67","25","1","1/4/2022 12:00:00 AM","2019","17923","NYTIMES-USCENSUS"
"1/5/2022 12:00:00 AM","Lincoln County","Idaho","West","Mountain","16063","42.990782","-114.153089 ","786","14","4","0","1/4/2022 12:00:00 AM","2019","5366","NYTIMES-USCENSUS"
"1/5/2022 12:00:00 AM","Charles City County","Virginia","South","South Atlantic","51036","37.361054","-77.05417 ","868","22","6","0","1/4/2022 12:00:00 AM","2019","6963","NYTIMES-USCENSUS"
"1/5/2022 12:00:00 AM","Marion County","Missouri","Midwest","West North Central","29127","39.807538","-91.635379 ","6328","105","73","1","1/4/2022 12:00:00 AM","2019","28530","NYTIMES-USCENSUS"
"1/5/2022 12:00:00 AM","Nottoway County","Virginia","South","South Atlantic","51135","37.141167","-78.053866 ","3022","71","12","0","1/4/2022 12:00:00 AM","2019","15232","NYTIMES-USCENSUS"
"1/5/2022 12:00:00 AM","Moore County","North Carolina","South","South Atlantic","37125","35.308272","-79.492725 ","15799","260","119","0","1/4/2022 12:00:00 AM","2019","100880","NYTIMES-USCENSUS"
"1/5/2022 12:00:00 AM","Gaines County","Texas","South","West South Central","48165","32.743942","-102.631561 ","2226","69","3","0","1/4/2022 12:00:00 AM","2019","21492","NYTIMES-USCENSUS"
"1/5/2022 12:00:00 AM","Mackinac County","Michigan","Midwest","East North Central","26097","46.167868","-85.303762 ","1766","22","34","2","1/4/2022 12:00:00 AM","2019","10799","NYTIMES-USCENSUS"
"1/5/2022 12:00:00 AM","Johnson County","Tennessee","South","East South Central","47091","36.453203","-81.861247 ","4247","67","0","0","1/4/2022 12:00:00 AM","2019","17788","NYTIMES-USCENSUS"
"1/5/2022 12:00:00 AM","Griggs County","North Dakota","Midwest","West North Central","38039","47.456334","-98.232286 ","466","2","3","0","1/4/2022 12:00:00 AM","2019","2231","NYTIMES-USCENSUS"
"1/5/2022 12:00:00 AM","Benton County","Iowa","Midwest","West North Central","19011","42.092547","-92.05763 ","4802","64","176","1","1/4/2022 12:00:00 AM","2019","25645","NYTIMES-USCENSUS"
"1/5/2022 12:00:00 AM","Mercer County","Illinois","Midwest","East North Central","17131","41.205605","-90.74177 ","2943","38","45","0","1/4/2022 12:00:00 AM","2019","15437","NYTIMES-USCENSUS"
"1/5/2022 12:00:00 AM","Fulton County","Indiana","Midwest","East North Central","18049","41.050384","-86.265006 ","4020","85","33","0","1/4/2022 12:00:00 AM","2019","19974","NYTIMES-USCENSUS"
"1/5/2022 12:00:00 AM","Cherokee County","Oklahoma","South","West South Central","40021","35.904367","-94.996796 ","9622","127","193","1","1/4/2022 12:00:00 AM","2019","48657","NYTIMES-USCENSUS"
"1/5/2022 12:00:00 AM","Drew County","Arkansas","South","West South Central","05043","33.587242","-91.722778 ","3184","57","43","0","1/4/2022 12:00:00 AM","2019","18219","NYTIMES-USCENSUS"
"1/5/2022 12:00:00 AM","Yankton County","South Dakota","Midwest","West North Central","46135","43.006603","-97.388361 ","4590","46","57","1","1/4/2022 12:00:00 AM","2019","22814","NYTIMES-USCENSUS"
"1/5/2022 12:00:00 AM","Wayne County","Pennsylvania","Northeast","Middle Atlantic","42127","41.646602","-75.292493 ","7916","142","78","2","1/4/2022 12:00:00 AM","2019","51361","NYTIMES-USCENSUS"
"1/5/2022 12:00:00 AM","Columbia County","Pennsylvania","Northeast","Middle Atlantic","42037","41.045517","-76.40426 ","11388","192","123","1","1/4/2022 12:00:00 AM","2019","64964","NYTIMES-USCENSUS"
"1/5/2022 12:00:00 AM","Greene County","Illinois","Midwest","East North Central","17061","39.355439","-90.387682 ","2704","53","38","0","1/4/2022 12:00:00 AM","2019","12969","NYTIMES-USCENSUS"
"1/5/2022 12:00:00 AM","Gillespie County","Texas","South","West South Central","48171","30.325093","-98.94185 ","3926","84","36","0","1/4/2022 12:00:00 AM","2019","26988","NYTIMES-USCENSUS"
"1/5/2022 12:00:00 AM","Mitchell County","Texas","South","West South Central","48335","32.304117","-100.924392 ","1058","43","1","0","1/4/2022 12:00:00 AM","2019","8545","NYTIMES-USCENSUS"
"1/5/2022 12:00:00 AM","Greene County","Alabama","South","East South Central","01063","32.844497","-87.9642 ","1393","45","5","0","1/4/2022 12:00:00 AM","2019","8111","NYTIMES-USCENSUS"
"1/5/2022 12:00:00 AM","Boone County","West Virginia","South","South Atlantic","54005","38.022814","-81.713538 ","4421","62","22","0","1/4/2022 12:00:00 AM","2019","21457","NYTIMES-USCENSUS"
"1/5/2022 12:00:00 AM","Putnam County","Tennessee","South","East South Central","47141","36.14094","-85.49618 ","18207","262","0","0","1/4/2022 12:00:00 AM","2019","80245","NYTIMES-USCENSUS"
"1/5/2022 12:00:00 AM","Seminole County","Georgia","South","South Atlantic","13253","30.93396","-84.867685 ","1628","26","17","0","1/4/2022 12:00:00 AM","2019","8090","NYTIMES-USCENSUS"
"1/5/2022 12:00:00 AM","Cape May County","New Jersey","Northeast","Middle Atlantic","34009","39.085841","-74.846354 ","17611","252","244","0","1/4/2022 12:00:00 AM","2019","92039","NYTIMES-USCENSUS"
"1/5/2022 12:00:00 AM","Prince of Wales-Hyder Census Area","Alaska","West","Pacific","02198","55.682773","-133.162389 ","637","6","0","0","1/4/2022 12:00:00 AM","2019","6203","NYTIMES-USCENSUS"
"1/5/2022 12:00:00 AM","Jackson County","Michigan","Midwest","East North Central","26075","42.248474","-84.420868 ","35239","478","447","5","1/4/2022 12:00:00 AM","2019","158510","NYTIMES-USCENSUS"
"1/5/2022 12:00:00 AM","Anoka County","Minnesota","Midwest","West North Central","27003","45.27411","-93.242723 ","73980","684","365","6","1/4/2022 12:00:00 AM","2019","356921","NYTIMES-USCENSUS"
"1/5/2022 12:00:00 AM","Radford city","Virginia","South","South Atlantic","51750","37.120119","-80.559147 ","3399","39","16","0","1/4/2022 12:00:00 AM","2019","18249","NYTIMES-USCENSUS"
"1/5/2022 12:00:00 AM","Lee County","Alabama","South","East South Central","01081","32.604064","-85.353048 ","28208","269","316","0","1/4/2022 12:00:00 AM","2019","164542","NYTIMES-USCENSUS"
"1/5/2022 12:00:00 AM","Owen County","Kentucky","South","East South Central","21187","38.499395","-84.84159 ","1749","29","20","0","1/4/2022 12:00:00 AM","2019","10901","NYTIMES-USCENSUS"
"1/5/2022 12:00:00 AM","Bibb County","Alabama","South","East South Central","01007","33.015893","-87.127148 ","4680","95","64","0","1/4/2022 12:00:00 AM","2019","22394","NYTIMES-USCENSUS"
"1/5/2022 12:00:00 AM","Panola County","Texas","South","West South Central","48365","32.163978","-94.305156 ","3179","111","13","0","1/4/2022 12:00:00 AM","2019","23194","NYTIMES-USCENSUS"
"1/5/2022 12:00:00 AM","Nevada County","California","West","Pacific","06057","39.297508","-120.771343 ","10979","110","36","0","1/4/2022 12:00:00 AM","2019","99755","NYTIMES-USCENSUS"
"1/5/2022 12:00:00 AM","Grant County","West Virginia","South","South Atlantic","54023","39.105988","-79.195064 ","2798","46","14","0","1/4/2022 12:00:00 AM","2019","11568","NYTIMES-USCENSUS"
"1/5/2022 12:00:00 AM","Posey County","Indiana","Midwest","East North Central","18129","38.027614","-87.868653 ","4629","46","61","0","1/4/2022 12:00:00 AM","2019","25427","NYTIMES-USCENSUS"
"1/5/2022 12:00:00 AM","Franklin County","Pennsylvania","Northeast","Middle Atlantic","42055","39.926772","-77.724521 ","31041","554","374","2","1/4/2022 12:00:00 AM","2019","155027","NYTIMES-USCENSUS"
"1/5/2022 12:00:00 AM","Chariton County","Missouri","Midwest","West North Central","29041","39.517968","-92.96162 ","1306","32","9","0","1/4/2022 12:00:00 AM","2019","7426","NYTIMES-USCENSUS"
"1/5/2022 12:00:00 AM","Ashland County","Wisconsin","Midwest","East North Central","55003","46.544424","-90.679691 ","2464","28","40","1","1/4/2022 12:00:00 AM","2019","15562","NYTIMES-USCENSUS"
"1/5/2022 12:00:00 AM","Bienville Parish","Louisiana","South","West South Central","22013","32.340952","-93.041151 ","2758","100","22","0","1/4/2022 12:00:00 AM","2019","13241","NYTIMES-USCENSUS"
"1/5/2022 12:00:00 AM","Washburn County","Wisconsin","Midwest","East North Central","55129","45.892489","-91.796422 ","3161","37","7","3","1/4/2022 12:00:00 AM","2019","15720","NYTIMES-USCENSUS"
"1/5/2022 12:00:00 AM","Lafayette County","Florida","South","South Atlantic","12067","29.990066","-83.17851 ","2250","51","0","0","1/4/2022 12:00:00 AM","2019","8422","NYTIMES-USCENSUS"
"1/5/2022 12:00:00 AM","Frederick County","Virginia","South","South Atlantic","51069","39.20366","-78.263829 ","15378","185","148","0","1/4/2022 12:00:00 AM","2019","89313","NYTIMES-USCENSUS"
"1/5/2022 12:00:00 AM","Dodge County","Georgia","South","South Atlantic","13091","32.164369","-83.167866 ","3924","136","44","0","1/4/2022 12:00:00 AM","2019","20605","NYTIMES-USCENSUS"
"1/5/2022 12:00:00 AM","Lynchburg city","Virginia","South","South Atlantic","51680","37.399016","-79.195458 ","13853","216","54","0","1/4/2022 12:00:00 AM","2019","82168","NYTIMES-USCENSUS"
"1/5/2022 12:00:00 AM","Onondaga County","New York","Northeast","Middle Atlantic","36067","43.006516","-76.196134 ","76730","891","1770","0","1/4/2022 12:00:00 AM","2019","460528","NYTIMES-USCENSUS"
"1/5/2022 12:00:00 AM","Effingham County","Georgia","South","South Atlantic","13103","32.361688","-81.343355 ","9457","175","46","0","1/4/2022 12:00:00 AM","2019","64296","NYTIMES-USCENSUS"
"1/5/2022 12:00:00 AM","Kankakee County","Illinois","Midwest","East North Central","17091","41.13951","-87.861117 ","23676","305","305","1","1/4/2022 12:00:00 AM","2019","109862","NYTIMES-USCENSUS"
"1/5/2022 12:00:00 AM","Pasquotank County","North Carolina","South","South Atlantic","37139","36.265199","-76.260691 ","6032","111","45","0","1/4/2022 12:00:00 AM","2019","39824","NYTIMES-USCENSUS"
"1/5/2022 12:00:00 AM","Oldham County","Kentucky","South","East South Central","21185","38.400127","-85.45615 ","12491","114","200","0","1/4/2022 12:00:00 AM","2019","66799","NYTIMES-USCENSUS"
"1/5/2022 12:00:00 AM","Tipton County","Tennessee","South","East South Central","47167","35.498763","-89.747145 ","13413","179","0","0","1/4/2022 12:00:00 AM","2019","61599","NYTIMES-USCENSUS"
"1/5/2022 12:00:00 AM","Stewart County","Tennessee","South","East South Central","47161","36.458464","-87.811889 ","2409","44","0","0","1/4/2022 12:00:00 AM","2019","13715","NYTIMES-USCENSUS"
"1/5/2022 12:00:00 AM","Crawford County","Arkansas","South","West South Central","05033","35.583011","-94.236219 ","11756","197","64","0","1/4/2022 12:00:00 AM","2019","63257","NYTIMES-USCENSUS"
"1/5/2022 12:00:00 AM","Oglala Lakota County","South Dakota","Midwest","West North Central","46102","43.333393","-102.561486 ","2907","55","174","0","1/4/2022 12:00:00 AM","2019","14177","NYTIMES-USCENSUS"
"1/5/2022 12:00:00 AM","St. Johns County","Florida","South","South Atlantic","12109","29.890487","-81.40004 ","44005","478","0","1","1/4/2022 12:00:00 AM","2019","264672","NYTIMES-USCENSUS"
"1/5/2022 12:00:00 AM","Fulton County","New York","Northeast","Middle Atlantic","36035","43.115609","-74.423678 ","9366","134","120","0","1/4/2022 12:00:00 AM","2019","53383","NYTIMES-USCENSUS"
"1/5/2022 12:00:00 AM","Sedgwick County","Kansas","Midwest","West North Central","20173","37.681045","-97.461054 ","102956","1107","3674","0","1/4/2022 12:00:00 AM","2019","516042","NYTIMES-USCENSUS"
"1/5/2022 12:00:00 AM","Staunton city","Virginia","South","South Atlantic","51790","38.157978","-79.061876 ","4079","88","27","0","1/4/2022 12:00:00 AM","2019","24932","NYTIMES-USCENSUS"
"1/5/2022 12:00:00 AM","Smith County","Texas","South","West South Central","48423","32.377016","-95.270041 ","39364","839","164","0","1/4/2022 12:00:00 AM","2019","232751","NYTIMES-USCENSUS"
"1/5/2022 12:00:00 AM","Emmet County","Iowa","Midwest","West North Central","19063","43.377984","-94.66937 ","1986","49","43","2","1/4/2022 12:00:00 AM","2019","9208","NYTIMES-USCENSUS"
"1/5/2022 12:00:00 AM","Wilcox County","Georgia","South","South Atlantic","13315","31.96272","-83.438259 ","1391","61","18","-1","1/4/2022 12:00:00 AM","2019","8635","NYTIMES-USCENSUS"
"1/5/2022 12:00:00 AM","Ohio County","Kentucky","South","East South Central","21183","37.477859","-86.844871 ","5159","91","29","0","1/4/2022 12:00:00 AM","2019","23994","NYTIMES-USCENSUS"
"1/5/2022 12:00:00 AM","Union County","Iowa","Midwest","West North Central","19175","41.02855","-94.245091 ","2249","44","42","0","1/4/2022 12:00:00 AM","2019","12241","NYTIMES-USCENSUS"
"1/5/2022 12:00:00 AM","Susquehanna County","Pennsylvania","Northeast","Middle Atlantic","42115","41.819665","-75.800969 ","6007","88","60","1","1/4/2022 12:00:00 AM","2019","40328","NYTIMES-USCENSUS"
"1/5/2022 12:00:00 AM","Gulf County","Florida","South","South Atlantic","12045","29.859238","-85.272013 ","3036","65","0","0","1/4/2022 12:00:00 AM","2019","13639","NYTIMES-USCENSUS"
"1/5/2022 12:00:00 AM","Perry County","Indiana","Midwest","East North Central","18123","38.081436","-86.62654 ","3298","59","32","0","1/4/2022 12:00:00 AM","2019","19169","NYTIMES-USCENSUS"
"1/5/2022 12:00:00 AM","Austin County","Texas","South","West South Central","48015","29.891901","-96.27017 ","4171","58","39","0","1/4/2022 12:00:00 AM","2019","30032","NYTIMES-USCENSUS"
"1/5/2022 12:00:00 AM","Forsyth County","Georgia","South","South Atlantic","13117","34.225143","-84.127408 ","41462","307","359","0","1/4/2022 12:00:00 AM","2019","244252","NYTIMES-USCENSUS"
"1/5/2022 12:00:00 AM","Early County","Georgia","South","South Atlantic","13099","31.324191","-84.906723 ","2047","58","38","0","1/4/2022 12:00:00 AM","2019","10190","NYTIMES-USCENSUS"
"1/5/2022 12:00:00 AM","Jessamine County","Kentucky","South","East South Central","21113","37.873291","-84.58396 ","10029","113","151","0","1/4/2022 12:00:00 AM","2019","54115","NYTIMES-USCENSUS"
"1/5/2022 12:00:00 AM","Baca County","Colorado","West","Mountain","08009","37.30978","-102.543741 ","596","7","3","0","1/4/2022 12:00:00 AM","2019","3581","NYTIMES-USCENSUS"
"1/5/2022 12:00:00 AM","Grant County","Kansas","Midwest","West North Central","20067","37.547537","-101.299362 ","1678","33","39","0","1/4/2022 12:00:00 AM","2019","7150","NYTIMES-USCENSUS"
"1/5/2022 12:00:00 AM","Laclede County","Missouri","Midwest","West North Central","29105","37.659698","-92.594843 ","6147","154","41","0","1/4/2022 12:00:00 AM","2019","35723","NYTIMES-USCENSUS"
"1/5/2022 12:00:00 AM","Coal County","Oklahoma","South","West South Central","40029","34.582861","-96.288039 ","1129","20","24","0","1/4/2022 12:00:00 AM","2019","5495","NYTIMES-USCENSUS"
"1/5/2022 12:00:00 AM","Mercer County","North Dakota","Midwest","West North Central","38057","47.307147","-101.833328 ","2000","22","4","0","1/4/2022 12:00:00 AM","2019","8187","NYTIMES-USCENSUS"
"1/5/2022 12:00:00 AM","Madison County","Idaho","West","Mountain","16065","43.788614","-111.656993 ","9503","43","51","0","1/4/2022 12:00:00 AM","2019","39907","NYTIMES-USCENSUS"
"1/5/2022 12:00:00 AM","Centre County","Pennsylvania","Northeast","Middle Atlantic","42027","40.909128","-77.847877 ","27230","293","293","1","1/4/2022 12:00:00 AM","2019","162385","NYTIMES-USCENSUS"
"1/5/2022 12:00:00 AM","Pacific County","Washington","West","Pacific","53049","46.556587","-123.782419 ","2101","40","18","0","1/4/2022 12:00:00 AM","2019","22471","NYTIMES-USCENSUS"
"1/5/2022 12:00:00 AM","Woodson County","Kansas","Midwest","West North Central","20207","37.888193","-95.758469 ","603","10","12","0","1/4/2022 12:00:00 AM","2019","3138","NYTIMES-USCENSUS"
"1/5/2022 12:00:00 AM","Bremer County","Iowa","Midwest","West North Central","19017","42.780895","-92.327356 ","4488","75","115","1","1/4/2022 12:00:00 AM","2019","25062","NYTIMES-USCENSUS"
"1/5/2022 12:00:00 AM","Washington County","Oklahoma","South","West South Central","40147","36.704403","-95.906253 ","9221","213","180","3","1/4/2022 12:00:00 AM","2019","51527","NYTIMES-USCENSUS"
"1/5/2022 12:00:00 AM","Glades County","Florida","South","South Atlantic","12043","26.95481","-81.19082 ","1504","34","0","0","1/4/2022 12:00:00 AM","2019","13811","NYTIMES-USCENSUS"
"1/5/2022 12:00:00 AM","Jackson County","Alabama","South","East South Central","01071","34.764114","-85.980056 ","10840","201","77","0","1/4/2022 12:00:00 AM","2019","51626","NYTIMES-USCENSUS"
"1/5/2022 12:00:00 AM","Clay County","West Virginia","South","South Atlantic","54015","38.459826","-81.081866 ","1687","26","3","0","1/4/2022 12:00:00 AM","2019","8508","NYTIMES-USCENSUS"
"1/5/2022 12:00:00 AM","Sullivan County","Tennessee","South","East South Central","47163","36.509681","-82.301336 ","31623","551","0","0","1/4/2022 12:00:00 AM","2019","158348","NYTIMES-USCENSUS"
"1/5/2022 12:00:00 AM","Burt County","Nebraska","Midwest","West North Central","31021","41.854179","-96.337746 ","985","12","6","0","1/4/2022 12:00:00 AM","2019","6459","NYTIMES-USCENSUS"
"1/5/2022 12:00:00 AM","Anson County","North Carolina","South","South Atlantic","37007","34.974972","-80.109763 ","4440","86","79","0","1/4/2022 12:00:00 AM","2019","24446","NYTIMES-USCENSUS"
"1/5/2022 12:00:00 AM","Gallatin County","Montana","West","Mountain","30031","45.518054","-111.163921 ","24465","107","270","3","1/4/2022 12:00:00 AM","2019","114434","NYTIMES-USCENSUS"
"1/5/2022 12:00:00 AM","Belknap County","New Hampshire","Northeast","New England","33001","43.519109","-71.425366 ","9596","149","106","0","1/4/2022 12:00:00 AM","2019","61303","NYTIMES-USCENSUS"
"1/5/2022 12:00:00 AM","Box Elder County","Utah","West","Mountain","49003","41.622623","-113.060252 ","10453","101","-1","0","1/4/2022 12:00:00 AM","2019","56046","NYTIMES-USCENSUS"
"1/5/2022 12:00:00 AM","Calhoun County","West Virginia","South","South Atlantic","54013","38.844159","-81.115478 ","1257","9","6","0","1/4/2022 12:00:00 AM","2019","7109","NYTIMES-USCENSUS"
"1/5/2022 12:00:00 AM","Henry County","Ohio","Midwest","East North Central","39069","41.331584","-84.0689 ","4961","90","39","0","1/4/2022 12:00:00 AM","2019","27006","NYTIMES-USCENSUS"
"1/5/2022 12:00:00 AM","Koochiching County","Minnesota","Midwest","West North Central","27071","48.245374","-93.782896 ","2018","30","5","0","1/4/2022 12:00:00 AM","2019","12229","NYTIMES-USCENSUS"
"1/5/2022 12:00:00 AM","Somerset County","Pennsylvania","Northeast","Middle Atlantic","42111","39.981297","-79.028486 ","14455","334","147","1","1/4/2022 12:00:00 AM","2019","73447","NYTIMES-USCENSUS"
"1/5/2022 12:00:00 AM","Mobile County","Alabama","South","East South Central","01097","30.684572","-88.196568 ","82969","1397","1518","3","1/4/2022 12:00:00 AM","2019","413210","NYTIMES-USCENSUS"
"1/5/2022 12:00:00 AM","Corson County","South Dakota","Midwest","West North Central","46031","45.685671","-101.179665 ","776","15","5","0","1/4/2022 12:00:00 AM","2019","4086","NYTIMES-USCENSUS"
"1/5/2022 12:00:00 AM","Custer County","Oklahoma","South","West South Central","40039","35.645601","-98.997386 ","5835","136","131","2","1/4/2022 12:00:00 AM","2019","29003","NYTIMES-USCENSUS"
"1/5/2022 12:00:00 AM","Hernando County","Florida","South","South Atlantic","12053","28.555995","-82.525969 ","30097","935","0","1","1/4/2022 12:00:00 AM","2019","193920","NYTIMES-USCENSUS"
"1/5/2022 12:00:00 AM","Hertford County","North Carolina","South","South Atlantic","37091","36.363517","-76.981616 ","3264","74","72","0","1/4/2022 12:00:00 AM","2019","23677","NYTIMES-USCENSUS"
"1/5/2022 12:00:00 AM","Garfield County","Colorado","West","Mountain","08045","39.599352","-107.90978 ","10332","78","52","0","1/4/2022 12:00:00 AM","2019","60061","NYTIMES-USCENSUS"
"1/5/2022 12:00:00 AM","Logan County","Arkansas","South","West South Central","05083","35.218654","-93.72091 ","3911","57","18","1","1/4/2022 12:00:00 AM","2019","21466","NYTIMES-USCENSUS"
"1/5/2022 12:00:00 AM","Baxter County","Arkansas","South","West South Central","05005","36.280268","-92.329949 ","6770","205","53","0","1/4/2022 12:00:00 AM","2019","41932","NYTIMES-USCENSUS"
"1/5/2022 12:00:00 AM","Stark County","Ohio","Midwest","East North Central","39151","40.814131","-81.365667 ","66609","1326","657","0","1/4/2022 12:00:00 AM","2019","370606","NYTIMES-USCENSUS"
"1/5/2022 12:00:00 AM","Hale County","Alabama","South","East South Central","01065","32.752796","-87.623061 ","3440","91","32","0","1/4/2022 12:00:00 AM","2019","14651","NYTIMES-USCENSUS"
"1/5/2022 12:00:00 AM","Lake County","Florida","South","South Atlantic","12069","28.764113","-81.712282 ","59574","1255","0","5","1/4/2022 12:00:00 AM","2019","367118","NYTIMES-USCENSUS"
"1/5/2022 12:00:00 AM","Manistee County","Michigan","Midwest","East North Central","26101","44.245268","-86.327537 ","3387","64","30","0","1/4/2022 12:00:00 AM","2019","24558","NYTIMES-USCENSUS"
"1/5/2022 12:00:00 AM","Lincoln County","Maine","Northeast","New England","23015","43.994781","-69.513624 ","2964","14","23","1","1/4/2022 12:00:00 AM","2019","34634","NYTIMES-USCENSUS"
"1/5/2022 12:00:00 AM","St. Lucie County","Florida","South","South Atlantic","12111","27.379814","-80.443536 ","52135","1047","0","0","1/4/2022 12:00:00 AM","2019","328297","NYTIMES-USCENSUS"
"1/5/2022 12:00:00 AM","Grant County","Kentucky","South","East South Central","21081","38.649167","-84.625924 ","5619","46","32","0","1/4/2022 12:00:00 AM","2019","25069","NYTIMES-USCENSUS"
"1/5/2022 12:00:00 AM","Aroostook County","Maine","Northeast","New England","23003","46.709193","-68.612409 ","7424","110","11","3","1/4/2022 12:00:00 AM","2019","67055","NYTIMES-USCENSUS"
"1/5/2022 12:00:00 AM","Iredell County","North Carolina","South","South Atlantic","37097","35.806251","-80.874524 ","34863","358","372","0","1/4/2022 12:00:00 AM","2019","181806","NYTIMES-USCENSUS"
"1/5/2022 12:00:00 AM","Buffalo County","Nebraska","Midwest","West North Central","31019","40.855265","-99.074984 ","9219","57","62","0","1/4/2022 12:00:00 AM","2019","49659","NYTIMES-USCENSUS"
"1/5/2022 12:00:00 AM","Caswell County","North Carolina","South","South Atlantic","37033","36.394298","-79.339609 ","3660","39","14","0","1/4/2022 12:00:00 AM","2019","22604","NYTIMES-USCENSUS"
"1/5/2022 12:00:00 AM","Ouachita County","Arkansas","South","West South Central","05103","33.591168","-92.878413 ","3928","91","40","0","1/4/2022 12:00:00 AM","2019","23382","NYTIMES-USCENSUS"
"1/5/2022 12:00:00 AM","Leelanau County","Michigan","Midwest","East North Central","26089","45.146182","-86.051574 ","2622","42","62","1","1/4/2022 12:00:00 AM","2019","21761","NYTIMES-USCENSUS"
"1/5/2022 12:00:00 AM","Champaign County","Ohio","Midwest","East North Central","39021","40.132775","-83.767604 ","6781","103","36","0","1/4/2022 12:00:00 AM","2019","38885","NYTIMES-USCENSUS"
"1/5/2022 12:00:00 AM","Windham County","Connecticut","Northeast","New England","09015","41.824999","-71.990702 ","18794","252","345","1","1/4/2022 12:00:00 AM","2019","116782","NYTIMES-USCENSUS"
"1/5/2022 12:00:00 AM","Sheboygan County","Wisconsin","Midwest","East North Central","55117","43.741232","-87.731516 ","24044","204","180","0","1/4/2022 12:00:00 AM","2019","115340","NYTIMES-USCENSUS"
"1/5/2022 12:00:00 AM","Crockett County","Tennessee","South","East South Central","47033","35.818795","-89.132494 ","3590","75","0","0","1/4/2022 12:00:00 AM","2019","14230","NYTIMES-USCENSUS"
"1/5/2022 12:00:00 AM","Pulaski County","Indiana","Midwest","East North Central","18131","41.045272","-86.692538 ","2445","71","9","1","1/4/2022 12:00:00 AM","2019","12353","NYTIMES-USCENSUS"
"1/5/2022 12:00:00 AM","Butler County","Alabama","South","East South Central","01013","31.751667","-86.681969 ","3773","102","78","0","1/4/2022 12:00:00 AM","2019","19448","NYTIMES-USCENSUS"
"1/5/2022 12:00:00 AM","Muscatine County","Iowa","Midwest","West North Central","19139","41.483776","-91.118699 ","7513","120","236","1","1/4/2022 12:00:00 AM","2019","42664","NYTIMES-USCENSUS"
"1/5/2022 12:00:00 AM","Conejos County","Colorado","West","Mountain","08021","37.213406","-106.176447 ","1218","46","9","0","1/4/2022 12:00:00 AM","2019","8205","NYTIMES-USCENSUS"
"1/5/2022 12:00:00 AM","Franklin County","Idaho","West","Mountain","16041","42.173609","-111.822965 ","1890","27","23","0","1/4/2022 12:00:00 AM","2019","13876","NYTIMES-USCENSUS"
"1/5/2022 12:00:00 AM","Chautauqua County","Kansas","Midwest","West North Central","20019","37.154259","-96.245396 ","654","16","5","1","1/4/2022 12:00:00 AM","2019","3250","NYTIMES-USCENSUS"
"1/5/2022 12:00:00 AM","Pulaski County","Illinois","Midwest","East North Central","17153","37.215615","-89.127755 ","1240","15","8","0","1/4/2022 12:00:00 AM","2019","5335","NYTIMES-USCENSUS"
"1/5/2022 12:00:00 AM","Montgomery County","Illinois","Midwest","East North Central","17135","39.228068","-89.478141 ","6502","94","114","1","1/4/2022 12:00:00 AM","2019","28414","NYTIMES-USCENSUS"
"1/5/2022 12:00:00 AM","Tama County","Iowa","Midwest","West North Central","19171","42.074848","-92.529411 ","3147","80","81","0","1/4/2022 12:00:00 AM","2019","16854","NYTIMES-USCENSUS"
"1/5/2022 12:00:00 AM","Perry County","Missouri","Midwest","West North Central","29157","37.71113","-89.802125 ","3798","41","32","0","1/4/2022 12:00:00 AM","2019","19136","NYTIMES-USCENSUS"
"1/5/2022 12:00:00 AM","Livingston County","Missouri","Midwest","West North Central","29117","39.778587","-93.548201 ","2914","81","18","0","1/4/2022 12:00:00 AM","2019","15227","NYTIMES-USCENSUS"
"1/5/2022 12:00:00 AM","Benton County","Oregon","West","Pacific","41003","44.493882","-123.424664 ","7346","43","222","0","1/4/2022 12:00:00 AM","2019","93053","NYTIMES-USCENSUS"
"1/5/2022 12:00:00 AM","Rutland County","Vermont","Northeast","New England","50021","43.580858","-73.038202 ","7753","41","130","0","1/4/2022 12:00:00 AM","2019","58191","NYTIMES-USCENSUS"
"1/5/2022 12:00:00 AM","Talbot County","Maryland","South","South Atlantic","24041","38.748349","-76.178476 ","4053","65","72","0","1/4/2022 12:00:00 AM","2019","37181","NYTIMES-USCENSUS"
"1/5/2022 12:00:00 AM","Washington County","Missouri","Midwest","West North Central","29221","37.942611","-90.897018 ","4578","106","27","0","1/4/2022 12:00:00 AM","2019","24730","NYTIMES-USCENSUS"
"1/5/2022 12:00:00 AM","Screven County","Georgia","South","South Atlantic","13251","32.744751","-81.617585 ","1934","62","14","0","1/4/2022 12:00:00 AM","2019","13966","NYTIMES-USCENSUS"
"1/5/2022 12:00:00 AM","Lander County","Nevada","West","Mountain","32015","39.90021","-117.04724 ","889","16","3","0","1/4/2022 12:00:00 AM","2019","5532","NYTIMES-USCENSUS"
"1/5/2022 12:00:00 AM","Clarke County","Georgia","South","South Atlantic","13059","33.952185","-83.367152 ","23167","189","217","0","1/4/2022 12:00:00 AM","2019","128331","NYTIMES-USCENSUS"
"1/5/2022 12:00:00 AM","Union County","Florida","South","South Atlantic","12125","30.05428","-82.366918 ","3164","100","0","0","1/4/2022 12:00:00 AM","2019","15237","NYTIMES-USCENSUS"
"1/5/2022 12:00:00 AM","Conway County","Arkansas","South","West South Central","05029","35.265702","-92.689248 ","3634","49","49","0","1/4/2022 12:00:00 AM","2019","20846","NYTIMES-USCENSUS"
"1/5/2022 12:00:00 AM","Lake County","South Dakota","Midwest","West North Central","46079","44.02845","-97.123223 ","1896","22","11","0","1/4/2022 12:00:00 AM","2019","12797","NYTIMES-USCENSUS"
"1/5/2022 12:00:00 AM","New Castle County","Delaware","South","South Atlantic","10003","39.575915","-75.644132 ","109986","1112","926","0","1/4/2022 12:00:00 AM","2019","558753","NYTIMES-USCENSUS"
"1/5/2022 12:00:00 AM","Oglethorpe County","Georgia","South","South Atlantic","13221","33.866806","-83.074081 ","2499","44","15","0","1/4/2022 12:00:00 AM","2019","15259","NYTIMES-USCENSUS"
"1/5/2022 12:00:00 AM","Valley County","Nebraska","Midwest","West North Central","31175","41.564094","-98.983484 ","597","2","3","0","1/4/2022 12:00:00 AM","2019","4158","NYTIMES-USCENSUS"
"1/5/2022 12:00:00 AM","Covington County","Alabama","South","East South Central","01039","31.243987","-86.448721 ","7265","200","46","0","1/4/2022 12:00:00 AM","2019","37049","NYTIMES-USCENSUS"
"1/5/2022 12:00:00 AM","Attala County","Mississippi","South","East South Central","28007","33.090468","-89.588622 ","3676","90","29","0","1/4/2022 12:00:00 AM","2019","18174","NYTIMES-USCENSUS"
"1/5/2022 12:00:00 AM","Reynolds County","Missouri","Midwest","West North Central","29179","37.366464","-90.972282 ","863","17","3","0","1/4/2022 12:00:00 AM","2019","6270","NYTIMES-USCENSUS"
"1/5/2022 12:00:00 AM","Washington County","Minnesota","Midwest","West North Central","27163","45.037929","-92.890117 ","47412","412","168","3","1/4/2022 12:00:00 AM","2019","262440","NYTIMES-USCENSUS"
"1/5/2022 12:00:00 AM","Duplin County","North Carolina","South","South Atlantic","37061","34.934403","-77.933543 ","11044","202","80","3","1/4/2022 12:00:00 AM","2019","58741","NYTIMES-USCENSUS"
"1/5/2022 12:00:00 AM","Pike County","Georgia","South","South Atlantic","13231","33.081149","-84.389462 ","4294","74","38","0","1/4/2022 12:00:00 AM","2019","18962","NYTIMES-USCENSUS"
"1/5/2022 12:00:00 AM","Tom Green County","Texas","South","West South Central","48451","31.398823","-100.463788 ","28418","395","532","0","1/4/2022 12:00:00 AM","2019","119200","NYTIMES-USCENSUS"
"1/5/2022 12:00:00 AM","Napa County","California","West","Pacific","06055","38.5071","-122.325904 ","15531","107","110","0","1/4/2022 12:00:00 AM","2019","137744","NYTIMES-USCENSUS"
"1/5/2022 12:00:00 AM","Jefferson County","Alabama","South","East South Central","01073","33.553444","-86.896536 ","133216","2029","1667","0","1/4/2022 12:00:00 AM","2019","658573","NYTIMES-USCENSUS"
"1/5/2022 12:00:00 AM","Calhoun County","Texas","South","West South Central","48057","28.441719","-96.579574 ","4113","39","18","0","1/4/2022 12:00:00 AM","2019","21290","NYTIMES-USCENSUS"
"1/5/2022 12:00:00 AM","Mono County","California","West","Pacific","06051","37.915836","-118.875167 ","2211","4","18","0","1/4/2022 12:00:00 AM","2019","14444","NYTIMES-USCENSUS"
"1/5/2022 12:00:00 AM","Wayne County","Mississippi","South","East South Central","28153","31.642503","-88.678214 ","4554","73","14","0","1/4/2022 12:00:00 AM","2019","20183","NYTIMES-USCENSUS"
"1/5/2022 12:00:00 AM","Newport County","Rhode Island","Northeast","New England","44005","41.501045","-71.283063 ","12773","61","1215","2","1/4/2022 12:00:00 AM","2019","82082","NYTIMES-USCENSUS"
"1/5/2022 12:00:00 AM","Cherokee County","South Carolina","South","South Atlantic","45021","35.049796","-81.607647 ","11000","267","88","0","1/4/2022 12:00:00 AM","2019","57300","NYTIMES-USCENSUS"
"1/5/2022 12:00:00 AM","Clayton County","Iowa","Midwest","West North Central","19043","42.840985","-91.323576 ","2860","65","77","1","1/4/2022 12:00:00 AM","2019","17549","NYTIMES-USCENSUS"
"1/5/2022 12:00:00 AM","Madison County","Kentucky","South","East South Central","21151","37.725511","-84.278362 ","19225","216","165","2","1/4/2022 12:00:00 AM","2019","92987","NYTIMES-USCENSUS"
"1/5/2022 12:00:00 AM","Fulton County","Georgia","South","South Atlantic","13121","33.790034","-84.468182 ","171545","1896","2460","1","1/4/2022 12:00:00 AM","2019","1063937","NYTIMES-USCENSUS"
"1/5/2022 12:00:00 AM","Campbell County","Wyoming","West","Mountain","56005","44.191999","-105.517014 ","9705","130","43","0","1/4/2022 12:00:00 AM","2019","46341","NYTIMES-USCENSUS"
"1/5/2022 12:00:00 AM","Gregg County","Texas","South","West South Central","48183","32.486401","-94.816277 ","20263","591","113","0","1/4/2022 12:00:00 AM","2019","123945","NYTIMES-USCENSUS"
"1/5/2022 12:00:00 AM","Ouachita Parish","Louisiana","South","West South Central","22073","32.480932","-92.151581 ","35569","611","286","1","1/4/2022 12:00:00 AM","2019","153279","NYTIMES-USCENSUS"
"1/5/2022 12:00:00 AM","Bannock County","Idaho","West","Mountain","16005","42.692921","-112.228982 ","14885","217","78","0","1/4/2022 12:00:00 AM","2019","87808","NYTIMES-USCENSUS"
"1/5/2022 12:00:00 AM","Washington County","Virginia","South","South Atlantic","51191","36.747814","-81.950322 ","9343","179","42","0","1/4/2022 12:00:00 AM","2019","53740","NYTIMES-USCENSUS"
"1/5/2022 12:00:00 AM","Cabarrus County","North Carolina","South","South Atlantic","37025","35.388346","-80.552728 ","39692","381","386","5","1/4/2022 12:00:00 AM","2019","216453","NYTIMES-USCENSUS"
"1/5/2022 12:00:00 AM","Rowan County","Kentucky","South","East South Central","21205","38.204266","-83.428079 ","4589","46","37","0","1/4/2022 12:00:00 AM","2019","24460","NYTIMES-USCENSUS"
"1/5/2022 12:00:00 AM","Grady County","Oklahoma","South","West South Central","40051","35.021058","-97.88689 ","9413","203","369","3","1/4/2022 12:00:00 AM","2019","55834","NYTIMES-USCENSUS"
"1/5/2022 12:00:00 AM","Irion County","Texas","South","West South Central","48235","31.303424","-100.981304 ","238","2","6","0","1/4/2022 12:00:00 AM","2019","1536","NYTIMES-USCENSUS"
"1/5/2022 12:00:00 AM","Tehama County","California","West","Pacific","06103","40.126157","-122.232274 ","10626","140","15","0","1/4/2022 12:00:00 AM","2019","65084","NYTIMES-USCENSUS"
"1/5/2022 12:00:00 AM","McHenry County","North Dakota","Midwest","West North Central","38049","48.233842","-100.633267 ","1078","28","4","0","1/4/2022 12:00:00 AM","2019","5745","NYTIMES-USCENSUS"
"1/5/2022 12:00:00 AM","Fauquier County","Virginia","South","South Atlantic","51061","38.744096","-77.8215 ","9621","95","86","0","1/4/2022 12:00:00 AM","2019","71222","NYTIMES-USCENSUS"
"1/5/2022 12:00:00 AM","Huntingdon County","Pennsylvania","Northeast","Middle Atlantic","42061","40.422311","-77.968595 ","8681","206","62","2","1/4/2022 12:00:00 AM","2019","45144","NYTIMES-USCENSUS"
"1/5/2022 12:00:00 AM","Defiance County","Ohio","Midwest","East North Central","39039","41.321679","-84.486433 ","8229","129","73","0","1/4/2022 12:00:00 AM","2019","38087","NYTIMES-USCENSUS"
"1/5/2022 12:00:00 AM","Rensselaer County","New York","Northeast","Middle Atlantic","36083","42.710421","-73.513845 ","22423","218","398","1","1/4/2022 12:00:00 AM","2019","158714","NYTIMES-USCENSUS"
"1/5/2022 12:00:00 AM","Madison County","Virginia","South","South Atlantic","51113","38.412059","-78.276961 ","1425","25","4","0","1/4/2022 12:00:00 AM","2019","13261","NYTIMES-USCENSUS"
"1/5/2022 12:00:00 AM","Belmont County","Ohio","Midwest","East North Central","39013","40.017682","-80.967727 ","11842","246","111","0","1/4/2022 12:00:00 AM","2019","67006","NYTIMES-USCENSUS"
"1/5/2022 12:00:00 AM","Dallas County","Alabama","South","East South Central","01047","32.333526","-87.11436 ","5804","212","68","0","1/4/2022 12:00:00 AM","2019","37196","NYTIMES-USCENSUS"
"1/5/2022 12:00:00 AM","Columbia County","Wisconsin","Midwest","East North Central","55021","43.471882","-89.330472 ","10652","103","101","0","1/4/2022 12:00:00 AM","2019","57532","NYTIMES-USCENSUS"
"1/5/2022 12:00:00 AM","Curry County","New Mexico","West","Mountain","35009","34.572984","-103.346055 ","9246","135","55","0","1/4/2022 12:00:00 AM","2019","48954","NYTIMES-USCENSUS"
"1/5/2022 12:00:00 AM","Logan County","West Virginia","South","South Atlantic","54045","37.830591","-81.940853 ","6458","154","29","0","1/4/2022 12:00:00 AM","2019","32019","NYTIMES-USCENSUS"
"1/5/2022 12:00:00 AM","Pushmataha County","Oklahoma","South","West South Central","40127","34.377899","-95.408082 ","1891","42","8","2","1/4/2022 12:00:00 AM","2019","11096","NYTIMES-USCENSUS"
"1/5/2022 12:00:00 AM","Lincoln County","Washington","West","Pacific","53043","47.582743","-118.417692 ","1568","26","12","0","1/4/2022 12:00:00 AM","2019","10939","NYTIMES-USCENSUS"
"1/5/2022 12:00:00 AM","Franklin County","Indiana","Midwest","East North Central","18047","39.409762","-85.066964 ","3441","54","57","0","1/4/2022 12:00:00 AM","2019","22758","NYTIMES-USCENSUS"
"1/5/2022 12:00:00 AM","Ringgold County","Iowa","Midwest","West North Central","19159","40.735334","-94.244251 ","887","31","19","0","1/4/2022 12:00:00 AM","2019","4894","NYTIMES-USCENSUS"
"1/5/2022 12:00:00 AM","Iroquois County","Illinois","Midwest","East North Central","17075","40.748867","-87.833601 ","5671","93","66","1","1/4/2022 12:00:00 AM","2019","27114","NYTIMES-USCENSUS"
"1/5/2022 12:00:00 AM","Buffalo County","South Dakota","Midwest","West North Central","46017","44.044306","-99.203998 ","515","16","20","0","1/4/2022 12:00:00 AM","2019","1962","NYTIMES-USCENSUS"
"1/5/2022 12:00:00 AM","Stanton County","Nebraska","Midwest","West North Central","31167","41.905045","-97.177109 ","575","11","2","0","1/4/2022 12:00:00 AM","2019","5920","NYTIMES-USCENSUS"
"1/5/2022 12:00:00 AM","McDowell County","North Carolina","South","South Atlantic","37111","35.682271","-82.048044 ","9593","139","48","0","1/4/2022 12:00:00 AM","2019","45756","NYTIMES-USCENSUS"
"1/5/2022 12:00:00 AM","Knox County","Texas","South","West South Central","48275","33.61189","-99.730356 ","394","22","0","0","1/4/2022 12:00:00 AM","2019","3664","NYTIMES-USCENSUS"
"1/5/2022 12:00:00 AM","Meade County","Kentucky","South","East South Central","21163","37.967476","-86.200863 ","3984","50","32","0","1/4/2022 12:00:00 AM","2019","28572","NYTIMES-USCENSUS"
"1/5/2022 12:00:00 AM","Liberty County","Montana","West","Mountain","30051","48.559654","-111.036924 ","269","2","0","0","1/4/2022 12:00:00 AM","2019","2337","NYTIMES-USCENSUS"
"1/5/2022 12:00:00 AM","Nash County","North Carolina","South","South Atlantic","37127","35.965945","-77.987555 ","18116","246","300","0","1/4/2022 12:00:00 AM","2019","94298","NYTIMES-USCENSUS"
"1/5/2022 12:00:00 AM","Dakota County","Nebraska","Midwest","West North Central","31043","42.391624","-96.561327 ","5206","82","8","0","1/4/2022 12:00:00 AM","2019","20026","NYTIMES-USCENSUS"
"1/5/2022 12:00:00 AM","Coryell County","Texas","South","West South Central","48099","31.391177","-97.798022 ","11385","171","56","1","1/4/2022 12:00:00 AM","2019","75951","NYTIMES-USCENSUS"
"1/5/2022 12:00:00 AM","Morris County","Kansas","Midwest","West North Central","20127","38.688204","-96.651448 ","1034","23","28","0","1/4/2022 12:00:00 AM","2019","5620","NYTIMES-USCENSUS"
"1/5/2022 12:00:00 AM","Bolivar County","Mississippi","South","East South Central","28011","33.799139","-90.88412 ","7017","155","28","0","1/4/2022 12:00:00 AM","2019","30628","NYTIMES-USCENSUS"
"1/5/2022 12:00:00 AM","Oklahoma County","Oklahoma","South","West South Central","40109","35.554611","-97.409401 ","133209","1981","2893","-2","1/4/2022 12:00:00 AM","2019","797434","NYTIMES-USCENSUS"
"1/5/2022 12:00:00 AM","Crittenden County","Arkansas","South","West South Central","05035","35.197559","-90.30512 ","10529","190","114","0","1/4/2022 12:00:00 AM","2019","47955","NYTIMES-USCENSUS"
"1/5/2022 12:00:00 AM","Taos County","New Mexico","West","Mountain","35055","36.577183","-105.638878 ","3398","73","15","0","1/4/2022 12:00:00 AM","2019","32723","NYTIMES-USCENSUS"
"1/5/2022 12:00:00 AM","Randolph County","Indiana","Midwest","East North Central","18135","40.164079","-85.00579 ","4585","121","18","0","1/4/2022 12:00:00 AM","2019","24665","NYTIMES-USCENSUS"
"1/5/2022 12:00:00 AM","La Crosse County","Wisconsin","Midwest","East North Central","55063","43.908222","-91.111758 ","23510","139","470","0","1/4/2022 12:00:00 AM","2019","118016","NYTIMES-USCENSUS"
"1/5/2022 12:00:00 AM","Jefferson County","Kentucky","South","East South Central","21111","38.189532","-85.657624 ","150221","1859","2772","8","1/4/2022 12:00:00 AM","2019","766757","NYTIMES-USCENSUS"
"1/5/2022 12:00:00 AM","Lincoln County","Kentucky","South","East South Central","21137","37.457174","-84.658335 ","4794","108","32","0","1/4/2022 12:00:00 AM","2019","24549","NYTIMES-USCENSUS"
"1/5/2022 12:00:00 AM","Sunflower County","Mississippi","South","East South Central","28133","33.605529","-90.59509 ","4763","110","32","0","1/4/2022 12:00:00 AM","2019","25110","NYTIMES-USCENSUS"
"1/5/2022 12:00:00 AM","Rush County","Indiana","Midwest","East North Central","18139","39.622362","-85.466529 ","3657","36","37","0","1/4/2022 12:00:00 AM","2019","16581","NYTIMES-USCENSUS"
"1/5/2022 12:00:00 AM","Richland Parish","Louisiana","South","West South Central","22083","32.413158","-91.748353 ","4659","80","29","0","1/4/2022 12:00:00 AM","2019","20122","NYTIMES-USCENSUS"
"1/5/2022 12:00:00 AM","Oxford County","Maine","Northeast","New England","23017","44.4945","-70.734421 ","7773","109","38","5","1/4/2022 12:00:00 AM","2019","57975","NYTIMES-USCENSUS"
"1/5/2022 12:00:00 AM","Kingsbury County","South Dakota","Midwest","West North Central","46077","44.362969","-97.499313 ","1056","20","16","0","1/4/2022 12:00:00 AM","2019","4939","NYTIMES-USCENSUS"
"1/5/2022 12:00:00 AM","Park County","Wyoming","West","Mountain","56029","44.492387","-109.593597 ","5731","121","20","0","1/4/2022 12:00:00 AM","2019","29194","NYTIMES-USCENSUS"
"1/5/2022 12:00:00 AM","Decatur County","Georgia","South","South Atlantic","13087","30.880643","-84.58389 ","5140","110","37","0","1/4/2022 12:00:00 AM","2019","26404","NYTIMES-USCENSUS"
"1/5/2022 12:00:00 AM","Mahaska County","Iowa","Midwest","West North Central","19123","41.330797","-92.636366 ","4101","72","69","3","1/4/2022 12:00:00 AM","2019","22095","NYTIMES-USCENSUS"
"1/5/2022 12:00:00 AM","Burke County","North Dakota","Midwest","West North Central","38013","48.786453","-102.520087 ","364","3","1","0","1/4/2022 12:00:00 AM","2019","2115","NYTIMES-USCENSUS"
"1/5/2022 12:00:00 AM","Oceana County","Michigan","Midwest","East North Central","26127","43.603954","-86.467177 ","5025","84","33","0","1/4/2022 12:00:00 AM","2019","26467","NYTIMES-USCENSUS"
"1/5/2022 12:00:00 AM","Plumas County","California","West","Pacific","06063","39.992295","-120.824371 ","2074","12","9","0","1/4/2022 12:00:00 AM","2019","18807","NYTIMES-USCENSUS"
"1/5/2022 12:00:00 AM","Weston County","Wyoming","West","Mountain","56045","43.846213","-104.57002 ","1260","16","3","0","1/4/2022 12:00:00 AM","2019","6927","NYTIMES-USCENSUS"
"1/5/2022 12:00:00 AM","Kendall County","Texas","South","West South Central","48259","29.943525","-98.709269 ","5633","103","35","0","1/4/2022 12:00:00 AM","2019","47431","NYTIMES-USCENSUS"
"1/5/2022 12:00:00 AM","Kodiak Island Borough","Alaska","West","Pacific","02150","57.7044","-153.918372 ","2803","10","0","0","1/4/2022 12:00:00 AM","2019","12998","NYTIMES-USCENSUS"
"1/5/2022 12:00:00 AM","Tillamook County","Oregon","West","Pacific","41057","45.45589","-123.759299 ","2496","51","28","2","1/4/2022 12:00:00 AM","2019","27036","NYTIMES-USCENSUS"
"1/5/2022 12:00:00 AM","Vernon County","Wisconsin","Midwest","East North Central","55123","43.599366","-90.821983 ","4214","75","47","0","1/4/2022 12:00:00 AM","2019","30822","NYTIMES-USCENSUS"
"1/5/2022 12:00:00 AM","Jackson County","Kansas","Midwest","West North Central","20085","39.411145","-95.794485 ","2816","21","85","0","1/4/2022 12:00:00 AM","2019","13171","NYTIMES-USCENSUS"
"1/5/2022 12:00:00 AM","Bucks County","Pennsylvania","Northeast","Middle Atlantic","42017","40.336887","-75.10706 ","96801","1566","976","2","1/4/2022 12:00:00 AM","2019","628270","NYTIMES-USCENSUS"
"1/5/2022 12:00:00 AM","Orange County","Vermont","Northeast","New England","50017","44.003349","-72.369464 ","2231","9","17","0","1/4/2022 12:00:00 AM","2019","28892","NYTIMES-USCENSUS"
"1/5/2022 12:00:00 AM","Macoupin County","Illinois","Midwest","East North Central","17117","39.265914","-89.92633 ","8951","151","124","1","1/4/2022 12:00:00 AM","2019","44926","NYTIMES-USCENSUS"
"1/5/2022 12:00:00 AM","Gwinnett County","Georgia","South","South Atlantic","13135","33.958756","-84.025735 ","161744","1583","2227","2","1/4/2022 12:00:00 AM","2019","936250","NYTIMES-USCENSUS"
"1/5/2022 12:00:00 AM","Inyo County","California","West","Pacific","06027","36.56216","-117.404209 ","2910","49","25","0","1/4/2022 12:00:00 AM","2019","18039","NYTIMES-USCENSUS"
"1/5/2022 12:00:00 AM","Waynesboro city","Virginia","South","South Atlantic","51820","38.067157","-78.90142 ","4172","54","18","0","1/4/2022 12:00:00 AM","2019","22630","NYTIMES-USCENSUS"
"1/5/2022 12:00:00 AM","Franklin County","Washington","West","Pacific","53021","46.537502","-118.903891 ","21761","185","127","0","1/4/2022 12:00:00 AM","2019","95222","NYTIMES-USCENSUS"
"1/5/2022 12:00:00 AM","Lincoln County","Colorado","West","Mountain","08073","38.99374","-103.507555 ","1475","9","19","0","1/4/2022 12:00:00 AM","2019","5701","NYTIMES-USCENSUS"
"1/5/2022 12:00:00 AM","Pinellas County","Florida","South","South Atlantic","12103","27.905342","-82.798066 ","145832","2780","0","2","1/4/2022 12:00:00 AM","2019","974996","NYTIMES-USCENSUS"
"1/5/2022 12:00:00 AM","Jack County","Texas","South","West South Central","48237","33.23216","-98.171177 ","1094","22","3","0","1/4/2022 12:00:00 AM","2019","8935","NYTIMES-USCENSUS"
"1/5/2022 12:00:00 AM","Pepin County","Wisconsin","Midwest","East North Central","55091","44.627436","-91.83489 ","1526","15","15","0","1/4/2022 12:00:00 AM","2019","7287","NYTIMES-USCENSUS"
"1/5/2022 12:00:00 AM","Holmes County","Ohio","Midwest","East North Central","39075","40.565597","-81.930001 ","4417","157","46","0","1/4/2022 12:00:00 AM","2019","43960","NYTIMES-USCENSUS"
"1/5/2022 12:00:00 AM","Howard County","Nebraska","Midwest","West North Central","31093","41.216851","-98.513342 ","883","10","3","0","1/4/2022 12:00:00 AM","2019","6445","NYTIMES-USCENSUS"
"1/5/2022 12:00:00 AM","Lee County","Mississippi","South","East South Central","28081","34.29237","-88.682439 ","18945","249","249","0","1/4/2022 12:00:00 AM","2019","85436","NYTIMES-USCENSUS"
"1/5/2022 12:00:00 AM","Iron County","Utah","West","Mountain","49021","37.909304","-113.30674 ","10581","73","0","0","1/4/2022 12:00:00 AM","2019","54839","NYTIMES-USCENSUS"
"1/5/2022 12:00:00 AM","Guadalupe County","New Mexico","West","Mountain","35019","34.869782","-104.784968 ","976","15","7","0","1/4/2022 12:00:00 AM","2019","4300","NYTIMES-USCENSUS"
"1/5/2022 12:00:00 AM","Apache County","Arizona","West","Mountain","04001","35.385084","-109.490172 ","16476","545","56","1","1/4/2022 12:00:00 AM","2019","71887","NYTIMES-USCENSUS"
"1/5/2022 12:00:00 AM","Adams County","Wisconsin","Midwest","East North Central","55001","43.973757","-89.767228 ","3479","43","42","1","1/4/2022 12:00:00 AM","2019","20220","NYTIMES-USCENSUS"
"1/5/2022 12:00:00 AM","Edgefield County","South Carolina","South","South Atlantic","45037","33.776498","-81.968245 ","4889","60","36","0","1/4/2022 12:00:00 AM","2019","27260","NYTIMES-USCENSUS"
"1/5/2022 12:00:00 AM","Richmond County","North Carolina","South","South Atlantic","37153","35.004636","-79.755695 ","8242","156","100","0","1/4/2022 12:00:00 AM","2019","44829","NYTIMES-USCENSUS"
"1/5/2022 12:00:00 AM","Adams County","Mississippi","South","East South Central","28001","31.486224","-91.351797 ","5167","125","36","0","1/4/2022 12:00:00 AM","2019","30693","NYTIMES-USCENSUS"
"1/5/2022 12:00:00 AM","Troup County","Georgia","South","South Atlantic","13285","33.034482","-85.02836 ","12877","327","190","0","1/4/2022 12:00:00 AM","2019","69922","NYTIMES-USCENSUS"
"1/5/2022 12:00:00 AM","Trinity County","Texas","South","West South Central","48455","31.096675","-95.151687 ","1801","64","5","0","1/4/2022 12:00:00 AM","2019","14651","NYTIMES-USCENSUS"
"1/5/2022 12:00:00 AM","Chatham County","Georgia","South","South Atlantic","13051","31.980404","-81.085184 ","43450","740","545","1","1/4/2022 12:00:00 AM","2019","289430","NYTIMES-USCENSUS"
"1/5/2022 12:00:00 AM","Cass County","Illinois","Midwest","East North Central","17017","39.969202","-90.245704 ","3296","40","63","0","1/4/2022 12:00:00 AM","2019","12147","NYTIMES-USCENSUS"
"1/5/2022 12:00:00 AM","Mason County","Kentucky","South","East South Central","21161","38.594137","-83.828125 ","3169","82","34","0","1/4/2022 12:00:00 AM","2019","17070","NYTIMES-USCENSUS"
"1/5/2022 12:00:00 AM","Marinette County","Wisconsin","Midwest","East North Central","55075","45.346899","-87.991198 ","9160","97","192","0","1/4/2022 12:00:00 AM","2019","40350","NYTIMES-USCENSUS"
"1/5/2022 12:00:00 AM","Franklin County","Texas","South","West South Central","48159","33.175846","-95.219066 ","1502","37","4","0","1/4/2022 12:00:00 AM","2019","10725","NYTIMES-USCENSUS"
"1/5/2022 12:00:00 AM","Wayne County","Nebraska","Midwest","West North Central","31179","42.210746","-97.126243 ","1439","7","5","0","1/4/2022 12:00:00 AM","2019","9385","NYTIMES-USCENSUS"
"1/5/2022 12:00:00 AM","Custer County","Idaho","West","Mountain","16037","44.273351","-114.252267 ","420","7","1","0","1/4/2022 12:00:00 AM","2019","4315","NYTIMES-USCENSUS"
"1/5/2022 12:00:00 AM","Edmunds County","South Dakota","Midwest","West North Central","46045","45.41168","-99.205362 ","736","14","5","0","1/4/2022 12:00:00 AM","2019","3829","NYTIMES-USCENSUS"
"1/5/2022 12:00:00 AM","Alamance County","North Carolina","South","South Atlantic","37001","36.043954","-79.400573 ","31787","376","299","0","1/4/2022 12:00:00 AM","2019","169509","NYTIMES-USCENSUS"
"1/5/2022 12:00:00 AM","Madison County","Texas","South","West South Central","48313","30.966878","-95.930372 ","2720","46","33","0","1/4/2022 12:00:00 AM","2019","14284","NYTIMES-USCENSUS"
"1/5/2022 12:00:00 AM","Claiborne County","Mississippi","South","East South Central","28021","31.97281","-90.915424 ","1475","41","22","0","1/4/2022 12:00:00 AM","2019","8988","NYTIMES-USCENSUS"
"1/5/2022 12:00:00 AM","Cattaraugus County","New York","Northeast","Middle Atlantic","36009","42.239099","-78.662332 ","11837","191","103","2","1/4/2022 12:00:00 AM","2019","76117","NYTIMES-USCENSUS"
"1/5/2022 12:00:00 AM","Richland County","Ohio","Midwest","East North Central","39139","40.774159","-82.542781 ","25149","398","219","0","1/4/2022 12:00:00 AM","2019","121154","NYTIMES-USCENSUS"
"1/5/2022 12:00:00 AM","Orange County","Florida","South","South Atlantic","12095","28.514391","-81.323284 ","261112","2298","0","7","1/4/2022 12:00:00 AM","2019","1393452","NYTIMES-USCENSUS"
"1/5/2022 12:00:00 AM","Fillmore County","Minnesota","Midwest","West North Central","27045","43.679187","-92.093937 ","3479","17","4","0","1/4/2022 12:00:00 AM","2019","21067","NYTIMES-USCENSUS"
"1/5/2022 12:00:00 AM","Barren County","Kentucky","South","East South Central","21009","36.962805","-85.932108 ","9479","182","62","0","1/4/2022 12:00:00 AM","2019","44249","NYTIMES-USCENSUS"
"1/5/2022 12:00:00 AM","Dickinson County","Iowa","Midwest","West North Central","19059","43.389611","-95.196057 ","3466","61","83","1","1/4/2022 12:00:00 AM","2019","17258","NYTIMES-USCENSUS"
"1/5/2022 12:00:00 AM","Carroll County","Illinois","Midwest","East North Central","17015","42.0709","-89.924189 ","3086","43","27","1","1/4/2022 12:00:00 AM","2019","14305","NYTIMES-USCENSUS"
"1/5/2022 12:00:00 AM","Gooding County","Idaho","West","Mountain","16047","42.973185","-114.82142 ","2446","44","9","0","1/4/2022 12:00:00 AM","2019","15179","NYTIMES-USCENSUS"
"1/5/2022 12:00:00 AM","Jackson County","Indiana","Midwest","East North Central","18071","38.911957","-86.042516 ","8953","104","84","1","1/4/2022 12:00:00 AM","2019","44231","NYTIMES-USCENSUS"
"1/5/2022 12:00:00 AM","Trumbull County","Ohio","Midwest","East North Central","39155","41.306374","-80.7704 ","33822","705","292","0","1/4/2022 12:00:00 AM","2019","197974","NYTIMES-USCENSUS"
"1/5/2022 12:00:00 AM","Greene County","Pennsylvania","Northeast","Middle Atlantic","42059","39.847707","-80.225655 ","6513","82","89","0","1/4/2022 12:00:00 AM","2019","36233","NYTIMES-USCENSUS"
"1/5/2022 12:00:00 AM","Douglas County","Wisconsin","Midwest","East North Central","55031","46.463218","-91.892477 ","8256","71","58","0","1/4/2022 12:00:00 AM","2019","43150","NYTIMES-USCENSUS"
"1/5/2022 12:00:00 AM","Collin County","Texas","South","West South Central","48085","33.194494","-96.579428 ","150533","1221","1535","0","1/4/2022 12:00:00 AM","2019","1034730","NYTIMES-USCENSUS"
"1/5/2022 12:00:00 AM","Grafton County","New Hampshire","Northeast","New England","33009","43.926439","-71.842424 ","10039","48","179","0","1/4/2022 12:00:00 AM","2019","89886","NYTIMES-USCENSUS"
"1/5/2022 12:00:00 AM","Union County","Oregon","West","Pacific","41061","45.304081","-117.999149 ","3608","64","10","0","1/4/2022 12:00:00 AM","2019","26835","NYTIMES-USCENSUS"
"1/5/2022 12:00:00 AM","Craig County","Virginia","South","South Atlantic","51045","37.473603","-80.231051 ","777","11","1","0","1/4/2022 12:00:00 AM","2019","5131","NYTIMES-USCENSUS"
"1/5/2022 12:00:00 AM","Marion County","Ohio","Midwest","East North Central","39101","40.588034","-83.168803 ","15412","218","92","0","1/4/2022 12:00:00 AM","2019","65093","NYTIMES-USCENSUS"
"1/5/2022 12:00:00 AM","Clarke County","Alabama","South","East South Central","01025","31.685521","-87.818624 ","5088","88","79","0","1/4/2022 12:00:00 AM","2019","23622","NYTIMES-USCENSUS"
"1/5/2022 12:00:00 AM","Winchester city","Virginia","South","South Atlantic","51840","39.173869","-78.176356 ","4704","58","48","0","1/4/2022 12:00:00 AM","2019","28078","NYTIMES-USCENSUS"
"1/5/2022 12:00:00 AM","White County","Indiana","Midwest","East North Central","18181","40.75095","-86.864293 ","5435","77","28","0","1/4/2022 12:00:00 AM","2019","24102","NYTIMES-USCENSUS"
"1/5/2022 12:00:00 AM","Worcester County","Massachusetts","Northeast","New England","25027","42.311693","-71.940282 ","137502","2606","3407","8","1/4/2022 12:00:00 AM","2019","830622","NYTIMES-USCENSUS"
"1/5/2022 12:00:00 AM","Andrew County","Missouri","Midwest","West North Central","29003","39.988863","-94.803551 ","3612","42","27","0","1/4/2022 12:00:00 AM","2019","17712","NYTIMES-USCENSUS"
"1/5/2022 12:00:00 AM","Chesapeake city","Virginia","South","South Atlantic","51550","36.679376","-76.301788 ","35511","382","484","0","1/4/2022 12:00:00 AM","2019","244835","NYTIMES-USCENSUS"
"1/5/2022 12:00:00 AM","Hot Springs County","Wyoming","West","Mountain","56017","43.720209","-108.435076 ","906","11","0","0","1/4/2022 12:00:00 AM","2019","4413","NYTIMES-USCENSUS"
"1/5/2022 12:00:00 AM","Wayne County","Georgia","South","South Atlantic","13305","31.547845","-81.912376 ","6094","181","33","0","1/4/2022 12:00:00 AM","2019","29927","NYTIMES-USCENSUS"
"1/5/2022 12:00:00 AM","Pitkin County","Colorado","West","Mountain","08097","39.217541","-106.916162 ","4625","6","58","0","1/4/2022 12:00:00 AM","2019","17767","NYTIMES-USCENSUS"
"1/5/2022 12:00:00 AM","Athens County","Ohio","Midwest","East North Central","39009","39.332755","-82.045885 ","9385","104","92","0","1/4/2022 12:00:00 AM","2019","65327","NYTIMES-USCENSUS"
"1/5/2022 12:00:00 AM","Santa Cruz County","Arizona","West","Mountain","04023","31.525733","-110.845228 ","10723","206","68","0","1/4/2022 12:00:00 AM","2019","46498","NYTIMES-USCENSUS"
"1/5/2022 12:00:00 AM","Pickens County","Georgia","South","South Atlantic","13227","34.456746","-84.490351 ","6434","126","125","0","1/4/2022 12:00:00 AM","2019","32591","NYTIMES-USCENSUS"
"1/5/2022 12:00:00 AM","Mathews County","Virginia","South","South Atlantic","51115","37.425348","-76.268808 ","1062","24","12","0","1/4/2022 12:00:00 AM","2019","8834","NYTIMES-USCENSUS"
"1/5/2022 12:00:00 AM","Rockwall County","Texas","South","West South Central","48397","32.899886","-96.41205 ","19451","229","200","0","1/4/2022 12:00:00 AM","2019","104915","NYTIMES-USCENSUS"
"1/5/2022 12:00:00 AM","Grand Forks County","North Dakota","Midwest","West North Central","38035","47.926003","-97.450851 ","15494","105","167","1","1/4/2022 12:00:00 AM","2019","69451","NYTIMES-USCENSUS"
"1/5/2022 12:00:00 AM","Cleveland County","Oklahoma","South","West South Central","40027","35.206376","-97.323088 ","51360","655","4267","12","1/4/2022 12:00:00 AM","2019","284014","NYTIMES-USCENSUS"
"1/5/2022 12:00:00 AM","Henderson County","Illinois","Midwest","East North Central","17071","40.814471","-90.941246 ","913","24","10","0","1/4/2022 12:00:00 AM","2019","6646","NYTIMES-USCENSUS"
"1/5/2022 12:00:00 AM","Logan County","Ohio","Midwest","East North Central","39091","40.387553","-83.766343 ","8037","135","80","0","1/4/2022 12:00:00 AM","2019","45672","NYTIMES-USCENSUS"
"1/5/2022 12:00:00 AM","Columbia County","Florida","South","South Atlantic","12023","30.221651","-82.623371 ","15424","320","0","0","1/4/2022 12:00:00 AM","2019","71686","NYTIMES-USCENSUS"
"1/5/2022 12:00:00 AM","Ontonagon County","Michigan","Midwest","East North Central","26131","46.835325","-89.276912 ","768","28","9","1","1/4/2022 12:00:00 AM","2019","5720","NYTIMES-USCENSUS"
"1/5/2022 12:00:00 AM","Logan County","Nebraska","Midwest","West North Central","31113","41.542155","-100.443665 ","120","0","0","0","1/4/2022 12:00:00 AM","2019","748","NYTIMES-USCENSUS"
"1/5/2022 12:00:00 AM","Taliaferro County","Georgia","South","South Atlantic","13265","33.559319","-82.875272 ","177","3","0","0","1/4/2022 12:00:00 AM","2019","1537","NYTIMES-USCENSUS"
"1/5/2022 12:00:00 AM","Fannin County","Texas","South","West South Central","48147","33.591161","-96.104988 ","5327","155","11","1","1/4/2022 12:00:00 AM","2019","35514","NYTIMES-USCENSUS"
"1/5/2022 12:00:00 AM","Knox County","Kentucky","South","East South Central","21121","36.8885","-83.855551 ","8107","109","32","2","1/4/2022 12:00:00 AM","2019","31145","NYTIMES-USCENSUS"
"1/5/2022 12:00:00 AM","Hardin County","Tennessee","South","East South Central","47071","35.201893","-88.185696 ","6040","110","0","0","1/4/2022 12:00:00 AM","2019","25652","NYTIMES-USCENSUS"
"1/5/2022 12:00:00 AM","Dallas County","Missouri","Midwest","West North Central","29059","37.683583","-93.033815 ","2771","62","32","2","1/4/2022 12:00:00 AM","2019","16878","NYTIMES-USCENSUS"
"1/5/2022 12:00:00 AM","Scott County","Iowa","Midwest","West North Central","19163","41.642079","-90.622289 ","32506","322","1653","12","1/4/2022 12:00:00 AM","2019","172943","NYTIMES-USCENSUS"
"1/5/2022 12:00:00 AM","Jackson County","Oklahoma","South","West South Central","40065","34.594006","-99.412235 ","4487","89","77","0","1/4/2022 12:00:00 AM","2019","24530","NYTIMES-USCENSUS"
"1/5/2022 12:00:00 AM","Burleson County","Texas","South","West South Central","48051","30.493487","-96.622091 ","3506","61","19","0","1/4/2022 12:00:00 AM","2019","18443","NYTIMES-USCENSUS"
"1/5/2022 12:00:00 AM","Lebanon County","Pennsylvania","Northeast","Middle Atlantic","42075","40.371448","-76.464819 ","28765","406","321","1","1/4/2022 12:00:00 AM","2019","141793","NYTIMES-USCENSUS"
"1/5/2022 12:00:00 AM","Wabash County","Illinois","Midwest","East North Central","17185","38.445821","-87.839167 ","2526","22","23","0","1/4/2022 12:00:00 AM","2019","11520","NYTIMES-USCENSUS"
"1/5/2022 12:00:00 AM","Coffee County","Georgia","South","South Atlantic","13069","31.549245","-82.84494 ","8360","248","59","0","1/4/2022 12:00:00 AM","2019","43273","NYTIMES-USCENSUS"
"1/5/2022 12:00:00 AM","Muskegon County","Michigan","Midwest","East North Central","26121","43.428739","-86.420908 ","33011","536","547","7","1/4/2022 12:00:00 AM","2019","173566","NYTIMES-USCENSUS"
"1/5/2022 12:00:00 AM","DuPage County","Illinois","Midwest","East North Central","17043","41.852058","-88.086039 ","153713","1542","2032","2","1/4/2022 12:00:00 AM","2019","922921","NYTIMES-USCENSUS"
"1/5/2022 12:00:00 AM","Rosebud County","Montana","West","Mountain","30087","46.173206","-106.666792 ","1792","58","9","0","1/4/2022 12:00:00 AM","2019","8937","NYTIMES-USCENSUS"
"1/5/2022 12:00:00 AM","Lawrence County","South Dakota","Midwest","West North Central","46081","44.348514","-103.806362 ","5053","76","34","0","1/4/2022 12:00:00 AM","2019","25844","NYTIMES-USCENSUS"
"1/5/2022 12:00:00 AM","Richland County","Wisconsin","Midwest","East North Central","55103","43.376199","-90.435693 ","2818","38","17","0","1/4/2022 12:00:00 AM","2019","17252","NYTIMES-USCENSUS"
"1/5/2022 12:00:00 AM","Pike County","Alabama","South","East South Central","01109","31.798653","-85.941608 ","5656","112","53","0","1/4/2022 12:00:00 AM","2019","33114","NYTIMES-USCENSUS"
"1/5/2022 12:00:00 AM","Story County","Iowa","Midwest","West North Central","19169","42.037538","-93.466093 ","15257","66","472","2","1/4/2022 12:00:00 AM","2019","97117","NYTIMES-USCENSUS"
"1/5/2022 12:00:00 AM","Clearfield County","Pennsylvania","Northeast","Middle Atlantic","42033","41.006862","-78.477724 ","14806","263","86","0","1/4/2022 12:00:00 AM","2019","79255","NYTIMES-USCENSUS"
"1/5/2022 12:00:00 AM","Chesterfield County","South Carolina","South","South Atlantic","45025","34.637018","-80.159227 ","8373","162","71","0","1/4/2022 12:00:00 AM","2019","45650","NYTIMES-USCENSUS"
"1/5/2022 12:00:00 AM","Palm Beach County","Florida","South","South Atlantic","12099","26.649126","-80.448354 ","268242","4329","0","7","1/4/2022 12:00:00 AM","2019","1496770","NYTIMES-USCENSUS"
"1/5/2022 12:00:00 AM","Clark County","Arkansas","South","West South Central","05019","34.053316","-93.176208 ","3843","67","62","1","1/4/2022 12:00:00 AM","2019","22320","NYTIMES-USCENSUS"
"1/5/2022 12:00:00 AM","Hopkins County","Texas","South","West South Central","48223","33.148967","-95.565434 ","6536","153","24","0","1/4/2022 12:00:00 AM","2019","37084","NYTIMES-USCENSUS"
"1/5/2022 12:00:00 AM","Northumberland County","Pennsylvania","Northeast","Middle Atlantic","42097","40.851524","-76.709877 ","17601","478","163","0","1/4/2022 12:00:00 AM","2019","90843","NYTIMES-USCENSUS"
"1/5/2022 12:00:00 AM","Lowndes County","Georgia","South","South Atlantic","13185","30.833145","-83.268995 ","23360","329","291","0","1/4/2022 12:00:00 AM","2019","117406","NYTIMES-USCENSUS"
"1/5/2022 12:00:00 AM","Gogebic County","Michigan","Midwest","East North Central","26053","46.488054","-89.788314 ","2392","63","34","1","1/4/2022 12:00:00 AM","2019","13975","NYTIMES-USCENSUS"
"1/5/2022 12:00:00 AM","Terrell County","Georgia","South","South Atlantic","13273","31.777191","-84.439446 ","1364","58","18","0","1/4/2022 12:00:00 AM","2019","8531","NYTIMES-USCENSUS"
"1/5/2022 12:00:00 AM","Beaver County","Pennsylvania","Northeast","Middle Atlantic","42007","40.68414","-80.350721 ","30740","612","330","3","1/4/2022 12:00:00 AM","2019","163929","NYTIMES-USCENSUS"
"1/5/2022 12:00:00 AM","St. Clair County","Alabama","South","East South Central","01115","33.719491","-86.311327 ","18540","367","213","1","1/4/2022 12:00:00 AM","2019","89512","NYTIMES-USCENSUS"
"1/5/2022 12:00:00 AM","Ritchie County","West Virginia","South","South Atlantic","54085","39.177112","-81.066317 ","1745","25","10","0","1/4/2022 12:00:00 AM","2019","9554","NYTIMES-USCENSUS"
"1/5/2022 12:00:00 AM","Wood County","Texas","South","West South Central","48499","32.783588","-95.382166 ","7159","241","18","0","1/4/2022 12:00:00 AM","2019","45539","NYTIMES-USCENSUS"
"1/5/2022 12:00:00 AM","Hamilton County","Indiana","Midwest","East North Central","18057","40.053513","-86.021709 ","61310","547","634","1","1/4/2022 12:00:00 AM","2019","338011","NYTIMES-USCENSUS"
"1/5/2022 12:00:00 AM","LaSalle Parish","Louisiana","South","West South Central","22059","31.680083","-92.161596 ","2967","46","28","0","1/4/2022 12:00:00 AM","2019","14892","NYTIMES-USCENSUS"
"1/5/2022 12:00:00 AM","Ralls County","Missouri","Midwest","West North Central","29173","39.553455","-91.524787 ","1949","19","22","-1","1/4/2022 12:00:00 AM","2019","10309","NYTIMES-USCENSUS"
"1/5/2022 12:00:00 AM","LaPorte County","Indiana","Midwest","East North Central","18091","41.549013","-86.744739 ","20505","293","182","2","1/4/2022 12:00:00 AM","2019","109888","NYTIMES-USCENSUS"
"1/5/2022 12:00:00 AM","Gunnison County","Colorado","West","Mountain","08051","38.670499","-107.05688 ","2272","13","27","0","1/4/2022 12:00:00 AM","2019","17462","NYTIMES-USCENSUS"
"1/5/2022 12:00:00 AM","Seward County","Kansas","Midwest","West North Central","20175","37.18096","-100.855257 ","5823","56","121","-1","1/4/2022 12:00:00 AM","2019","21428","NYTIMES-USCENSUS"
"1/5/2022 12:00:00 AM","Northampton County","Virginia","South","South Atlantic","51131","37.302775","-75.924018 ","1340","49","5","0","1/4/2022 12:00:00 AM","2019","11710","NYTIMES-USCENSUS"
"1/5/2022 12:00:00 AM","Frontier County","Nebraska","Midwest","West North Central","31063","40.530947","-100.406683 ","454","1","0","0","1/4/2022 12:00:00 AM","2019","2627","NYTIMES-USCENSUS"
"1/5/2022 12:00:00 AM","Palo Pinto County","Texas","South","West South Central","48363","32.752204","-98.317967 ","5241","130","33","0","1/4/2022 12:00:00 AM","2019","29189","NYTIMES-USCENSUS"
"1/5/2022 12:00:00 AM","Montezuma County","Colorado","West","Mountain","08083","37.338025","-108.595786 ","4288","57","21","0","1/4/2022 12:00:00 AM","2019","26183","NYTIMES-USCENSUS"
"1/5/2022 12:00:00 AM","Potter County","Pennsylvania","Northeast","Middle Atlantic","42105","41.748587","-77.894436 ","2611","79","4","0","1/4/2022 12:00:00 AM","2019","16526","NYTIMES-USCENSUS"
"1/5/2022 12:00:00 AM","Aurora County","South Dakota","Midwest","West North Central","46003","43.724719","-98.577587 ","621","17","4","0","1/4/2022 12:00:00 AM","2019","2751","NYTIMES-USCENSUS"
"1/5/2022 12:00:00 AM","Taylor County","Iowa","Midwest","West North Central","19173","40.737949","-94.697108 ","1087","20","15","0","1/4/2022 12:00:00 AM","2019","6121","NYTIMES-USCENSUS"
"1/5/2022 12:00:00 AM","Shelby County","Tennessee","South","East South Central","47157","35.184553","-89.894612 ","178126","2715","0","0","1/4/2022 12:00:00 AM","2019","937166","NYTIMES-USCENSUS"
"1/5/2022 12:00:00 AM","Rockdale County","Georgia","South","South Atlantic","13247","33.652081","-84.02637 ","14779","265","181","1","1/4/2022 12:00:00 AM","2019","90896","NYTIMES-USCENSUS"
"1/5/2022 12:00:00 AM","Caddo Parish","Louisiana","South","West South Central","22017","32.580106","-93.88497 ","47759","993","715","0","1/4/2022 12:00:00 AM","2019","240204","NYTIMES-USCENSUS"
"1/5/2022 12:00:00 AM","Pettis County","Missouri","Midwest","West North Central","29159","38.727367","-93.285207 ","8697","131","37","0","1/4/2022 12:00:00 AM","2019","42339","NYTIMES-USCENSUS"
"1/5/2022 12:00:00 AM","Perry County","Illinois","Midwest","East North Central","17145","38.084381","-89.368525 ","5095","93","52","2","1/4/2022 12:00:00 AM","2019","20916","NYTIMES-USCENSUS"
"1/5/2022 12:00:00 AM","Auglaize County","Ohio","Midwest","East North Central","39011","40.561309","-84.224018 ","8962","135","96","0","1/4/2022 12:00:00 AM","2019","45656","NYTIMES-USCENSUS"
"1/5/2022 12:00:00 AM","Gallatin County","Kentucky","South","East South Central","21077","38.755663","-84.865143 ","1566","44","13","0","1/4/2022 12:00:00 AM","2019","8869","NYTIMES-USCENSUS"
"1/5/2022 12:00:00 AM","Carroll County","Mississippi","South","East South Central","28015","33.440795","-89.918887 ","1963","41","30","0","1/4/2022 12:00:00 AM","2019","9947","NYTIMES-USCENSUS"
"1/5/2022 12:00:00 AM","Campbell County","Virginia","South","South Atlantic","51031","37.210152","-79.095428 ","8571","157","30","0","1/4/2022 12:00:00 AM","2019","54885","NYTIMES-USCENSUS"
"1/5/2022 12:00:00 AM","Fairfield County","Connecticut","Northeast","New England","09001","41.227413","-73.367061 ","153836","2380","2879","2","1/4/2022 12:00:00 AM","2019","943332","NYTIMES-USCENSUS"
"1/5/2022 12:00:00 AM","Atoka County","Oklahoma","South","West South Central","40005","34.392469","-96.036558 ","2913","40","86","0","1/4/2022 12:00:00 AM","2019","13758","NYTIMES-USCENSUS"
"1/5/2022 12:00:00 AM","Fredericksburg city","Virginia","South","South Atlantic","51630","38.299272","-77.486658 ","4012","27","25","0","1/4/2022 12:00:00 AM","2019","29036","NYTIMES-USCENSUS"
"1/5/2022 12:00:00 AM","Sawyer County","Wisconsin","Midwest","East North Central","55113","45.864911","-91.147133 ","3594","50","37","0","1/4/2022 12:00:00 AM","2019","16558","NYTIMES-USCENSUS"
"1/5/2022 12:00:00 AM","Lake County","Ohio","Midwest","East North Central","39085","41.778142","-81.19733 ","43293","557","322","0","1/4/2022 12:00:00 AM","2019","230149","NYTIMES-USCENSUS"
"1/5/2022 12:00:00 AM","Washington County","Colorado","West","Mountain","08121","39.96579","-103.209744 ","784","25","2","0","1/4/2022 12:00:00 AM","2019","4908","NYTIMES-USCENSUS"
"1/5/2022 12:00:00 AM","Nowata County","Oklahoma","South","West South Central","40105","36.789615","-95.613312 ","2038","34","82","1","1/4/2022 12:00:00 AM","2019","10076","NYTIMES-USCENSUS"
"1/5/2022 12:00:00 AM","Elk County","Kansas","Midwest","West North Central","20049","37.456026","-96.244642 ","399","7","6","0","1/4/2022 12:00:00 AM","2019","2530","NYTIMES-USCENSUS"
"1/5/2022 12:00:00 AM","Newport News city","Virginia","South","South Atlantic","51700","37.076136","-76.52198 ","25405","320","291","0","1/4/2022 12:00:00 AM","2019","179225","NYTIMES-USCENSUS"
"1/5/2022 12:00:00 AM","Hall County","Nebraska","Midwest","West North Central","31079","40.866027","-98.502664 ","11711","120","101","0","1/4/2022 12:00:00 AM","2019","61353","NYTIMES-USCENSUS"
"1/5/2022 12:00:00 AM","Gage County","Nebraska","Midwest","West North Central","31067","40.255234","-96.683453 ","2868","20","6","0","1/4/2022 12:00:00 AM","2019","21513","NYTIMES-USCENSUS"
"1/5/2022 12:00:00 AM","Franklin County","Virginia","South","South Atlantic","51067","36.991186","-79.882715 ","7617","132","35","0","1/4/2022 12:00:00 AM","2019","56042","NYTIMES-USCENSUS"
"1/5/2022 12:00:00 AM","Williamson County","Texas","South","West South Central","48491","30.649082","-97.605065 ","91258","757","1216","0","1/4/2022 12:00:00 AM","2019","590551","NYTIMES-USCENSUS"
"1/5/2022 12:00:00 AM","Tippecanoe County","Indiana","Midwest","East North Central","18157","40.389133","-86.893554 ","36191","313","427","0","1/4/2022 12:00:00 AM","2019","195732","NYTIMES-USCENSUS"
"1/5/2022 12:00:00 AM","Boyd County","Kentucky","South","East South Central","21019","38.360003","-82.681406 ","10517","131","195","0","1/4/2022 12:00:00 AM","2019","46718","NYTIMES-USCENSUS"
"1/5/2022 12:00:00 AM","West Carroll Parish","Louisiana","South","West South Central","22123","32.79248","-91.451998 ","2281","53","6","0","1/4/2022 12:00:00 AM","2019","10830","NYTIMES-USCENSUS"
"1/5/2022 12:00:00 AM","Chickasaw County","Mississippi","South","East South Central","28017","33.933277","-88.947558 ","3687","75","46","1","1/4/2022 12:00:00 AM","2019","17103","NYTIMES-USCENSUS"
"1/5/2022 12:00:00 AM","Skagit County","Washington","West","Pacific","53057","48.493292","-121.81577 ","14671","153","149","0","1/4/2022 12:00:00 AM","2019","129205","NYTIMES-USCENSUS"
"1/5/2022 12:00:00 AM","Oregon County","Missouri","Midwest","West North Central","29149","36.68531","-91.401827 ","1600","27","14","0","1/4/2022 12:00:00 AM","2019","10529","NYTIMES-USCENSUS"
"1/5/2022 12:00:00 AM","Anderson County","South Carolina","South","South Atlantic","45007","34.521235","-82.638603 ","41472","826","146","4","1/4/2022 12:00:00 AM","2019","202558","NYTIMES-USCENSUS"
"1/5/2022 12:00:00 AM","Noble County","Oklahoma","South","West South Central","40103","36.384901","-97.236335 ","2063","34","41","0","1/4/2022 12:00:00 AM","2019","11131","NYTIMES-USCENSUS"
"1/5/2022 12:00:00 AM","Calhoun County","Iowa","Midwest","West North Central","19025","42.38617","-94.643683 ","2154","20","52","0","1/4/2022 12:00:00 AM","2019","9668","NYTIMES-USCENSUS"
"1/5/2022 12:00:00 AM","Boone County","Nebraska","Midwest","West North Central","31011","41.703934","-98.070476 ","865","4","6","0","1/4/2022 12:00:00 AM","2019","5192","NYTIMES-USCENSUS"
"1/5/2022 12:00:00 AM","Walton County","Florida","South","South Atlantic","12131","30.571247","-86.162798 ","12464","174","0","1","1/4/2022 12:00:00 AM","2019","74071","NYTIMES-USCENSUS"
"1/5/2022 12:00:00 AM","Gibson County","Tennessee","South","East South Central","47053","35.991632","-88.933812 ","11611","214","0","0","1/4/2022 12:00:00 AM","2019","49133","NYTIMES-USCENSUS"
"1/5/2022 12:00:00 AM","Sumter County","Florida","South","South Atlantic","12119","28.715444","-82.069952 ","15405","477","0","2","1/4/2022 12:00:00 AM","2019","132420","NYTIMES-USCENSUS"
"1/5/2022 12:00:00 AM","Clinton County","Pennsylvania","Northeast","Middle Atlantic","42035","41.239508","-77.629009 ","6968","108","44","1","1/4/2022 12:00:00 AM","2019","38632","NYTIMES-USCENSUS"
"1/5/2022 12:00:00 AM","Washington County","Ohio","Midwest","East North Central","39167","39.450676","-81.490636 ","9596","168","104","0","1/4/2022 12:00:00 AM","2019","59911","NYTIMES-USCENSUS"
"1/5/2022 12:00:00 AM","Weld County","Colorado","West","Mountain","08123","40.555961","-104.383666 ","59825","590","345","1","1/4/2022 12:00:00 AM","2019","324492","NYTIMES-USCENSUS"
"1/5/2022 12:00:00 AM","Upson County","Georgia","South","South Atlantic","13293","32.881837","-84.292283 ","6309","193","76","0","1/4/2022 12:00:00 AM","2019","26320","NYTIMES-USCENSUS"
"1/5/2022 12:00:00 AM","Tunica County","Mississippi","South","East South Central","28143","34.652201","-90.37177 ","1935","40","29","0","1/4/2022 12:00:00 AM","2019","9632","NYTIMES-USCENSUS"
"1/5/2022 12:00:00 AM","Carroll County","Maryland","South","South Atlantic","24013","39.563328","-77.01533 ","16283","327","173","4","1/4/2022 12:00:00 AM","2019","168447","NYTIMES-USCENSUS"
"1/5/2022 12:00:00 AM","Emmons County","North Dakota","Midwest","West North Central","38029","46.284255","-100.237842 ","618","16","1","0","1/4/2022 12:00:00 AM","2019","3241","NYTIMES-USCENSUS"
"1/5/2022 12:00:00 AM","Montmorency County","Michigan","Midwest","East North Central","26119","45.024134","-84.130107 ","1374","41","20","0","1/4/2022 12:00:00 AM","2019","9328","NYTIMES-USCENSUS"
"1/5/2022 12:00:00 AM","Virginia Beach city","Virginia","South","South Atlantic","51810","36.779525","-76.029142 ","62992","603","870","0","1/4/2022 12:00:00 AM","2019","449974","NYTIMES-USCENSUS"
"1/5/2022 12:00:00 AM","Prowers County","Colorado","West","Mountain","08099","37.958181","-102.392161 ","2056","43","5","0","1/4/2022 12:00:00 AM","2019","12172","NYTIMES-USCENSUS"
"1/5/2022 12:00:00 AM","Bonner County","Idaho","West","Mountain","16017","48.316796","-116.612362 ","6842","148","25","0","1/4/2022 12:00:00 AM","2019","45739","NYTIMES-USCENSUS"
"1/5/2022 12:00:00 AM","Saunders County","Nebraska","Midwest","West North Central","31155","41.223388","-96.642097 ","3909","20","27","0","1/4/2022 12:00:00 AM","2019","21578","NYTIMES-USCENSUS"
"1/5/2022 12:00:00 AM","Brown County","Wisconsin","Midwest","East North Central","55009","44.474024","-87.99613 ","61430","381","837","2","1/4/2022 12:00:00 AM","2019","264542","NYTIMES-USCENSUS"
"1/5/2022 12:00:00 AM","Routt County","Colorado","West","Mountain","08107","40.483664","-106.987702 ","4662","24","73","0","1/4/2022 12:00:00 AM","2019","25638","NYTIMES-USCENSUS"
"1/5/2022 12:00:00 AM","Jefferson Davis County","Mississippi","South","East South Central","28065","31.564808","-89.827086 ","2042","43","34","0","1/4/2022 12:00:00 AM","2019","11128","NYTIMES-USCENSUS"
"1/5/2022 12:00:00 AM","Bulloch County","Georgia","South","South Atlantic","13031","32.394481","-81.741618 ","11944","227","71","1","1/4/2022 12:00:00 AM","2019","79608","NYTIMES-USCENSUS"
"1/5/2022 12:00:00 AM","Twiggs County","Georgia","South","South Atlantic","13289","32.665847","-83.425879 ","1233","62","13","0","1/4/2022 12:00:00 AM","2019","8120","NYTIMES-USCENSUS"
"1/5/2022 12:00:00 AM","Marlboro County","South Carolina","South","South Atlantic","45069","34.60167","-79.679435 ","5452","86","42","0","1/4/2022 12:00:00 AM","2019","26118","NYTIMES-USCENSUS"
"1/5/2022 12:00:00 AM","Putnam County","West Virginia","South","South Atlantic","54079","38.510518","-81.906109 ","11121","147","91","0","1/4/2022 12:00:00 AM","2019","56450","NYTIMES-USCENSUS"
"1/5/2022 12:00:00 AM","Caddo County","Oklahoma","South","West South Central","40015","35.16792","-98.381045 ","5692","138","52","1","1/4/2022 12:00:00 AM","2019","28762","NYTIMES-USCENSUS"
"1/5/2022 12:00:00 AM","Cooper County","Missouri","Midwest","West North Central","29053","38.847093","-92.810069 ","3309","63","16","1","1/4/2022 12:00:00 AM","2019","17709","NYTIMES-USCENSUS"
"1/5/2022 12:00:00 AM","Stephens County","Texas","South","West South Central","48429","32.738052","-98.839344 ","1362","38","6","0","1/4/2022 12:00:00 AM","2019","9366","NYTIMES-USCENSUS"
"1/5/2022 12:00:00 AM","Marshall County","West Virginia","South","South Atlantic","54051","39.854426","-80.671794 ","6379","133","55","0","1/4/2022 12:00:00 AM","2019","30531","NYTIMES-USCENSUS"
"1/5/2022 12:00:00 AM","Johnson County","Illinois","Midwest","East North Central","17087","37.460709","-88.882131 ","2851","40","33","0","1/4/2022 12:00:00 AM","2019","12417","NYTIMES-USCENSUS"
"1/5/2022 12:00:00 AM","Cumberland County","Illinois","Midwest","East North Central","17035","39.273121","-88.240619 ","2418","42","24","0","1/4/2022 12:00:00 AM","2019","10766","NYTIMES-USCENSUS"
"1/5/2022 12:00:00 AM","Lincoln County","Wyoming","West","Mountain","56023","42.229993","-110.682961 ","3148","27","13","0","1/4/2022 12:00:00 AM","2019","19830","NYTIMES-USCENSUS"
"1/5/2022 12:00:00 AM","Tippah County","Mississippi","South","East South Central","28139","34.763618","-88.918819 ","5348","87","22","0","1/4/2022 12:00:00 AM","2019","22015","NYTIMES-USCENSUS"
"1/5/2022 12:00:00 AM","Marshall County","Minnesota","Midwest","West North Central","27089","48.362728","-96.357761 ","1669","23","4","0","1/4/2022 12:00:00 AM","2019","9336","NYTIMES-USCENSUS"
"1/5/2022 12:00:00 AM","Prince Edward County","Virginia","South","South Atlantic","51147","37.224881","-78.432957 ","3339","54","41","0","1/4/2022 12:00:00 AM","2019","22802","NYTIMES-USCENSUS"
"1/5/2022 12:00:00 AM","Brevard County","Florida","South","South Atlantic","12009","28.298311","-80.700333 ","88645","1787","0","3","1/4/2022 12:00:00 AM","2019","601942","NYTIMES-USCENSUS"
"1/5/2022 12:00:00 AM","Dickinson County","Michigan","Midwest","East North Central","26043","46.012833","-87.866139 ","5318","93","112","0","1/4/2022 12:00:00 AM","2019","25239","NYTIMES-USCENSUS"
"1/5/2022 12:00:00 AM","Bledsoe County","Tennessee","South","East South Central","47007","35.593561","-85.20591 ","3687","39","0","0","1/4/2022 12:00:00 AM","2019","15064","NYTIMES-USCENSUS"
"1/5/2022 12:00:00 AM","Bosque County","Texas","South","West South Central","48035","31.900819","-97.637641 ","2683","59","11","0","1/4/2022 12:00:00 AM","2019","18685","NYTIMES-USCENSUS"
"1/5/2022 12:00:00 AM","Carter County","Kentucky","South","East South Central","21043","38.314094","-83.038988 ","5705","79","56","0","1/4/2022 12:00:00 AM","2019","26797","NYTIMES-USCENSUS"
"1/5/2022 12:00:00 AM","Stanton County","Kansas","Midwest","West North Central","20187","37.565932","-101.789383 ","353","7","5","0","1/4/2022 12:00:00 AM","2019","2006","NYTIMES-USCENSUS"
"1/5/2022 12:00:00 AM","Ransom County","North Dakota","Midwest","West North Central","38073","46.449276","-97.647554 ","1101","23","7","0","1/4/2022 12:00:00 AM","2019","5218","NYTIMES-USCENSUS"
"1/5/2022 12:00:00 AM","Bossier Parish","Louisiana","South","West South Central","22015","32.698481","-93.626561 ","25210","414","358","0","1/4/2022 12:00:00 AM","2019","127039","NYTIMES-USCENSUS"
"1/5/2022 12:00:00 AM","Logan County","Illinois","Midwest","East North Central","17107","40.129277","-89.365309 ","6498","91","55","0","1/4/2022 12:00:00 AM","2019","28618","NYTIMES-USCENSUS"
"1/5/2022 12:00:00 AM","Oliver County","North Dakota","Midwest","West North Central","38065","47.118079","-101.33142 ","260","4","2","0","1/4/2022 12:00:00 AM","2019","1959","NYTIMES-USCENSUS"
"1/5/2022 12:00:00 AM","Nome Census Area","Alaska","West","Pacific","02180","64.783686","-164.188912 ","2402","3","0","0","1/4/2022 12:00:00 AM","2019","10004","NYTIMES-USCENSUS"
"1/5/2022 12:00:00 AM","DeKalb County","Indiana","Midwest","East North Central","18033","41.39676","-85.002697 ","9076","126","60","0","1/4/2022 12:00:00 AM","2019","43475","NYTIMES-USCENSUS"
"1/5/2022 12:00:00 AM","East Carroll Parish","Louisiana","South","West South Central","22035","32.73017","-91.234141 ","1828","33","3","0","1/4/2022 12:00:00 AM","2019","6861","NYTIMES-USCENSUS"
"1/5/2022 12:00:00 AM","Johnson County","Texas","South","West South Central","48251","32.379821","-97.364959 ","32026","599","226","1","1/4/2022 12:00:00 AM","2019","175817","NYTIMES-USCENSUS"
"1/5/2022 12:00:00 AM","Owyhee County","Idaho","West","Mountain","16073","42.572851","-116.18969 ","1770","42","3","0","1/4/2022 12:00:00 AM","2019","11823","NYTIMES-USCENSUS"
"1/5/2022 12:00:00 AM","Le Flore County","Oklahoma","South","West South Central","40079","34.897356","-94.695074 ","8883","94","130","0","1/4/2022 12:00:00 AM","2019","49853","NYTIMES-USCENSUS"
"1/5/2022 12:00:00 AM","Emanuel County","Georgia","South","South Atlantic","13107","32.5911","-82.299763 ","4735","144","34","0","1/4/2022 12:00:00 AM","2019","22646","NYTIMES-USCENSUS"
"1/5/2022 12:00:00 AM","Ontario County","New York","Northeast","Middle Atlantic","36069","42.856357","-77.303497 ","14795","146","203","0","1/4/2022 12:00:00 AM","2019","109777","NYTIMES-USCENSUS"
"1/5/2022 12:00:00 AM","Washington County","Georgia","South","South Atlantic","13303","32.971843","-82.798112 ","3450","127","29","0","1/4/2022 12:00:00 AM","2019","20374","NYTIMES-USCENSUS"
"1/5/2022 12:00:00 AM","Washoe County","Nevada","West","Mountain","32031","40.73132","-119.663269 ","73731","1025","433","5","1/4/2022 12:00:00 AM","2019","471519","NYTIMES-USCENSUS"
"1/5/2022 12:00:00 AM","Houston County","Tennessee","South","East South Central","47083","36.285782","-87.705598 ","2036","53","0","0","1/4/2022 12:00:00 AM","2019","8201","NYTIMES-USCENSUS"
"1/5/2022 12:00:00 AM","Stephens County","Oklahoma","South","West South Central","40137","34.481361","-97.855607 ","8318","156","101","0","1/4/2022 12:00:00 AM","2019","43143","NYTIMES-USCENSUS"
"1/5/2022 12:00:00 AM","Bryan County","Oklahoma","South","West South Central","40013","33.964004","-96.265135 ","9656","118","271","0","1/4/2022 12:00:00 AM","2019","47995","NYTIMES-USCENSUS"
"1/5/2022 12:00:00 AM","Missoula County","Montana","West","Mountain","30063","47.027263","-113.892691 ","18557","192","136","0","1/4/2022 12:00:00 AM","2019","119600","NYTIMES-USCENSUS"
"1/5/2022 12:00:00 AM","Ramsey County","North Dakota","Midwest","West North Central","38071","48.266163","-98.739031 ","2661","46","15","2","1/4/2022 12:00:00 AM","2019","11519","NYTIMES-USCENSUS"
"1/5/2022 12:00:00 AM","Kitsap County","Washington","West","Pacific","53035","47.639595","-122.649634 ","21583","263","385","0","1/4/2022 12:00:00 AM","2019","271473","NYTIMES-USCENSUS"
"1/5/2022 12:00:00 AM","Lincoln County","Nevada","West","Mountain","32017","37.634605","-114.863037 ","753","5","6","0","1/4/2022 12:00:00 AM","2019","5183","NYTIMES-USCENSUS"
"1/5/2022 12:00:00 AM","Worcester County","Maryland","South","South Atlantic","24047","38.222133","-75.309931 ","6326","132","51","0","1/4/2022 12:00:00 AM","2019","52276","NYTIMES-USCENSUS"
"1/5/2022 12:00:00 AM","Josephine County","Oregon","West","Pacific","41033","42.386983","-123.57162 ","11298","271","90","1","1/4/2022 12:00:00 AM","2019","87487","NYTIMES-USCENSUS"
"1/5/2022 12:00:00 AM","Clare County","Michigan","Midwest","East North Central","26035","43.991137","-84.838325 ","5267","137","53","3","1/4/2022 12:00:00 AM","2019","30950","NYTIMES-USCENSUS"
"1/5/2022 12:00:00 AM","Camas County","Idaho","West","Mountain","16025","43.502552","-114.772135 ","110","1","0","0","1/4/2022 12:00:00 AM","2019","1106","NYTIMES-USCENSUS"
"1/5/2022 12:00:00 AM","Phillips County","Arkansas","South","West South Central","05107","34.423687","-90.855593 ","3625","83","17","0","1/4/2022 12:00:00 AM","2019","17782","NYTIMES-USCENSUS"
"1/5/2022 12:00:00 AM","Minidoka County","Idaho","West","Mountain","16067","42.857211","-113.63984 ","3336","53","10","0","1/4/2022 12:00:00 AM","2019","21039","NYTIMES-USCENSUS"
"1/5/2022 12:00:00 AM","Brewster County","Texas","South","West South Central","48043","29.808997","-103.252458 ","1122","24","3","0","1/4/2022 12:00:00 AM","2019","9203","NYTIMES-USCENSUS"
"1/5/2022 12:00:00 AM","Riverside County","California","West","Pacific","06065","33.729828","-116.002239 ","431266","5608","3211","19","1/4/2022 12:00:00 AM","2019","2470546","NYTIMES-USCENSUS"
"1/5/2022 12:00:00 AM","Wabaunsee County","Kansas","Midwest","West North Central","20197","38.955154","-96.201262 ","1269","19","21","0","1/4/2022 12:00:00 AM","2019","6931","NYTIMES-USCENSUS"
"1/5/2022 12:00:00 AM","Butte County","California","West","Pacific","06007","39.665336","-121.603209 ","27232","346","170","1","1/4/2022 12:00:00 AM","2019","219186","NYTIMES-USCENSUS"
"1/5/2022 12:00:00 AM","Moffat County","Colorado","West","Mountain","08081","40.610864","-108.217154 ","2329","48","13","0","1/4/2022 12:00:00 AM","2019","13283","NYTIMES-USCENSUS"
"1/5/2022 12:00:00 AM","Holt County","Missouri","Midwest","West North Central","29087","40.095724","-95.219072 ","830","24","6","0","1/4/2022 12:00:00 AM","2019","4403","NYTIMES-USCENSUS"
"1/5/2022 12:00:00 AM","Johnston County","Oklahoma","South","West South Central","40069","34.313455","-96.654254 ","2087","49","43","0","1/4/2022 12:00:00 AM","2019","11085","NYTIMES-USCENSUS"
"1/5/2022 12:00:00 AM","Hickman County","Tennessee","South","East South Central","47081","35.802327","-87.467116 ","5125","92","0","0","1/4/2022 12:00:00 AM","2019","25178","NYTIMES-USCENSUS"
"1/5/2022 12:00:00 AM","Randolph County","West Virginia","South","South Atlantic","54083","38.781095","-79.867788 ","6127","64","38","0","1/4/2022 12:00:00 AM","2019","28695","NYTIMES-USCENSUS"
"1/5/2022 12:00:00 AM","Madison County","Alabama","South","East South Central","01089","34.764238","-86.55108 ","60408","772","635","0","1/4/2022 12:00:00 AM","2019","372909","NYTIMES-USCENSUS"
"1/5/2022 12:00:00 AM","Jackson County","Texas","South","West South Central","48239","28.959802","-96.58908 ","2842","52","8","0","1/4/2022 12:00:00 AM","2019","14760","NYTIMES-USCENSUS"
"1/5/2022 12:00:00 AM","Wyoming County","West Virginia","South","South Atlantic","54109","37.60366","-81.549032 ","4405","76","39","0","1/4/2022 12:00:00 AM","2019","20394","NYTIMES-USCENSUS"
"1/5/2022 12:00:00 AM","Putnam County","Illinois","Midwest","East North Central","17155","41.198961","-89.298347 ","843","8","18","0","1/4/2022 12:00:00 AM","2019","5739","NYTIMES-USCENSUS"
"1/5/2022 12:00:00 AM","Sussex County","Delaware","South","South Atlantic","10005","38.673227","-75.337024 ","46085","681","228","0","1/4/2022 12:00:00 AM","2019","234225","NYTIMES-USCENSUS"
"1/5/2022 12:00:00 AM","Clay County","Iowa","Midwest","West North Central","19041","43.081224","-95.149875 ","3203","40","79","2","1/4/2022 12:00:00 AM","2019","16016","NYTIMES-USCENSUS"
"1/5/2022 12:00:00 AM","Cape Girardeau County","Missouri","Midwest","West North Central","29031","37.384141","-89.685658 ","14171","205","58","-1","1/4/2022 12:00:00 AM","2019","78871","NYTIMES-USCENSUS"
"1/5/2022 12:00:00 AM","Bullitt County","Kentucky","South","East South Central","21029","37.969945","-85.702635 ","14590","161","223","1","1/4/2022 12:00:00 AM","2019","81676","NYTIMES-USCENSUS"
"1/5/2022 12:00:00 AM","Valdez-Cordova Census Area","Alaska","West","Pacific","02261","61.4","-144.5","1953","12","0","0","1/4/2022 12:00:00 AM","2019","9202","NYTIMES-USCENSUS"
"1/5/2022 12:00:00 AM","Rockcastle County","Kentucky","South","East South Central","21203","37.36105","-84.314368 ","3626","48","36","0","1/4/2022 12:00:00 AM","2019","16695","NYTIMES-USCENSUS"
"1/5/2022 12:00:00 AM","Falls Church city","Virginia","South","South Atlantic","51610","38.884722","-77.175603 ","1142","14","70","0","1/4/2022 12:00:00 AM","2019","14617","NYTIMES-USCENSUS"
"1/5/2022 12:00:00 AM","Linn County","Oregon","West","Pacific","41043","44.488898","-122.537208 ","16531","209","196","1","1/4/2022 12:00:00 AM","2019","129749","NYTIMES-USCENSUS"
"1/5/2022 12:00:00 AM","Petersburg Borough","Alaska","West","Pacific","02195","57.112458","-133.008598 ","535","2","0","0","1/4/2022 12:00:00 AM","2019","3266","NYTIMES-USCENSUS"
"1/5/2022 12:00:00 AM","Bent County","Colorado","West","Mountain","08011","37.931891","-103.077584 ","1963","44","2","0","1/4/2022 12:00:00 AM","2019","5577","NYTIMES-USCENSUS"
"1/5/2022 12:00:00 AM","Hartford County","Connecticut","Northeast","New England","09003","41.806053","-72.732916 ","135790","2726","3146","4","1/4/2022 12:00:00 AM","2019","891720","NYTIMES-USCENSUS"
"1/5/2022 12:00:00 AM","Mason County","Illinois","Midwest","East North Central","17125","40.236993","-89.913575 ","2819","55","33","1","1/4/2022 12:00:00 AM","2019","13359","NYTIMES-USCENSUS"
"1/5/2022 12:00:00 AM","San Miguel County","New Mexico","West","Mountain","35047","35.476859","-104.803519 ","3586","37","39","3","1/4/2022 12:00:00 AM","2019","27277","NYTIMES-USCENSUS"
"1/5/2022 12:00:00 AM","Murray County","Minnesota","Midwest","West North Central","27101","44.015594","-95.761581 ","1640","14","12","0","1/4/2022 12:00:00 AM","2019","8194","NYTIMES-USCENSUS"
"1/5/2022 12:00:00 AM","Rock County","Minnesota","Midwest","West North Central","27133","43.669587","-96.263238 ","1891","32","3","0","1/4/2022 12:00:00 AM","2019","9315","NYTIMES-USCENSUS"
"1/5/2022 12:00:00 AM","Candler County","Georgia","South","South Atlantic","13043","32.40395","-82.071266 ","1653","90","10","0","1/4/2022 12:00:00 AM","2019","10803","NYTIMES-USCENSUS"
"1/5/2022 12:00:00 AM","Charlton County","Georgia","South","South Atlantic","13049","30.779904","-82.139644 ","2382","58","10","0","1/4/2022 12:00:00 AM","2019","13392","NYTIMES-USCENSUS"
"1/5/2022 12:00:00 AM","Schuyler County","Missouri","Midwest","West North Central","29197","40.469361","-92.519016 ","562","22","3","0","1/4/2022 12:00:00 AM","2019","4660","NYTIMES-USCENSUS"
"1/5/2022 12:00:00 AM","Wells County","North Dakota","Midwest","West North Central","38103","47.580851","-99.682213 ","849","11","5","0","1/4/2022 12:00:00 AM","2019","3834","NYTIMES-USCENSUS"
"1/5/2022 12:00:00 AM","Kern County","California","West","Pacific","06029","35.346629","-118.729506 ","166790","1918","607","0","1/4/2022 12:00:00 AM","2019","900202","NYTIMES-USCENSUS"
"1/5/2022 12:00:00 AM","Dorchester County","Maryland","South","South Atlantic","24019","38.429196","-76.047433 ","5562","92","31","0","1/4/2022 12:00:00 AM","2019","31929","NYTIMES-USCENSUS"
"1/5/2022 12:00:00 AM","Stanislaus County","California","West","Pacific","06099","37.562316","-121.002831 ","96951","1481","0","0","1/4/2022 12:00:00 AM","2019","550660","NYTIMES-USCENSUS"
"1/5/2022 12:00:00 AM","Johnson County","Georgia","South","South Atlantic","13167","32.694584","-82.66397 ","1676","64","14","0","1/4/2022 12:00:00 AM","2019","9643","NYTIMES-USCENSUS"
"1/5/2022 12:00:00 AM","Fayette County","West Virginia","South","South Atlantic","54019","38.030933","-81.086051 ","7972","152","63","0","1/4/2022 12:00:00 AM","2019","42406","NYTIMES-USCENSUS"
"1/5/2022 12:00:00 AM","Oconee County","South Carolina","South","South Atlantic","45073","34.748766","-83.06154 ","17451","269","66","6","1/4/2022 12:00:00 AM","2019","79546","NYTIMES-USCENSUS"
"1/5/2022 12:00:00 AM","Carroll County","Missouri","Midwest","West North Central","29033","39.427375","-93.500227 ","1744","39","3","0","1/4/2022 12:00:00 AM","2019","8679","NYTIMES-USCENSUS"
"1/5/2022 12:00:00 AM","Moody County","South Dakota","Midwest","West North Central","46101","44.012429","-96.676054 ","1023","25","15","0","1/4/2022 12:00:00 AM","2019","6576","NYTIMES-USCENSUS"
"1/5/2022 12:00:00 AM","Marquette County","Michigan","Midwest","East North Central","26103","46.656596","-87.584028 ","10692","98","220","0","1/4/2022 12:00:00 AM","2019","66699","NYTIMES-USCENSUS"
"1/5/2022 12:00:00 AM","Monroe County","West Virginia","South","South Atlantic","54063","37.554062","-80.550329 ","2717","31","3","0","1/4/2022 12:00:00 AM","2019","13275","NYTIMES-USCENSUS"
"1/5/2022 12:00:00 AM","Manassas city","Virginia","South","South Atlantic","51683","38.746808","-77.482633 ","6766","57","58","0","1/4/2022 12:00:00 AM","2019","41085","NYTIMES-USCENSUS"
"1/5/2022 12:00:00 AM","Renville County","North Dakota","Midwest","West North Central","38075","48.712781","-101.658152 ","456","15","2","0","1/4/2022 12:00:00 AM","2019","2327","NYTIMES-USCENSUS"
"1/5/2022 12:00:00 AM","Clark County","Kentucky","South","East South Central","21049","37.970314","-84.145115 ","6602","49","114","0","1/4/2022 12:00:00 AM","2019","36263","NYTIMES-USCENSUS"
"1/5/2022 12:00:00 AM","Dickinson County","Kansas","Midwest","West North Central","20041","38.867735","-97.157943 ","3627","63","51","0","1/4/2022 12:00:00 AM","2019","18466","NYTIMES-USCENSUS"
"1/5/2022 12:00:00 AM","Lamar County","Georgia","South","South Atlantic","13171","33.07444","-84.146689 ","3950","101","37","0","1/4/2022 12:00:00 AM","2019","19077","NYTIMES-USCENSUS"
"1/5/2022 12:00:00 AM","Williamson County","Illinois","Midwest","East North Central","17199","37.730353","-88.930018 ","15097","219","218","1","1/4/2022 12:00:00 AM","2019","66597","NYTIMES-USCENSUS"
"1/5/2022 12:00:00 AM","Wilson County","North Carolina","South","South Atlantic","37195","35.700357","-77.921598 ","14958","244","118","0","1/4/2022 12:00:00 AM","2019","81801","NYTIMES-USCENSUS"
"1/5/2022 12:00:00 AM","Greene County","Tennessee","South","East South Central","47059","36.179487","-82.847523 ","15499","291","0","0","1/4/2022 12:00:00 AM","2019","69069","NYTIMES-USCENSUS"
"1/5/2022 12:00:00 AM","Kanawha County","West Virginia","South","South Atlantic","54039","38.328068","-81.523516 ","30340","577","228","1","1/4/2022 12:00:00 AM","2019","178124","NYTIMES-USCENSUS"
"1/5/2022 12:00:00 AM","Mississippi County","Missouri","Midwest","West North Central","29133","36.826264","-89.295929 ","2572","50","6","0","1/4/2022 12:00:00 AM","2019","13180","NYTIMES-USCENSUS"
"1/5/2022 12:00:00 AM","Perquimans County","North Carolina","South","South Atlantic","37143","36.180897","-76.403244 ","1894","16","17","0","1/4/2022 12:00:00 AM","2019","13463","NYTIMES-USCENSUS"
