"monitor_date","county","state_name","region","subregion","fips","latitude","longitude","case_count_to_date","death_count_to_date","case_count","death_count","previous_monitor_date","population_year","population","source"
"5/10/2021 12:00:00 AM","Tuscarawas County","Ohio","Midwest","East North Central","39157","40.44749","-81.471105 ","8480","244","3","0","5/9/2021 12:00:00 AM","2019","91987","NYTIMES-USCENSUS"
"5/10/2021 12:00:00 AM","Presque Isle County","Michigan","Midwest","East North Central","26141","45.252397","-83.432283 ","1010","31","6","0","5/9/2021 12:00:00 AM","2019","12592","NYTIMES-USCENSUS"
"5/10/2021 12:00:00 AM","Linn County","Oregon","West","Pacific","41043","44.488898","-122.537208 ","4852","67","24","0","5/9/2021 12:00:00 AM","2019","129749","NYTIMES-USCENSUS"
"5/10/2021 12:00:00 AM","Andrews County","Texas","South","West South Central","48003","32.312258","-102.640206 ","1816","47","0","0","5/9/2021 12:00:00 AM","2019","18705","NYTIMES-USCENSUS"
"5/10/2021 12:00:00 AM","Amite County","Mississippi","South","East South Central","28005","31.203933","-90.795542 ","1229","42","1","0","5/9/2021 12:00:00 AM","2019","12297","NYTIMES-USCENSUS"
"5/10/2021 12:00:00 AM","Umatilla County","Oregon","West","Pacific","41059","45.5912","-118.73388 ","8140","84","0","0","5/9/2021 12:00:00 AM","2019","77950","NYTIMES-USCENSUS"
"5/10/2021 12:00:00 AM","Waukesha County","Wisconsin","Midwest","East North Central","55133","43.018368","-88.30424 ","48673","578","1","0","5/9/2021 12:00:00 AM","2019","404198","NYTIMES-USCENSUS"
"5/10/2021 12:00:00 AM","McMinn County","Tennessee","South","East South Central","47107","35.424472","-84.619949 ","6518","98","10","0","5/9/2021 12:00:00 AM","2019","53794","NYTIMES-USCENSUS"
"5/10/2021 12:00:00 AM","Marshall County","Illinois","Midwest","East North Central","17123","41.031119","-89.342371 ","1060","20","2","0","5/9/2021 12:00:00 AM","2019","11438","NYTIMES-USCENSUS"
"5/10/2021 12:00:00 AM","Oktibbeha County","Mississippi","South","East South Central","28105","33.422313","-88.876151 ","4621","98","7","0","5/9/2021 12:00:00 AM","2019","49587","NYTIMES-USCENSUS"
"5/10/2021 12:00:00 AM","Huntingdon County","Pennsylvania","Northeast","Middle Atlantic","42061","40.422311","-77.968595 ","5008","128","0","0","5/9/2021 12:00:00 AM","2019","45144","NYTIMES-USCENSUS"
"5/10/2021 12:00:00 AM","Telfair County","Georgia","South","South Atlantic","13271","31.913641","-82.931063 ","1313","57","3","0","5/9/2021 12:00:00 AM","2019","15860","NYTIMES-USCENSUS"
"5/10/2021 12:00:00 AM","Wilson County","Texas","South","West South Central","48493","29.173883","-98.086734 ","4488","68","0","0","5/9/2021 12:00:00 AM","2019","51070","NYTIMES-USCENSUS"
"5/10/2021 12:00:00 AM","Crook County","Oregon","West","Pacific","41013","44.163054","-120.371585 ","1076","20","3","0","5/9/2021 12:00:00 AM","2019","24404","NYTIMES-USCENSUS"
"5/10/2021 12:00:00 AM","Calhoun County","Iowa","Midwest","West North Central","19025","42.38617","-94.643683 ","1375","13","2","0","5/9/2021 12:00:00 AM","2019","9668","NYTIMES-USCENSUS"
"5/10/2021 12:00:00 AM","Limestone County","Alabama","South","East South Central","01083","34.810239","-86.981399 ","9964","151","4","0","5/9/2021 12:00:00 AM","2019","98915","NYTIMES-USCENSUS"
"5/10/2021 12:00:00 AM","Williamson County","Texas","South","West South Central","48491","30.649082","-97.605065 ","46057","467","200","0","5/9/2021 12:00:00 AM","2019","590551","NYTIMES-USCENSUS"
"5/10/2021 12:00:00 AM","Karnes County","Texas","South","West South Central","48255","28.908996","-97.852205 ","2102","37","0","0","5/9/2021 12:00:00 AM","2019","15601","NYTIMES-USCENSUS"
"5/10/2021 12:00:00 AM","Essex County","Vermont","Northeast","New England","50009","44.724021","-71.732736 ","281","2","0","0","5/9/2021 12:00:00 AM","2019","6163","NYTIMES-USCENSUS"
"5/10/2021 12:00:00 AM","Morgan County","Ohio","Midwest","East North Central","39115","39.624946","-81.861697 ","1084","23","0","0","5/9/2021 12:00:00 AM","2019","14508","NYTIMES-USCENSUS"
"5/10/2021 12:00:00 AM","Simpson County","Mississippi","South","East South Central","28127","31.902505","-89.917709 ","2949","88","2","0","5/9/2021 12:00:00 AM","2019","26658","NYTIMES-USCENSUS"
"5/10/2021 12:00:00 AM","Atlantic County","New Jersey","Northeast","Middle Atlantic","34001","39.469355","-74.633759 ","31266","671","0","0","5/9/2021 12:00:00 AM","2019","263670","NYTIMES-USCENSUS"
"5/10/2021 12:00:00 AM","Richland County","South Carolina","South","South Atlantic","45079","34.029095","-80.898037 ","46555","559","37","0","5/9/2021 12:00:00 AM","2019","415759","NYTIMES-USCENSUS"
"5/10/2021 12:00:00 AM","Ballard County","Kentucky","South","East South Central","21007","37.051323","-89.010367 ","396","9","0","1","5/9/2021 12:00:00 AM","2019","7888","NYTIMES-USCENSUS"
"5/10/2021 12:00:00 AM","Bent County","Colorado","West","Mountain","08011","37.931891","-103.077584 ","1530","21","1","0","5/9/2021 12:00:00 AM","2019","5577","NYTIMES-USCENSUS"
"5/10/2021 12:00:00 AM","Fergus County","Montana","West","Mountain","30027","47.221816","-109.232956 ","1112","31","0","0","5/9/2021 12:00:00 AM","2019","11050","NYTIMES-USCENSUS"
"5/10/2021 12:00:00 AM","Calumet County","Wisconsin","Midwest","East North Central","55015","44.07841","-88.212132 ","6447","55","0","0","5/9/2021 12:00:00 AM","2019","50089","NYTIMES-USCENSUS"
"5/10/2021 12:00:00 AM","Fillmore County","Nebraska","Midwest","West North Central","31059","40.52504","-97.596705 ","505","10","1","0","5/9/2021 12:00:00 AM","2019","5462","NYTIMES-USCENSUS"
"5/10/2021 12:00:00 AM","Lee County","North Carolina","South","South Atlantic","37105","35.476336","-79.172117 ","5990","77","30","0","5/9/2021 12:00:00 AM","2019","61779","NYTIMES-USCENSUS"
"5/10/2021 12:00:00 AM","Avery County","North Carolina","South","South Atlantic","37011","36.07209","-81.920285 ","2123","20","6","0","5/9/2021 12:00:00 AM","2019","17557","NYTIMES-USCENSUS"
"5/10/2021 12:00:00 AM","Osceola County","Iowa","Midwest","West North Central","19143","43.378542","-95.633788 ","782","16","0","0","5/9/2021 12:00:00 AM","2019","5958","NYTIMES-USCENSUS"
"5/10/2021 12:00:00 AM","Lawrence County","Kentucky","South","East South Central","21127","38.074453","-82.73829 ","1442","24","0","0","5/9/2021 12:00:00 AM","2019","15317","NYTIMES-USCENSUS"
"5/10/2021 12:00:00 AM","Westchester County","New York","Northeast","Middle Atlantic","36119","41.152686","-73.745753 ","128530","2264","57","1","5/9/2021 12:00:00 AM","2019","967506","NYTIMES-USCENSUS"
"5/10/2021 12:00:00 AM","Wagoner County","Oklahoma","South","West South Central","40145","35.963388","-95.514201 ","8051","114","0","0","5/9/2021 12:00:00 AM","2019","81289","NYTIMES-USCENSUS"
"5/10/2021 12:00:00 AM","St. Tammany Parish","Louisiana","South","West South Central","22103","30.410022","-89.951962 ","25711","524","34","0","5/9/2021 12:00:00 AM","2019","260419","NYTIMES-USCENSUS"
"5/10/2021 12:00:00 AM","Winston County","Alabama","South","East South Central","01133","34.154566","-87.365346 ","2744","72","0","0","5/9/2021 12:00:00 AM","2019","23629","NYTIMES-USCENSUS"
"5/10/2021 12:00:00 AM","Addison County","Vermont","Northeast","New England","50001","44.031248","-73.141581 ","1032","8","1","0","5/9/2021 12:00:00 AM","2019","36777","NYTIMES-USCENSUS"
"5/10/2021 12:00:00 AM","Marion County","Florida","South","South Atlantic","12083","29.202805","-82.0431 ","31281","968","30","2","5/9/2021 12:00:00 AM","2019","365579","NYTIMES-USCENSUS"
"5/10/2021 12:00:00 AM","Lincoln County","North Carolina","South","South Atlantic","37109","35.488491","-81.226893 ","10031","85","49","0","5/9/2021 12:00:00 AM","2019","86111","NYTIMES-USCENSUS"
"5/10/2021 12:00:00 AM","Inyo County","California","West","Pacific","06027","36.56216","-117.404209 ","1426","38","2","0","5/9/2021 12:00:00 AM","2019","18039","NYTIMES-USCENSUS"
"5/10/2021 12:00:00 AM","Coleman County","Texas","South","West South Central","48083","31.914205","-99.346622 ","749","33","0","0","5/9/2021 12:00:00 AM","2019","8175","NYTIMES-USCENSUS"
"5/10/2021 12:00:00 AM","McCormick County","South Carolina","South","South Atlantic","45065","33.897599","-82.316196 ","1023","28","0","0","5/9/2021 12:00:00 AM","2019","9463","NYTIMES-USCENSUS"
"5/10/2021 12:00:00 AM","Jefferson County","Idaho","West","Mountain","16051","43.796965","-112.318588 ","3000","28","7","0","5/9/2021 12:00:00 AM","2019","29871","NYTIMES-USCENSUS"
"5/10/2021 12:00:00 AM","St. Charles Parish","Louisiana","South","West South Central","22089","29.905722","-90.357855 ","5424","94","19","0","5/9/2021 12:00:00 AM","2019","53100","NYTIMES-USCENSUS"
"5/10/2021 12:00:00 AM","Warren County","Kentucky","South","East South Central","21227","36.995634","-86.423579 ","15935","171","11","0","5/9/2021 12:00:00 AM","2019","132896","NYTIMES-USCENSUS"
"5/10/2021 12:00:00 AM","Carroll County","Maryland","South","South Atlantic","24013","39.563328","-77.01533 ","9290","237","6","0","5/9/2021 12:00:00 AM","2019","168447","NYTIMES-USCENSUS"
"5/10/2021 12:00:00 AM","Cochise County","Arizona","West","Mountain","04003","31.840129","-109.775163 ","11970","283","6","0","5/9/2021 12:00:00 AM","2019","125922","NYTIMES-USCENSUS"
"5/10/2021 12:00:00 AM","Sublette County","Wyoming","West","Mountain","56035","42.767928","-109.91617 ","786","7","4","0","5/9/2021 12:00:00 AM","2019","9831","NYTIMES-USCENSUS"
"5/10/2021 12:00:00 AM","Thayer County","Nebraska","Midwest","West North Central","31169","40.173845","-97.596263 ","496","4","0","0","5/9/2021 12:00:00 AM","2019","5003","NYTIMES-USCENSUS"
"5/10/2021 12:00:00 AM","Green County","Wisconsin","Midwest","East North Central","55045","42.675522","-89.605074 ","3620","24","0","0","5/9/2021 12:00:00 AM","2019","36960","NYTIMES-USCENSUS"
"5/10/2021 12:00:00 AM","Jack County","Texas","South","West South Central","48237","33.23216","-98.171177 ","609","16","0","0","5/9/2021 12:00:00 AM","2019","8935","NYTIMES-USCENSUS"
"5/10/2021 12:00:00 AM","Becker County","Minnesota","Midwest","West North Central","27005","46.937629","-95.741757 ","3787","50","8","0","5/9/2021 12:00:00 AM","2019","34423","NYTIMES-USCENSUS"
"5/10/2021 12:00:00 AM","Arapahoe County","Colorado","West","Mountain","08005","39.644554","-104.331706 ","60339","777","103","0","5/9/2021 12:00:00 AM","2019","656590","NYTIMES-USCENSUS"
"5/10/2021 12:00:00 AM","Osage County","Oklahoma","South","West South Central","40113","36.624299","-96.408112 ","4718","73","0","0","5/9/2021 12:00:00 AM","2019","46963","NYTIMES-USCENSUS"
"5/10/2021 12:00:00 AM","Covington County","Mississippi","South","East South Central","28031","31.633331","-89.548897 ","2575","81","12","0","5/9/2021 12:00:00 AM","2019","18636","NYTIMES-USCENSUS"
"5/10/2021 12:00:00 AM","Bourbon County","Kansas","Midwest","West North Central","20011","37.8561","-94.850928 ","1413","26","1","0","5/9/2021 12:00:00 AM","2019","14534","NYTIMES-USCENSUS"
"5/10/2021 12:00:00 AM","Lincoln County","Idaho","West","Mountain","16063","42.990782","-114.153089 ","505","11","1","0","5/9/2021 12:00:00 AM","2019","5366","NYTIMES-USCENSUS"
"5/10/2021 12:00:00 AM","Kinney County","Texas","South","West South Central","48271","29.347086","-100.4177 ","347","6","0","0","5/9/2021 12:00:00 AM","2019","3667","NYTIMES-USCENSUS"
"5/10/2021 12:00:00 AM","Elbert County","Colorado","West","Mountain","08039","39.315157","-104.114076 ","1729","13","1","0","5/9/2021 12:00:00 AM","2019","26729","NYTIMES-USCENSUS"
"5/10/2021 12:00:00 AM","Scott County","Virginia","South","South Atlantic","51169","36.712776","-82.613624 ","1824","54","1","0","5/9/2021 12:00:00 AM","2019","21566","NYTIMES-USCENSUS"
"5/10/2021 12:00:00 AM","Geneva County","Alabama","South","East South Central","01061","31.092382","-85.821022 ","2500","77","1","0","5/9/2021 12:00:00 AM","2019","26271","NYTIMES-USCENSUS"
"5/10/2021 12:00:00 AM","Butts County","Georgia","South","South Atlantic","13035","33.290355","-83.958221 ","3136","83","1","0","5/9/2021 12:00:00 AM","2019","24936","NYTIMES-USCENSUS"
"5/10/2021 12:00:00 AM","Lake County","Oregon","West","Pacific","41037","42.788401","-120.38979 ","444","7","0","0","5/9/2021 12:00:00 AM","2019","7869","NYTIMES-USCENSUS"
"5/10/2021 12:00:00 AM","Phillips County","Kansas","Midwest","West North Central","20147","39.784506","-99.34215 ","713","24","0","0","5/9/2021 12:00:00 AM","2019","5234","NYTIMES-USCENSUS"
"5/10/2021 12:00:00 AM","Buena Vista city","Virginia","South","South Atlantic","51530","37.729345","-79.358134 ","904","20","0","0","5/9/2021 12:00:00 AM","2019","6478","NYTIMES-USCENSUS"
"5/10/2021 12:00:00 AM","Newaygo County","Michigan","Midwest","East North Central","26123","43.562712","-85.791372 ","4630","60","14","0","5/9/2021 12:00:00 AM","2019","48980","NYTIMES-USCENSUS"
"5/10/2021 12:00:00 AM","Caswell County","North Carolina","South","South Atlantic","37033","36.394298","-79.339609 ","2172","27","8","0","5/9/2021 12:00:00 AM","2019","22604","NYTIMES-USCENSUS"
"5/10/2021 12:00:00 AM","Ellis County","Texas","South","West South Central","48139","32.346878","-96.79694 ","22765","310","0","0","5/9/2021 12:00:00 AM","2019","184826","NYTIMES-USCENSUS"
"5/10/2021 12:00:00 AM","Whitfield County","Georgia","South","South Atlantic","13313","34.801726","-84.968541 ","16906","245","6","0","5/9/2021 12:00:00 AM","2019","104628","NYTIMES-USCENSUS"
"5/10/2021 12:00:00 AM","Midland County","Michigan","Midwest","East North Central","26111","43.648203","-84.379414 ","7268","82","31","0","5/9/2021 12:00:00 AM","2019","83156","NYTIMES-USCENSUS"
"5/10/2021 12:00:00 AM","St. Bernard Parish","Louisiana","South","West South Central","22087","29.91811","-89.263494 ","4028","52","6","1","5/9/2021 12:00:00 AM","2019","47244","NYTIMES-USCENSUS"
"5/10/2021 12:00:00 AM","Bryan County","Georgia","South","South Atlantic","13029","32.017969","-81.438543 ","3641","39","2","0","5/9/2021 12:00:00 AM","2019","39627","NYTIMES-USCENSUS"
"5/10/2021 12:00:00 AM","Houston County","Georgia","South","South Atlantic","13153","32.458287","-83.662522 ","14664","255","8","0","5/9/2021 12:00:00 AM","2019","157863","NYTIMES-USCENSUS"
"5/10/2021 12:00:00 AM","Jackson County","Florida","South","South Atlantic","12063","30.789249","-85.208814 ","6230","157","2","0","5/9/2021 12:00:00 AM","2019","46414","NYTIMES-USCENSUS"
"5/10/2021 12:00:00 AM","Warren County","Pennsylvania","Northeast","Middle Atlantic","42123","41.834298","-79.298182 ","2566","102","1","0","5/9/2021 12:00:00 AM","2019","39191","NYTIMES-USCENSUS"
"5/10/2021 12:00:00 AM","Beckham County","Oklahoma","South","West South Central","40009","35.270601","-99.690057 ","2895","55","0","0","5/9/2021 12:00:00 AM","2019","21859","NYTIMES-USCENSUS"
"5/10/2021 12:00:00 AM","Lawrence County","Indiana","Midwest","East North Central","18093","38.839815","-86.48782 ","4538","123","4","0","5/9/2021 12:00:00 AM","2019","45370","NYTIMES-USCENSUS"
"5/10/2021 12:00:00 AM","Owyhee County","Idaho","West","Mountain","16073","42.572851","-116.18969 ","1064","29","2","0","5/9/2021 12:00:00 AM","2019","11823","NYTIMES-USCENSUS"
"5/10/2021 12:00:00 AM","Decatur County","Iowa","Midwest","West North Central","19053","40.736379","-93.78458 ","606","9","0","0","5/9/2021 12:00:00 AM","2019","7870","NYTIMES-USCENSUS"
"5/10/2021 12:00:00 AM","Emanuel County","Georgia","South","South Atlantic","13107","32.5911","-82.299763 ","2552","81","0","0","5/9/2021 12:00:00 AM","2019","22646","NYTIMES-USCENSUS"
"5/10/2021 12:00:00 AM","Pender County","North Carolina","South","South Atlantic","37141","34.512556","-77.888106 ","5404","69","16","0","5/9/2021 12:00:00 AM","2019","63060","NYTIMES-USCENSUS"
"5/10/2021 12:00:00 AM","Tate County","Mississippi","South","East South Central","28137","34.649553","-89.943105 ","3332","84","8","0","5/9/2021 12:00:00 AM","2019","28321","NYTIMES-USCENSUS"
"5/10/2021 12:00:00 AM","Will County","Illinois","Midwest","East North Central","17197","41.448474","-87.978456 ","75162","1062","106","0","5/9/2021 12:00:00 AM","2019","690743","NYTIMES-USCENSUS"
"5/10/2021 12:00:00 AM","Jones County","Georgia","South","South Atlantic","13169","33.021664","-83.562196 ","2017","57","1","0","5/9/2021 12:00:00 AM","2019","28735","NYTIMES-USCENSUS"
"5/10/2021 12:00:00 AM","Clay County","Tennessee","South","East South Central","47027","36.545749","-85.545717 ","1103","31","2","0","5/9/2021 12:00:00 AM","2019","7615","NYTIMES-USCENSUS"
"5/10/2021 12:00:00 AM","Alcona County","Michigan","Midwest","East North Central","26001","44.657509","-83.29458 ","723","28","2","0","5/9/2021 12:00:00 AM","2019","10405","NYTIMES-USCENSUS"
"5/10/2021 12:00:00 AM","Merrimack County","New Hampshire","Northeast","New England","33013","43.299579","-71.680041 ","9384","113","6","0","5/9/2021 12:00:00 AM","2019","151391","NYTIMES-USCENSUS"
"5/10/2021 12:00:00 AM","Edwards County","Illinois","Midwest","East North Central","17047","38.417095","-88.047941 ","568","13","0","0","5/9/2021 12:00:00 AM","2019","6395","NYTIMES-USCENSUS"
"5/10/2021 12:00:00 AM","Bradley County","Arkansas","South","West South Central","05011","33.466549","-92.169156 ","1388","32","0","0","5/9/2021 12:00:00 AM","2019","10763","NYTIMES-USCENSUS"
"5/10/2021 12:00:00 AM","Carroll County","Tennessee","South","East South Central","47017","35.965748","-88.452379 ","3622","83","6","0","5/9/2021 12:00:00 AM","2019","27767","NYTIMES-USCENSUS"
"5/10/2021 12:00:00 AM","Oglethorpe County","Georgia","South","South Atlantic","13221","33.866806","-83.074081 ","1482","29","0","0","5/9/2021 12:00:00 AM","2019","15259","NYTIMES-USCENSUS"
"5/10/2021 12:00:00 AM","Gray County","Texas","South","West South Central","48179","35.402542","-100.812374 ","2322","56","0","0","5/9/2021 12:00:00 AM","2019","21886","NYTIMES-USCENSUS"
"5/10/2021 12:00:00 AM","Kitsap County","Washington","West","Pacific","53035","47.639595","-122.649634 ","7957","108","47","1","5/9/2021 12:00:00 AM","2019","271473","NYTIMES-USCENSUS"
"5/10/2021 12:00:00 AM","Shackelford County","Texas","South","West South Central","48417","32.74382","-99.347005 ","272","5","0","0","5/9/2021 12:00:00 AM","2019","3265","NYTIMES-USCENSUS"
"5/10/2021 12:00:00 AM","Hunt County","Texas","South","West South Central","48231","33.123308","-96.08423 ","5998","168","2","0","5/9/2021 12:00:00 AM","2019","98594","NYTIMES-USCENSUS"
"5/10/2021 12:00:00 AM","Concho County","Texas","South","West South Central","48095","31.318883","-99.863649 ","380","8","0","0","5/9/2021 12:00:00 AM","2019","2726","NYTIMES-USCENSUS"
"5/10/2021 12:00:00 AM","Fleming County","Kentucky","South","East South Central","21069","38.367848","-83.699205 ","1191","23","0","0","5/9/2021 12:00:00 AM","2019","14581","NYTIMES-USCENSUS"
"5/10/2021 12:00:00 AM","Jasper County","South Carolina","South","South Atlantic","45053","32.43059","-81.021627 ","2342","45","4","0","5/9/2021 12:00:00 AM","2019","30073","NYTIMES-USCENSUS"
"5/10/2021 12:00:00 AM","Winnebago County","Iowa","Midwest","West North Central","19189","43.378124","-93.743488 ","1416","31","0","0","5/9/2021 12:00:00 AM","2019","10354","NYTIMES-USCENSUS"
"5/10/2021 12:00:00 AM","Early County","Georgia","South","South Atlantic","13099","31.324191","-84.906723 ","1178","49","0","0","5/9/2021 12:00:00 AM","2019","10190","NYTIMES-USCENSUS"
"5/10/2021 12:00:00 AM","Adams County","Idaho","West","Mountain","16003","44.877004","-116.461624 ","339","4","0","0","5/9/2021 12:00:00 AM","2019","4294","NYTIMES-USCENSUS"
"5/10/2021 12:00:00 AM","White County","Indiana","Midwest","East North Central","18181","40.75095","-86.864293 ","3140","55","1","0","5/9/2021 12:00:00 AM","2019","24102","NYTIMES-USCENSUS"
"5/10/2021 12:00:00 AM","Johnson County","Wyoming","West","Mountain","56019","44.044048","-106.588541 ","718","10","0","0","5/9/2021 12:00:00 AM","2019","8445","NYTIMES-USCENSUS"
"5/10/2021 12:00:00 AM","Nemaha County","Nebraska","Midwest","West North Central","31127","40.387389","-95.852721 ","683","15","0","0","5/9/2021 12:00:00 AM","2019","6972","NYTIMES-USCENSUS"
"5/10/2021 12:00:00 AM","Bexar County","Texas","South","West South Central","48029","29.448671","-98.520147 ","219941","3508","808","0","5/9/2021 12:00:00 AM","2019","2003554","NYTIMES-USCENSUS"
"5/10/2021 12:00:00 AM","Cerro Gordo County","Iowa","Midwest","West North Central","19033","43.074975","-93.250965 ","5380","89","3","0","5/9/2021 12:00:00 AM","2019","42450","NYTIMES-USCENSUS"
"5/10/2021 12:00:00 AM","Hughes County","Oklahoma","South","West South Central","40063","35.052934","-96.251183 ","1234","28","0","0","5/9/2021 12:00:00 AM","2019","13279","NYTIMES-USCENSUS"
"5/10/2021 12:00:00 AM","Clark County","Kentucky","South","East South Central","21049","37.970314","-84.145115 ","2889","29","0","0","5/9/2021 12:00:00 AM","2019","36263","NYTIMES-USCENSUS"
"5/10/2021 12:00:00 AM","Wabaunsee County","Kansas","Midwest","West North Central","20197","38.955154","-96.201262 ","680","14","0","0","5/9/2021 12:00:00 AM","2019","6931","NYTIMES-USCENSUS"
"5/10/2021 12:00:00 AM","Lac qui Parle County","Minnesota","Midwest","West North Central","27073","44.999856","-96.176836 ","750","22","0","0","5/9/2021 12:00:00 AM","2019","6623","NYTIMES-USCENSUS"
"5/10/2021 12:00:00 AM","Toombs County","Georgia","South","South Atlantic","13279","32.117753","-82.330597 ","3414","113","1","0","5/9/2021 12:00:00 AM","2019","26830","NYTIMES-USCENSUS"
"5/10/2021 12:00:00 AM","Paulding County","Georgia","South","South Atlantic","13223","33.92103","-84.867169 ","16896","216","7","0","5/9/2021 12:00:00 AM","2019","168667","NYTIMES-USCENSUS"
"5/10/2021 12:00:00 AM","Ocean County","New Jersey","Northeast","Middle Atlantic","34029","39.865669","-74.258864 ","75208","2128","0","0","5/9/2021 12:00:00 AM","2019","607186","NYTIMES-USCENSUS"
"5/10/2021 12:00:00 AM","Harrison County","Mississippi","South","East South Central","28047","30.416536","-89.083376 ","17866","309","52","0","5/9/2021 12:00:00 AM","2019","208080","NYTIMES-USCENSUS"
"5/10/2021 12:00:00 AM","Humboldt County","Nevada","West","Mountain","32013","41.407914","-118.127591 ","1173","14","0","0","5/9/2021 12:00:00 AM","2019","16831","NYTIMES-USCENSUS"
"5/10/2021 12:00:00 AM","Jo Daviess County","Illinois","Midwest","East North Central","17085","42.362391","-90.21147 ","1805","27","0","0","5/9/2021 12:00:00 AM","2019","21235","NYTIMES-USCENSUS"
"5/10/2021 12:00:00 AM","Cape Girardeau County","Missouri","Midwest","West North Central","29031","37.384141","-89.685658 ","9491","134","8","0","5/9/2021 12:00:00 AM","2019","78871","NYTIMES-USCENSUS"
"5/10/2021 12:00:00 AM","Stark County","Illinois","Midwest","East North Central","17175","41.096908","-89.797411 ","634","23","0","0","5/9/2021 12:00:00 AM","2019","5342","NYTIMES-USCENSUS"
"5/10/2021 12:00:00 AM","Webster County","Georgia","South","South Atlantic","13307","32.046691","-84.553828 ","145","4","0","0","5/9/2021 12:00:00 AM","2019","2607","NYTIMES-USCENSUS"
"5/10/2021 12:00:00 AM","Lowndes County","Mississippi","South","East South Central","28087","33.471424","-88.439723 ","6385","145","15","0","5/9/2021 12:00:00 AM","2019","58595","NYTIMES-USCENSUS"
"5/10/2021 12:00:00 AM","Morgan County","Utah","West","Mountain","49029","41.091027","-111.577885 ","1283","11","0","0","5/9/2021 12:00:00 AM","2019","12124","NYTIMES-USCENSUS"
"5/10/2021 12:00:00 AM","Union County","Indiana","Midwest","East North Central","18161","39.623111","-84.925152 ","738","11","0","0","5/9/2021 12:00:00 AM","2019","7054","NYTIMES-USCENSUS"
"5/10/2021 12:00:00 AM","Benton County","Arkansas","South","West South Central","05007","36.337819","-94.256298 ","29000","415","8","0","5/9/2021 12:00:00 AM","2019","279141","NYTIMES-USCENSUS"
"5/10/2021 12:00:00 AM","Greene County","North Carolina","South","South Atlantic","37079","35.481959","-77.681688 ","2326","44","14","0","5/9/2021 12:00:00 AM","2019","21069","NYTIMES-USCENSUS"
"5/10/2021 12:00:00 AM","Hennepin County","Minnesota","Midwest","West North Central","27053","45.006121","-93.475228 ","122024","1724","247","0","5/9/2021 12:00:00 AM","2019","1265843","NYTIMES-USCENSUS"
"5/10/2021 12:00:00 AM","Monroe County","Florida","South","South Atlantic","12087","25.58612","-81.022603 ","6988","49","5","0","5/9/2021 12:00:00 AM","2019","74228","NYTIMES-USCENSUS"
"5/10/2021 12:00:00 AM","Randolph County","Missouri","Midwest","West North Central","29175","39.439249","-92.492959 ","2634","30","0","0","5/9/2021 12:00:00 AM","2019","24748","NYTIMES-USCENSUS"
"5/10/2021 12:00:00 AM","Santa Barbara County","California","West","Pacific","06083","34.536677","-120.038364 ","34196","456","11","0","5/9/2021 12:00:00 AM","2019","446499","NYTIMES-USCENSUS"
"5/10/2021 12:00:00 AM","Hancock County","Ohio","Midwest","East North Central","39063","41.000217","-83.665947 ","6920","127","4","0","5/9/2021 12:00:00 AM","2019","75783","NYTIMES-USCENSUS"
"5/10/2021 12:00:00 AM","Orangeburg County","South Carolina","South","South Atlantic","45075","33.436135","-80.802913 ","9738","249","9","1","5/9/2021 12:00:00 AM","2019","86175","NYTIMES-USCENSUS"
"5/10/2021 12:00:00 AM","Zavala County","Texas","South","West South Central","48507","28.864652","-99.75983 ","1855","41","0","0","5/9/2021 12:00:00 AM","2019","11840","NYTIMES-USCENSUS"
"5/10/2021 12:00:00 AM","Polk County","Missouri","Midwest","West North Central","29167","37.616761","-93.400817 ","3325","40","0","0","5/9/2021 12:00:00 AM","2019","32149","NYTIMES-USCENSUS"
"5/10/2021 12:00:00 AM","Wilcox County","Alabama","South","East South Central","01131","31.990082","-87.304935 ","1271","30","0","0","5/9/2021 12:00:00 AM","2019","10373","NYTIMES-USCENSUS"
"5/10/2021 12:00:00 AM","Miller County","Arkansas","South","West South Central","05091","33.305505","-93.901502 ","4316","38","0","0","5/9/2021 12:00:00 AM","2019","43257","NYTIMES-USCENSUS"
"5/10/2021 12:00:00 AM","Catahoula Parish","Louisiana","South","West South Central","22025","31.666517","-91.846703 ","1159","38","4","0","5/9/2021 12:00:00 AM","2019","9494","NYTIMES-USCENSUS"
"5/10/2021 12:00:00 AM","Marion County","Ohio","Midwest","East North Central","39101","40.588034","-83.168803 ","8532","135","5","0","5/9/2021 12:00:00 AM","2019","65093","NYTIMES-USCENSUS"
"5/10/2021 12:00:00 AM","Clallam County","Washington","West","Pacific","53009","48.110903","-123.88986 ","1267","9","8","1","5/9/2021 12:00:00 AM","2019","77331","NYTIMES-USCENSUS"
"5/10/2021 12:00:00 AM","Upson County","Georgia","South","South Atlantic","13293","32.881837","-84.292283 ","3477","126","1","0","5/9/2021 12:00:00 AM","2019","26320","NYTIMES-USCENSUS"
"5/10/2021 12:00:00 AM","Swisher County","Texas","South","West South Central","48437","34.526319","-101.743865 ","834","17","0","0","5/9/2021 12:00:00 AM","2019","7397","NYTIMES-USCENSUS"
"5/10/2021 12:00:00 AM","Mesa County","Colorado","West","Mountain","08077","39.019524","-108.460571 ","14768","216","32","0","5/9/2021 12:00:00 AM","2019","154210","NYTIMES-USCENSUS"
"5/10/2021 12:00:00 AM","Traverse County","Minnesota","Midwest","West North Central","27155","45.769935","-96.474832 ","368","5","0","0","5/9/2021 12:00:00 AM","2019","3259","NYTIMES-USCENSUS"
"5/10/2021 12:00:00 AM","Buffalo County","Wisconsin","Midwest","East North Central","55011","44.385633","-91.761294 ","1390","7","2","0","5/9/2021 12:00:00 AM","2019","13031","NYTIMES-USCENSUS"
"5/10/2021 12:00:00 AM","Barnes County","North Dakota","Midwest","West North Central","38003","46.94255","-98.070195 ","1412","31","0","0","5/9/2021 12:00:00 AM","2019","10415","NYTIMES-USCENSUS"
"5/10/2021 12:00:00 AM","Warren County","Missouri","Midwest","West North Central","29219","38.761902","-91.159306 ","3136","31","5","0","5/9/2021 12:00:00 AM","2019","35649","NYTIMES-USCENSUS"
"5/10/2021 12:00:00 AM","Perquimans County","North Carolina","South","South Atlantic","37143","36.180897","-76.403244 ","1014","11","5","0","5/9/2021 12:00:00 AM","2019","13463","NYTIMES-USCENSUS"
"5/10/2021 12:00:00 AM","Wilson County","North Carolina","South","South Atlantic","37195","35.700357","-77.921598 ","9672","173","20","0","5/9/2021 12:00:00 AM","2019","81801","NYTIMES-USCENSUS"
"5/10/2021 12:00:00 AM","Gladwin County","Michigan","Midwest","East North Central","26051","43.98975","-84.389816 ","2235","53","6","1","5/9/2021 12:00:00 AM","2019","25449","NYTIMES-USCENSUS"
"5/10/2021 12:00:00 AM","Calhoun County","Georgia","South","South Atlantic","13037","31.521279","-84.62629 ","587","15","0","0","5/9/2021 12:00:00 AM","2019","6189","NYTIMES-USCENSUS"
"5/10/2021 12:00:00 AM","Northumberland County","Pennsylvania","Northeast","Middle Atlantic","42097","40.851524","-76.709877 ","9388","347","4","0","5/9/2021 12:00:00 AM","2019","90843","NYTIMES-USCENSUS"
"5/10/2021 12:00:00 AM","Lyon County","Minnesota","Midwest","West North Central","27083","44.409195","-95.847268 ","3598","50","6","0","5/9/2021 12:00:00 AM","2019","25474","NYTIMES-USCENSUS"
"5/10/2021 12:00:00 AM","Howard County","Nebraska","Midwest","West North Central","31093","41.216851","-98.513342 ","552","11","0","-4","5/9/2021 12:00:00 AM","2019","6445","NYTIMES-USCENSUS"
"5/10/2021 12:00:00 AM","Northampton County","Virginia","South","South Atlantic","51131","37.302775","-75.924018 ","805","36","0","0","5/9/2021 12:00:00 AM","2019","11710","NYTIMES-USCENSUS"
"5/10/2021 12:00:00 AM","Seward County","Kansas","Midwest","West North Central","20175","37.18096","-100.855257 ","3973","41","5","0","5/9/2021 12:00:00 AM","2019","21428","NYTIMES-USCENSUS"
"5/10/2021 12:00:00 AM","Tooele County","Utah","West","Mountain","49045","40.467753","-113.123979 ","7255","41","8","0","5/9/2021 12:00:00 AM","2019","72259","NYTIMES-USCENSUS"
"5/10/2021 12:00:00 AM","Jasper County","Iowa","Midwest","West North Central","19099","41.685551","-93.054147 ","4180","71","2","0","5/9/2021 12:00:00 AM","2019","37185","NYTIMES-USCENSUS"
"5/10/2021 12:00:00 AM","Merced County","California","West","Pacific","06047","37.194806","-120.722802 ","31821","459","78","1","5/9/2021 12:00:00 AM","2019","277680","NYTIMES-USCENSUS"
"5/10/2021 12:00:00 AM","Houston County","Texas","South","West South Central","48225","31.323036","-95.4216 ","1639","52","0","0","5/9/2021 12:00:00 AM","2019","22968","NYTIMES-USCENSUS"
"5/10/2021 12:00:00 AM","Wabash County","Indiana","Midwest","East North Central","18169","40.843747","-85.795192 ","3544","79","3","0","5/9/2021 12:00:00 AM","2019","30996","NYTIMES-USCENSUS"
"5/10/2021 12:00:00 AM","Alamosa County","Colorado","West","Mountain","08003","37.568442","-105.788041 ","1521","31","7","0","5/9/2021 12:00:00 AM","2019","16233","NYTIMES-USCENSUS"
"5/10/2021 12:00:00 AM","Monroe County","Kentucky","South","East South Central","21171","36.714077","-85.713508 ","1331","41","0","0","5/9/2021 12:00:00 AM","2019","10650","NYTIMES-USCENSUS"
"5/10/2021 12:00:00 AM","Hancock County","Iowa","Midwest","West North Central","19081","43.075411","-93.743697 ","1472","34","2","0","5/9/2021 12:00:00 AM","2019","10630","NYTIMES-USCENSUS"
"5/10/2021 12:00:00 AM","Hall County","Texas","South","West South Central","48191","34.453189","-100.576343 ","462","14","0","0","5/9/2021 12:00:00 AM","2019","2964","NYTIMES-USCENSUS"
"5/10/2021 12:00:00 AM","Gonzales County","Texas","South","West South Central","48177","29.461912","-97.49192 ","2734","57","0","0","5/9/2021 12:00:00 AM","2019","20837","NYTIMES-USCENSUS"
"5/10/2021 12:00:00 AM","Mountrail County","North Dakota","Midwest","West North Central","38061","48.210073","-102.364895 ","1322","17","1","0","5/9/2021 12:00:00 AM","2019","10545","NYTIMES-USCENSUS"
"5/10/2021 12:00:00 AM","Columbia County","Oregon","West","Pacific","41009","45.941932","-123.081079 ","1727","26","12","0","5/9/2021 12:00:00 AM","2019","52354","NYTIMES-USCENSUS"
"5/10/2021 12:00:00 AM","Bingham County","Idaho","West","Mountain","16011","43.216357","-112.399206 ","4838","74","4","0","5/9/2021 12:00:00 AM","2019","46811","NYTIMES-USCENSUS"
"5/10/2021 12:00:00 AM","Kendall County","Texas","South","West South Central","48259","29.943525","-98.709269 ","3290","72","0","0","5/9/2021 12:00:00 AM","2019","47431","NYTIMES-USCENSUS"
"5/10/2021 12:00:00 AM","Valdez-Cordova Census Area","Alaska","West","Pacific","02261","61.4","-144.5","640","2","0","0","5/9/2021 12:00:00 AM","2019","9202","NYTIMES-USCENSUS"
"5/10/2021 12:00:00 AM","Columbia County","Arkansas","South","West South Central","05027","33.223038","-93.232843 ","2349","56","0","0","5/9/2021 12:00:00 AM","2019","23457","NYTIMES-USCENSUS"
"5/10/2021 12:00:00 AM","Johnson County","Georgia","South","South Atlantic","13167","32.694584","-82.66397 ","1122","49","0","0","5/9/2021 12:00:00 AM","2019","9643","NYTIMES-USCENSUS"
"5/10/2021 12:00:00 AM","Cherokee County","Georgia","South","South Atlantic","13057","34.244317","-84.475057 ","31233","319","11","0","5/9/2021 12:00:00 AM","2019","258773","NYTIMES-USCENSUS"
"5/10/2021 12:00:00 AM","Lehigh County","Pennsylvania","Northeast","Middle Atlantic","42077","40.614241","-75.590627 ","38838","844","25","0","5/9/2021 12:00:00 AM","2019","369318","NYTIMES-USCENSUS"
"5/10/2021 12:00:00 AM","Rusk County","Wisconsin","Midwest","East North Central","55107","45.472734","-91.136745 ","1369","18","0","0","5/9/2021 12:00:00 AM","2019","14178","NYTIMES-USCENSUS"
"5/10/2021 12:00:00 AM","Furnas County","Nebraska","Midwest","West North Central","31065","40.191865","-99.909663 ","508","5","0","0","5/9/2021 12:00:00 AM","2019","4676","NYTIMES-USCENSUS"
"5/10/2021 12:00:00 AM","Florence County","South Carolina","South","South Atlantic","45041","34.028535","-79.710233 ","17722","415","20","0","5/9/2021 12:00:00 AM","2019","138293","NYTIMES-USCENSUS"
"5/10/2021 12:00:00 AM","Wyandotte County","Kansas","Midwest","West North Central","20209","39.115384","-94.763087 ","20413","292","41","0","5/9/2021 12:00:00 AM","2019","165429","NYTIMES-USCENSUS"
"5/10/2021 12:00:00 AM","Duval County","Florida","South","South Atlantic","12031","30.335245","-81.648113 ","98611","1416","87","3","5/9/2021 12:00:00 AM","2019","957755","NYTIMES-USCENSUS"
"5/10/2021 12:00:00 AM","Stanley County","South Dakota","Midwest","West North Central","46117","44.413984","-100.747822 ","348","2","0","0","5/9/2021 12:00:00 AM","2019","3098","NYTIMES-USCENSUS"
"5/10/2021 12:00:00 AM","Cumberland County","Kentucky","South","East South Central","21057","36.782372","-85.388484 ","698","12","0","0","5/9/2021 12:00:00 AM","2019","6614","NYTIMES-USCENSUS"
"5/10/2021 12:00:00 AM","Lowndes County","Georgia","South","South Atlantic","13185","30.833145","-83.268995 ","12703","210","4","0","5/9/2021 12:00:00 AM","2019","117406","NYTIMES-USCENSUS"
"5/10/2021 12:00:00 AM","Saunders County","Nebraska","Midwest","West North Central","31155","41.223388","-96.642097 ","2527","16","3","0","5/9/2021 12:00:00 AM","2019","21578","NYTIMES-USCENSUS"
"5/10/2021 12:00:00 AM","White Pine County","Nevada","West","Mountain","32033","39.418176","-114.900565 ","611","6","0","0","5/9/2021 12:00:00 AM","2019","9580","NYTIMES-USCENSUS"
"5/10/2021 12:00:00 AM","Tripp County","South Dakota","Midwest","West North Central","46123","43.349729","-99.876219 ","755","17","0","0","5/9/2021 12:00:00 AM","2019","5441","NYTIMES-USCENSUS"
"5/10/2021 12:00:00 AM","Woodruff County","Arkansas","South","West South Central","05147","35.192777","-91.244535 ","648","13","0","0","5/9/2021 12:00:00 AM","2019","6320","NYTIMES-USCENSUS"
"5/10/2021 12:00:00 AM","Ripley County","Missouri","Midwest","West North Central","29181","36.65017","-90.874834 ","1065","16","0","0","5/9/2021 12:00:00 AM","2019","13288","NYTIMES-USCENSUS"
"5/10/2021 12:00:00 AM","Aurora County","South Dakota","Midwest","West North Central","46003","43.724719","-98.577587 ","471","15","0","0","5/9/2021 12:00:00 AM","2019","2751","NYTIMES-USCENSUS"
"5/10/2021 12:00:00 AM","Sangamon County","Illinois","Midwest","East North Central","17167","39.756886","-89.662435 ","18648","275","23","0","5/9/2021 12:00:00 AM","2019","194672","NYTIMES-USCENSUS"
"5/10/2021 12:00:00 AM","Titus County","Texas","South","West South Central","48449","33.214599","-94.966783 ","3716","83","0","0","5/9/2021 12:00:00 AM","2019","32750","NYTIMES-USCENSUS"
"5/10/2021 12:00:00 AM","Wicomico County","Maryland","South","South Atlantic","24045","38.36737","-75.632083 ","7532","153","3","0","5/9/2021 12:00:00 AM","2019","103609","NYTIMES-USCENSUS"
"5/10/2021 12:00:00 AM","Delta County","Colorado","West","Mountain","08029","38.861595","-107.864892 ","2697","61","0","0","5/9/2021 12:00:00 AM","2019","31162","NYTIMES-USCENSUS"
"5/10/2021 12:00:00 AM","Crawford County","Kansas","Midwest","West North Central","20037","37.505821","-94.853897 ","4733","83","2","0","5/9/2021 12:00:00 AM","2019","38818","NYTIMES-USCENSUS"
"5/10/2021 12:00:00 AM","Southeast Fairbanks Census Area","Alaska","West","Pacific","02240","63.864997","-143.218628 ","684","4","1","0","5/9/2021 12:00:00 AM","2019","6893","NYTIMES-USCENSUS"
"5/10/2021 12:00:00 AM","Monroe County","Arkansas","South","West South Central","05095","34.679512","-91.20331 ","868","17","0","0","5/9/2021 12:00:00 AM","2019","6701","NYTIMES-USCENSUS"
"5/10/2021 12:00:00 AM","McLennan County","Texas","South","West South Central","48309","31.549596","-97.201511 ","27138","471","0","0","5/9/2021 12:00:00 AM","2019","256623","NYTIMES-USCENSUS"
"5/10/2021 12:00:00 AM","Story County","Iowa","Midwest","West North Central","19169","42.037538","-93.466093 ","10588","48","6","0","5/9/2021 12:00:00 AM","2019","97117","NYTIMES-USCENSUS"
"5/10/2021 12:00:00 AM","Washington County","Iowa","Midwest","West North Central","19183","41.329401","-91.725052 ","2537","50","4","0","5/9/2021 12:00:00 AM","2019","21965","NYTIMES-USCENSUS"
"5/10/2021 12:00:00 AM","Grand Forks County","North Dakota","Midwest","West North Central","38035","47.926003","-97.450851 ","10589","77","5","0","5/9/2021 12:00:00 AM","2019","69451","NYTIMES-USCENSUS"
"5/10/2021 12:00:00 AM","Arenac County","Michigan","Midwest","East North Central","26011","44.036833","-83.740675 ","1148","29","7","0","5/9/2021 12:00:00 AM","2019","14883","NYTIMES-USCENSUS"
"5/10/2021 12:00:00 AM","Jefferson County","Georgia","South","South Atlantic","13163","33.058176","-82.420004 ","1951","66","0","0","5/9/2021 12:00:00 AM","2019","15362","NYTIMES-USCENSUS"
"5/10/2021 12:00:00 AM","Hopkins County","Texas","South","West South Central","48223","33.148967","-95.565434 ","3105","109","1","0","5/9/2021 12:00:00 AM","2019","37084","NYTIMES-USCENSUS"
"5/10/2021 12:00:00 AM","Polk County","Arkansas","South","West South Central","05113","34.490915","-94.230884 ","1990","72","0","0","5/9/2021 12:00:00 AM","2019","19964","NYTIMES-USCENSUS"
"5/10/2021 12:00:00 AM","Taylor County","Wisconsin","Midwest","East North Central","55119","45.211656","-90.504853 ","2105","32","0","0","5/9/2021 12:00:00 AM","2019","20343","NYTIMES-USCENSUS"
"5/10/2021 12:00:00 AM","Washington County","Vermont","Northeast","New England","50023","44.274969","-72.609444 ","1828","15","5","0","5/9/2021 12:00:00 AM","2019","58409","NYTIMES-USCENSUS"
"5/10/2021 12:00:00 AM","Union County","Mississippi","South","East South Central","28145","34.489533","-89.002339 ","4097","76","7","0","5/9/2021 12:00:00 AM","2019","28815","NYTIMES-USCENSUS"
"5/10/2021 12:00:00 AM","Marshall County","Minnesota","Midwest","West North Central","27089","48.362728","-96.357761 ","879","17","1","0","5/9/2021 12:00:00 AM","2019","9336","NYTIMES-USCENSUS"
"5/10/2021 12:00:00 AM","Perry County","Mississippi","South","East South Central","28111","31.169307","-88.988755 ","1260","38","1","0","5/9/2021 12:00:00 AM","2019","11973","NYTIMES-USCENSUS"
"5/10/2021 12:00:00 AM","Austin County","Texas","South","West South Central","48015","29.891901","-96.27017 ","2158","35","1","0","5/9/2021 12:00:00 AM","2019","30032","NYTIMES-USCENSUS"
"5/10/2021 12:00:00 AM","Cabell County","West Virginia","South","South Atlantic","54011","38.419578","-82.243397 ","8674","171","3","0","5/9/2021 12:00:00 AM","2019","91945","NYTIMES-USCENSUS"
"5/10/2021 12:00:00 AM","Cambria County","Pennsylvania","Northeast","Middle Atlantic","42021","40.510227","-78.710477 ","14090","421","16","0","5/9/2021 12:00:00 AM","2019","130192","NYTIMES-USCENSUS"
"5/10/2021 12:00:00 AM","Rensselaer County","New York","Northeast","Middle Atlantic","36083","42.710421","-73.513845 ","11037","140","11","0","5/9/2021 12:00:00 AM","2019","158714","NYTIMES-USCENSUS"
"5/10/2021 12:00:00 AM","Sequoyah County","Oklahoma","South","West South Central","40135","35.502435","-94.750757 ","4111","51","0","0","5/9/2021 12:00:00 AM","2019","41569","NYTIMES-USCENSUS"
"5/10/2021 12:00:00 AM","Maury County","Tennessee","South","East South Central","47119","35.615696","-87.077763 ","13517","172","18","0","5/9/2021 12:00:00 AM","2019","96387","NYTIMES-USCENSUS"
"5/10/2021 12:00:00 AM","Lamoille County","Vermont","Northeast","New England","50015","44.611192","-72.632659 ","863","3","0","0","5/9/2021 12:00:00 AM","2019","25362","NYTIMES-USCENSUS"
"5/10/2021 12:00:00 AM","Washington Parish","Louisiana","South","West South Central","22117","30.852144","-90.046253 ","4368","131","1","0","5/9/2021 12:00:00 AM","2019","46194","NYTIMES-USCENSUS"
"5/10/2021 12:00:00 AM","Dawson County","Texas","South","West South Central","48115","32.742528","-101.948771 ","1735","69","0","0","5/9/2021 12:00:00 AM","2019","12728","NYTIMES-USCENSUS"
"5/10/2021 12:00:00 AM","Lorain County","Ohio","Midwest","East North Central","39093","41.438805","-82.179722 ","25026","481","11","0","5/9/2021 12:00:00 AM","2019","309833","NYTIMES-USCENSUS"
"5/10/2021 12:00:00 AM","New Castle County","Delaware","South","South Atlantic","10003","39.575915","-75.644132 ","62805","814","71","2","5/9/2021 12:00:00 AM","2019","558753","NYTIMES-USCENSUS"
"5/10/2021 12:00:00 AM","Mathews County","Virginia","South","South Atlantic","51115","37.425348","-76.268808 ","597","12","0","0","5/9/2021 12:00:00 AM","2019","8834","NYTIMES-USCENSUS"
"5/10/2021 12:00:00 AM","Grundy County","Missouri","Midwest","West North Central","29079","40.112541","-93.565054 ","990","34","1","0","5/9/2021 12:00:00 AM","2019","9850","NYTIMES-USCENSUS"
"5/10/2021 12:00:00 AM","Worth County","Iowa","Midwest","West North Central","19195","43.373491","-93.248533 ","743","8","1","0","5/9/2021 12:00:00 AM","2019","7381","NYTIMES-USCENSUS"
"5/10/2021 12:00:00 AM","Lincoln County","Maine","Northeast","New England","23015","43.994781","-69.513624 ","965","2","3","0","5/9/2021 12:00:00 AM","2019","34634","NYTIMES-USCENSUS"
"5/10/2021 12:00:00 AM","Dane County","Wisconsin","Midwest","East North Central","55025","43.067468","-89.417852 ","46107","327","16","0","5/9/2021 12:00:00 AM","2019","546695","NYTIMES-USCENSUS"
"5/10/2021 12:00:00 AM","Ogle County","Illinois","Midwest","East North Central","17141","42.041884","-89.320176 ","6082","89","6","0","5/9/2021 12:00:00 AM","2019","50643","NYTIMES-USCENSUS"
"5/10/2021 12:00:00 AM","Harlan County","Nebraska","Midwest","West North Central","31083","40.178766","-99.403418 ","219","0","0","0","5/9/2021 12:00:00 AM","2019","3380","NYTIMES-USCENSUS"
"5/10/2021 12:00:00 AM","Ingham County","Michigan","Midwest","East North Central","26065","42.603534","-84.373811 ","24180","367","80","1","5/9/2021 12:00:00 AM","2019","292406","NYTIMES-USCENSUS"
"5/10/2021 12:00:00 AM","Sumter County","Georgia","South","South Atlantic","13261","32.042266","-84.204294 ","2560","101","2","0","5/9/2021 12:00:00 AM","2019","29524","NYTIMES-USCENSUS"
"5/10/2021 12:00:00 AM","Scott County","Indiana","Midwest","East North Central","18143","38.679431","-85.751898 ","2664","55","1","0","5/9/2021 12:00:00 AM","2019","23873","NYTIMES-USCENSUS"
"5/10/2021 12:00:00 AM","Turner County","South Dakota","Midwest","West North Central","46125","43.30867","-97.150185 ","1172","56","0","0","5/9/2021 12:00:00 AM","2019","8384","NYTIMES-USCENSUS"
"5/10/2021 12:00:00 AM","Nacogdoches County","Texas","South","West South Central","48347","31.62056","-94.62025 ","4534","169","3","0","5/9/2021 12:00:00 AM","2019","65204","NYTIMES-USCENSUS"
"5/10/2021 12:00:00 AM","Owsley County","Kentucky","South","East South Central","21189","37.423622","-83.691637 ","494","15","1","1","5/9/2021 12:00:00 AM","2019","4415","NYTIMES-USCENSUS"
"5/10/2021 12:00:00 AM","Iberville Parish","Louisiana","South","West South Central","22047","30.270653","-91.365872 ","3834","98","14","0","5/9/2021 12:00:00 AM","2019","32511","NYTIMES-USCENSUS"
"5/10/2021 12:00:00 AM","Van Buren County","Michigan","Midwest","East North Central","26159","42.28215","-86.306076 ","6893","120","22","0","5/9/2021 12:00:00 AM","2019","75677","NYTIMES-USCENSUS"
"5/10/2021 12:00:00 AM","Holmes County","Mississippi","South","East South Central","28051","33.125942","-90.091197 ","1887","73","1","0","5/9/2021 12:00:00 AM","2019","17010","NYTIMES-USCENSUS"
"5/10/2021 12:00:00 AM","Fremont County","Wyoming","West","Mountain","56013","43.054831","-108.608935 ","5182","84","3","0","5/9/2021 12:00:00 AM","2019","39261","NYTIMES-USCENSUS"
"5/10/2021 12:00:00 AM","Marion County","Georgia","South","South Atlantic","13197","32.359312","-84.528735 ","564","19","0","0","5/9/2021 12:00:00 AM","2019","8359","NYTIMES-USCENSUS"
"5/10/2021 12:00:00 AM","Lee County","South Carolina","South","South Atlantic","45061","34.15864","-80.251209 ","1907","59","1","0","5/9/2021 12:00:00 AM","2019","16828","NYTIMES-USCENSUS"
"5/10/2021 12:00:00 AM","Uintah County","Utah","West","Mountain","49047","40.125887","-109.517748 ","2637","23","0","0","5/9/2021 12:00:00 AM","2019","35734","NYTIMES-USCENSUS"
"5/10/2021 12:00:00 AM","Jefferson Parish","Louisiana","South","West South Central","22051","29.5033","-90.036231 ","46200","895","76","0","5/9/2021 12:00:00 AM","2019","432493","NYTIMES-USCENSUS"
"5/10/2021 12:00:00 AM","Noble County","Ohio","Midwest","East North Central","39121","39.767232","-81.452493 ","1333","37","0","0","5/9/2021 12:00:00 AM","2019","14424","NYTIMES-USCENSUS"
"5/10/2021 12:00:00 AM","Brooke County","West Virginia","South","South Atlantic","54009","40.272645","-80.578691 ","2194","60","1","0","5/9/2021 12:00:00 AM","2019","21939","NYTIMES-USCENSUS"
"5/10/2021 12:00:00 AM","Warren County","New Jersey","Northeast","Middle Atlantic","34041","40.853491","-75.009498 ","9805","235","6","0","5/9/2021 12:00:00 AM","2019","105267","NYTIMES-USCENSUS"
"5/10/2021 12:00:00 AM","Craven County","North Carolina","South","South Atlantic","37049","35.116829","-77.08132 ","9281","124","25","0","5/9/2021 12:00:00 AM","2019","102139","NYTIMES-USCENSUS"
"5/10/2021 12:00:00 AM","Watauga County","North Carolina","South","South Atlantic","37189","36.235368","-81.709888 ","4608","31","19","0","5/9/2021 12:00:00 AM","2019","56177","NYTIMES-USCENSUS"
"5/10/2021 12:00:00 AM","Hyde County","South Dakota","Midwest","West North Central","46069","44.537174","-99.472736 ","141","1","0","0","5/9/2021 12:00:00 AM","2019","1301","NYTIMES-USCENSUS"
"5/10/2021 12:00:00 AM","Stanly County","North Carolina","South","South Atlantic","37167","35.310449","-80.254374 ","7802","132","34","0","5/9/2021 12:00:00 AM","2019","62806","NYTIMES-USCENSUS"
"5/10/2021 12:00:00 AM","Hand County","South Dakota","Midwest","West North Central","46059","44.546713","-99.004575 ","361","6","-1","0","5/9/2021 12:00:00 AM","2019","3191","NYTIMES-USCENSUS"
"5/10/2021 12:00:00 AM","Duval County","Texas","South","West South Central","48131","27.681123","-98.497393 ","1253","41","0","0","5/9/2021 12:00:00 AM","2019","11157","NYTIMES-USCENSUS"
"5/10/2021 12:00:00 AM","Panola County","Mississippi","South","East South Central","28107","34.365205","-89.963065 ","4574","106","13","1","5/9/2021 12:00:00 AM","2019","34192","NYTIMES-USCENSUS"
"5/10/2021 12:00:00 AM","Kankakee County","Illinois","Midwest","East North Central","17091","41.13951","-87.861117 ","14087","217","13","0","5/9/2021 12:00:00 AM","2019","109862","NYTIMES-USCENSUS"
"5/10/2021 12:00:00 AM","Lincoln County","Arkansas","South","West South Central","05079","33.956385","-91.742355 ","3201","48","0","0","5/9/2021 12:00:00 AM","2019","13024","NYTIMES-USCENSUS"
"5/10/2021 12:00:00 AM","Grant Parish","Louisiana","South","West South Central","22043","31.597787","-92.561716 ","2156","56","4","0","5/9/2021 12:00:00 AM","2019","22389","NYTIMES-USCENSUS"
"5/10/2021 12:00:00 AM","Bladen County","North Carolina","South","South Atlantic","37017","34.591938","-78.539489 ","3260","42","5","1","5/9/2021 12:00:00 AM","2019","32722","NYTIMES-USCENSUS"
"5/10/2021 12:00:00 AM","Hyde County","North Carolina","South","South Atlantic","37095","35.408157","-76.153687 ","669","9","0","0","5/9/2021 12:00:00 AM","2019","4937","NYTIMES-USCENSUS"
"5/10/2021 12:00:00 AM","Grundy County","Tennessee","South","East South Central","47061","35.393386","-85.710379 ","1793","34","0","0","5/9/2021 12:00:00 AM","2019","13427","NYTIMES-USCENSUS"
"5/10/2021 12:00:00 AM","Jay County","Indiana","Midwest","East North Central","18075","40.434956","-85.002331 ","1959","32","1","0","5/9/2021 12:00:00 AM","2019","20436","NYTIMES-USCENSUS"
"5/10/2021 12:00:00 AM","Lonoke County","Arkansas","South","West South Central","05085","34.755114","-91.894132 ","7346","119","8","0","5/9/2021 12:00:00 AM","2019","73309","NYTIMES-USCENSUS"
"5/10/2021 12:00:00 AM","Bon Homme County","South Dakota","Midwest","West North Central","46009","42.985799","-97.884199 ","1544","27","0","0","5/9/2021 12:00:00 AM","2019","6901","NYTIMES-USCENSUS"
"5/10/2021 12:00:00 AM","Beltrami County","Minnesota","Midwest","West North Central","27007","47.879508","-95.00505 ","3912","58","2","0","5/9/2021 12:00:00 AM","2019","47188","NYTIMES-USCENSUS"
"5/10/2021 12:00:00 AM","Red River Parish","Louisiana","South","West South Central","22081","32.101213","-93.34905 ","872","38","5","0","5/9/2021 12:00:00 AM","2019","8442","NYTIMES-USCENSUS"
"5/10/2021 12:00:00 AM","Nuckolls County","Nebraska","Midwest","West North Central","31129","40.176492","-98.046842 ","430","11","0","0","5/9/2021 12:00:00 AM","2019","4148","NYTIMES-USCENSUS"
"5/10/2021 12:00:00 AM","Indiana County","Pennsylvania","Northeast","Middle Atlantic","42063","40.651432","-79.087545 ","6110","173","10","0","5/9/2021 12:00:00 AM","2019","84073","NYTIMES-USCENSUS"
"5/10/2021 12:00:00 AM","Lake County","Ohio","Midwest","East North Central","39085","41.778142","-81.19733 ","20698","369","19","0","5/9/2021 12:00:00 AM","2019","230149","NYTIMES-USCENSUS"
"5/10/2021 12:00:00 AM","Montrose County","Colorado","West","Mountain","08085","38.407507","-108.266282 ","3464","58","2","0","5/9/2021 12:00:00 AM","2019","42758","NYTIMES-USCENSUS"
"5/10/2021 12:00:00 AM","Big Stone County","Minnesota","Midwest","West North Central","27011","45.419925","-96.402226 ","598","4","0","0","5/9/2021 12:00:00 AM","2019","4991","NYTIMES-USCENSUS"
"5/10/2021 12:00:00 AM","Wasatch County","Utah","West","Mountain","49051","40.334884","-111.161568 ","4641","21","2","0","5/9/2021 12:00:00 AM","2019","34091","NYTIMES-USCENSUS"
"5/10/2021 12:00:00 AM","Parke County","Indiana","Midwest","East North Central","18121","39.77425","-87.19695 ","1475","16","-1","0","5/9/2021 12:00:00 AM","2019","16937","NYTIMES-USCENSUS"
"5/10/2021 12:00:00 AM","Lake County","Tennessee","South","East South Central","47095","36.333905","-89.485536 ","1704","26","1","0","5/9/2021 12:00:00 AM","2019","7016","NYTIMES-USCENSUS"
"5/10/2021 12:00:00 AM","Oxford County","Maine","Northeast","New England","23017","44.4945","-70.734421 ","3403","63","18","0","5/9/2021 12:00:00 AM","2019","57975","NYTIMES-USCENSUS"
"5/10/2021 12:00:00 AM","Jerauld County","South Dakota","Midwest","West North Central","46073","44.06341","-98.62317 ","276","16","2","0","5/9/2021 12:00:00 AM","2019","2013","NYTIMES-USCENSUS"
"5/10/2021 12:00:00 AM","Foster County","North Dakota","Midwest","West North Central","38031","47.471431","-98.872876 ","595","19","0","0","5/9/2021 12:00:00 AM","2019","3210","NYTIMES-USCENSUS"
"5/10/2021 12:00:00 AM","Redwood County","Minnesota","Midwest","West North Central","27127","44.403536","-95.254241 ","1726","36","0","0","5/9/2021 12:00:00 AM","2019","15170","NYTIMES-USCENSUS"
"5/10/2021 12:00:00 AM","Sheboygan County","Wisconsin","Midwest","East North Central","55117","43.741232","-87.731516 ","14648","153","3","0","5/9/2021 12:00:00 AM","2019","115340","NYTIMES-USCENSUS"
"5/10/2021 12:00:00 AM","Buchanan County","Virginia","South","South Atlantic","51027","37.26812","-82.038151 ","1424","40","1","0","5/9/2021 12:00:00 AM","2019","21004","NYTIMES-USCENSUS"
"5/10/2021 12:00:00 AM","Pendleton County","Kentucky","South","East South Central","21191","38.696284","-84.351943 ","1026","5","0","1","5/9/2021 12:00:00 AM","2019","14590","NYTIMES-USCENSUS"
"5/10/2021 12:00:00 AM","Shenandoah County","Virginia","South","South Atlantic","51171","38.856204","-78.573987 ","4295","131","0","0","5/9/2021 12:00:00 AM","2019","43616","NYTIMES-USCENSUS"
"5/10/2021 12:00:00 AM","Forsyth County","Georgia","South","South Atlantic","13117","34.225143","-84.127408 ","22872","192","9","0","5/9/2021 12:00:00 AM","2019","244252","NYTIMES-USCENSUS"
"5/10/2021 12:00:00 AM","Kleberg County","Texas","South","West South Central","48273","27.438735","-97.66062 ","2645","93","0","0","5/9/2021 12:00:00 AM","2019","30680","NYTIMES-USCENSUS"
"5/10/2021 12:00:00 AM","Hall County","Georgia","South","South Atlantic","13139","34.317569","-83.8185 ","27435","468","12","0","5/9/2021 12:00:00 AM","2019","204441","NYTIMES-USCENSUS"
"5/10/2021 12:00:00 AM","Alpena County","Michigan","Midwest","East North Central","26007","44.894954","-83.426574 ","2174","59","17","0","5/9/2021 12:00:00 AM","2019","28405","NYTIMES-USCENSUS"
"5/10/2021 12:00:00 AM","Montgomery County","Indiana","Midwest","East North Central","18107","40.040296","-86.892715 ","4242","90","1","0","5/9/2021 12:00:00 AM","2019","38338","NYTIMES-USCENSUS"
"5/10/2021 12:00:00 AM","Jim Hogg County","Texas","South","West South Central","48247","27.053231","-98.747572 ","613","16","0","0","5/9/2021 12:00:00 AM","2019","5200","NYTIMES-USCENSUS"
"5/10/2021 12:00:00 AM","Prairie County","Arkansas","South","West South Central","05117","34.831116","-91.55362 ","895","21","0","0","5/9/2021 12:00:00 AM","2019","8062","NYTIMES-USCENSUS"
"5/10/2021 12:00:00 AM","Noble County","Indiana","Midwest","East North Central","18113","41.404679","-85.417271 ","5612","86","5","0","5/9/2021 12:00:00 AM","2019","47744","NYTIMES-USCENSUS"
"5/10/2021 12:00:00 AM","Nicollet County","Minnesota","Midwest","West North Central","27103","44.35882","-94.245684 ","3236","43","9","0","5/9/2021 12:00:00 AM","2019","34274","NYTIMES-USCENSUS"
"5/10/2021 12:00:00 AM","Rabun County","Georgia","South","South Atlantic","13241","34.883934","-83.40487 ","1746","49","2","0","5/9/2021 12:00:00 AM","2019","17137","NYTIMES-USCENSUS"
"5/10/2021 12:00:00 AM","Floyd County","Texas","South","West South Central","48153","34.07373","-101.303274 ","853","30","0","0","5/9/2021 12:00:00 AM","2019","5712","NYTIMES-USCENSUS"
"5/10/2021 12:00:00 AM","Montezuma County","Colorado","West","Mountain","08083","37.338025","-108.595786 ","1913","24","1","0","5/9/2021 12:00:00 AM","2019","26183","NYTIMES-USCENSUS"
"5/10/2021 12:00:00 AM","Sumner County","Tennessee","South","East South Central","47165","36.472423","-86.458405 ","24052","349","40","0","5/9/2021 12:00:00 AM","2019","191283","NYTIMES-USCENSUS"
"5/10/2021 12:00:00 AM","Columbia County","Georgia","South","South Atlantic","13073","33.552075","-82.249608 ","16895","203","3","0","5/9/2021 12:00:00 AM","2019","156714","NYTIMES-USCENSUS"
"5/10/2021 12:00:00 AM","Chippewa County","Michigan","Midwest","East North Central","26033","46.321819","-84.52063 ","5542","49","4","0","5/9/2021 12:00:00 AM","2019","37349","NYTIMES-USCENSUS"
"5/10/2021 12:00:00 AM","La Plata County","Colorado","West","Mountain","08067","37.287367","-107.839718 ","3923","39","6","0","5/9/2021 12:00:00 AM","2019","56221","NYTIMES-USCENSUS"
"5/10/2021 12:00:00 AM","Troup County","Georgia","South","South Atlantic","13285","33.034482","-85.02836 ","7535","225","3","0","5/9/2021 12:00:00 AM","2019","69922","NYTIMES-USCENSUS"
"5/10/2021 12:00:00 AM","Williamson County","Tennessee","South","East South Central","47187","35.894807","-86.898068 ","28040","217","25","0","5/9/2021 12:00:00 AM","2019","238412","NYTIMES-USCENSUS"
"5/10/2021 12:00:00 AM","Hernando County","Florida","South","South Atlantic","12053","28.555995","-82.525969 ","14087","470","17","3","5/9/2021 12:00:00 AM","2019","193920","NYTIMES-USCENSUS"
"5/10/2021 12:00:00 AM","Shasta County","California","West","Pacific","06089","40.760514","-122.043556 ","12110","226","39","0","5/9/2021 12:00:00 AM","2019","180080","NYTIMES-USCENSUS"
"5/10/2021 12:00:00 AM","Roane County","Tennessee","South","East South Central","47145","35.84725","-84.523929 ","6302","105","20","0","5/9/2021 12:00:00 AM","2019","53382","NYTIMES-USCENSUS"
"5/10/2021 12:00:00 AM","Mahoning County","Ohio","Midwest","East North Central","39099","41.01088","-80.770396 ","21576","588","15","0","5/9/2021 12:00:00 AM","2019","228683","NYTIMES-USCENSUS"
"5/10/2021 12:00:00 AM","Perry County","Arkansas","South","West South Central","05105","34.946363","-92.926877 ","839","10","0","0","5/9/2021 12:00:00 AM","2019","10455","NYTIMES-USCENSUS"
"5/10/2021 12:00:00 AM","Marion County","Arkansas","South","West South Central","05089","36.266664","-92.678577 ","1055","30","0","0","5/9/2021 12:00:00 AM","2019","16694","NYTIMES-USCENSUS"
"5/10/2021 12:00:00 AM","De Witt County","Illinois","Midwest","East North Central","17039","40.181499","-88.901853 ","1502","31","4","0","5/9/2021 12:00:00 AM","2019","15638","NYTIMES-USCENSUS"
"5/10/2021 12:00:00 AM","Washington County","Idaho","West","Mountain","16087","44.448223","-116.797792 ","1214","21","1","0","5/9/2021 12:00:00 AM","2019","10194","NYTIMES-USCENSUS"
"5/10/2021 12:00:00 AM","Custer County","Oklahoma","South","West South Central","40039","35.645601","-98.997386 ","4070","98","0","0","5/9/2021 12:00:00 AM","2019","29003","NYTIMES-USCENSUS"
"5/10/2021 12:00:00 AM","Somerset County","Maryland","South","South Atlantic","24039","38.07445","-75.853323 ","2560","37","6","0","5/9/2021 12:00:00 AM","2019","25616","NYTIMES-USCENSUS"
"5/10/2021 12:00:00 AM","Larimer County","Colorado","West","Mountain","08069","40.658093","-105.486764 ","26123","235","45","0","5/9/2021 12:00:00 AM","2019","356899","NYTIMES-USCENSUS"
"5/10/2021 12:00:00 AM","Clay County","Kentucky","South","East South Central","21051","37.164273","-83.715473 ","2668","44","4","0","5/9/2021 12:00:00 AM","2019","19901","NYTIMES-USCENSUS"
"5/10/2021 12:00:00 AM","Lafayette County","Arkansas","South","West South Central","05073","33.240629","-93.611514 ","546","9","0","0","5/9/2021 12:00:00 AM","2019","6624","NYTIMES-USCENSUS"
"5/10/2021 12:00:00 AM","Howard County","Indiana","Midwest","East North Central","18067","40.483537","-86.114118 ","9925","220","7","0","5/9/2021 12:00:00 AM","2019","82544","NYTIMES-USCENSUS"
"5/10/2021 12:00:00 AM","Smith County","Texas","South","West South Central","48423","32.377016","-95.270041 ","20253","469","0","0","5/9/2021 12:00:00 AM","2019","232751","NYTIMES-USCENSUS"
"5/10/2021 12:00:00 AM","Lauderdale County","Mississippi","South","East South Central","28075","32.403998","-88.660449 ","7187","240","6","0","5/9/2021 12:00:00 AM","2019","74125","NYTIMES-USCENSUS"
"5/10/2021 12:00:00 AM","Hill County","Texas","South","West South Central","48217","31.982681","-97.130668 ","4501","108","3","0","5/9/2021 12:00:00 AM","2019","36649","NYTIMES-USCENSUS"
"5/10/2021 12:00:00 AM","St. Lucie County","Florida","South","South Atlantic","12111","27.379814","-80.443536 ","26605","638","27","0","5/9/2021 12:00:00 AM","2019","328297","NYTIMES-USCENSUS"
"5/10/2021 12:00:00 AM","Owen County","Kentucky","South","East South Central","21187","38.499395","-84.84159 ","677","13","2","0","5/9/2021 12:00:00 AM","2019","10901","NYTIMES-USCENSUS"
"5/10/2021 12:00:00 AM","Ketchikan Gateway Borough","Alaska","West","Pacific","02130","55.449938","-131.106685 ","492","1","17","0","5/9/2021 12:00:00 AM","2019","13901","NYTIMES-USCENSUS"
"5/10/2021 12:00:00 AM","Sanpete County","Utah","West","Mountain","49039","39.373426","-111.576933 ","3797","22","0","0","5/9/2021 12:00:00 AM","2019","30939","NYTIMES-USCENSUS"
"5/10/2021 12:00:00 AM","Ottawa County","Kansas","Midwest","West North Central","20143","39.137963","-97.654802 ","551","13","0","0","5/9/2021 12:00:00 AM","2019","5704","NYTIMES-USCENSUS"
"5/10/2021 12:00:00 AM","Coffey County","Kansas","Midwest","West North Central","20031","38.23645","-95.729137 ","733","23","3","0","5/9/2021 12:00:00 AM","2019","8179","NYTIMES-USCENSUS"
"5/10/2021 12:00:00 AM","Hutchinson County","Texas","South","West South Central","48233","35.837047","-101.362746 ","2022","71","0","0","5/9/2021 12:00:00 AM","2019","20938","NYTIMES-USCENSUS"
"5/10/2021 12:00:00 AM","Douglas County","Wisconsin","Midwest","East North Central","55031","46.463218","-91.892477 ","4833","54","11","0","5/9/2021 12:00:00 AM","2019","43150","NYTIMES-USCENSUS"
"5/10/2021 12:00:00 AM","Franklin County","Kansas","Midwest","West North Central","20059","38.558019","-95.278962 ","2555","43","4","0","5/9/2021 12:00:00 AM","2019","25544","NYTIMES-USCENSUS"
"5/10/2021 12:00:00 AM","Muscatine County","Iowa","Midwest","West North Central","19139","41.483776","-91.118699 ","4762","99","1","0","5/9/2021 12:00:00 AM","2019","42664","NYTIMES-USCENSUS"
"5/10/2021 12:00:00 AM","Ozaukee County","Wisconsin","Midwest","East North Central","55089","43.501845","-87.847567 ","9165","94","0","0","5/9/2021 12:00:00 AM","2019","89221","NYTIMES-USCENSUS"
"5/10/2021 12:00:00 AM","Montgomery County","Arkansas","South","West South Central","05097","34.545656","-93.664153 ","755","33","0","0","5/9/2021 12:00:00 AM","2019","8986","NYTIMES-USCENSUS"
"5/10/2021 12:00:00 AM","Polk County","Wisconsin","Midwest","East North Central","55095","45.462041","-92.447066 ","4620","56","0","0","5/9/2021 12:00:00 AM","2019","43783","NYTIMES-USCENSUS"
"5/10/2021 12:00:00 AM","Cass County","Nebraska","Midwest","West North Central","31025","40.909878","-96.140609 ","2659","16","1","0","5/9/2021 12:00:00 AM","2019","26248","NYTIMES-USCENSUS"
"5/10/2021 12:00:00 AM","Shiawassee County","Michigan","Midwest","East North Central","26155","42.951545","-84.146352 ","6179","101","26","0","5/9/2021 12:00:00 AM","2019","68122","NYTIMES-USCENSUS"
"5/10/2021 12:00:00 AM","Franklin County","New York","Northeast","Middle Atlantic","36033","44.594376","-74.31067 ","2509","12","1","0","5/9/2021 12:00:00 AM","2019","50022","NYTIMES-USCENSUS"
"5/10/2021 12:00:00 AM","Emery County","Utah","West","Mountain","49015","39.009025","-110.7211 ","925","9","0","0","5/9/2021 12:00:00 AM","2019","10012","NYTIMES-USCENSUS"
"5/10/2021 12:00:00 AM","Duchesne County","Utah","West","Mountain","49013","40.289393","-110.429584 ","1258","9","3","0","5/9/2021 12:00:00 AM","2019","19938","NYTIMES-USCENSUS"
"5/10/2021 12:00:00 AM","Rhea County","Tennessee","South","East South Central","47143","35.60059","-84.949548 ","4353","75","5","0","5/9/2021 12:00:00 AM","2019","33167","NYTIMES-USCENSUS"
"5/10/2021 12:00:00 AM","York County","Virginia","South","South Atlantic","51199","37.220914","-76.395533 ","3724","52","0","0","5/9/2021 12:00:00 AM","2019","68280","NYTIMES-USCENSUS"
"5/10/2021 12:00:00 AM","Comanche County","Kansas","Midwest","West North Central","20033","37.181442","-99.251293 ","170","9","0","0","5/9/2021 12:00:00 AM","2019","1700","NYTIMES-USCENSUS"
"5/10/2021 12:00:00 AM","Sanilac County","Michigan","Midwest","East North Central","26151","43.449155","-82.642815 ","4170","108","4","0","5/9/2021 12:00:00 AM","2019","41170","NYTIMES-USCENSUS"
"5/10/2021 12:00:00 AM","Riverside County","California","West","Pacific","06065","33.729828","-116.002239 ","299173","4588","109","1","5/9/2021 12:00:00 AM","2019","2470546","NYTIMES-USCENSUS"
"5/10/2021 12:00:00 AM","Presidio County","Texas","South","West South Central","48377","30.005891","-104.261619 ","819","24","0","0","5/9/2021 12:00:00 AM","2019","6704","NYTIMES-USCENSUS"
"5/10/2021 12:00:00 AM","Amelia County","Virginia","South","South Atlantic","51007","37.331927","-77.977462 ","895","32","5","0","5/9/2021 12:00:00 AM","2019","13145","NYTIMES-USCENSUS"
"5/10/2021 12:00:00 AM","Fayette County","West Virginia","South","South Atlantic","54019","38.030933","-81.086051 ","3437","75","2","0","5/9/2021 12:00:00 AM","2019","42406","NYTIMES-USCENSUS"
"5/10/2021 12:00:00 AM","Elk County","Pennsylvania","Northeast","Middle Atlantic","42047","41.427332","-78.653937 ","2827","39","1","0","5/9/2021 12:00:00 AM","2019","29910","NYTIMES-USCENSUS"
"5/10/2021 12:00:00 AM","Washakie County","Wyoming","West","Mountain","56043","43.878831","-107.669052 ","911","26","1","0","5/9/2021 12:00:00 AM","2019","7805","NYTIMES-USCENSUS"
"5/10/2021 12:00:00 AM","Clay County","Alabama","South","East South Central","01027","33.2704","-85.863525 ","1562","56","0","0","5/9/2021 12:00:00 AM","2019","13235","NYTIMES-USCENSUS"
"5/10/2021 12:00:00 AM","Wells County","Indiana","Midwest","East North Central","18179","40.735273","-85.212974 ","2941","83","1","0","5/9/2021 12:00:00 AM","2019","28296","NYTIMES-USCENSUS"
"5/10/2021 12:00:00 AM","Pierce County","Washington","West","Pacific","53053","47.051413","-122.15324 ","51311","660","342","5","5/9/2021 12:00:00 AM","2019","904980","NYTIMES-USCENSUS"
"5/10/2021 12:00:00 AM","Somerset County","Maine","Northeast","New England","23025","45.503646","-69.95611 ","2018","29","5","0","5/9/2021 12:00:00 AM","2019","50484","NYTIMES-USCENSUS"
"5/10/2021 12:00:00 AM","Frontier County","Nebraska","Midwest","West North Central","31063","40.530947","-100.406683 ","193","1","0","0","5/9/2021 12:00:00 AM","2019","2627","NYTIMES-USCENSUS"
"5/10/2021 12:00:00 AM","Calvert County","Maryland","South","South Atlantic","24009","38.522719","-76.529762 ","4181","78","1","0","5/9/2021 12:00:00 AM","2019","92525","NYTIMES-USCENSUS"
"5/10/2021 12:00:00 AM","Fannin County","Texas","South","West South Central","48147","33.591161","-96.104988 ","3475","108","0","0","5/9/2021 12:00:00 AM","2019","35514","NYTIMES-USCENSUS"
"5/10/2021 12:00:00 AM","Pulaski County","Arkansas","South","West South Central","05119","34.770311","-92.312996 ","39203","657","17","1","5/9/2021 12:00:00 AM","2019","391911","NYTIMES-USCENSUS"
"5/10/2021 12:00:00 AM","Prince George's County","Maryland","South","South Atlantic","24033","38.829278","-76.848188 ","83944","1481","40","0","5/9/2021 12:00:00 AM","2019","909327","NYTIMES-USCENSUS"
"5/10/2021 12:00:00 AM","Spink County","South Dakota","Midwest","West North Central","46115","44.923772","-98.339615 ","843","26","1","0","5/9/2021 12:00:00 AM","2019","6376","NYTIMES-USCENSUS"
"5/10/2021 12:00:00 AM","Dillon County","South Carolina","South","South Atlantic","45033","34.390172","-79.374964 ","4371","84","0","0","5/9/2021 12:00:00 AM","2019","30479","NYTIMES-USCENSUS"
"5/10/2021 12:00:00 AM","De Baca County","New Mexico","West","Mountain","35011","34.359273","-104.368696 ","155","1","7","0","5/9/2021 12:00:00 AM","2019","1748","NYTIMES-USCENSUS"
"5/10/2021 12:00:00 AM","Boone County","West Virginia","South","South Atlantic","54005","38.022814","-81.713538 ","2014","34","2","0","5/9/2021 12:00:00 AM","2019","21457","NYTIMES-USCENSUS"
"5/10/2021 12:00:00 AM","Guadalupe County","Texas","South","West South Central","48187","29.582671","-97.948995 ","14686","211","0","0","5/9/2021 12:00:00 AM","2019","166847","NYTIMES-USCENSUS"
"5/10/2021 12:00:00 AM","Johnson County","Texas","South","West South Central","48251","32.379821","-97.364959 ","19779","367","0","0","5/9/2021 12:00:00 AM","2019","175817","NYTIMES-USCENSUS"
"5/10/2021 12:00:00 AM","Portage County","Ohio","Midwest","East North Central","39133","41.16897","-81.196962 ","12872","203","15","0","5/9/2021 12:00:00 AM","2019","162466","NYTIMES-USCENSUS"
"5/10/2021 12:00:00 AM","Hodgeman County","Kansas","Midwest","West North Central","20083","38.087493","-99.898407 ","212","8","1","0","5/9/2021 12:00:00 AM","2019","1794","NYTIMES-USCENSUS"
"5/10/2021 12:00:00 AM","Napa County","California","West","Pacific","06055","38.5071","-122.325904 ","9858","81","4","0","5/9/2021 12:00:00 AM","2019","137744","NYTIMES-USCENSUS"
"5/10/2021 12:00:00 AM","San Juan County","New Mexico","West","Mountain","35045","36.511624","-108.324578 ","14960","470","155","1","5/9/2021 12:00:00 AM","2019","123958","NYTIMES-USCENSUS"
"5/10/2021 12:00:00 AM","Jasper County","Indiana","Midwest","East North Central","18073","41.017688","-87.118814 ","3657","49","4","0","5/9/2021 12:00:00 AM","2019","33562","NYTIMES-USCENSUS"
"5/10/2021 12:00:00 AM","Contra Costa County","California","West","Pacific","06013","37.919479","-121.951543 ","68638","806","56","3","5/9/2021 12:00:00 AM","2019","1153526","NYTIMES-USCENSUS"
"5/10/2021 12:00:00 AM","Broomfield County","Colorado","West","Mountain","08014","39.953593","-105.050787 ","4771","75","5","0","5/9/2021 12:00:00 AM","2019","70465","NYTIMES-USCENSUS"
"5/10/2021 12:00:00 AM","Shawano County","Wisconsin","Midwest","East North Central","55115","44.789641","-88.755813 ","5275","83","0","0","5/9/2021 12:00:00 AM","2019","40899","NYTIMES-USCENSUS"
"5/10/2021 12:00:00 AM","Prince of Wales-Hyder Census Area","Alaska","West","Pacific","02198","55.682773","-133.162389 ","103","1","0","0","5/9/2021 12:00:00 AM","2019","6203","NYTIMES-USCENSUS"
"5/10/2021 12:00:00 AM","Custer County","Idaho","West","Mountain","16037","44.273351","-114.252267 ","248","3","1","0","5/9/2021 12:00:00 AM","2019","4315","NYTIMES-USCENSUS"
"5/10/2021 12:00:00 AM","Madison County","Montana","West","Mountain","30057","45.32529","-111.913791 ","786","8","0","0","5/9/2021 12:00:00 AM","2019","8600","NYTIMES-USCENSUS"
"5/10/2021 12:00:00 AM","Washington County","Colorado","West","Mountain","08121","39.96579","-103.209744 ","452","12","0","0","5/9/2021 12:00:00 AM","2019","4908","NYTIMES-USCENSUS"
"5/10/2021 12:00:00 AM","Defiance County","Ohio","Midwest","East North Central","39039","41.321679","-84.486433 ","4204","97","4","0","5/9/2021 12:00:00 AM","2019","38087","NYTIMES-USCENSUS"
"5/10/2021 12:00:00 AM","Barry County","Michigan","Midwest","East North Central","26015","42.582811","-85.31455 ","5715","64","32","0","5/9/2021 12:00:00 AM","2019","61550","NYTIMES-USCENSUS"
"5/10/2021 12:00:00 AM","Yalobusha County","Mississippi","South","East South Central","28161","34.030666","-89.703807 ","1641","38","8","1","5/9/2021 12:00:00 AM","2019","12108","NYTIMES-USCENSUS"
"5/10/2021 12:00:00 AM","Baltimore County","Maryland","South","South Atlantic","24005","39.443167","-76.616569 ","64615","1497","47","0","5/9/2021 12:00:00 AM","2019","827370","NYTIMES-USCENSUS"
"5/10/2021 12:00:00 AM","Outagamie County","Wisconsin","Midwest","East North Central","55087","44.418226","-88.464988 ","23590","222","15","0","5/9/2021 12:00:00 AM","2019","187885","NYTIMES-USCENSUS"
"5/10/2021 12:00:00 AM","Yazoo County","Mississippi","South","East South Central","28163","32.765675","-90.387928 ","3113","69","6","0","5/9/2021 12:00:00 AM","2019","29690","NYTIMES-USCENSUS"
"5/10/2021 12:00:00 AM","Muskogee County","Oklahoma","South","West South Central","40101","35.617551","-95.383911 ","9316","164","0","0","5/9/2021 12:00:00 AM","2019","67997","NYTIMES-USCENSUS"
"5/10/2021 12:00:00 AM","Windham County","Connecticut","Northeast","New England","09015","41.824999","-71.990702 ","10745","193","21","1","5/9/2021 12:00:00 AM","2019","116782","NYTIMES-USCENSUS"
"5/10/2021 12:00:00 AM","Monroe County","Missouri","Midwest","West North Central","29137","39.49827","-92.006458 ","997","12","0","0","5/9/2021 12:00:00 AM","2019","8644","NYTIMES-USCENSUS"
"5/10/2021 12:00:00 AM","Essex County","Massachusetts","Northeast","New England","25009","42.642708","-70.864909 ","96453","2362","64","4","5/9/2021 12:00:00 AM","2019","789034","NYTIMES-USCENSUS"
"5/10/2021 12:00:00 AM","Newton County","Georgia","South","South Atlantic","13217","33.552751","-83.85136 ","11129","242","9","0","5/9/2021 12:00:00 AM","2019","111744","NYTIMES-USCENSUS"
"5/10/2021 12:00:00 AM","Newton County","Arkansas","South","West South Central","05101","35.910742","-93.215898 ","727","26","1","0","5/9/2021 12:00:00 AM","2019","7753","NYTIMES-USCENSUS"
"5/10/2021 12:00:00 AM","Baker County","Florida","South","South Atlantic","12003","30.324442","-82.302284 ","3503","60","3","0","5/9/2021 12:00:00 AM","2019","29210","NYTIMES-USCENSUS"
"5/10/2021 12:00:00 AM","Reno County","Kansas","Midwest","West North Central","20155","37.948185","-98.078346 ","8523","138","12","0","5/9/2021 12:00:00 AM","2019","61998","NYTIMES-USCENSUS"
"5/10/2021 12:00:00 AM","Hardin County","Texas","South","West South Central","48199","30.329648","-94.393178 ","5741","111","0","0","5/9/2021 12:00:00 AM","2019","57602","NYTIMES-USCENSUS"
"5/10/2021 12:00:00 AM","Pratt County","Kansas","Midwest","West North Central","20151","37.647594","-98.74012 ","816","25","0","0","5/9/2021 12:00:00 AM","2019","9164","NYTIMES-USCENSUS"
"5/10/2021 12:00:00 AM","Desha County","Arkansas","South","West South Central","05041","33.828752","-91.244103 ","1361","24","0","0","5/9/2021 12:00:00 AM","2019","11361","NYTIMES-USCENSUS"
"5/10/2021 12:00:00 AM","Spencer County","Indiana","Midwest","East North Central","18147","38.009697","-87.010375 ","2323","31","0","0","5/9/2021 12:00:00 AM","2019","20277","NYTIMES-USCENSUS"
"5/10/2021 12:00:00 AM","Fulton County","Pennsylvania","Northeast","Middle Atlantic","42057","39.91075","-78.122617 ","1307","15","2","0","5/9/2021 12:00:00 AM","2019","14530","NYTIMES-USCENSUS"
"5/10/2021 12:00:00 AM","Montgomery County","Iowa","Midwest","West North Central","19137","41.021735","-95.15779 ","1032","38","0","0","5/9/2021 12:00:00 AM","2019","9917","NYTIMES-USCENSUS"
"5/10/2021 12:00:00 AM","Washington County","Indiana","Midwest","East North Central","18175","38.600613","-86.104751 ","2407","32","1","0","5/9/2021 12:00:00 AM","2019","28036","NYTIMES-USCENSUS"
"5/10/2021 12:00:00 AM","Washington County","Kentucky","South","East South Central","21229","37.754209","-85.175416 ","1436","37","0","0","5/9/2021 12:00:00 AM","2019","12095","NYTIMES-USCENSUS"
"5/10/2021 12:00:00 AM","Cumberland County","New Jersey","Northeast","Middle Atlantic","34011","39.328434","-75.121628 ","16822","430","6","0","5/9/2021 12:00:00 AM","2019","149527","NYTIMES-USCENSUS"
"5/10/2021 12:00:00 AM","Buffalo County","South Dakota","Midwest","West North Central","46017","44.044306","-99.203998 ","425","13","0","0","5/9/2021 12:00:00 AM","2019","1962","NYTIMES-USCENSUS"
"5/10/2021 12:00:00 AM","Leslie County","Kentucky","South","East South Central","21131","37.087846","-83.388617 ","911","8","0","0","5/9/2021 12:00:00 AM","2019","9877","NYTIMES-USCENSUS"
"5/10/2021 12:00:00 AM","Kit Carson County","Colorado","West","Mountain","08063","39.30534","-102.603023 ","615","11","0","0","5/9/2021 12:00:00 AM","2019","7097","NYTIMES-USCENSUS"
"5/10/2021 12:00:00 AM","Union County","Kentucky","South","East South Central","21225","37.658029","-87.95165 ","1352","15","0","0","5/9/2021 12:00:00 AM","2019","14381","NYTIMES-USCENSUS"
"5/10/2021 12:00:00 AM","Stafford County","Kansas","Midwest","West North Central","20185","38.03563","-98.719889 ","352","9","0","0","5/9/2021 12:00:00 AM","2019","4156","NYTIMES-USCENSUS"
"5/10/2021 12:00:00 AM","Pueblo County","Colorado","West","Mountain","08101","38.162765","-104.484668 ","18534","383","36","0","5/9/2021 12:00:00 AM","2019","168424","NYTIMES-USCENSUS"
"5/10/2021 12:00:00 AM","St. Louis County","Missouri","Midwest","West North Central","29189","38.640688","-90.446073 ","98627","2201","29","0","5/9/2021 12:00:00 AM","2019","994205","NYTIMES-USCENSUS"
"5/10/2021 12:00:00 AM","Creek County","Oklahoma","South","West South Central","40037","35.907398","-96.380177 ","6919","156","0","0","5/9/2021 12:00:00 AM","2019","71522","NYTIMES-USCENSUS"
"5/10/2021 12:00:00 AM","Caldwell County","North Carolina","South","South Atlantic","37027","35.966396","-81.51254 ","9323","104","17","0","5/9/2021 12:00:00 AM","2019","82178","NYTIMES-USCENSUS"
"5/10/2021 12:00:00 AM","Kalamazoo County","Michigan","Midwest","East North Central","26077","42.246266","-85.532854 ","22257","370","67","1","5/9/2021 12:00:00 AM","2019","265066","NYTIMES-USCENSUS"
"5/10/2021 12:00:00 AM","Livingston County","Kentucky","South","East South Central","21139","37.209517","-88.363426 ","848","20","0","0","5/9/2021 12:00:00 AM","2019","9194","NYTIMES-USCENSUS"
"5/10/2021 12:00:00 AM","Big Horn County","Wyoming","West","Mountain","56003","44.525117","-107.994848 ","1154","32","0","0","5/9/2021 12:00:00 AM","2019","11790","NYTIMES-USCENSUS"
"5/10/2021 12:00:00 AM","Iron County","Michigan","Midwest","East North Central","26071","46.170254","-88.540526 ","1028","51","4","0","5/9/2021 12:00:00 AM","2019","11066","NYTIMES-USCENSUS"
"5/10/2021 12:00:00 AM","Lawrence County","Mississippi","South","East South Central","28077","31.550009","-90.10753 ","1284","24","1","1","5/9/2021 12:00:00 AM","2019","12586","NYTIMES-USCENSUS"
"5/10/2021 12:00:00 AM","Berkeley County","West Virginia","South","South Atlantic","54003","39.447938","-78.037754 ","12334","123","13","1","5/9/2021 12:00:00 AM","2019","119171","NYTIMES-USCENSUS"
"5/10/2021 12:00:00 AM","Windsor County","Vermont","Northeast","New England","50027","43.572448","-72.598813 ","1399","12","7","0","5/9/2021 12:00:00 AM","2019","55062","NYTIMES-USCENSUS"
"5/10/2021 12:00:00 AM","Patrick County","Virginia","South","South Atlantic","51141","36.667138","-80.286413 ","1350","43","2","0","5/9/2021 12:00:00 AM","2019","17608","NYTIMES-USCENSUS"
"5/10/2021 12:00:00 AM","Galveston County","Texas","South","West South Central","48167","29.233453","-94.888456 ","39469","415","0","0","5/9/2021 12:00:00 AM","2019","342139","NYTIMES-USCENSUS"
"5/10/2021 12:00:00 AM","Jefferson County","Indiana","Midwest","East North Central","18077","38.783604","-85.44009 ","3308","82","1","0","5/9/2021 12:00:00 AM","2019","32308","NYTIMES-USCENSUS"
"5/10/2021 12:00:00 AM","Martin County","Minnesota","Midwest","West North Central","27091","43.677173","-94.547096 ","2298","31","1","0","5/9/2021 12:00:00 AM","2019","19683","NYTIMES-USCENSUS"
"5/10/2021 12:00:00 AM","Polk County","Minnesota","Midwest","West North Central","27119","47.774254","-96.400027 ","3822","68","0","0","5/9/2021 12:00:00 AM","2019","31364","NYTIMES-USCENSUS"
"5/10/2021 12:00:00 AM","Iosco County","Michigan","Midwest","East North Central","26069","44.386912","-83.380141 ","1918","70","14","0","5/9/2021 12:00:00 AM","2019","25127","NYTIMES-USCENSUS"
"5/10/2021 12:00:00 AM","Montgomery County","Kentucky","South","East South Central","21173","38.038109","-83.912416 ","2712","30","1","0","5/9/2021 12:00:00 AM","2019","28157","NYTIMES-USCENSUS"
"5/10/2021 12:00:00 AM","Madison Parish","Louisiana","South","West South Central","22065","32.346878","-91.231932 ","1562","39","-1","0","5/9/2021 12:00:00 AM","2019","10951","NYTIMES-USCENSUS"
"5/10/2021 12:00:00 AM","Fulton County","Georgia","South","South Atlantic","13121","33.790034","-84.468182 ","97479","1384","46","0","5/9/2021 12:00:00 AM","2019","1063937","NYTIMES-USCENSUS"
"5/10/2021 12:00:00 AM","Irwin County","Georgia","South","South Atlantic","13155","31.604306","-83.277037 ","921","29","0","0","5/9/2021 12:00:00 AM","2019","9416","NYTIMES-USCENSUS"
"5/10/2021 12:00:00 AM","Crisp County","Georgia","South","South Atlantic","13081","31.920268","-83.75653 ","2090","80","1","0","5/9/2021 12:00:00 AM","2019","22372","NYTIMES-USCENSUS"
"5/10/2021 12:00:00 AM","Union County","South Carolina","South","South Atlantic","45087","34.690397","-81.615896 ","3140","83","0","0","5/9/2021 12:00:00 AM","2019","27316","NYTIMES-USCENSUS"
"5/10/2021 12:00:00 AM","Claiborne County","Tennessee","South","East South Central","47025","36.501572","-83.660698 ","3181","73","-1","0","5/9/2021 12:00:00 AM","2019","31959","NYTIMES-USCENSUS"
"5/10/2021 12:00:00 AM","Steuben County","Indiana","Midwest","East North Central","18151","41.643467","-85.002405 ","3880","59","4","0","5/9/2021 12:00:00 AM","2019","34594","NYTIMES-USCENSUS"
"5/10/2021 12:00:00 AM","Glascock County","Georgia","South","South Atlantic","13125","33.227491","-82.606913 ","266","19","0","0","5/9/2021 12:00:00 AM","2019","2971","NYTIMES-USCENSUS"
"5/10/2021 12:00:00 AM","Page County","Iowa","Midwest","West North Central","19145","40.739097","-95.144301 ","1926","22","0","0","5/9/2021 12:00:00 AM","2019","15107","NYTIMES-USCENSUS"
"5/10/2021 12:00:00 AM","Danville city","Virginia","South","South Atlantic","51590","36.583334","-79.408071 ","4382","135","3","0","5/9/2021 12:00:00 AM","2019","40044","NYTIMES-USCENSUS"
"5/10/2021 12:00:00 AM","Fayette County","Georgia","South","South Atlantic","13113","33.412717","-84.493941 ","8970","168","6","0","5/9/2021 12:00:00 AM","2019","114421","NYTIMES-USCENSUS"
"5/10/2021 12:00:00 AM","Roscommon County","Michigan","Midwest","East North Central","26143","44.339517","-84.611271 ","1842","47","2","0","5/9/2021 12:00:00 AM","2019","24019","NYTIMES-USCENSUS"
"5/10/2021 12:00:00 AM","St. Mary Parish","Louisiana","South","West South Central","22101","29.629349","-91.463804 ","4730","138","12","0","5/9/2021 12:00:00 AM","2019","49348","NYTIMES-USCENSUS"
"5/10/2021 12:00:00 AM","Forest County","Pennsylvania","Northeast","Middle Atlantic","42053","41.513304","-79.249705 ","1422","21","0","0","5/9/2021 12:00:00 AM","2019","7247","NYTIMES-USCENSUS"
"5/10/2021 12:00:00 AM","Jackson County","Arkansas","South","West South Central","05067","35.596467","-91.223205 ","3223","38","0","0","5/9/2021 12:00:00 AM","2019","16719","NYTIMES-USCENSUS"
"5/10/2021 12:00:00 AM","Pend Oreille County","Washington","West","Pacific","53051","48.543825","-117.232191 ","750","9","5","1","5/9/2021 12:00:00 AM","2019","13724","NYTIMES-USCENSUS"
"5/10/2021 12:00:00 AM","Jackson County","Minnesota","Midwest","West North Central","27063","43.671111","-95.149731 ","1218","11","0","0","5/9/2021 12:00:00 AM","2019","9846","NYTIMES-USCENSUS"
"5/10/2021 12:00:00 AM","Bastrop County","Texas","South","West South Central","48021","30.100772","-97.310639 ","9451","92","19","0","5/9/2021 12:00:00 AM","2019","88723","NYTIMES-USCENSUS"
"5/10/2021 12:00:00 AM","Stevens County","Minnesota","Midwest","West North Central","27149","45.593461","-95.992315 ","902","11","0","0","5/9/2021 12:00:00 AM","2019","9805","NYTIMES-USCENSUS"
"5/10/2021 12:00:00 AM","Calcasieu Parish","Louisiana","South","West South Central","22019","30.229559","-93.358015 ","22538","431","54","0","5/9/2021 12:00:00 AM","2019","203436","NYTIMES-USCENSUS"
"5/10/2021 12:00:00 AM","Loudoun County","Virginia","South","South Atlantic","51107","39.0812","-77.638898 ","27655","276","20","0","5/9/2021 12:00:00 AM","2019","413538","NYTIMES-USCENSUS"
"5/10/2021 12:00:00 AM","Coweta County","Georgia","South","South Atlantic","13077","33.352897","-84.762138 ","14110","218","7","0","5/9/2021 12:00:00 AM","2019","148509","NYTIMES-USCENSUS"
"5/10/2021 12:00:00 AM","Tensas Parish","Louisiana","South","West South Central","22107","32.001489","-91.342576 ","361","8","-1","0","5/9/2021 12:00:00 AM","2019","4334","NYTIMES-USCENSUS"
"5/10/2021 12:00:00 AM","Edmunds County","South Dakota","Midwest","West North Central","46045","45.41168","-99.205362 ","510","13","0","0","5/9/2021 12:00:00 AM","2019","3829","NYTIMES-USCENSUS"
"5/10/2021 12:00:00 AM","Starke County","Indiana","Midwest","East North Central","18149","41.284478","-86.644636 ","2169","55","3","0","5/9/2021 12:00:00 AM","2019","22995","NYTIMES-USCENSUS"
"5/10/2021 12:00:00 AM","Brown County","South Dakota","Midwest","West North Central","46013","45.589254","-98.352175 ","5556","92","3","0","5/9/2021 12:00:00 AM","2019","38839","NYTIMES-USCENSUS"
"5/10/2021 12:00:00 AM","Daviess County","Missouri","Midwest","West North Central","29061","39.962839","-93.970053 ","702","11","0","0","5/9/2021 12:00:00 AM","2019","8278","NYTIMES-USCENSUS"
"5/10/2021 12:00:00 AM","Morehouse Parish","Louisiana","South","West South Central","22067","32.820008","-91.800399 ","2833","75","2","0","5/9/2021 12:00:00 AM","2019","24874","NYTIMES-USCENSUS"
"5/10/2021 12:00:00 AM","Barber County","Kansas","Midwest","West North Central","20007","37.222906","-98.685052 ","374","6","0","0","5/9/2021 12:00:00 AM","2019","4427","NYTIMES-USCENSUS"
"5/10/2021 12:00:00 AM","Miller County","Georgia","South","South Atlantic","13201","31.162931","-84.730398 ","858","13","0","0","5/9/2021 12:00:00 AM","2019","5718","NYTIMES-USCENSUS"
"5/10/2021 12:00:00 AM","Benton County","Washington","West","Pacific","53005","46.228125","-119.516659 ","16879","220","30","1","5/9/2021 12:00:00 AM","2019","204390","NYTIMES-USCENSUS"
"5/10/2021 12:00:00 AM","Perry County","Indiana","Midwest","East North Central","18123","38.081436","-86.62654 ","1839","38","1","0","5/9/2021 12:00:00 AM","2019","19169","NYTIMES-USCENSUS"
"5/10/2021 12:00:00 AM","Ralls County","Missouri","Midwest","West North Central","29173","39.553455","-91.524787 ","1059","12","0","0","5/9/2021 12:00:00 AM","2019","10309","NYTIMES-USCENSUS"
"5/10/2021 12:00:00 AM","Franklin County","Alabama","South","East South Central","01059","34.441989","-87.842814 ","4256","82","-1","0","5/9/2021 12:00:00 AM","2019","31362","NYTIMES-USCENSUS"
"5/10/2021 12:00:00 AM","Tishomingo County","Mississippi","South","East South Central","28141","34.738835","-88.234827 ","2264","67","5","0","5/9/2021 12:00:00 AM","2019","19383","NYTIMES-USCENSUS"
"5/10/2021 12:00:00 AM","Pike County","Alabama","South","East South Central","01109","31.798653","-85.941608 ","3108","77","0","0","5/9/2021 12:00:00 AM","2019","33114","NYTIMES-USCENSUS"
"5/10/2021 12:00:00 AM","Cass County","Iowa","Midwest","West North Central","19029","41.333824","-94.933302 ","1380","54","2","0","5/9/2021 12:00:00 AM","2019","12836","NYTIMES-USCENSUS"
"5/10/2021 12:00:00 AM","Grant County","North Dakota","Midwest","West North Central","38037","46.357827","-101.639049 ","208","7","0","0","5/9/2021 12:00:00 AM","2019","2274","NYTIMES-USCENSUS"
"5/10/2021 12:00:00 AM","Wise County","Texas","South","West South Central","48497","33.219095","-97.653997 ","7322","121","0","0","5/9/2021 12:00:00 AM","2019","69984","NYTIMES-USCENSUS"
"5/10/2021 12:00:00 AM","Teton County","Wyoming","West","Mountain","56039","44.048662","-110.426087 ","3755","9","4","0","5/9/2021 12:00:00 AM","2019","23464","NYTIMES-USCENSUS"
"5/10/2021 12:00:00 AM","Duplin County","North Carolina","South","South Atlantic","37061","34.934403","-77.933543 ","6261","133","13","0","5/9/2021 12:00:00 AM","2019","58741","NYTIMES-USCENSUS"
"5/10/2021 12:00:00 AM","Hillsdale County","Michigan","Midwest","East North Central","26059","41.927461","-84.637479 ","4261","88","16","0","5/9/2021 12:00:00 AM","2019","45605","NYTIMES-USCENSUS"
"5/10/2021 12:00:00 AM","Bates County","Missouri","Midwest","West North Central","29013","38.257217","-94.339246 ","1328","29","5","0","5/9/2021 12:00:00 AM","2019","16172","NYTIMES-USCENSUS"
"5/10/2021 12:00:00 AM","Dallas County","Missouri","Midwest","West North Central","29059","37.683583","-93.033815 ","1264","28","0","0","5/9/2021 12:00:00 AM","2019","16878","NYTIMES-USCENSUS"
"5/10/2021 12:00:00 AM","Erie County","Ohio","Midwest","East North Central","39043","41.394143","-82.586835 ","7901","154","6","0","5/9/2021 12:00:00 AM","2019","74266","NYTIMES-USCENSUS"
"5/10/2021 12:00:00 AM","Highland County","Ohio","Midwest","East North Central","39071","39.184422","-83.601359 ","3551","62","1","0","5/9/2021 12:00:00 AM","2019","43161","NYTIMES-USCENSUS"
"5/10/2021 12:00:00 AM","Adams County","Iowa","Midwest","West North Central","19003","41.021656","-94.696906 ","338","4","0","0","5/9/2021 12:00:00 AM","2019","3602","NYTIMES-USCENSUS"
"5/10/2021 12:00:00 AM","St. John the Baptist Parish","Louisiana","South","West South Central","22095","30.144068","-90.49096 ","3725","138","4","0","5/9/2021 12:00:00 AM","2019","42837","NYTIMES-USCENSUS"
"5/10/2021 12:00:00 AM","Macon County","Missouri","Midwest","West North Central","29121","39.829795","-92.56434 ","1545","15","0","0","5/9/2021 12:00:00 AM","2019","15117","NYTIMES-USCENSUS"
"5/10/2021 12:00:00 AM","Scott County","Missouri","Midwest","West North Central","29201","37.047793","-89.568098 ","4702","84","0","0","5/9/2021 12:00:00 AM","2019","38280","NYTIMES-USCENSUS"
"5/10/2021 12:00:00 AM","York County","Maine","Northeast","New England","23031","43.426019","-70.668425 ","12908","129","33","0","5/9/2021 12:00:00 AM","2019","207641","NYTIMES-USCENSUS"
"5/10/2021 12:00:00 AM","Randolph County","Indiana","Midwest","East North Central","18135","40.164079","-85.00579 ","2446","82","3","0","5/9/2021 12:00:00 AM","2019","24665","NYTIMES-USCENSUS"
"5/10/2021 12:00:00 AM","Livingston County","Missouri","Midwest","West North Central","29117","39.778587","-93.548201 ","1662","42","1","0","5/9/2021 12:00:00 AM","2019","15227","NYTIMES-USCENSUS"
"5/10/2021 12:00:00 AM","Grayson County","Kentucky","South","East South Central","21085","37.458577","-86.344011 ","2144","55","1","1","5/9/2021 12:00:00 AM","2019","26427","NYTIMES-USCENSUS"
"5/10/2021 12:00:00 AM","St. Francois County","Missouri","Midwest","West North Central","29187","37.810707","-90.473868 ","8797","115","3","0","5/9/2021 12:00:00 AM","2019","67215","NYTIMES-USCENSUS"
"5/10/2021 12:00:00 AM","Shelby County","Illinois","Midwest","East North Central","17173","39.384926","-88.798862 ","2291","40","1","0","5/9/2021 12:00:00 AM","2019","21634","NYTIMES-USCENSUS"
"5/10/2021 12:00:00 AM","Labette County","Kansas","Midwest","West North Central","20099","37.191468","-95.297473 ","2740","49","2","0","5/9/2021 12:00:00 AM","2019","19618","NYTIMES-USCENSUS"
"5/10/2021 12:00:00 AM","Payne County","Oklahoma","South","West South Central","40119","36.079225","-96.975255 ","8667","71","0","0","5/9/2021 12:00:00 AM","2019","81784","NYTIMES-USCENSUS"
"5/10/2021 12:00:00 AM","Greene County","Illinois","Midwest","East North Central","17061","39.355439","-90.387682 ","1433","46","1","0","5/9/2021 12:00:00 AM","2019","12969","NYTIMES-USCENSUS"
"5/10/2021 12:00:00 AM","Westmoreland County","Virginia","South","South Atlantic","51193","38.109311","-76.803933 ","1280","26","3","0","5/9/2021 12:00:00 AM","2019","18015","NYTIMES-USCENSUS"
"5/10/2021 12:00:00 AM","Pembina County","North Dakota","Midwest","West North Central","38067","48.766896","-97.545405 ","811","11","0","0","5/9/2021 12:00:00 AM","2019","6801","NYTIMES-USCENSUS"
"5/10/2021 12:00:00 AM","Bottineau County","North Dakota","Midwest","West North Central","38009","48.794412","-100.831257 ","715","20","0","0","5/9/2021 12:00:00 AM","2019","6282","NYTIMES-USCENSUS"
"5/10/2021 12:00:00 AM","Garden County","Nebraska","Midwest","West North Central","31069","41.633364","-102.302985 ","113","1","0","0","5/9/2021 12:00:00 AM","2019","1837","NYTIMES-USCENSUS"
"5/10/2021 12:00:00 AM","Zapata County","Texas","South","West South Central","48505","26.996981","-99.182603 ","1766","36","0","0","5/9/2021 12:00:00 AM","2019","14179","NYTIMES-USCENSUS"
"5/10/2021 12:00:00 AM","Rockwall County","Texas","South","West South Central","48397","32.899886","-96.41205 ","11513","156","0","0","5/9/2021 12:00:00 AM","2019","104915","NYTIMES-USCENSUS"
"5/10/2021 12:00:00 AM","Sutter County","California","West","Pacific","06101","39.03619","-121.70394 ","9413","111","0","0","5/9/2021 12:00:00 AM","2019","96971","NYTIMES-USCENSUS"
"5/10/2021 12:00:00 AM","Carter County","Kentucky","South","East South Central","21043","38.314094","-83.038988 ","2278","34","3","0","5/9/2021 12:00:00 AM","2019","26797","NYTIMES-USCENSUS"
"5/10/2021 12:00:00 AM","Marengo County","Alabama","South","East South Central","01091","32.247591","-87.791091 ","2497","64","0","0","5/9/2021 12:00:00 AM","2019","18863","NYTIMES-USCENSUS"
"5/10/2021 12:00:00 AM","Bamberg County","South Carolina","South","South Atlantic","45009","33.203021","-81.053161 ","1569","51","2","0","5/9/2021 12:00:00 AM","2019","14066","NYTIMES-USCENSUS"
"5/10/2021 12:00:00 AM","Brown County","Wisconsin","Midwest","East North Central","55009","44.474024","-87.99613 ","35126","289","2","0","5/9/2021 12:00:00 AM","2019","264542","NYTIMES-USCENSUS"
"5/10/2021 12:00:00 AM","Gilmer County","Georgia","South","South Atlantic","13123","34.690506","-84.454624 ","2986","84","1","0","5/9/2021 12:00:00 AM","2019","31369","NYTIMES-USCENSUS"
"5/10/2021 12:00:00 AM","Marathon County","Wisconsin","Midwest","East North Central","55073","44.898036","-89.757823 ","16190","225","5","0","5/9/2021 12:00:00 AM","2019","135692","NYTIMES-USCENSUS"
"5/10/2021 12:00:00 AM","Hamblen County","Tennessee","South","East South Central","47063","36.218397","-83.266071 ","8616","173","6","0","5/9/2021 12:00:00 AM","2019","64934","NYTIMES-USCENSUS"
"5/10/2021 12:00:00 AM","Montgomery County","Kansas","Midwest","West North Central","20125","37.189537","-95.742403 ","3459","79","3","0","5/9/2021 12:00:00 AM","2019","31829","NYTIMES-USCENSUS"
"5/10/2021 12:00:00 AM","Muskegon County","Michigan","Midwest","East North Central","26121","43.428739","-86.420908 ","17359","347","87","1","5/9/2021 12:00:00 AM","2019","173566","NYTIMES-USCENSUS"
"5/10/2021 12:00:00 AM","Bay County","Florida","South","South Atlantic","12005","30.15914","-85.534395 ","20260","388","10","0","5/9/2021 12:00:00 AM","2019","174705","NYTIMES-USCENSUS"
"5/10/2021 12:00:00 AM","Herkimer County","New York","Northeast","Middle Atlantic","36043","43.571009","-74.841097 ","5072","107","3","0","5/9/2021 12:00:00 AM","2019","61319","NYTIMES-USCENSUS"
"5/10/2021 12:00:00 AM","Jefferson County","Alabama","South","East South Central","01073","33.553444","-86.896536 ","76544","1522","15","0","5/9/2021 12:00:00 AM","2019","658573","NYTIMES-USCENSUS"
"5/10/2021 12:00:00 AM","Elmore County","Alabama","South","East South Central","01051","32.597229","-86.142735 ","10061","205","0","0","5/9/2021 12:00:00 AM","2019","81209","NYTIMES-USCENSUS"
"5/10/2021 12:00:00 AM","Dickens County","Texas","South","West South Central","48125","33.615363","-100.787617 ","187","10","0","0","5/9/2021 12:00:00 AM","2019","2211","NYTIMES-USCENSUS"
"5/10/2021 12:00:00 AM","Taylor County","Texas","South","West South Central","48441","32.297126","-99.89043 ","15817","408","19","0","5/9/2021 12:00:00 AM","2019","138034","NYTIMES-USCENSUS"
"5/10/2021 12:00:00 AM","Yavapai County","Arizona","West","Mountain","04025","34.631071","-112.577225 ","18891","505","18","0","5/9/2021 12:00:00 AM","2019","235099","NYTIMES-USCENSUS"
"5/10/2021 12:00:00 AM","Union County","Tennessee","South","East South Central","47173","36.28414","-83.836088 ","1907","34","0","0","5/9/2021 12:00:00 AM","2019","19972","NYTIMES-USCENSUS"
"5/10/2021 12:00:00 AM","Bradford County","Pennsylvania","Northeast","Middle Atlantic","42015","41.791504","-76.502123 ","5813","89","14","0","5/9/2021 12:00:00 AM","2019","60323","NYTIMES-USCENSUS"
"5/10/2021 12:00:00 AM","Pike County","Indiana","Midwest","East North Central","18125","38.397961","-87.232547 ","1340","34","2","0","5/9/2021 12:00:00 AM","2019","12389","NYTIMES-USCENSUS"
"5/10/2021 12:00:00 AM","Gallia County","Ohio","Midwest","East North Central","39053","38.817046","-82.301746 ","2358","49","2","0","5/9/2021 12:00:00 AM","2019","29898","NYTIMES-USCENSUS"
"5/10/2021 12:00:00 AM","Westmoreland County","Pennsylvania","Northeast","Middle Atlantic","42129","40.311068","-79.466688 ","33347","748","18","0","5/9/2021 12:00:00 AM","2019","348899","NYTIMES-USCENSUS"
"5/10/2021 12:00:00 AM","Loudon County","Tennessee","South","East South Central","47105","35.735085","-84.314085 ","6140","69","10","0","5/9/2021 12:00:00 AM","2019","54068","NYTIMES-USCENSUS"
"5/10/2021 12:00:00 AM","Henry County","Tennessee","South","East South Central","47079","36.325295","-88.300288 ","3193","76","8","0","5/9/2021 12:00:00 AM","2019","32345","NYTIMES-USCENSUS"
"5/10/2021 12:00:00 AM","Ochiltree County","Texas","South","West South Central","48357","36.278744","-100.815864 ","1156","27","0","0","5/9/2021 12:00:00 AM","2019","9836","NYTIMES-USCENSUS"
"5/10/2021 12:00:00 AM","Crawford County","Michigan","Midwest","East North Central","26039","44.680175","-84.611343 ","965","12","4","0","5/9/2021 12:00:00 AM","2019","14029","NYTIMES-USCENSUS"
"5/10/2021 12:00:00 AM","Campbell County","Tennessee","South","East South Central","47013","36.401592","-84.159249 ","4157","63","3","0","5/9/2021 12:00:00 AM","2019","39842","NYTIMES-USCENSUS"
"5/10/2021 12:00:00 AM","Nicholas County","West Virginia","South","South Atlantic","54067","38.291432","-80.797515 ","1681","19","10","0","5/9/2021 12:00:00 AM","2019","24496","NYTIMES-USCENSUS"
"5/10/2021 12:00:00 AM","Tarrant County","Texas","South","West South Central","48439","32.772119","-97.291224 ","258423","3456","308","18","5/9/2021 12:00:00 AM","2019","2102515","NYTIMES-USCENSUS"
"5/10/2021 12:00:00 AM","Carlton County","Minnesota","Midwest","West North Central","27017","46.603818","-92.671044 ","3438","53","3","0","5/9/2021 12:00:00 AM","2019","35871","NYTIMES-USCENSUS"
"5/10/2021 12:00:00 AM","Smith County","Tennessee","South","East South Central","47159","36.256645","-85.941915 ","2779","39","1","0","5/9/2021 12:00:00 AM","2019","20157","NYTIMES-USCENSUS"
"5/10/2021 12:00:00 AM","Wyoming County","West Virginia","South","South Atlantic","54109","37.60366","-81.549032 ","1984","39","0","0","5/9/2021 12:00:00 AM","2019","20394","NYTIMES-USCENSUS"
"5/10/2021 12:00:00 AM","Camden County","Georgia","South","South Atlantic","13039","30.913358","-81.642019 ","3957","36","1","0","5/9/2021 12:00:00 AM","2019","54666","NYTIMES-USCENSUS"
"5/10/2021 12:00:00 AM","Richland Parish","Louisiana","South","West South Central","22083","32.413158","-91.748353 ","2426","56","-1","0","5/9/2021 12:00:00 AM","2019","20122","NYTIMES-USCENSUS"
"5/10/2021 12:00:00 AM","Henry County","Alabama","South","East South Central","01067","31.516978","-85.239971 ","1887","44","0","0","5/9/2021 12:00:00 AM","2019","17205","NYTIMES-USCENSUS"
"5/10/2021 12:00:00 AM","Hancock County","Mississippi","South","East South Central","28045","30.391641","-89.482791 ","3781","86","4","0","5/9/2021 12:00:00 AM","2019","47632","NYTIMES-USCENSUS"
"5/10/2021 12:00:00 AM","Runnels County","Texas","South","West South Central","48399","31.845119","-99.982715 ","1291","37","0","0","5/9/2021 12:00:00 AM","2019","10264","NYTIMES-USCENSUS"
"5/10/2021 12:00:00 AM","Hempstead County","Arkansas","South","West South Central","05057","33.735953","-93.664355 ","2004","20","0","0","5/9/2021 12:00:00 AM","2019","21532","NYTIMES-USCENSUS"
"5/10/2021 12:00:00 AM","Red Lake County","Minnesota","Midwest","West North Central","27125","47.865487","-96.08718 ","395","7","0","0","5/9/2021 12:00:00 AM","2019","4055","NYTIMES-USCENSUS"
"5/10/2021 12:00:00 AM","Lyon County","Kansas","Midwest","West North Central","20111","38.455403","-96.161641 ","4278","85","2","1","5/9/2021 12:00:00 AM","2019","33195","NYTIMES-USCENSUS"
"5/10/2021 12:00:00 AM","Wayne County","North Carolina","South","South Atlantic","37191","35.35419","-78.00867 ","11157","245","75","0","5/9/2021 12:00:00 AM","2019","123131","NYTIMES-USCENSUS"
"5/10/2021 12:00:00 AM","Monmouth County","New Jersey","Northeast","Middle Atlantic","34025","40.287048","-74.152446 ","74890","1604","33","-1","5/9/2021 12:00:00 AM","2019","618795","NYTIMES-USCENSUS"
"5/10/2021 12:00:00 AM","Burnet County","Texas","South","West South Central","48053","30.78963","-98.201187 ","4751","64","3","0","5/9/2021 12:00:00 AM","2019","48155","NYTIMES-USCENSUS"
