"monitor_date","county","state_name","region","subregion","fips","latitude","longitude","case_count_to_date","death_count_to_date","case_count","death_count","previous_monitor_date","population_year","population","source"
"12/31/2022 12:00:00 AM","Butler County","Kansas","Midwest","West North Central","20015","37.773649","-96.83884 ","22135","231","0","0","12/30/2022 12:00:00 AM","2019","66911","NYTIMES-USCENSUS"
"12/31/2022 12:00:00 AM","Butler County","Nebraska","Midwest","West North Central","31023","41.226072","-97.132039 ","2255","18","0","0","12/30/2022 12:00:00 AM","2019","8016","NYTIMES-USCENSUS"
"12/31/2022 12:00:00 AM","Butler County","Pennsylvania","Northeast","Middle Atlantic","42019","40.913847","-79.918978 ","53730","818","0","0","12/30/2022 12:00:00 AM","2019","187853","NYTIMES-USCENSUS"
"12/31/2022 12:00:00 AM","Butler County","Missouri","Midwest","West North Central","29023","36.71518","-90.40313 ","12042","179","0","0","12/30/2022 12:00:00 AM","2019","42478","NYTIMES-USCENSUS"
"12/31/2022 12:00:00 AM","Burke County","North Carolina","South","South Atlantic","37023","35.746182","-81.70618 ","30679","357","0","0","12/30/2022 12:00:00 AM","2019","90485","NYTIMES-USCENSUS"
"12/31/2022 12:00:00 AM","Burke County","North Dakota","Midwest","West North Central","38013","48.786453","-102.520087 ","483","3","0","0","12/30/2022 12:00:00 AM","2019","2115","NYTIMES-USCENSUS"
"12/31/2022 12:00:00 AM","Buffalo County","South Dakota","Midwest","West North Central","46017","44.044306","-99.203998 ","678","21","0","0","12/30/2022 12:00:00 AM","2019","1962","NYTIMES-USCENSUS"
"12/31/2022 12:00:00 AM","Buffalo County","Wisconsin","Midwest","East North Central","55011","44.385633","-91.761294 ","4132","23","0","0","12/30/2022 12:00:00 AM","2019","13031","NYTIMES-USCENSUS"
"12/31/2022 12:00:00 AM","Buchanan County","Virginia","South","South Atlantic","51027","37.26812","-82.038151 ","6000","138","0","0","12/30/2022 12:00:00 AM","2019","21004","NYTIMES-USCENSUS"
"12/31/2022 12:00:00 AM","Buchanan County","Missouri","Midwest","West North Central","29021","39.660369","-94.808173 ","29143","341","0","0","12/30/2022 12:00:00 AM","2019","87364","NYTIMES-USCENSUS"
"12/31/2022 12:00:00 AM","Bryan County","Oklahoma","South","West South Central","40013","33.964004","-96.265135 ","16663","213","0","0","12/30/2022 12:00:00 AM","2019","47995","NYTIMES-USCENSUS"
"12/31/2022 12:00:00 AM","Brunswick County","Virginia","South","South Atlantic","51025","36.764204","-77.861483 ","3897","53","0","0","12/30/2022 12:00:00 AM","2019","16231","NYTIMES-USCENSUS"
"12/31/2022 12:00:00 AM","Brown County","Wisconsin","Midwest","East North Central","55009","44.474024","-87.99613 ","101089","608","0","0","12/30/2022 12:00:00 AM","2019","264542","NYTIMES-USCENSUS"
"12/31/2022 12:00:00 AM","Brown County","Ohio","Midwest","East North Central","39015","38.931377","-83.866772 ","13715","195","0","0","12/30/2022 12:00:00 AM","2019","43432","NYTIMES-USCENSUS"
"12/31/2022 12:00:00 AM","Brown County","Minnesota","Midwest","West North Central","27015","44.246541","-94.733647 ","7824","89","0","0","12/30/2022 12:00:00 AM","2019","25008","NYTIMES-USCENSUS"
"12/31/2022 12:00:00 AM","Brown County","Kansas","Midwest","West North Central","20013","39.825931","-95.569905 ","3115","51","0","0","12/30/2022 12:00:00 AM","2019","9564","NYTIMES-USCENSUS"
"12/31/2022 12:00:00 AM","Brown County","Illinois","Midwest","East North Central","17009","39.962069","-90.750309 ","2824","23","0","0","12/30/2022 12:00:00 AM","2019","6578","NYTIMES-USCENSUS"
"12/31/2022 12:00:00 AM","Brown County","Indiana","Midwest","East North Central","18013","39.195113","-86.230121 ","2942","63","0","0","12/30/2022 12:00:00 AM","2019","15092","NYTIMES-USCENSUS"
"12/31/2022 12:00:00 AM","Brown County","South Dakota","Midwest","West North Central","46013","45.589254","-98.352175 ","11777","132","0","0","12/30/2022 12:00:00 AM","2019","38839","NYTIMES-USCENSUS"
"12/31/2022 12:00:00 AM","Brooks County","Georgia","South","South Atlantic","13027","30.822934","-83.581905 ","3952","95","0","0","12/30/2022 12:00:00 AM","2019","15457","NYTIMES-USCENSUS"
"12/31/2022 12:00:00 AM","Bay County","Michigan","Midwest","East North Central","26017","43.699711","-83.978701 ","31252","663","0","0","12/30/2022 12:00:00 AM","2019","103126","NYTIMES-USCENSUS"
"12/31/2022 12:00:00 AM","Bath County","Kentucky","South","East South Central","21011","38.152249","-83.737641 ","4446","52","0","0","12/30/2022 12:00:00 AM","2019","12500","NYTIMES-USCENSUS"
"12/31/2022 12:00:00 AM","Barton County","Kansas","Midwest","West North Central","20009","38.481239","-98.767837 ","7553","123","0","0","12/30/2022 12:00:00 AM","2019","25779","NYTIMES-USCENSUS"
"12/31/2022 12:00:00 AM","Barry County","Michigan","Midwest","East North Central","26015","42.582811","-85.31455 ","16611","188","0","0","12/30/2022 12:00:00 AM","2019","61550","NYTIMES-USCENSUS"
"12/31/2022 12:00:00 AM","Baker County","Oregon","West","Pacific","41001","44.703427","-117.691933 ","3766","63","0","0","12/30/2022 12:00:00 AM","2019","16124","NYTIMES-USCENSUS"
"12/31/2022 12:00:00 AM","Baker County","Georgia","South","South Atlantic","13007","31.31958","-84.454881 ","621","15","0","0","12/30/2022 12:00:00 AM","2019","3038","NYTIMES-USCENSUS"
"12/31/2022 12:00:00 AM","Williamsburg County","South Carolina","South","South Atlantic","45089","33.626462","-79.716474 ","9988","168","0","0","12/30/2022 12:00:00 AM","2019","30368","NYTIMES-USCENSUS"
"12/31/2022 12:00:00 AM","Williamsburg city","Virginia","South","South Atlantic","51830","37.269481","-76.708193 ","2209","24","0","0","12/30/2022 12:00:00 AM","2019","14954","NYTIMES-USCENSUS"
"12/31/2022 12:00:00 AM","Williams County","Ohio","Midwest","East North Central","39171","41.564959","-84.584324 ","11574","170","0","0","12/30/2022 12:00:00 AM","2019","36692","NYTIMES-USCENSUS"
"12/31/2022 12:00:00 AM","Willacy County","Texas","South","West South Central","48489","26.481861","-97.594731 ","8544","137","0","0","12/30/2022 12:00:00 AM","2019","21358","NYTIMES-USCENSUS"
"12/31/2022 12:00:00 AM","Will County","Illinois","Midwest","East North Central","17197","41.448474","-87.978456 ","210639","1734","0","0","12/30/2022 12:00:00 AM","2019","690743","NYTIMES-USCENSUS"
"12/31/2022 12:00:00 AM","Wilkinson County","Georgia","South","South Atlantic","13319","32.804266","-83.175512 ","2600","64","0","0","12/30/2022 12:00:00 AM","2019","8954","NYTIMES-USCENSUS"
"12/31/2022 12:00:00 AM","Wilkin County","Minnesota","Midwest","West North Central","27167","46.362335","-96.476657 ","1898","27","0","0","12/30/2022 12:00:00 AM","2019","6207","NYTIMES-USCENSUS"
"12/31/2022 12:00:00 AM","Wilkes County","North Carolina","South","South Atlantic","37193","36.208883","-81.166095 ","21928","303","0","0","12/30/2022 12:00:00 AM","2019","68412","NYTIMES-USCENSUS"
"12/31/2022 12:00:00 AM","Wilcox County","Alabama","South","East South Central","01131","31.990082","-87.304935 ","3516","57","0","0","12/30/2022 12:00:00 AM","2019","10373","NYTIMES-USCENSUS"
"12/31/2022 12:00:00 AM","Wilbarger County","Texas","South","West South Central","48487","34.08492","-99.24244 ","4080","90","0","0","12/30/2022 12:00:00 AM","2019","12769","NYTIMES-USCENSUS"
"12/31/2022 12:00:00 AM","Wicomico County","Maryland","South","South Atlantic","24045","38.36737","-75.632083 ","24107","350","0","0","12/30/2022 12:00:00 AM","2019","103609","NYTIMES-USCENSUS"
"12/31/2022 12:00:00 AM","Wichita County","Texas","South","West South Central","48485","33.988212","-98.70801 ","39768","720","0","0","12/30/2022 12:00:00 AM","2019","132230","NYTIMES-USCENSUS"
"12/31/2022 12:00:00 AM","Whitman County","Washington","West","Pacific","53075","46.905944","-117.53539 ","9941","98","0","0","12/30/2022 12:00:00 AM","2019","50104","NYTIMES-USCENSUS"
"12/31/2022 12:00:00 AM","Whitley County","Indiana","Midwest","East North Central","18183","41.136426","-85.501892 ","11201","89","0","0","12/30/2022 12:00:00 AM","2019","33964","NYTIMES-USCENSUS"
"12/31/2022 12:00:00 AM","Clay County","Alabama","South","East South Central","01027","33.2704","-85.863525 ","4941","90","0","0","12/30/2022 12:00:00 AM","2019","13235","NYTIMES-USCENSUS"
"12/31/2022 12:00:00 AM","Clay County","Georgia","South","South Atlantic","13061","31.619831","-84.992583 ","604","13","0","0","12/30/2022 12:00:00 AM","2019","2834","NYTIMES-USCENSUS"
"12/31/2022 12:00:00 AM","Clay County","Kansas","Midwest","West North Central","20027","39.344964","-97.168853 ","2415","43","0","0","12/30/2022 12:00:00 AM","2019","8002","NYTIMES-USCENSUS"
"12/31/2022 12:00:00 AM","Clay County","West Virginia","South","South Atlantic","54015","38.459826","-81.081866 ","2676","53","0","0","12/30/2022 12:00:00 AM","2019","8508","NYTIMES-USCENSUS"
"12/31/2022 12:00:00 AM","Clay County","Nebraska","Midwest","West North Central","31035","40.523669","-98.050858 ","1720","32","0","0","12/30/2022 12:00:00 AM","2019","6203","NYTIMES-USCENSUS"
"12/31/2022 12:00:00 AM","Clay County","Missouri","Midwest","West North Central","29047","39.315551","-94.421502 ","32660","616","0","0","12/30/2022 12:00:00 AM","2019","249948","NYTIMES-USCENSUS"
"12/31/2022 12:00:00 AM","Clay County","Texas","South","West South Central","48077","33.785904","-98.212917 ","2433","44","0","0","12/30/2022 12:00:00 AM","2019","10471","NYTIMES-USCENSUS"
"12/31/2022 12:00:00 AM","Clay County","South Dakota","Midwest","West North Central","46027","42.91615","-96.980468 ","3820","26","0","0","12/30/2022 12:00:00 AM","2019","14070","NYTIMES-USCENSUS"
"12/31/2022 12:00:00 AM","Clay County","North Carolina","South","South Atlantic","37043","35.052997","-83.752264 ","3233","64","0","0","12/30/2022 12:00:00 AM","2019","11231","NYTIMES-USCENSUS"
"12/31/2022 12:00:00 AM","Clay County","Indiana","Midwest","East North Central","18021","39.393928","-87.115858 ","8018","97","0","0","12/30/2022 12:00:00 AM","2019","26225","NYTIMES-USCENSUS"
"12/31/2022 12:00:00 AM","Clay County","Minnesota","Midwest","West North Central","27027","46.898377","-96.494901 ","23147","135","0","0","12/30/2022 12:00:00 AM","2019","64222","NYTIMES-USCENSUS"
"12/31/2022 12:00:00 AM","Clay County","Tennessee","South","East South Central","47027","36.545749","-85.545717 ","2609","57","0","0","12/30/2022 12:00:00 AM","2019","7615","NYTIMES-USCENSUS"
"12/31/2022 12:00:00 AM","Clay County","Illinois","Midwest","East North Central","17025","38.746819","-88.482325 ","5822","80","0","0","12/30/2022 12:00:00 AM","2019","13184","NYTIMES-USCENSUS"
"12/31/2022 12:00:00 AM","Clay County","Iowa","Midwest","West North Central","19041","43.081224","-95.149875 ","4726","52","0","0","12/30/2022 12:00:00 AM","2019","16016","NYTIMES-USCENSUS"
"12/31/2022 12:00:00 AM","Clay County","Florida","South","South Atlantic","12019","29.986584","-81.865036 ","64775","954","0","0","12/30/2022 12:00:00 AM","2019","219252","NYTIMES-USCENSUS"
"12/31/2022 12:00:00 AM","Clay County","Mississippi","South","East South Central","28025","33.65967","-88.782468 ","5985","102","0","0","12/30/2022 12:00:00 AM","2019","19316","NYTIMES-USCENSUS"
"12/31/2022 12:00:00 AM","Clay County","Arkansas","South","West South Central","05021","36.367302","-90.418704 ","4960","100","7","0","12/30/2022 12:00:00 AM","2019","14551","NYTIMES-USCENSUS"
"12/31/2022 12:00:00 AM","Clarke County","Georgia","South","South Atlantic","13059","33.952185","-83.367152 ","34477","253","0","0","12/30/2022 12:00:00 AM","2019","128331","NYTIMES-USCENSUS"
"12/31/2022 12:00:00 AM","Clarke County","Virginia","South","South Atlantic","51043","39.115307","-77.990748 ","3377","55","0","0","12/30/2022 12:00:00 AM","2019","14619","NYTIMES-USCENSUS"
"12/31/2022 12:00:00 AM","Clarke County","Iowa","Midwest","West North Central","19039","41.029726","-93.785259 ","2632","42","0","0","12/30/2022 12:00:00 AM","2019","9395","NYTIMES-USCENSUS"
"12/31/2022 12:00:00 AM","Clarke County","Mississippi","South","East South Central","28023","32.045374","-88.687976 ","4763","112","0","0","12/30/2022 12:00:00 AM","2019","15541","NYTIMES-USCENSUS"
"12/31/2022 12:00:00 AM","Clark County","Kansas","Midwest","West North Central","20025","37.233831","-99.813869 ","568","8","0","0","12/30/2022 12:00:00 AM","2019","1994","NYTIMES-USCENSUS"
"12/31/2022 12:00:00 AM","Clark County","Arkansas","South","West South Central","05019","34.053316","-93.176208 ","6289","90","3","0","12/30/2022 12:00:00 AM","2019","22320","NYTIMES-USCENSUS"
"12/31/2022 12:00:00 AM","Clark County","Wisconsin","Midwest","East North Central","55019","44.739346","-90.609953 ","8831","129","0","0","12/30/2022 12:00:00 AM","2019","34774","NYTIMES-USCENSUS"
"12/31/2022 12:00:00 AM","Clark County","Missouri","Midwest","West North Central","29045","40.407275","-91.729472 ","1871","46","0","0","12/30/2022 12:00:00 AM","2019","6797","NYTIMES-USCENSUS"
"12/31/2022 12:00:00 AM","Clark County","Ohio","Midwest","East North Central","39023","39.917032","-83.783676 ","42493","613","0","0","12/30/2022 12:00:00 AM","2019","134083","NYTIMES-USCENSUS"
"12/31/2022 12:00:00 AM","Clark County","Illinois","Midwest","East North Central","17023","39.332334","-87.791683 ","5798","63","0","0","12/30/2022 12:00:00 AM","2019","15441","NYTIMES-USCENSUS"
"12/31/2022 12:00:00 AM","Clark County","South Dakota","Midwest","West North Central","46025","44.855211","-97.724912 ","930","12","0","0","12/30/2022 12:00:00 AM","2019","3736","NYTIMES-USCENSUS"
"12/31/2022 12:00:00 AM","Clark County","Kentucky","South","East South Central","21049","37.970314","-84.145115 ","13795","83","0","0","12/30/2022 12:00:00 AM","2019","36263","NYTIMES-USCENSUS"
"12/31/2022 12:00:00 AM","Clark County","Indiana","Midwest","East North Central","18019","38.476217","-85.711122 ","39720","423","0","0","12/30/2022 12:00:00 AM","2019","118302","NYTIMES-USCENSUS"
"12/31/2022 12:00:00 AM","Claiborne County","Mississippi","South","East South Central","28021","31.97281","-90.915424 ","2493","49","0","0","12/30/2022 12:00:00 AM","2019","8988","NYTIMES-USCENSUS"
"12/31/2022 12:00:00 AM","Christian County","Missouri","Midwest","West North Central","29043","36.969739","-93.187614 ","24526","281","0","0","12/30/2022 12:00:00 AM","2019","88595","NYTIMES-USCENSUS"
"12/31/2022 12:00:00 AM","Christian County","Illinois","Midwest","East North Central","17021","39.545524","-89.279593 ","12730","135","0","0","12/30/2022 12:00:00 AM","2019","32304","NYTIMES-USCENSUS"
"12/31/2022 12:00:00 AM","Choctaw County","Mississippi","South","East South Central","28019","33.345964","-89.251332 ","2774","36","0","0","12/30/2022 12:00:00 AM","2019","8210","NYTIMES-USCENSUS"
"12/31/2022 12:00:00 AM","Choctaw County","Oklahoma","South","West South Central","40023","34.027699","-95.554079 ","4907","100","0","0","12/30/2022 12:00:00 AM","2019","14672","NYTIMES-USCENSUS"
"12/31/2022 12:00:00 AM","Chippewa County","Michigan","Midwest","East North Central","26033","46.321819","-84.52063 ","13175","133","0","0","12/30/2022 12:00:00 AM","2019","37349","NYTIMES-USCENSUS"
"12/31/2022 12:00:00 AM","Chippewa County","Wisconsin","Midwest","East North Central","55017","45.069092","-91.283505 ","21720","210","0","0","12/30/2022 12:00:00 AM","2019","64658","NYTIMES-USCENSUS"
"12/31/2022 12:00:00 AM","Chickasaw County","Mississippi","South","East South Central","28017","33.933277","-88.947558 ","6755","101","0","0","12/30/2022 12:00:00 AM","2019","17103","NYTIMES-USCENSUS"
"12/31/2022 12:00:00 AM","Cheyenne County","Colorado","West","Mountain","08017","38.835646","-102.601791 ","383","12","0","0","12/30/2022 12:00:00 AM","2019","1831","NYTIMES-USCENSUS"
"12/31/2022 12:00:00 AM","Cheyenne County","Kansas","Midwest","West North Central","20023","39.789917","-101.727325 ","724","16","0","0","12/30/2022 12:00:00 AM","2019","2657","NYTIMES-USCENSUS"
"12/31/2022 12:00:00 AM","Butler County","Alabama","South","East South Central","01013","31.751667","-86.681969 ","6185","130","0","0","12/30/2022 12:00:00 AM","2019","19448","NYTIMES-USCENSUS"
"12/31/2022 12:00:00 AM","Butler County","Ohio","Midwest","East North Central","39017","39.439747","-84.565734 ","113510","1225","0","0","12/30/2022 12:00:00 AM","2019","383134","NYTIMES-USCENSUS"
"12/31/2022 12:00:00 AM","Butler County","Iowa","Midwest","West North Central","19023","42.734757","-92.780153 ","3753","60","0","0","12/30/2022 12:00:00 AM","2019","14439","NYTIMES-USCENSUS"
"12/31/2022 12:00:00 AM","Sully County","South Dakota","Midwest","West North Central","46119","44.722325","-100.131399 ","263","3","0","0","12/30/2022 12:00:00 AM","2019","1391","NYTIMES-USCENSUS"
"12/31/2022 12:00:00 AM","Sullivan County","New York","Northeast","Middle Atlantic","36105","41.719993","-74.771577 ","23874","198","26","0","12/30/2022 12:00:00 AM","2019","75432","NYTIMES-USCENSUS"
"12/31/2022 12:00:00 AM","Suffolk County","New York","Northeast","Middle Atlantic","36103","40.943554","-72.692218 ","554954","5450","695","0","12/30/2022 12:00:00 AM","2019","1476601","NYTIMES-USCENSUS"
"12/31/2022 12:00:00 AM","Suffolk city","Virginia","South","South Atlantic","51800","36.697157","-76.634781 ","23574","330","0","0","12/30/2022 12:00:00 AM","2019","92108","NYTIMES-USCENSUS"
"12/31/2022 12:00:00 AM","Sublette County","Wyoming","West","Mountain","56035","42.767928","-109.91617 ","2295","28","0","0","12/30/2022 12:00:00 AM","2019","9831","NYTIMES-USCENSUS"
"12/31/2022 12:00:00 AM","Stutsman County","North Dakota","Midwest","West North Central","38093","46.972223","-98.956123 ","8074","97","0","0","12/30/2022 12:00:00 AM","2019","20704","NYTIMES-USCENSUS"
"12/31/2022 12:00:00 AM","Strafford County","New Hampshire","Northeast","New England","33017","43.293272","-71.035589 ","36023","239","0","0","12/30/2022 12:00:00 AM","2019","130633","NYTIMES-USCENSUS"
"12/31/2022 12:00:00 AM","Story County","Iowa","Midwest","West North Central","19169","42.037538","-93.466093 ","22821","101","0","0","12/30/2022 12:00:00 AM","2019","97117","NYTIMES-USCENSUS"
"12/31/2022 12:00:00 AM","Storey County","Nevada","West","Mountain","32029","39.438385","-119.524646 ","187","14","0","0","12/30/2022 12:00:00 AM","2019","4123","NYTIMES-USCENSUS"
"12/31/2022 12:00:00 AM","Stone County","Arkansas","South","West South Central","05137","35.857001","-92.140482 ","3588","77","3","0","12/30/2022 12:00:00 AM","2019","12506","NYTIMES-USCENSUS"
"12/31/2022 12:00:00 AM","Stokes County","North Carolina","South","South Atlantic","37169","36.393797","-80.269921 ","14561","200","0","0","12/30/2022 12:00:00 AM","2019","45591","NYTIMES-USCENSUS"
"12/31/2022 12:00:00 AM","Stoddard County","Missouri","Midwest","West North Central","29207","36.851557","-89.947481 ","7051","148","0","0","12/30/2022 12:00:00 AM","2019","29025","NYTIMES-USCENSUS"
"12/31/2022 12:00:00 AM","Stillwater County","Montana","West","Mountain","30095","45.658545","-109.381576 ","1712","32","0","0","12/30/2022 12:00:00 AM","2019","9642","NYTIMES-USCENSUS"
"12/31/2022 12:00:00 AM","Stewart County","Tennessee","South","East South Central","47161","36.458464","-87.811889 ","3710","70","0","0","12/30/2022 12:00:00 AM","2019","13715","NYTIMES-USCENSUS"
"12/31/2022 12:00:00 AM","Stevens County","Washington","West","Pacific","53065","48.388728","-117.854455 ","9846","162","0","0","12/30/2022 12:00:00 AM","2019","45723","NYTIMES-USCENSUS"
"12/31/2022 12:00:00 AM","Steuben County","Indiana","Midwest","East North Central","18151","41.643467","-85.002405 ","11238","124","0","0","12/30/2022 12:00:00 AM","2019","34594","NYTIMES-USCENSUS"
"12/31/2022 12:00:00 AM","Stephenson County","Illinois","Midwest","East North Central","17177","42.349726","-89.665994 ","14549","221","0","0","12/30/2022 12:00:00 AM","2019","44498","NYTIMES-USCENSUS"
"12/31/2022 12:00:00 AM","Stephens County","Oklahoma","South","West South Central","40137","34.481361","-97.855607 ","12998","216","0","0","12/30/2022 12:00:00 AM","2019","43143","NYTIMES-USCENSUS"
"12/31/2022 12:00:00 AM","Steele County","North Dakota","Midwest","West North Central","38091","47.451062","-97.71892 ","426","2","0","0","12/30/2022 12:00:00 AM","2019","1890","NYTIMES-USCENSUS"
"12/31/2022 12:00:00 AM","Stearns County","Minnesota","Midwest","West North Central","27145","45.555235","-94.610482 ","60151","410","0","0","12/30/2022 12:00:00 AM","2019","161075","NYTIMES-USCENSUS"
"12/31/2022 12:00:00 AM","Ste. Genevieve County","Missouri","Midwest","West North Central","29186","37.885845","-90.161531 ","4669","45","0","0","12/30/2022 12:00:00 AM","2019","17894","NYTIMES-USCENSUS"
"12/31/2022 12:00:00 AM","Staunton city","Virginia","South","South Atlantic","51790","38.157978","-79.061876 ","7557","132","0","0","12/30/2022 12:00:00 AM","2019","24932","NYTIMES-USCENSUS"
"12/31/2022 12:00:00 AM","Starr County","Texas","South","West South Central","48427","26.530903","-98.740235 ","23593","382","0","0","12/30/2022 12:00:00 AM","2019","64633","NYTIMES-USCENSUS"
"12/31/2022 12:00:00 AM","Starke County","Indiana","Midwest","East North Central","18149","41.284478","-86.644636 ","5523","110","0","0","12/30/2022 12:00:00 AM","2019","22995","NYTIMES-USCENSUS"
"12/31/2022 12:00:00 AM","Stark County","Ohio","Midwest","East North Central","39151","40.814131","-81.365667 ","95595","1801","0","0","12/30/2022 12:00:00 AM","2019","370606","NYTIMES-USCENSUS"
"12/31/2022 12:00:00 AM","Stanton County","Kansas","Midwest","West North Central","20187","37.565932","-101.789383 ","517","13","0","0","12/30/2022 12:00:00 AM","2019","2006","NYTIMES-USCENSUS"
"12/31/2022 12:00:00 AM","Schoolcraft County","Michigan","Midwest","East North Central","26153","46.021122","-86.197029 ","2165","18","0","0","12/30/2022 12:00:00 AM","2019","8094","NYTIMES-USCENSUS"
"12/31/2022 12:00:00 AM","Schoharie County","New York","Northeast","Middle Atlantic","36095","42.591294","-74.438172 ","6448","59","2","0","12/30/2022 12:00:00 AM","2019","30999","NYTIMES-USCENSUS"
"12/31/2022 12:00:00 AM","Schley County","Georgia","South","South Atlantic","13249","32.263444","-84.322708 ","1376","12","0","0","12/30/2022 12:00:00 AM","2019","5257","NYTIMES-USCENSUS"
"12/31/2022 12:00:00 AM","Schenectady County","New York","Northeast","Middle Atlantic","36093","42.817552","-74.043559 ","42628","360","23","0","12/30/2022 12:00:00 AM","2019","155299","NYTIMES-USCENSUS"
"12/31/2022 12:00:00 AM","Sawyer County","Wisconsin","Midwest","East North Central","55113","45.864911","-91.147133 ","5864","66","0","0","12/30/2022 12:00:00 AM","2019","16558","NYTIMES-USCENSUS"
"12/31/2022 12:00:00 AM","Saunders County","Nebraska","Midwest","West North Central","31155","41.223388","-96.642097 ","5535","55","0","0","12/30/2022 12:00:00 AM","2019","21578","NYTIMES-USCENSUS"
"12/31/2022 12:00:00 AM","Sauk County","Wisconsin","Midwest","East North Central","55111","43.428001","-89.943318 ","20531","158","0","0","12/30/2022 12:00:00 AM","2019","64442","NYTIMES-USCENSUS"
"12/31/2022 12:00:00 AM","Sarpy County","Nebraska","Midwest","West North Central","31153","41.115064","-96.109125 ","57921","325","0","0","12/30/2022 12:00:00 AM","2019","187196","NYTIMES-USCENSUS"
"12/31/2022 12:00:00 AM","Sargent County","North Dakota","Midwest","West North Central","38081","46.108204","-97.630051 ","1254","9","0","0","12/30/2022 12:00:00 AM","2019","3898","NYTIMES-USCENSUS"
"12/31/2022 12:00:00 AM","Saratoga County","New York","Northeast","Middle Atlantic","36091","43.106135","-73.855387 ","60140","433","35","0","12/30/2022 12:00:00 AM","2019","229863","NYTIMES-USCENSUS"
"12/31/2022 12:00:00 AM","Sarasota County","Florida","South","South Atlantic","12115","27.225327","-82.423714 ","116069","1981","0","0","12/30/2022 12:00:00 AM","2019","433742","NYTIMES-USCENSUS"
"12/31/2022 12:00:00 AM","Santa Rosa County","Florida","South","South Atlantic","12113","30.675348","-87.018919 ","57207","686","0","0","12/30/2022 12:00:00 AM","2019","184313","NYTIMES-USCENSUS"
"12/31/2022 12:00:00 AM","Santa Fe County","New Mexico","West","Mountain","35049","35.514531","-105.963972 ","39876","378","0","0","12/30/2022 12:00:00 AM","2019","150358","NYTIMES-USCENSUS"
"12/31/2022 12:00:00 AM","Santa Cruz County","Arizona","West","Mountain","04023","31.525733","-110.845228 ","19354","242","0","0","12/30/2022 12:00:00 AM","2019","46498","NYTIMES-USCENSUS"
"12/31/2022 12:00:00 AM","Santa Clara County","California","West","Pacific","06085","37.221614","-121.68954 ","482414","2587","0","0","12/30/2022 12:00:00 AM","2019","1927852","NYTIMES-USCENSUS"
"12/31/2022 12:00:00 AM","Whitfield County","Georgia","South","South Atlantic","13313","34.801726","-84.968541 ","38395","480","0","0","12/30/2022 12:00:00 AM","2019","104628","NYTIMES-USCENSUS"
"12/31/2022 12:00:00 AM","Whiteside County","Illinois","Midwest","East North Central","17195","41.750673","-89.911005 ","19060","284","0","0","12/30/2022 12:00:00 AM","2019","55175","NYTIMES-USCENSUS"
"12/31/2022 12:00:00 AM","White Pine County","Nevada","West","Mountain","32033","39.418176","-114.900565 ","1777","32","0","0","12/30/2022 12:00:00 AM","2019","9580","NYTIMES-USCENSUS"
"12/31/2022 12:00:00 AM","White County","Indiana","Midwest","East North Central","18181","40.75095","-86.864293 ","8115","100","0","0","12/30/2022 12:00:00 AM","2019","24102","NYTIMES-USCENSUS"
"12/31/2022 12:00:00 AM","Wheeler County","Texas","South","West South Central","48483","35.392593","-100.253107 ","1304","25","0","0","12/30/2022 12:00:00 AM","2019","5056","NYTIMES-USCENSUS"
"12/31/2022 12:00:00 AM","Wheatland County","Montana","West","Mountain","30107","46.496967","-109.857684 ","454","14","0","0","12/30/2022 12:00:00 AM","2019","2126","NYTIMES-USCENSUS"
"12/31/2022 12:00:00 AM","Whatcom County","Washington","West","Pacific","53073","48.842653","-121.836432 ","48335","353","0","0","12/30/2022 12:00:00 AM","2019","229247","NYTIMES-USCENSUS"
"12/31/2022 12:00:00 AM","Wharton County","Texas","South","West South Central","48481","29.27848","-96.229674 ","11189","226","0","0","12/30/2022 12:00:00 AM","2019","41556","NYTIMES-USCENSUS"
"12/31/2022 12:00:00 AM","Wexford County","Michigan","Midwest","East North Central","26165","44.331375","-85.570046 ","8546","124","0","0","12/30/2022 12:00:00 AM","2019","33631","NYTIMES-USCENSUS"
"12/31/2022 12:00:00 AM","Wetzel County","West Virginia","South","South Atlantic","54103","39.59818","-80.635399 ","5368","94","0","0","12/30/2022 12:00:00 AM","2019","15065","NYTIMES-USCENSUS"
"12/31/2022 12:00:00 AM","Weston County","Wyoming","West","Mountain","56045","43.846213","-104.57002 ","1880","22","0","0","12/30/2022 12:00:00 AM","2019","6927","NYTIMES-USCENSUS"
"12/31/2022 12:00:00 AM","Westmoreland County","Pennsylvania","Northeast","Middle Atlantic","42129","40.311068","-79.466688 ","96702","1509","0","0","12/30/2022 12:00:00 AM","2019","348899","NYTIMES-USCENSUS"
"12/31/2022 12:00:00 AM","Westchester County","New York","Northeast","Middle Atlantic","36119","41.152686","-73.745753 ","326527","3304","325","0","12/30/2022 12:00:00 AM","2019","967506","NYTIMES-USCENSUS"
"12/31/2022 12:00:00 AM","Tyler County","West Virginia","South","South Atlantic","54095","39.465634","-80.877219 ","2670","33","0","0","12/30/2022 12:00:00 AM","2019","8591","NYTIMES-USCENSUS"
"12/31/2022 12:00:00 AM","Twin Falls County","Idaho","West","Mountain","16083","42.352309","-114.665639 ","28155","311","0","0","12/30/2022 12:00:00 AM","2019","86878","NYTIMES-USCENSUS"
"12/31/2022 12:00:00 AM","Twiggs County","Georgia","South","South Atlantic","13289","32.665847","-83.425879 ","1791","73","0","0","12/30/2022 12:00:00 AM","2019","8120","NYTIMES-USCENSUS"
"12/31/2022 12:00:00 AM","Tuscola County","Michigan","Midwest","East North Central","26157","43.487902","-83.436618 ","15472","305","0","0","12/30/2022 12:00:00 AM","2019","52245","NYTIMES-USCENSUS"
"12/31/2022 12:00:00 AM","Tuscarawas County","Ohio","Midwest","East North Central","39157","40.44749","-81.471105 ","24795","534","0","0","12/30/2022 12:00:00 AM","2019","91987","NYTIMES-USCENSUS"
"12/31/2022 12:00:00 AM","Tuscaloosa County","Alabama","South","East South Central","01125","33.29022","-87.522783 ","67772","837","0","0","12/30/2022 12:00:00 AM","2019","209355","NYTIMES-USCENSUS"
"12/31/2022 12:00:00 AM","Turner County","Georgia","South","South Atlantic","13287","31.7248","-83.620319 ","3073","65","0","0","12/30/2022 12:00:00 AM","2019","7985","NYTIMES-USCENSUS"
"12/31/2022 12:00:00 AM","Tuolumne County","California","West","Pacific","06109","38.021434","-119.964733 ","17759","211","0","0","12/30/2022 12:00:00 AM","2019","54478","NYTIMES-USCENSUS"
"12/31/2022 12:00:00 AM","Tunica County","Mississippi","South","East South Central","28143","34.652201","-90.37177 ","2984","50","0","0","12/30/2022 12:00:00 AM","2019","9632","NYTIMES-USCENSUS"
"12/31/2022 12:00:00 AM","Tulsa County","Oklahoma","South","West South Central","40143","36.120318","-95.941813 ","206546","2344","0","0","12/30/2022 12:00:00 AM","2019","651552","NYTIMES-USCENSUS"
"12/31/2022 12:00:00 AM","Tulare County","California","West","Pacific","06107","36.228834","-118.781055 ","164161","1546","0","0","12/30/2022 12:00:00 AM","2019","466195","NYTIMES-USCENSUS"
"12/31/2022 12:00:00 AM","Tucker County","West Virginia","South","South Atlantic","54093","39.111175","-79.559968 ","2336","39","0","0","12/30/2022 12:00:00 AM","2019","6839","NYTIMES-USCENSUS"
"12/31/2022 12:00:00 AM","Trumbull County","Ohio","Midwest","East North Central","39155","41.306374","-80.7704 ","51477","1007","0","0","12/30/2022 12:00:00 AM","2019","197974","NYTIMES-USCENSUS"
"12/31/2022 12:00:00 AM","Trousdale County","Tennessee","South","East South Central","47169","36.39303","-86.156691 ","4644","47","0","0","12/30/2022 12:00:00 AM","2019","11284","NYTIMES-USCENSUS"
"12/31/2022 12:00:00 AM","Troup County","Georgia","South","South Atlantic","13285","33.034482","-85.02836 ","18308","414","0","0","12/30/2022 12:00:00 AM","2019","69922","NYTIMES-USCENSUS"
"12/31/2022 12:00:00 AM","Tripp County","South Dakota","Midwest","West North Central","46123","43.349729","-99.876219 ","1663","29","0","0","12/30/2022 12:00:00 AM","2019","5441","NYTIMES-USCENSUS"
"12/31/2022 12:00:00 AM","Trinity County","California","West","Pacific","06105","40.647858","-123.114666 ","1919","29","0","0","12/30/2022 12:00:00 AM","2019","12285","NYTIMES-USCENSUS"
"12/31/2022 12:00:00 AM","Trimble County","Kentucky","South","East South Central","21223","38.62004","-85.351208 ","2691","49","0","0","12/30/2022 12:00:00 AM","2019","8471","NYTIMES-USCENSUS"
"12/31/2022 12:00:00 AM","Trigg County","Kentucky","South","East South Central","21221","36.807681","-87.858652 ","5012","49","0","0","12/30/2022 12:00:00 AM","2019","14651","NYTIMES-USCENSUS"
"12/31/2022 12:00:00 AM","Treutlen County","Georgia","South","South Atlantic","13283","32.409586","-82.570882 ","1843","69","0","0","12/30/2022 12:00:00 AM","2019","6901","NYTIMES-USCENSUS"
"12/31/2022 12:00:00 AM","Trempealeau County","Wisconsin","Midwest","East North Central","55121","44.30305","-91.358867 ","9742","72","0","0","12/30/2022 12:00:00 AM","2019","29649","NYTIMES-USCENSUS"
"12/31/2022 12:00:00 AM","Trego County","Kansas","Midwest","West North Central","20195","38.921302","-99.865423 ","903","13","0","0","12/30/2022 12:00:00 AM","2019","2803","NYTIMES-USCENSUS"
"12/31/2022 12:00:00 AM","Travis County","Texas","South","West South Central","48453","30.239513","-97.69127 ","286896","1814","0","0","12/30/2022 12:00:00 AM","2019","1273954","NYTIMES-USCENSUS"
"12/31/2022 12:00:00 AM","Traverse County","Minnesota","Midwest","West North Central","27155","45.769935","-96.474832 ","993","12","0","0","12/30/2022 12:00:00 AM","2019","3259","NYTIMES-USCENSUS"
"12/31/2022 12:00:00 AM","Transylvania County","North Carolina","South","South Atlantic","37175","35.210103","-82.816666 ","7977","89","0","0","12/30/2022 12:00:00 AM","2019","34385","NYTIMES-USCENSUS"
"12/31/2022 12:00:00 AM","Traill County","North Dakota","Midwest","West North Central","38097","47.446215","-97.164754 ","2429","26","0","0","12/30/2022 12:00:00 AM","2019","8036","NYTIMES-USCENSUS"
"12/31/2022 12:00:00 AM","Towns County","Georgia","South","South Atlantic","13281","34.902529","-83.732264 ","2982","123","0","0","12/30/2022 12:00:00 AM","2019","12037","NYTIMES-USCENSUS"
"12/31/2022 12:00:00 AM","Torrance County","New Mexico","West","Mountain","35057","34.554978","-105.890557 ","3731","69","0","0","12/30/2022 12:00:00 AM","2019","15461","NYTIMES-USCENSUS"
"12/31/2022 12:00:00 AM","Summit County","Ohio","Midwest","East North Central","39153","41.121847","-81.534928 ","139176","1820","0","0","12/30/2022 12:00:00 AM","2019","541013","NYTIMES-USCENSUS"
"12/31/2022 12:00:00 AM","Summers County","West Virginia","South","South Atlantic","54089","37.655999","-80.856325 ","3617","63","0","0","12/30/2022 12:00:00 AM","2019","12573","NYTIMES-USCENSUS"
"12/31/2022 12:00:00 AM","Mason County","Washington","West","Pacific","53045","47.350832","-123.173103 ","15474","174","0","0","12/30/2022 12:00:00 AM","2019","66768","NYTIMES-USCENSUS"
"12/31/2022 12:00:00 AM","Mason County","Michigan","Midwest","East North Central","26105","43.957196","-86.442937 ","8175","111","0","0","12/30/2022 12:00:00 AM","2019","29144","NYTIMES-USCENSUS"
"12/31/2022 12:00:00 AM","Mason County","Illinois","Midwest","East North Central","17125","40.236993","-89.913575 ","4665","67","0","0","12/30/2022 12:00:00 AM","2019","13359","NYTIMES-USCENSUS"
"12/31/2022 12:00:00 AM","Mason County","Kentucky","South","East South Central","21161","38.594137","-83.828125 ","6143","115","0","0","12/30/2022 12:00:00 AM","2019","17070","NYTIMES-USCENSUS"
"12/31/2022 12:00:00 AM","Martin County","Kentucky","South","East South Central","21159","37.796774","-82.506623 ","4123","51","0","0","12/30/2022 12:00:00 AM","2019","11195","NYTIMES-USCENSUS"
"12/31/2022 12:00:00 AM","Martin County","Texas","South","West South Central","48317","32.30983","-101.961836 ","1370","26","0","0","12/30/2022 12:00:00 AM","2019","5771","NYTIMES-USCENSUS"
"12/31/2022 12:00:00 AM","Martin County","Minnesota","Midwest","West North Central","27091","43.677173","-94.547096 ","6540","73","0","0","12/30/2022 12:00:00 AM","2019","19683","NYTIMES-USCENSUS"
"12/31/2022 12:00:00 AM","Martin County","Florida","South","South Atlantic","12085","27.083604","-80.398201 ","38690","741","0","0","12/30/2022 12:00:00 AM","2019","161000","NYTIMES-USCENSUS"
"12/31/2022 12:00:00 AM","Martin County","Indiana","Midwest","East North Central","18101","38.705322","-86.801847 ","2555","30","0","0","12/30/2022 12:00:00 AM","2019","10255","NYTIMES-USCENSUS"
"12/31/2022 12:00:00 AM","Marshall County","Iowa","Midwest","West North Central","19127","42.0417","-92.981403 ","11115","127","0","0","12/30/2022 12:00:00 AM","2019","39369","NYTIMES-USCENSUS"
"12/31/2022 12:00:00 AM","Marshall County","Tennessee","South","East South Central","47117","35.468343","-86.765865 ","12314","132","0","0","12/30/2022 12:00:00 AM","2019","34375","NYTIMES-USCENSUS"
"12/31/2022 12:00:00 AM","Marshall County","Alabama","South","East South Central","01095","34.309564","-86.321668 ","31626","406","0","0","12/30/2022 12:00:00 AM","2019","96774","NYTIMES-USCENSUS"
"12/31/2022 12:00:00 AM","Marshall County","South Dakota","Midwest","West North Central","46091","45.737044","-97.58087 ","920","15","0","0","12/30/2022 12:00:00 AM","2019","4935","NYTIMES-USCENSUS"
"12/31/2022 12:00:00 AM","Marshall County","Illinois","Midwest","East North Central","17123","41.031119","-89.342371 ","3414","37","0","0","12/30/2022 12:00:00 AM","2019","11438","NYTIMES-USCENSUS"
"12/31/2022 12:00:00 AM","Marshall County","Mississippi","South","East South Central","28093","34.76619","-89.504231 ","11666","185","0","0","12/30/2022 12:00:00 AM","2019","35294","NYTIMES-USCENSUS"
"12/31/2022 12:00:00 AM","Marshall County","Oklahoma","South","West South Central","40095","34.027007","-96.770533 ","5465","75","0","0","12/30/2022 12:00:00 AM","2019","16931","NYTIMES-USCENSUS"
"12/31/2022 12:00:00 AM","Marshall County","Minnesota","Midwest","West North Central","27089","48.362728","-96.357761 ","2464","29","0","0","12/30/2022 12:00:00 AM","2019","9336","NYTIMES-USCENSUS"
"12/31/2022 12:00:00 AM","Marshall County","Indiana","Midwest","East North Central","18099","41.325003","-86.269036 ","13832","209","0","0","12/30/2022 12:00:00 AM","2019","46258","NYTIMES-USCENSUS"
"12/31/2022 12:00:00 AM","Marshall County","Kentucky","South","East South Central","21157","36.882017","-88.332752 ","9990","125","0","0","12/30/2022 12:00:00 AM","2019","31100","NYTIMES-USCENSUS"
"12/31/2022 12:00:00 AM","Marquette County","Michigan","Midwest","East North Central","26103","46.656596","-87.584028 ","19531","162","0","0","12/30/2022 12:00:00 AM","2019","66699","NYTIMES-USCENSUS"
"12/31/2022 12:00:00 AM","Marion County","Georgia","South","South Atlantic","13197","32.359312","-84.528735 ","1819","55","0","0","12/30/2022 12:00:00 AM","2019","8359","NYTIMES-USCENSUS"
"12/31/2022 12:00:00 AM","Marion County","Illinois","Midwest","East North Central","17121","38.648236","-88.920362 ","14161","227","0","0","12/30/2022 12:00:00 AM","2019","37205","NYTIMES-USCENSUS"
"12/31/2022 12:00:00 AM","Marion County","Kentucky","South","East South Central","21155","37.552604","-85.268959 ","7857","91","0","0","12/30/2022 12:00:00 AM","2019","19273","NYTIMES-USCENSUS"
"12/31/2022 12:00:00 AM","Marion County","Oregon","West","Pacific","41047","44.900898","-122.57626 ","85917","817","0","0","12/30/2022 12:00:00 AM","2019","347818","NYTIMES-USCENSUS"
"12/31/2022 12:00:00 AM","Marion County","Texas","South","West South Central","48315","32.798182","-94.356853 ","1995","67","0","0","12/30/2022 12:00:00 AM","2019","9854","NYTIMES-USCENSUS"
"12/31/2022 12:00:00 AM","Marion County","Indiana","Midwest","East North Central","18097","39.782976","-86.135794 ","262823","3177","0","0","12/30/2022 12:00:00 AM","2019","964582","NYTIMES-USCENSUS"
"12/31/2022 12:00:00 AM","Marion County","Arkansas","South","West South Central","05089","36.266664","-92.678577 ","4015","94","0","0","12/30/2022 12:00:00 AM","2019","16694","NYTIMES-USCENSUS"
"12/31/2022 12:00:00 AM","Marion County","Mississippi","South","East South Central","28091","31.230167","-89.821712 ","8395","143","0","0","12/30/2022 12:00:00 AM","2019","24573","NYTIMES-USCENSUS"
"12/31/2022 12:00:00 AM","Marion County","South Carolina","South","South Atlantic","45067","34.08362","-79.354001 ","10317","179","0","0","12/30/2022 12:00:00 AM","2019","30657","NYTIMES-USCENSUS"
"12/31/2022 12:00:00 AM","Marion County","Florida","South","South Atlantic","12083","29.202805","-82.0431 ","101817","2419","0","0","12/30/2022 12:00:00 AM","2019","365579","NYTIMES-USCENSUS"
"12/31/2022 12:00:00 AM","Marion County","West Virginia","South","South Atlantic","54049","39.505839","-80.243402 ","19735","200","0","0","12/30/2022 12:00:00 AM","2019","56072","NYTIMES-USCENSUS"
"12/31/2022 12:00:00 AM","Marion County","Ohio","Midwest","East North Central","39101","40.588034","-83.168803 ","23956","285","0","0","12/30/2022 12:00:00 AM","2019","65093","NYTIMES-USCENSUS"
"12/31/2022 12:00:00 AM","Marion County","Alabama","South","East South Central","01093","34.138219","-87.881551 ","9689","156","0","0","12/30/2022 12:00:00 AM","2019","29709","NYTIMES-USCENSUS"
"12/31/2022 12:00:00 AM","Marion County","Iowa","Midwest","West North Central","19125","41.331433","-93.093868 ","8728","130","0","0","12/30/2022 12:00:00 AM","2019","33253","NYTIMES-USCENSUS"
"12/31/2022 12:00:00 AM","Marion County","Kansas","Midwest","West North Central","20115","38.359647","-97.102771 ","3931","52","0","0","12/30/2022 12:00:00 AM","2019","11884","NYTIMES-USCENSUS"
"12/31/2022 12:00:00 AM","Marion County","Tennessee","South","East South Central","47115","35.133422","-85.618399 ","10682","138","0","0","12/30/2022 12:00:00 AM","2019","28907","NYTIMES-USCENSUS"
"12/31/2022 12:00:00 AM","Lamar County","Georgia","South","South Atlantic","13171","33.07444","-84.146689 ","5665","126","0","0","12/30/2022 12:00:00 AM","2019","19077","NYTIMES-USCENSUS"
"12/31/2022 12:00:00 AM","Lamar County","Mississippi","South","East South Central","28073","31.197586","-89.506369 ","21124","168","0","0","12/30/2022 12:00:00 AM","2019","63343","NYTIMES-USCENSUS"
"12/31/2022 12:00:00 AM","Lamar County","Texas","South","West South Central","48277","33.667263","-95.570348 ","14913","274","0","0","12/30/2022 12:00:00 AM","2019","49859","NYTIMES-USCENSUS"
"12/31/2022 12:00:00 AM","Lake County","Illinois","Midwest","East North Central","17097","42.185968","-87.805939 ","204264","1578","0","0","12/30/2022 12:00:00 AM","2019","696535","NYTIMES-USCENSUS"
"12/31/2022 12:00:00 AM","Lake County","California","West","Pacific","06033","39.094802","-122.746757 ","14599","160","0","0","12/30/2022 12:00:00 AM","2019","64386","NYTIMES-USCENSUS"
"12/31/2022 12:00:00 AM","Lake County","Indiana","Midwest","East North Central","18089","41.472247","-87.374337 ","130386","1958","0","0","12/30/2022 12:00:00 AM","2019","485493","NYTIMES-USCENSUS"
"12/31/2022 12:00:00 AM","Lake County","Florida","South","South Atlantic","12069","28.764113","-81.712282 ","105037","1750","0","0","12/30/2022 12:00:00 AM","2019","367118","NYTIMES-USCENSUS"
"12/31/2022 12:00:00 AM","Osage County","Oklahoma","South","West South Central","40113","36.624299","-96.408112 ","13351","184","0","0","12/30/2022 12:00:00 AM","2019","46963","NYTIMES-USCENSUS"
"12/31/2022 12:00:00 AM","Orleans County","Vermont","Northeast","New England","50019","44.828442","-72.25163 ","7105","43","0","0","12/30/2022 12:00:00 AM","2019","27037","NYTIMES-USCENSUS"
"12/31/2022 12:00:00 AM","Orange County","Texas","South","West South Central","48361","30.122323","-93.8941 ","16908","373","0","0","12/30/2022 12:00:00 AM","2019","83396","NYTIMES-USCENSUS"
"12/31/2022 12:00:00 AM","Orange County","North Carolina","South","South Atlantic","37135","36.062526","-79.120034 ","37465","152","0","0","12/30/2022 12:00:00 AM","2019","148476","NYTIMES-USCENSUS"
"12/31/2022 12:00:00 AM","Orange County","Indiana","Midwest","East North Central","18117","38.547381","-86.489257 ","5772","104","0","0","12/30/2022 12:00:00 AM","2019","19646","NYTIMES-USCENSUS"
"12/31/2022 12:00:00 AM","Orange County","Florida","South","South Atlantic","12095","28.514391","-81.323284 ","460395","3199","0","0","12/30/2022 12:00:00 AM","2019","1393452","NYTIMES-USCENSUS"
"12/31/2022 12:00:00 AM","Orange County","Virginia","South","South Atlantic","51137","38.249326","-78.011092 ","8891","104","0","0","12/30/2022 12:00:00 AM","2019","37051","NYTIMES-USCENSUS"
"12/31/2022 12:00:00 AM","Orange County","California","West","Pacific","06059","33.675687","-117.777207 ","765292","7674","0","0","12/30/2022 12:00:00 AM","2019","3175692","NYTIMES-USCENSUS"
"12/31/2022 12:00:00 AM","Orange County","Vermont","Northeast","New England","50017","44.003349","-72.369464 ","5038","19","0","0","12/30/2022 12:00:00 AM","2019","28892","NYTIMES-USCENSUS"
"12/31/2022 12:00:00 AM","Murray County","Minnesota","Midwest","West North Central","27101","44.015594","-95.761581 ","2317","22","0","0","12/30/2022 12:00:00 AM","2019","8194","NYTIMES-USCENSUS"
"12/31/2022 12:00:00 AM","Murray County","Oklahoma","South","West South Central","40099","34.485766","-97.071557 ","5141","84","0","0","12/30/2022 12:00:00 AM","2019","14073","NYTIMES-USCENSUS"
"12/31/2022 12:00:00 AM","Morton County","North Dakota","Midwest","West North Central","38059","46.710819","-101.298265 ","13011","142","0","0","12/30/2022 12:00:00 AM","2019","31364","NYTIMES-USCENSUS"
"12/31/2022 12:00:00 AM","Morrow County","Oregon","West","Pacific","41049","45.425496","-119.602311 ","3318","37","0","0","12/30/2022 12:00:00 AM","2019","11603","NYTIMES-USCENSUS"
"12/31/2022 12:00:00 AM","Morris County","Texas","South","West South Central","48343","33.116466","-94.731265 ","2945","75","0","0","12/30/2022 12:00:00 AM","2019","12388","NYTIMES-USCENSUS"
"12/31/2022 12:00:00 AM","Morris County","Kansas","Midwest","West North Central","20127","38.688204","-96.651448 ","1740","31","0","0","12/30/2022 12:00:00 AM","2019","5620","NYTIMES-USCENSUS"
"12/31/2022 12:00:00 AM","Morgan County","West Virginia","South","South Atlantic","54065","39.557345","-78.256517 ","5090","80","0","0","12/30/2022 12:00:00 AM","2019","17884","NYTIMES-USCENSUS"
"12/31/2022 12:00:00 AM","Morgan County","Kentucky","South","East South Central","21175","37.92294","-83.258944 ","6497","36","0","0","12/30/2022 12:00:00 AM","2019","13309","NYTIMES-USCENSUS"
"12/31/2022 12:00:00 AM","Morgan County","Utah","West","Mountain","49029","41.091027","-111.577885 ","3209","15","0","0","12/30/2022 12:00:00 AM","2019","12124","NYTIMES-USCENSUS"
"12/31/2022 12:00:00 AM","Morgan County","Alabama","South","East South Central","01103","34.454484","-86.846402 ","44434","544","0","0","12/30/2022 12:00:00 AM","2019","119679","NYTIMES-USCENSUS"
"12/31/2022 12:00:00 AM","Morgan County","Ohio","Midwest","East North Central","39115","39.624946","-81.861697 ","4053","65","0","0","12/30/2022 12:00:00 AM","2019","14508","NYTIMES-USCENSUS"
"12/31/2022 12:00:00 AM","Morgan County","Missouri","Midwest","West North Central","29141","38.420806","-92.874835 ","4818","121","0","0","12/30/2022 12:00:00 AM","2019","20627","NYTIMES-USCENSUS"
"12/31/2022 12:00:00 AM","Morgan County","Tennessee","South","East South Central","47129","36.138697","-84.639262 ","7526","95","0","0","12/30/2022 12:00:00 AM","2019","21403","NYTIMES-USCENSUS"
"12/31/2022 12:00:00 AM","Morgan County","Indiana","Midwest","East North Central","18109","39.482646","-86.447457 ","19175","301","0","0","12/30/2022 12:00:00 AM","2019","70489","NYTIMES-USCENSUS"
"12/31/2022 12:00:00 AM","Morgan County","Colorado","West","Mountain","08087","40.263159","-103.81221 ","6813","145","0","0","12/30/2022 12:00:00 AM","2019","29068","NYTIMES-USCENSUS"
"12/31/2022 12:00:00 AM","Morgan County","Illinois","Midwest","East North Central","17137","39.717668","-90.205005 ","11941","153","0","0","12/30/2022 12:00:00 AM","2019","33658","NYTIMES-USCENSUS"
"12/31/2022 12:00:00 AM","Moore County","Texas","South","West South Central","48341","35.835676","-101.890502 ","6258","115","0","0","12/30/2022 12:00:00 AM","2019","20940","NYTIMES-USCENSUS"
"12/31/2022 12:00:00 AM","Moore County","North Carolina","South","South Atlantic","37125","35.308272","-79.492725 ","30206","371","0","0","12/30/2022 12:00:00 AM","2019","100880","NYTIMES-USCENSUS"
"12/31/2022 12:00:00 AM","Montgomery County","Illinois","Midwest","East North Central","17135","39.228068","-89.478141 ","11915","118","0","0","12/30/2022 12:00:00 AM","2019","28414","NYTIMES-USCENSUS"
"12/31/2022 12:00:00 AM","Montgomery County","Kentucky","South","East South Central","21173","38.038109","-83.912416 ","11024","124","0","0","12/30/2022 12:00:00 AM","2019","28157","NYTIMES-USCENSUS"
"12/31/2022 12:00:00 AM","Montgomery County","Maryland","South","South Atlantic","24031","39.137381","-77.203063 ","237020","2281","0","0","12/30/2022 12:00:00 AM","2019","1050688","NYTIMES-USCENSUS"
"12/31/2022 12:00:00 AM","Montgomery County","Mississippi","South","East South Central","28097","33.500714","-89.639625 ","3535","88","0","0","12/30/2022 12:00:00 AM","2019","9775","NYTIMES-USCENSUS"
"12/31/2022 12:00:00 AM","Montgomery County","Iowa","Midwest","West North Central","19137","41.021735","-95.15779 ","2540","58","0","0","12/30/2022 12:00:00 AM","2019","9917","NYTIMES-USCENSUS"
"12/31/2022 12:00:00 AM","Montgomery County","Arkansas","South","West South Central","05097","34.545656","-93.664153 ","1749","66","0","0","12/30/2022 12:00:00 AM","2019","8986","NYTIMES-USCENSUS"
"12/31/2022 12:00:00 AM","Montgomery County","North Carolina","South","South Atlantic","37123","35.327548","-79.910752 ","8581","141","0","0","12/30/2022 12:00:00 AM","2019","27173","NYTIMES-USCENSUS"
"12/31/2022 12:00:00 AM","Montgomery County","Indiana","Midwest","East North Central","18107","40.040296","-86.892715 ","12047","169","0","0","12/30/2022 12:00:00 AM","2019","38338","NYTIMES-USCENSUS"
"12/31/2022 12:00:00 AM","Montgomery County","Ohio","Midwest","East North Central","39113","39.753736","-84.290591 ","157494","2171","0","0","12/30/2022 12:00:00 AM","2019","531687","NYTIMES-USCENSUS"
"12/31/2022 12:00:00 AM","Montgomery County","Texas","South","West South Central","48339","30.298801","-95.50295 ","167908","1352","0","0","12/30/2022 12:00:00 AM","2019","607391","NYTIMES-USCENSUS"
"12/31/2022 12:00:00 AM","Montgomery County","Virginia","South","South Atlantic","51121","37.175538","-80.387794 ","24104","179","0","0","12/30/2022 12:00:00 AM","2019","98535","NYTIMES-USCENSUS"
"12/31/2022 12:00:00 AM","Montgomery County","New York","Northeast","Middle Atlantic","36057","42.900891","-74.435357 ","14713","228","10","0","12/30/2022 12:00:00 AM","2019","49221","NYTIMES-USCENSUS"
"12/31/2022 12:00:00 AM","Montgomery County","Georgia","South","South Atlantic","13209","32.172108","-82.533349 ","2284","56","0","0","12/30/2022 12:00:00 AM","2019","9172","NYTIMES-USCENSUS"
"12/31/2022 12:00:00 AM","Montgomery County","Missouri","Midwest","West North Central","29139","38.935184","-91.465427 ","3013","63","0","0","12/30/2022 12:00:00 AM","2019","11551","NYTIMES-USCENSUS"
"12/31/2022 12:00:00 AM","Montgomery County","Alabama","South","East South Central","01101","32.202881","-86.204461 ","69442","1001","0","0","12/30/2022 12:00:00 AM","2019","226486","NYTIMES-USCENSUS"
"12/31/2022 12:00:00 AM","Montgomery County","Tennessee","South","East South Central","47125","36.500354","-87.380887 ","61414","625","0","0","12/30/2022 12:00:00 AM","2019","208993","NYTIMES-USCENSUS"
"12/31/2022 12:00:00 AM","Montgomery County","Pennsylvania","Northeast","Middle Atlantic","42091","40.209999","-75.370201 ","193440","2554","0","0","12/30/2022 12:00:00 AM","2019","830915","NYTIMES-USCENSUS"
"12/31/2022 12:00:00 AM","Mason County","Texas","South","West South Central","48319","30.703916","-99.237302 ","1003","13","0","0","12/30/2022 12:00:00 AM","2019","4274","NYTIMES-USCENSUS"
"12/31/2022 12:00:00 AM","Greene County","New York","Northeast","Middle Atlantic","36039","42.279821","-74.142025 ","10639","147","9","0","12/30/2022 12:00:00 AM","2019","47188","NYTIMES-USCENSUS"
"12/31/2022 12:00:00 AM","Greene County","Mississippi","South","East South Central","28041","31.212845","-88.634811 ","3768","60","0","0","12/30/2022 12:00:00 AM","2019","13586","NYTIMES-USCENSUS"
"12/31/2022 12:00:00 AM","Greene County","Arkansas","South","West South Central","05055","36.120607","-90.566346 ","19070","189","24","0","12/30/2022 12:00:00 AM","2019","45325","NYTIMES-USCENSUS"
"12/31/2022 12:00:00 AM","Greeley County","Nebraska","Midwest","West North Central","31077","41.567571","-98.530565 ","462","6","0","0","12/30/2022 12:00:00 AM","2019","2356","NYTIMES-USCENSUS"
"12/31/2022 12:00:00 AM","Grayson County","Texas","South","West South Central","48181","33.624524","-96.675693 ","31059","669","0","0","12/30/2022 12:00:00 AM","2019","136212","NYTIMES-USCENSUS"
"12/31/2022 12:00:00 AM","Grayson County","Kentucky","South","East South Central","21085","37.458577","-86.344011 ","9837","149","0","0","12/30/2022 12:00:00 AM","2019","26427","NYTIMES-USCENSUS"
"12/31/2022 12:00:00 AM","Gray County","Texas","South","West South Central","48179","35.402542","-100.812374 ","6899","134","0","0","12/30/2022 12:00:00 AM","2019","21886","NYTIMES-USCENSUS"
"12/31/2022 12:00:00 AM","Florence County","Wisconsin","Midwest","East North Central","55037","45.871828","-88.406988 ","1325","21","0","0","12/30/2022 12:00:00 AM","2019","4295","NYTIMES-USCENSUS"
"12/31/2022 12:00:00 AM","Fillmore County","Nebraska","Midwest","West North Central","31059","40.52504","-97.596705 ","1306","20","0","0","12/30/2022 12:00:00 AM","2019","5462","NYTIMES-USCENSUS"
"12/31/2022 12:00:00 AM","Fayette County","Iowa","Midwest","West North Central","19065","42.864122","-91.840376 ","4865","85","0","0","12/30/2022 12:00:00 AM","2019","19650","NYTIMES-USCENSUS"
"12/31/2022 12:00:00 AM","Fayette County","Georgia","South","South Atlantic","13113","33.412717","-84.493941 ","28619","370","0","0","12/30/2022 12:00:00 AM","2019","114421","NYTIMES-USCENSUS"
"12/31/2022 12:00:00 AM","Fayette County","Alabama","South","East South Central","01057","33.716157","-87.764292 ","5694","99","0","0","12/30/2022 12:00:00 AM","2019","16302","NYTIMES-USCENSUS"
"12/31/2022 12:00:00 AM","Fayette County","Kentucky","South","East South Central","21067","38.040678","-84.458272 ","118240","697","0","0","12/30/2022 12:00:00 AM","2019","323152","NYTIMES-USCENSUS"
"12/31/2022 12:00:00 AM","Fayette County","Texas","South","West South Central","48149","29.877886","-96.921231 ","5394","115","0","0","12/30/2022 12:00:00 AM","2019","25346","NYTIMES-USCENSUS"
"12/31/2022 12:00:00 AM","Fayette County","Indiana","Midwest","East North Central","18041","39.639655","-85.185032 ","8129","161","0","0","12/30/2022 12:00:00 AM","2019","23102","NYTIMES-USCENSUS"
"12/31/2022 12:00:00 AM","Fayette County","Ohio","Midwest","East North Central","39047","39.555246","-83.461893 ","9179","134","0","0","12/30/2022 12:00:00 AM","2019","28525","NYTIMES-USCENSUS"
"12/31/2022 12:00:00 AM","Fayette County","Pennsylvania","Northeast","Middle Atlantic","42051","39.918907","-79.640119 ","38118","741","0","0","12/30/2022 12:00:00 AM","2019","129274","NYTIMES-USCENSUS"
"12/31/2022 12:00:00 AM","Fayette County","Tennessee","South","East South Central","47047","35.196993","-89.413803 ","13705","197","0","0","12/30/2022 12:00:00 AM","2019","41133","NYTIMES-USCENSUS"
"12/31/2022 12:00:00 AM","Fayette County","Illinois","Midwest","East North Central","17051","39.001125","-89.017923 ","8455","104","0","0","12/30/2022 12:00:00 AM","2019","21336","NYTIMES-USCENSUS"
"12/31/2022 12:00:00 AM","Fannin County","Georgia","South","South Atlantic","13111","34.866543","-84.317331 ","5690","180","0","0","12/30/2022 12:00:00 AM","2019","26188","NYTIMES-USCENSUS"
"12/31/2022 12:00:00 AM","Fairfield County","Connecticut","Northeast","New England","09001","41.227413","-73.367061 ","257180","2906","0","0","12/30/2022 12:00:00 AM","2019","943332","NYTIMES-USCENSUS"
"12/31/2022 12:00:00 AM","Fairfield County","Ohio","Midwest","East North Central","39045","39.747694","-82.626685 ","46398","464","0","0","12/30/2022 12:00:00 AM","2019","157574","NYTIMES-USCENSUS"
"12/31/2022 12:00:00 AM","DeKalb County","Indiana","Midwest","East North Central","18033","41.39676","-85.002697 ","13415","161","0","0","12/30/2022 12:00:00 AM","2019","43475","NYTIMES-USCENSUS"
"12/31/2022 12:00:00 AM","DeKalb County","Tennessee","South","East South Central","47041","35.982219","-85.833596 ","7442","108","0","0","12/30/2022 12:00:00 AM","2019","20490","NYTIMES-USCENSUS"
"12/31/2022 12:00:00 AM","DeKalb County","Illinois","Midwest","East North Central","17037","41.894612","-88.768991 ","31617","214","0","0","12/30/2022 12:00:00 AM","2019","104897","NYTIMES-USCENSUS"
"12/31/2022 12:00:00 AM","DeKalb County","Alabama","South","East South Central","01049","34.460915","-85.804021 ","21738","350","0","0","12/30/2022 12:00:00 AM","2019","71513","NYTIMES-USCENSUS"
"12/31/2022 12:00:00 AM","DeKalb County","Missouri","Midwest","West North Central","29063","39.894665","-94.40719 ","2519","49","0","0","12/30/2022 12:00:00 AM","2019","12547","NYTIMES-USCENSUS"
"12/31/2022 12:00:00 AM","Decatur County","Georgia","South","South Atlantic","13087","30.880643","-84.58389 ","8369","138","0","0","12/30/2022 12:00:00 AM","2019","26404","NYTIMES-USCENSUS"
"12/31/2022 12:00:00 AM","Decatur County","Iowa","Midwest","West North Central","19053","40.736379","-93.78458 ","1803","28","0","0","12/30/2022 12:00:00 AM","2019","7870","NYTIMES-USCENSUS"
"12/31/2022 12:00:00 AM","Decatur County","Indiana","Midwest","East North Central","18031","39.30598","-85.499831 ","8299","153","0","0","12/30/2022 12:00:00 AM","2019","26559","NYTIMES-USCENSUS"
"12/31/2022 12:00:00 AM","Dawson County","Nebraska","Midwest","West North Central","31047","40.86784","-99.815583 ","5878","87","0","0","12/30/2022 12:00:00 AM","2019","23595","NYTIMES-USCENSUS"
"12/31/2022 12:00:00 AM","Dawson County","Texas","South","West South Central","48115","32.742528","-101.948771 ","3434","101","0","0","12/30/2022 12:00:00 AM","2019","12728","NYTIMES-USCENSUS"
"12/31/2022 12:00:00 AM","Davis County","Iowa","Midwest","West North Central","19051","40.748089","-92.410345 ","1787","35","0","0","12/30/2022 12:00:00 AM","2019","9000","NYTIMES-USCENSUS"
"12/31/2022 12:00:00 AM","Daviess County","Indiana","Midwest","East North Central","18027","38.69609","-87.076943 ","8802","161","0","0","12/30/2022 12:00:00 AM","2019","33351","NYTIMES-USCENSUS"
"12/31/2022 12:00:00 AM","Daviess County","Missouri","Midwest","West North Central","29061","39.962839","-93.970053 ","1990","35","0","0","12/30/2022 12:00:00 AM","2019","8278","NYTIMES-USCENSUS"
"12/31/2022 12:00:00 AM","Davidson County","Tennessee","South","East South Central","47037","36.169129","-86.78479 ","247844","1802","0","0","12/30/2022 12:00:00 AM","2019","694144","NYTIMES-USCENSUS"
"12/31/2022 12:00:00 AM","Dallas County","Alabama","South","East South Central","01047","32.333526","-87.11436 ","10357","256","0","0","12/30/2022 12:00:00 AM","2019","37196","NYTIMES-USCENSUS"
"12/31/2022 12:00:00 AM","Dallas County","Texas","South","West South Central","48113","32.766987","-96.778424 ","678054","7016","0","0","12/30/2022 12:00:00 AM","2019","2635516","NYTIMES-USCENSUS"
"12/31/2022 12:00:00 AM","Dallas County","Arkansas","South","West South Central","05039","33.967823","-92.653999 ","2032","38","0","0","12/30/2022 12:00:00 AM","2019","7009","NYTIMES-USCENSUS"
"12/31/2022 12:00:00 AM","Dallas County","Missouri","Midwest","West North Central","29059","37.683583","-93.033815 ","4630","80","0","0","12/30/2022 12:00:00 AM","2019","16878","NYTIMES-USCENSUS"
"12/31/2022 12:00:00 AM","Dakota County","Minnesota","Midwest","West North Central","27037","44.670893","-93.062481 ","133892","875","0","0","12/30/2022 12:00:00 AM","2019","429021","NYTIMES-USCENSUS"
"12/31/2022 12:00:00 AM","Clayton County","Iowa","Midwest","West North Central","19043","42.840985","-91.323576 ","3974","79","0","0","12/30/2022 12:00:00 AM","2019","17549","NYTIMES-USCENSUS"
"12/31/2022 12:00:00 AM","Lake County","Oregon","West","Pacific","41037","42.788401","-120.38979 ","1643","32","0","0","12/30/2022 12:00:00 AM","2019","7869","NYTIMES-USCENSUS"
"12/31/2022 12:00:00 AM","Lake County","Colorado","West","Mountain","08065","39.205341","-106.350079 ","2170","2","0","0","12/30/2022 12:00:00 AM","2019","8127","NYTIMES-USCENSUS"
"12/31/2022 12:00:00 AM","Lake County","Michigan","Midwest","East North Central","26085","43.995187","-85.8114 ","2361","42","0","0","12/30/2022 12:00:00 AM","2019","11853","NYTIMES-USCENSUS"
"12/31/2022 12:00:00 AM","Lake County","South Dakota","Midwest","West North Central","46079","44.02845","-97.123223 ","2588","28","0","0","12/30/2022 12:00:00 AM","2019","12797","NYTIMES-USCENSUS"
"12/31/2022 12:00:00 AM","Lake County","Minnesota","Midwest","West North Central","27075","47.517111","-91.411704 ","2596","33","0","0","12/30/2022 12:00:00 AM","2019","10641","NYTIMES-USCENSUS"
"12/31/2022 12:00:00 AM","Lake County","Montana","West","Mountain","30047","47.642901","-114.083687 ","8174","107","0","0","12/30/2022 12:00:00 AM","2019","30458","NYTIMES-USCENSUS"
"12/31/2022 12:00:00 AM","Lake County","Ohio","Midwest","East North Central","39085","41.778142","-81.19733 ","60243","795","0","0","12/30/2022 12:00:00 AM","2019","230149","NYTIMES-USCENSUS"
"12/31/2022 12:00:00 AM","Lafayette County","Florida","South","South Atlantic","12067","29.990066","-83.17851 ","3065","64","0","0","12/30/2022 12:00:00 AM","2019","8422","NYTIMES-USCENSUS"
"12/31/2022 12:00:00 AM","Lafayette County","Missouri","Midwest","West North Central","29107","39.068705","-93.802639 ","9026","143","0","0","12/30/2022 12:00:00 AM","2019","32708","NYTIMES-USCENSUS"
"12/31/2022 12:00:00 AM","Lafayette County","Mississippi","South","East South Central","28071","34.353078","-89.485385 ","18275","187","0","0","12/30/2022 12:00:00 AM","2019","54019","NYTIMES-USCENSUS"
"12/31/2022 12:00:00 AM","Lafayette County","Arkansas","South","West South Central","05073","33.240629","-93.611514 ","1479","30","1","0","12/30/2022 12:00:00 AM","2019","6624","NYTIMES-USCENSUS"
"12/31/2022 12:00:00 AM","Knox County","Maine","Northeast","New England","23013","44.042045","-69.038514 ","7837","49","4","0","12/30/2022 12:00:00 AM","2019","39772","NYTIMES-USCENSUS"
"12/31/2022 12:00:00 AM","Knox County","Kentucky","South","East South Central","21121","36.8885","-83.855551 ","14666","170","0","0","12/30/2022 12:00:00 AM","2019","31145","NYTIMES-USCENSUS"
"12/31/2022 12:00:00 AM","Knox County","Illinois","Midwest","East North Central","17095","40.930945","-90.213792 ","15775","269","0","0","12/30/2022 12:00:00 AM","2019","49699","NYTIMES-USCENSUS"
"12/31/2022 12:00:00 AM","Knox County","Ohio","Midwest","East North Central","39083","40.40362","-82.422393 ","16237","247","0","0","12/30/2022 12:00:00 AM","2019","62322","NYTIMES-USCENSUS"
"12/31/2022 12:00:00 AM","Knox County","Texas","South","West South Central","48275","33.61189","-99.730356 ","610","25","0","0","12/30/2022 12:00:00 AM","2019","3664","NYTIMES-USCENSUS"
"12/31/2022 12:00:00 AM","Knox County","Nebraska","Midwest","West North Central","31107","42.634404","-97.891349 ","1945","24","0","0","12/30/2022 12:00:00 AM","2019","8332","NYTIMES-USCENSUS"
"12/31/2022 12:00:00 AM","Knox County","Tennessee","South","East South Central","47093","35.992726","-83.937721 ","154083","1551","0","0","12/30/2022 12:00:00 AM","2019","470313","NYTIMES-USCENSUS"
"12/31/2022 12:00:00 AM","Iron County","Michigan","Midwest","East North Central","26071","46.170254","-88.540526 ","3469","99","0","0","12/30/2022 12:00:00 AM","2019","11066","NYTIMES-USCENSUS"
"12/31/2022 12:00:00 AM","Iron County","Wisconsin","Midwest","East North Central","55051","46.32655","-90.261298 ","1782","49","0","0","12/30/2022 12:00:00 AM","2019","5687","NYTIMES-USCENSUS"
"12/31/2022 12:00:00 AM","Iron County","Utah","West","Mountain","49021","37.909304","-113.30674 ","16451","97","0","0","12/30/2022 12:00:00 AM","2019","54839","NYTIMES-USCENSUS"
"12/31/2022 12:00:00 AM","Iowa County","Iowa","Midwest","West North Central","19095","41.683918","-92.059123 ","4258","53","0","0","12/30/2022 12:00:00 AM","2019","16184","NYTIMES-USCENSUS"
"12/31/2022 12:00:00 AM","Hyde County","North Carolina","South","South Atlantic","37095","35.408157","-76.153687 ","1643","15","0","0","12/30/2022 12:00:00 AM","2019","4937","NYTIMES-USCENSUS"
"12/31/2022 12:00:00 AM","Hutchinson County","South Dakota","Midwest","West North Central","46067","43.33671","-97.749383 ","1970","39","0","0","12/30/2022 12:00:00 AM","2019","7291","NYTIMES-USCENSUS"
"12/31/2022 12:00:00 AM","Huron County","Ohio","Midwest","East North Central","39077","41.14508","-82.594641 ","17669","233","0","0","12/30/2022 12:00:00 AM","2019","58266","NYTIMES-USCENSUS"
"12/31/2022 12:00:00 AM","Humphreys County","Tennessee","South","East South Central","47085","36.040822","-87.790453 ","5901","84","0","0","12/30/2022 12:00:00 AM","2019","18582","NYTIMES-USCENSUS"
"12/31/2022 12:00:00 AM","Humboldt County","Iowa","Midwest","West North Central","19091","42.782221","-94.202775 ","3025","41","0","0","12/30/2022 12:00:00 AM","2019","9558","NYTIMES-USCENSUS"
"12/31/2022 12:00:00 AM","Humboldt County","Nevada","West","Mountain","32013","41.407914","-118.127591 ","2758","65","0","0","12/30/2022 12:00:00 AM","2019","16831","NYTIMES-USCENSUS"
"12/31/2022 12:00:00 AM","Hughes County","Oklahoma","South","West South Central","40063","35.052934","-96.251183 ","3016","69","0","0","12/30/2022 12:00:00 AM","2019","13279","NYTIMES-USCENSUS"
"12/31/2022 12:00:00 AM","Guadalupe County","Texas","South","West South Central","48187","29.582671","-97.948995 ","44759","438","0","0","12/30/2022 12:00:00 AM","2019","166847","NYTIMES-USCENSUS"
"12/31/2022 12:00:00 AM","Grundy County","Iowa","Midwest","West North Central","19075","42.403339","-92.790244 ","2987","49","0","0","12/30/2022 12:00:00 AM","2019","12232","NYTIMES-USCENSUS"
"12/31/2022 12:00:00 AM","Grundy County","Illinois","Midwest","East North Central","17063","41.29241","-88.401054 ","15803","153","0","0","12/30/2022 12:00:00 AM","2019","51054","NYTIMES-USCENSUS"
"12/31/2022 12:00:00 AM","Grundy County","Tennessee","South","East South Central","47061","35.393386","-85.710379 ","4522","79","0","0","12/30/2022 12:00:00 AM","2019","13427","NYTIMES-USCENSUS"
"12/31/2022 12:00:00 AM","Greenwood County","South Carolina","South","South Atlantic","45047","34.155796","-82.127876 ","25946","323","0","0","12/30/2022 12:00:00 AM","2019","70811","NYTIMES-USCENSUS"
"12/31/2022 12:00:00 AM","Greene County","North Carolina","South","South Atlantic","37079","35.481959","-77.681688 ","6888","77","0","0","12/30/2022 12:00:00 AM","2019","21069","NYTIMES-USCENSUS"
"12/31/2022 12:00:00 AM","Greene County","Indiana","Midwest","East North Central","18055","39.047147","-87.004771 ","8822","151","0","0","12/30/2022 12:00:00 AM","2019","31922","NYTIMES-USCENSUS"
"12/31/2022 12:00:00 AM","Greene County","Ohio","Midwest","East North Central","39057","39.687479","-83.894894 ","47035","539","0","0","12/30/2022 12:00:00 AM","2019","168937","NYTIMES-USCENSUS"
"12/31/2022 12:00:00 AM","Greene County","Virginia","South","South Atlantic","51079","38.297981","-78.470163 ","4906","63","0","0","12/30/2022 12:00:00 AM","2019","19819","NYTIMES-USCENSUS"
"12/31/2022 12:00:00 AM","Greene County","Iowa","Midwest","West North Central","19073","42.042513","-94.388727 ","2016","28","0","0","12/30/2022 12:00:00 AM","2019","8888","NYTIMES-USCENSUS"
"12/31/2022 12:00:00 AM","Greene County","Alabama","South","East South Central","01063","32.844497","-87.9642 ","2194","53","0","0","12/30/2022 12:00:00 AM","2019","8111","NYTIMES-USCENSUS"
"12/31/2022 12:00:00 AM","Greene County","Tennessee","South","East South Central","47059","36.179487","-82.847523 ","26666","408","0","0","12/30/2022 12:00:00 AM","2019","69069","NYTIMES-USCENSUS"
"12/31/2022 12:00:00 AM","Greene County","Illinois","Midwest","East North Central","17061","39.355439","-90.387682 ","4207","61","0","0","12/30/2022 12:00:00 AM","2019","12969","NYTIMES-USCENSUS"
"12/31/2022 12:00:00 AM","Greene County","Missouri","Midwest","West North Central","29077","37.258196","-93.340641 ","83287","1130","0","0","12/30/2022 12:00:00 AM","2019","293086","NYTIMES-USCENSUS"
"12/31/2022 12:00:00 AM","Greene County","Pennsylvania","Northeast","Middle Atlantic","42059","39.847707","-80.225655 ","10369","133","0","0","12/30/2022 12:00:00 AM","2019","36233","NYTIMES-USCENSUS"
"12/31/2022 12:00:00 AM","Faribault County","Minnesota","Midwest","West North Central","27043","43.676522","-93.947234 ","4398","59","0","0","12/30/2022 12:00:00 AM","2019","13653","NYTIMES-USCENSUS"
"12/31/2022 12:00:00 AM","Fannin County","Texas","South","West South Central","48147","33.591161","-96.104988 ","7947","203","0","0","12/30/2022 12:00:00 AM","2019","35514","NYTIMES-USCENSUS"
"12/31/2022 12:00:00 AM","Falls County","Texas","South","West South Central","48145","31.25193","-96.934127 ","4382","75","0","0","12/30/2022 12:00:00 AM","2019","17297","NYTIMES-USCENSUS"
"12/31/2022 12:00:00 AM","Falls Church city","Virginia","South","South Atlantic","51610","38.884722","-77.175603 ","3360","27","0","0","12/30/2022 12:00:00 AM","2019","14617","NYTIMES-USCENSUS"
"12/31/2022 12:00:00 AM","Fall River County","South Dakota","Midwest","West North Central","46047","43.221619","-103.512609 ","2394","44","0","0","12/30/2022 12:00:00 AM","2019","6713","NYTIMES-USCENSUS"
"12/31/2022 12:00:00 AM","Fairfax County","Virginia","South","South Atlantic","51059","38.82952","-77.273252 ","251310","1655","0","0","12/30/2022 12:00:00 AM","2019","1147532","NYTIMES-USCENSUS"
"12/31/2022 12:00:00 AM","Fairfax city","Virginia","South","South Atlantic","51600","38.853183","-77.299025 ","2532","51","0","0","12/30/2022 12:00:00 AM","2019","24019","NYTIMES-USCENSUS"
"12/31/2022 12:00:00 AM","Fairbanks North Star Borough","Alaska","West","Pacific","02090","64.676044","-146.548159 ","32863","166","0","0","12/30/2022 12:00:00 AM","2019","96849","NYTIMES-USCENSUS"
"12/31/2022 12:00:00 AM","Evans County","Georgia","South","South Atlantic","13109","32.153083","-81.890153 ","2796","69","0","0","12/30/2022 12:00:00 AM","2019","10654","NYTIMES-USCENSUS"
"12/31/2022 12:00:00 AM","Evangeline Parish","Louisiana","South","West South Central","22039","30.720693","-92.404086 ","10033","163","0","0","12/30/2022 12:00:00 AM","2019","33395","NYTIMES-USCENSUS"
"12/31/2022 12:00:00 AM","Etowah County","Alabama","South","East South Central","01055","34.047641","-86.034263 ","33129","686","0","0","12/30/2022 12:00:00 AM","2019","102268","NYTIMES-USCENSUS"
"12/31/2022 12:00:00 AM","Estill County","Kentucky","South","East South Central","21065","37.692449","-83.963983 ","5138","58","0","0","12/30/2022 12:00:00 AM","2019","14106","NYTIMES-USCENSUS"
"12/31/2022 12:00:00 AM","Del Norte County","California","West","Pacific","06015","41.749903","-123.980998 ","8080","61","0","0","12/30/2022 12:00:00 AM","2019","27812","NYTIMES-USCENSUS"
"12/31/2022 12:00:00 AM","DeKalb County","Georgia","South","South Atlantic","13089","33.770661","-84.226343 ","187706","1911","0","0","12/30/2022 12:00:00 AM","2019","759297","NYTIMES-USCENSUS"
"12/31/2022 12:00:00 AM","Defiance County","Ohio","Midwest","East North Central","39039","41.321679","-84.486433 ","12158","172","0","0","12/30/2022 12:00:00 AM","2019","38087","NYTIMES-USCENSUS"
"12/31/2022 12:00:00 AM","Deer Lodge County","Montana","West","Mountain","30023","46.094672","-113.141624 ","3186","30","0","0","12/30/2022 12:00:00 AM","2019","9140","NYTIMES-USCENSUS"
"12/31/2022 12:00:00 AM","Decatur County","Tennessee","South","East South Central","47039","35.603136","-88.110292 ","4350","72","0","0","12/30/2022 12:00:00 AM","2019","11663","NYTIMES-USCENSUS"
"12/31/2022 12:00:00 AM","Dearborn County","Indiana","Midwest","East North Central","18029","39.140897","-84.975868 ","15758","179","0","0","12/30/2022 12:00:00 AM","2019","49458","NYTIMES-USCENSUS"
"12/31/2022 12:00:00 AM","Deaf Smith County","Texas","South","West South Central","48117","34.940766","-102.607564 ","5656","119","0","0","12/30/2022 12:00:00 AM","2019","18546","NYTIMES-USCENSUS"
"12/31/2022 12:00:00 AM","De Witt County","Illinois","Midwest","East North Central","17039","40.181499","-88.901853 ","5108","53","0","0","12/30/2022 12:00:00 AM","2019","15638","NYTIMES-USCENSUS"
"12/31/2022 12:00:00 AM","De Soto Parish","Louisiana","South","West South Central","22031","32.059248","-93.740797 ","9357","141","0","0","12/30/2022 12:00:00 AM","2019","27463","NYTIMES-USCENSUS"
"12/31/2022 12:00:00 AM","De Baca County","New Mexico","West","Mountain","35011","34.359273","-104.368696 ","736","6","0","0","12/30/2022 12:00:00 AM","2019","1748","NYTIMES-USCENSUS"
"12/31/2022 12:00:00 AM","Day County","South Dakota","Midwest","West North Central","46037","45.355161","-97.58143 ","1448","40","0","0","12/30/2022 12:00:00 AM","2019","5424","NYTIMES-USCENSUS"
"12/31/2022 12:00:00 AM","Dawson County","Georgia","South","South Atlantic","13085","34.442608","-84.173261 ","8187","107","0","0","12/30/2022 12:00:00 AM","2019","26108","NYTIMES-USCENSUS"
"12/31/2022 12:00:00 AM","Dawes County","Nebraska","Midwest","West North Central","31045","42.713038","-103.135436 ","1496","25","0","0","12/30/2022 12:00:00 AM","2019","8589","NYTIMES-USCENSUS"
"12/31/2022 12:00:00 AM","Davison County","South Dakota","Midwest","West North Central","46035","43.680439","-98.155868 ","6908","87","0","0","12/30/2022 12:00:00 AM","2019","19775","NYTIMES-USCENSUS"
"12/31/2022 12:00:00 AM","Davis County","Utah","West","Mountain","49011","41.037559","-112.201943 ","117951","446","0","0","12/30/2022 12:00:00 AM","2019","355481","NYTIMES-USCENSUS"
"12/31/2022 12:00:00 AM","Daviess County","Kentucky","South","East South Central","21059","37.731671","-87.087139 ","37772","430","0","0","12/30/2022 12:00:00 AM","2019","101511","NYTIMES-USCENSUS"
"12/31/2022 12:00:00 AM","Davie County","North Carolina","South","South Atlantic","37059","35.929355","-80.542552 ","14070","146","0","0","12/30/2022 12:00:00 AM","2019","42846","NYTIMES-USCENSUS"
"12/31/2022 12:00:00 AM","Davidson County","North Carolina","South","South Atlantic","37057","35.795131","-80.207107 ","53293","596","0","0","12/30/2022 12:00:00 AM","2019","167609","NYTIMES-USCENSUS"
"12/31/2022 12:00:00 AM","Dauphin County","Pennsylvania","Northeast","Middle Atlantic","42043","40.412565","-76.792634 ","70545","1051","0","0","12/30/2022 12:00:00 AM","2019","278299","NYTIMES-USCENSUS"
"12/31/2022 12:00:00 AM","Darlington County","South Carolina","South","South Atlantic","45031","34.332185","-79.962115 ","21621","336","0","0","12/30/2022 12:00:00 AM","2019","66618","NYTIMES-USCENSUS"
"12/31/2022 12:00:00 AM","Darke County","Ohio","Midwest","East North Central","39037","40.131467","-84.621191 ","14746","251","0","0","12/30/2022 12:00:00 AM","2019","51113","NYTIMES-USCENSUS"
"12/31/2022 12:00:00 AM","Dare County","North Carolina","South","South Atlantic","37055","35.606269","-75.767536 ","9531","42","0","0","12/30/2022 12:00:00 AM","2019","37009","NYTIMES-USCENSUS"
"12/31/2022 12:00:00 AM","Danville city","Virginia","South","South Atlantic","51590","36.583334","-79.408071 ","14023","292","0","0","12/30/2022 12:00:00 AM","2019","40044","NYTIMES-USCENSUS"
"12/31/2022 12:00:00 AM","Dane County","Wisconsin","Midwest","East North Central","55025","43.067468","-89.417852 ","175109","615","0","0","12/30/2022 12:00:00 AM","2019","546695","NYTIMES-USCENSUS"
"12/31/2022 12:00:00 AM","Dallas County","Iowa","Midwest","West North Central","19049","41.68532","-94.040706 ","26470","155","0","0","12/30/2022 12:00:00 AM","2019","93453","NYTIMES-USCENSUS"
"12/31/2022 12:00:00 AM","Dallam County","Texas","South","West South Central","48111","36.28637","-102.59402 ","2382","43","0","0","12/30/2022 12:00:00 AM","2019","7287","NYTIMES-USCENSUS"
"12/31/2022 12:00:00 AM","Dale County","Alabama","South","East South Central","01045","31.430654","-85.609476 ","15789","245","0","0","12/30/2022 12:00:00 AM","2019","49172","NYTIMES-USCENSUS"
"12/31/2022 12:00:00 AM","Dakota County","Nebraska","Midwest","West North Central","31043","42.391624","-96.561327 ","7802","88","0","0","12/30/2022 12:00:00 AM","2019","20026","NYTIMES-USCENSUS"
"12/31/2022 12:00:00 AM","Hughes County","South Dakota","Midwest","West North Central","46065","44.384452","-99.975684 ","4947","62","0","0","12/30/2022 12:00:00 AM","2019","17526","NYTIMES-USCENSUS"
"12/31/2022 12:00:00 AM","Habersham County","Georgia","South","South Atlantic","13137","34.634392","-83.525875 ","11434","284","0","0","12/30/2022 12:00:00 AM","2019","45328","NYTIMES-USCENSUS"
"12/31/2022 12:00:00 AM","Gwinnett County","Georgia","South","South Atlantic","13135","33.958756","-84.025735 ","250748","2060","0","0","12/30/2022 12:00:00 AM","2019","936250","NYTIMES-USCENSUS"
"12/31/2022 12:00:00 AM","Guthrie County","Iowa","Midwest","West North Central","19077","41.683573","-94.501272 ","2725","47","0","0","12/30/2022 12:00:00 AM","2019","10689","NYTIMES-USCENSUS"
"12/31/2022 12:00:00 AM","Gunnison County","Colorado","West","Mountain","08051","38.670499","-107.05688 ","3924","16","0","0","12/30/2022 12:00:00 AM","2019","17462","NYTIMES-USCENSUS"
"12/31/2022 12:00:00 AM","Gulf County","Florida","South","South Atlantic","12045","29.859238","-85.272013 ","4861","87","0","0","12/30/2022 12:00:00 AM","2019","13639","NYTIMES-USCENSUS"
"12/31/2022 12:00:00 AM","Guilford County","North Carolina","South","South Atlantic","37081","36.079065","-79.788665 ","152546","1385","0","0","12/30/2022 12:00:00 AM","2019","537174","NYTIMES-USCENSUS"
"12/31/2022 12:00:00 AM","Guernsey County","Ohio","Midwest","East North Central","39059","40.056665","-81.497875 ","13307","164","0","0","12/30/2022 12:00:00 AM","2019","38875","NYTIMES-USCENSUS"
"12/31/2022 12:00:00 AM","Guadalupe County","New Mexico","West","Mountain","35019","34.869782","-104.784968 ","1708","18","0","0","12/30/2022 12:00:00 AM","2019","4300","NYTIMES-USCENSUS"
"12/31/2022 12:00:00 AM","Grundy County","Missouri","Midwest","West North Central","29079","40.112541","-93.565054 ","3041","72","0","0","12/30/2022 12:00:00 AM","2019","9850","NYTIMES-USCENSUS"
"12/31/2022 12:00:00 AM","Grimes County","Texas","South","West South Central","48185","30.543231","-95.988082 ","9887","125","0","0","12/30/2022 12:00:00 AM","2019","28880","NYTIMES-USCENSUS"
"12/31/2022 12:00:00 AM","Griggs County","North Dakota","Midwest","West North Central","38039","47.456334","-98.232286 ","668","2","0","0","12/30/2022 12:00:00 AM","2019","2231","NYTIMES-USCENSUS"
"12/31/2022 12:00:00 AM","Grenada County","Mississippi","South","East South Central","28043","33.770031","-89.80274 ","6277","138","0","0","12/30/2022 12:00:00 AM","2019","20758","NYTIMES-USCENSUS"
"12/31/2022 12:00:00 AM","Gregory County","South Dakota","Midwest","West North Central","46053","43.175142","-99.206591 ","1201","34","0","0","12/30/2022 12:00:00 AM","2019","4185","NYTIMES-USCENSUS"
"12/31/2022 12:00:00 AM","Gregg County","Texas","South","West South Central","48183","32.486401","-94.816277 ","26384","720","0","0","12/30/2022 12:00:00 AM","2019","123945","NYTIMES-USCENSUS"
"12/31/2022 12:00:00 AM","Greer County","Oklahoma","South","West South Central","40055","34.933853","-99.552968 ","1542","43","0","0","12/30/2022 12:00:00 AM","2019","5712","NYTIMES-USCENSUS"
"12/31/2022 12:00:00 AM","Greenwood County","Kansas","Midwest","West North Central","20073","37.879347","-96.241732 ","2140","31","0","0","12/30/2022 12:00:00 AM","2019","5982","NYTIMES-USCENSUS"
"12/31/2022 12:00:00 AM","Greenville County","South Carolina","South","South Atlantic","45045","34.892645","-82.372077 ","201123","2091","0","0","12/30/2022 12:00:00 AM","2019","523542","NYTIMES-USCENSUS"
"12/31/2022 12:00:00 AM","Greenup County","Kentucky","South","East South Central","21089","38.563562","-82.93382 ","15942","158","0","0","12/30/2022 12:00:00 AM","2019","35098","NYTIMES-USCENSUS"
"12/31/2022 12:00:00 AM","Greensville County","Virginia","South","South Atlantic","51081","36.680336","-77.560277 ","3743","45","0","0","12/30/2022 12:00:00 AM","2019","11336","NYTIMES-USCENSUS"
"12/31/2022 12:00:00 AM","Greenlee County","Arizona","West","Mountain","04011","33.238872","-109.242323 ","2668","39","0","0","12/30/2022 12:00:00 AM","2019","9498","NYTIMES-USCENSUS"
"12/31/2022 12:00:00 AM","Greene County","Georgia","South","South Atlantic","13133","33.576704","-83.166625 ","4648","90","0","0","12/30/2022 12:00:00 AM","2019","18324","NYTIMES-USCENSUS"
"12/31/2022 12:00:00 AM","Greenbrier County","West Virginia","South","South Atlantic","54025","37.924418","-80.45059 ","12481","175","0","0","12/30/2022 12:00:00 AM","2019","34662","NYTIMES-USCENSUS"
"12/31/2022 12:00:00 AM","Green Lake County","Wisconsin","Midwest","East North Central","55047","43.780247","-88.97038 ","6249","71","0","0","12/30/2022 12:00:00 AM","2019","18913","NYTIMES-USCENSUS"
"12/31/2022 12:00:00 AM","Green County","Kentucky","South","East South Central","21087","37.278065","-85.537925 ","4643","51","0","0","12/30/2022 12:00:00 AM","2019","10941","NYTIMES-USCENSUS"
"12/31/2022 12:00:00 AM","Grayson County","Virginia","South","South Atlantic","51077","36.652229","-81.215324 ","5355","93","0","0","12/30/2022 12:00:00 AM","2019","15550","NYTIMES-USCENSUS"
"12/31/2022 12:00:00 AM","Grays Harbor County","Washington","West","Pacific","53027","47.113732","-123.826735 ","20118","244","0","0","12/30/2022 12:00:00 AM","2019","75061","NYTIMES-USCENSUS"
"12/31/2022 12:00:00 AM","Gray County","Kansas","Midwest","West North Central","20069","37.744513","-100.451716 ","1384","23","0","0","12/30/2022 12:00:00 AM","2019","5988","NYTIMES-USCENSUS"
"12/31/2022 12:00:00 AM","Florence County","South Carolina","South","South Atlantic","45041","34.028535","-79.710233 ","48951","676","0","0","12/30/2022 12:00:00 AM","2019","138293","NYTIMES-USCENSUS"
"12/31/2022 12:00:00 AM","Fleming County","Kentucky","South","East South Central","21069","38.367848","-83.699205 ","4851","71","0","0","12/30/2022 12:00:00 AM","2019","14581","NYTIMES-USCENSUS"
"12/31/2022 12:00:00 AM","Flathead County","Montana","West","Mountain","30029","48.295422","-114.052059 ","33372","300","0","0","12/30/2022 12:00:00 AM","2019","103806","NYTIMES-USCENSUS"
"12/31/2022 12:00:00 AM","Flagler County","Florida","South","South Atlantic","12035","29.474891","-81.286253 ","27900","422","0","0","12/30/2022 12:00:00 AM","2019","115081","NYTIMES-USCENSUS"
"12/31/2022 12:00:00 AM","Fisher County","Texas","South","West South Central","48151","32.740473","-100.40312 ","707","31","0","0","12/30/2022 12:00:00 AM","2019","3830","NYTIMES-USCENSUS"
"12/31/2022 12:00:00 AM","Finney County","Kansas","Midwest","West North Central","20055","38.049808","-100.739967 ","13183","125","0","0","12/30/2022 12:00:00 AM","2019","36467","NYTIMES-USCENSUS"
"12/31/2022 12:00:00 AM","Fillmore County","Minnesota","Midwest","West North Central","27045","43.679187","-92.093937 ","5751","34","0","0","12/30/2022 12:00:00 AM","2019","21067","NYTIMES-USCENSUS"
"12/31/2022 12:00:00 AM","Fergus County","Montana","West","Mountain","30027","47.221816","-109.232956 ","2894","60","0","0","12/30/2022 12:00:00 AM","2019","11050","NYTIMES-USCENSUS"
"12/31/2022 12:00:00 AM","Fentress County","Tennessee","South","East South Central","47049","36.369892","-84.937764 ","6836","139","0","0","12/30/2022 12:00:00 AM","2019","18523","NYTIMES-USCENSUS"
"12/31/2022 12:00:00 AM","Fayette County","West Virginia","South","South Atlantic","54019","38.030933","-81.086051 ","16330","222","0","0","12/30/2022 12:00:00 AM","2019","42406","NYTIMES-USCENSUS"
"12/31/2022 12:00:00 AM","Fauquier County","Virginia","South","South Atlantic","51061","38.744096","-77.8215 ","16033","160","0","0","12/30/2022 12:00:00 AM","2019","71222","NYTIMES-USCENSUS"
"12/31/2022 12:00:00 AM","Faulkner County","Arkansas","South","West South Central","05045","35.146548","-92.336928 ","42032","350","19","0","12/30/2022 12:00:00 AM","2019","126007","NYTIMES-USCENSUS"
"12/31/2022 12:00:00 AM","Faulk County","South Dakota","Midwest","West North Central","46049","45.065476","-99.153564 ","677","17","0","0","12/30/2022 12:00:00 AM","2019","2299","NYTIMES-USCENSUS"
"12/31/2022 12:00:00 AM","Buena Vista city","Virginia","South","South Atlantic","51530","37.729345","-79.358134 ","2210","47","0","0","12/30/2022 12:00:00 AM","2019","6478","NYTIMES-USCENSUS"
"12/31/2022 12:00:00 AM","Bucks County","Pennsylvania","Northeast","Middle Atlantic","42017","40.336887","-75.10706 ","151151","2083","0","0","12/30/2022 12:00:00 AM","2019","628270","NYTIMES-USCENSUS"
"12/31/2022 12:00:00 AM","Buckingham County","Virginia","South","South Atlantic","51029","37.573928","-78.529169 ","4810","61","0","0","12/30/2022 12:00:00 AM","2019","17148","NYTIMES-USCENSUS"
"12/31/2022 12:00:00 AM","Buchanan County","Iowa","Midwest","West North Central","19019","42.470328","-91.838666 ","5425","66","0","0","12/30/2022 12:00:00 AM","2019","21175","NYTIMES-USCENSUS"
"12/31/2022 12:00:00 AM","Bryan County","Georgia","South","South Atlantic","13029","32.017969","-81.438543 ","10837","108","0","0","12/30/2022 12:00:00 AM","2019","39627","NYTIMES-USCENSUS"
"12/31/2022 12:00:00 AM","Brunswick County","North Carolina","South","South Atlantic","37019","34.038754","-78.227765 ","39080","389","0","0","12/30/2022 12:00:00 AM","2019","142820","NYTIMES-USCENSUS"
"12/31/2022 12:00:00 AM","Brule County","South Dakota","Midwest","West North Central","46015","43.729873","-99.092909 ","1654","27","0","0","12/30/2022 12:00:00 AM","2019","5297","NYTIMES-USCENSUS"
"12/31/2022 12:00:00 AM","Brown County","Texas","South","West South Central","48049","31.764137","-98.998456 ","14586","233","0","0","12/30/2022 12:00:00 AM","2019","37864","NYTIMES-USCENSUS"
"12/31/2022 12:00:00 AM","Broward County","Florida","South","South Atlantic","12011","26.193535","-80.476683 ","746512","6565","0","0","12/30/2022 12:00:00 AM","2019","1952778","NYTIMES-USCENSUS"
"12/31/2022 12:00:00 AM","Broomfield County","Colorado","West","Mountain","08014","39.953593","-105.050787 ","18062","128","0","0","12/30/2022 12:00:00 AM","2019","70465","NYTIMES-USCENSUS"
"12/31/2022 12:00:00 AM","Broome County","New York","Northeast","Middle Atlantic","36007","42.161977","-75.830283 ","57362","618","55","0","12/30/2022 12:00:00 AM","2019","190488","NYTIMES-USCENSUS"
"12/31/2022 12:00:00 AM","Brookings County","South Dakota","Midwest","West North Central","46011","44.376675","-96.797797 ","9214","62","0","0","12/30/2022 12:00:00 AM","2019","35077","NYTIMES-USCENSUS"
"12/31/2022 12:00:00 AM","Brooke County","West Virginia","South","South Atlantic","54009","40.272645","-80.578691 ","6209","118","0","0","12/30/2022 12:00:00 AM","2019","21939","NYTIMES-USCENSUS"
"12/31/2022 12:00:00 AM","Bayfield County","Wisconsin","Midwest","East North Central","55007","46.634199","-91.177282 ","4278","44","0","0","12/30/2022 12:00:00 AM","2019","15036","NYTIMES-USCENSUS"
"12/31/2022 12:00:00 AM","Bay County","Florida","South","South Atlantic","12005","30.15914","-85.534395 ","53685","886","0","0","12/30/2022 12:00:00 AM","2019","174705","NYTIMES-USCENSUS"
"12/31/2022 12:00:00 AM","Baxter County","Arkansas","South","West South Central","05005","36.280268","-92.329949 ","10470","278","1","0","12/30/2022 12:00:00 AM","2019","41932","NYTIMES-USCENSUS"
"12/31/2022 12:00:00 AM","Bates County","Missouri","Midwest","West North Central","29013","38.257217","-94.339246 ","4327","102","0","0","12/30/2022 12:00:00 AM","2019","16172","NYTIMES-USCENSUS"
"12/31/2022 12:00:00 AM","Bastrop County","Texas","South","West South Central","48021","30.100772","-97.310639 ","26564","249","0","0","12/30/2022 12:00:00 AM","2019","88723","NYTIMES-USCENSUS"
"12/31/2022 12:00:00 AM","Bartow County","Georgia","South","South Atlantic","13015","34.240917","-84.838188 ","34602","476","0","0","12/30/2022 12:00:00 AM","2019","107738","NYTIMES-USCENSUS"
"12/31/2022 12:00:00 AM","Bartholomew County","Indiana","Midwest","East North Central","18005","39.205843","-85.897999 ","25857","268","0","0","12/30/2022 12:00:00 AM","2019","83779","NYTIMES-USCENSUS"
"12/31/2022 12:00:00 AM","Barry County","Missouri","Midwest","West North Central","29009","36.699376","-93.834334 ","7783","150","0","0","12/30/2022 12:00:00 AM","2019","35789","NYTIMES-USCENSUS"
"12/31/2022 12:00:00 AM","Barrow County","Georgia","South","South Atlantic","13013","33.992009","-83.712303 ","25440","283","0","0","12/30/2022 12:00:00 AM","2019","83240","NYTIMES-USCENSUS"
"12/31/2022 12:00:00 AM","Barron County","Wisconsin","Midwest","East North Central","55005","45.437192","-91.852892 ","15836","151","0","0","12/30/2022 12:00:00 AM","2019","45244","NYTIMES-USCENSUS"
"12/31/2022 12:00:00 AM","Barren County","Kentucky","South","East South Central","21009","36.962805","-85.932108 ","16395","237","0","0","12/30/2022 12:00:00 AM","2019","44249","NYTIMES-USCENSUS"
"12/31/2022 12:00:00 AM","Barnwell County","South Carolina","South","South Atlantic","45011","33.260552","-81.434228 ","6618","105","0","0","12/30/2022 12:00:00 AM","2019","20866","NYTIMES-USCENSUS"
"12/31/2022 12:00:00 AM","Barnstable County","Massachusetts","Northeast","New England","25001","41.706123","-70.164823 ","47448","722","0","0","12/30/2022 12:00:00 AM","2019","212990","NYTIMES-USCENSUS"
"12/31/2022 12:00:00 AM","Barnes County","North Dakota","Midwest","West North Central","38003","46.94255","-98.070195 ","3520","47","0","0","12/30/2022 12:00:00 AM","2019","10415","NYTIMES-USCENSUS"
"12/31/2022 12:00:00 AM","Barbour County","West Virginia","South","South Atlantic","54001","39.139725","-79.996947 ","5857","77","0","0","12/30/2022 12:00:00 AM","2019","16441","NYTIMES-USCENSUS"
"12/31/2022 12:00:00 AM","Barber County","Kansas","Midwest","West North Central","20007","37.222906","-98.685052 ","1211","15","0","0","12/30/2022 12:00:00 AM","2019","4427","NYTIMES-USCENSUS"
"12/31/2022 12:00:00 AM","Baraga County","Michigan","Midwest","East North Central","26013","46.695859","-88.36181 ","2707","59","0","0","12/30/2022 12:00:00 AM","2019","8209","NYTIMES-USCENSUS"
"12/31/2022 12:00:00 AM","Bannock County","Idaho","West","Mountain","16005","42.692921","-112.228982 ","24174","271","0","0","12/30/2022 12:00:00 AM","2019","87808","NYTIMES-USCENSUS"
"12/31/2022 12:00:00 AM","Banks County","Georgia","South","South Atlantic","13011","34.351922","-83.498441 ","4523","100","0","0","12/30/2022 12:00:00 AM","2019","19234","NYTIMES-USCENSUS"
"12/31/2022 12:00:00 AM","Bandera County","Texas","South","West South Central","48019","29.756389","-99.248285 ","4201","80","0","0","12/30/2022 12:00:00 AM","2019","23112","NYTIMES-USCENSUS"
"12/31/2022 12:00:00 AM","Bamberg County","South Carolina","South","South Atlantic","45009","33.203021","-81.053161 ","4153","76","0","0","12/30/2022 12:00:00 AM","2019","14066","NYTIMES-USCENSUS"
"12/31/2022 12:00:00 AM","Baltimore County","Maryland","South","South Atlantic","24005","39.443167","-76.616569 ","166309","2727","0","0","12/30/2022 12:00:00 AM","2019","827370","NYTIMES-USCENSUS"
"12/31/2022 12:00:00 AM","Baltimore city","Maryland","South","South Atlantic","24510","39.300032","-76.610476 ","144432","1916","0","0","12/30/2022 12:00:00 AM","2019","593490","NYTIMES-USCENSUS"
"12/31/2022 12:00:00 AM","Ballard County","Kentucky","South","East South Central","21007","37.051323","-89.010367 ","1702","44","0","0","12/30/2022 12:00:00 AM","2019","7888","NYTIMES-USCENSUS"
"12/31/2022 12:00:00 AM","Baldwin County","Georgia","South","South Atlantic","13009","33.05949","-83.255457 ","10955","260","0","0","12/30/2022 12:00:00 AM","2019","44890","NYTIMES-USCENSUS"
"12/31/2022 12:00:00 AM","Baker County","Florida","South","South Atlantic","12003","30.324442","-82.302284 ","10410","151","0","0","12/30/2022 12:00:00 AM","2019","29210","NYTIMES-USCENSUS"
"12/31/2022 12:00:00 AM","Bailey County","Texas","South","West South Central","48017","34.067521","-102.830345 ","1711","39","0","0","12/30/2022 12:00:00 AM","2019","7000","NYTIMES-USCENSUS"
"12/31/2022 12:00:00 AM","Clear Creek County","Colorado","West","Mountain","08019","39.689403","-105.670783 ","1905","13","0","0","12/30/2022 12:00:00 AM","2019","9700","NYTIMES-USCENSUS"
"12/31/2022 12:00:00 AM","Clayton County","Georgia","South","South Atlantic","13063","33.542686","-84.355573 ","75953","1067","0","0","12/30/2022 12:00:00 AM","2019","292256","NYTIMES-USCENSUS"
"12/31/2022 12:00:00 AM","Clay County","Kentucky","South","East South Central","21051","37.164273","-83.715473 ","9492","107","0","0","12/30/2022 12:00:00 AM","2019","19901","NYTIMES-USCENSUS"
"12/31/2022 12:00:00 AM","Clatsop County","Oregon","West","Pacific","41007","46.024509","-123.705037 ","6101","61","0","0","12/30/2022 12:00:00 AM","2019","40224","NYTIMES-USCENSUS"
"12/31/2022 12:00:00 AM","Clarke County","Alabama","South","East South Central","01025","31.685521","-87.818624 ","8184","113","0","0","12/30/2022 12:00:00 AM","2019","23622","NYTIMES-USCENSUS"
"12/31/2022 12:00:00 AM","Clark County","Nevada","West","Mountain","32003","36.21413","-115.014398 ","661310","9188","0","0","12/30/2022 12:00:00 AM","2019","2266715","NYTIMES-USCENSUS"
"12/31/2022 12:00:00 AM","Clarion County","Pennsylvania","Northeast","Middle Atlantic","42031","41.198159","-79.420369 ","9672","217","0","0","12/30/2022 12:00:00 AM","2019","38438","NYTIMES-USCENSUS"
"12/31/2022 12:00:00 AM","Clarendon County","South Carolina","South","South Atlantic","45027","33.664682","-80.217889 ","10471","171","0","0","12/30/2022 12:00:00 AM","2019","33745","NYTIMES-USCENSUS"
"12/31/2022 12:00:00 AM","Clare County","Michigan","Midwest","East North Central","26035","43.991137","-84.838325 ","8004","178","0","0","12/30/2022 12:00:00 AM","2019","30950","NYTIMES-USCENSUS"
"12/31/2022 12:00:00 AM","Clallam County","Washington","West","Pacific","53009","48.110903","-123.88986 ","15469","191","0","0","12/30/2022 12:00:00 AM","2019","77331","NYTIMES-USCENSUS"
"12/31/2022 12:00:00 AM","Claiborne Parish","Louisiana","South","West South Central","22027","32.82716","-92.989728 ","3956","82","0","0","12/30/2022 12:00:00 AM","2019","15670","NYTIMES-USCENSUS"
"12/31/2022 12:00:00 AM","Claiborne County","Tennessee","South","East South Central","47025","36.501572","-83.660698 ","10884","209","0","0","12/30/2022 12:00:00 AM","2019","31959","NYTIMES-USCENSUS"
"12/31/2022 12:00:00 AM","Clackamas County","Oregon","West","Pacific","41005","45.160493","-122.195127 ","82390","769","0","0","12/30/2022 12:00:00 AM","2019","418187","NYTIMES-USCENSUS"
"12/31/2022 12:00:00 AM","Citrus County","Florida","South","South Atlantic","12017","28.850292","-82.595552 ","37671","1111","0","0","12/30/2022 12:00:00 AM","2019","149657","NYTIMES-USCENSUS"
"12/31/2022 12:00:00 AM","Cimarron County","Oklahoma","South","West South Central","40025","36.74839","-102.517698 ","684","12","0","0","12/30/2022 12:00:00 AM","2019","2137","NYTIMES-USCENSUS"
"12/31/2022 12:00:00 AM","Cibola County","New Mexico","West","Mountain","35006","34.928272","-107.99268 ","9956","209","0","0","12/30/2022 12:00:00 AM","2019","26675","NYTIMES-USCENSUS"
"12/31/2022 12:00:00 AM","Churchill County","Nevada","West","Mountain","32001","39.53771","-118.264166 ","7531","122","0","0","12/30/2022 12:00:00 AM","2019","24909","NYTIMES-USCENSUS"
"12/31/2022 12:00:00 AM","Christian County","Kentucky","South","East South Central","21047","36.892059","-87.492986 ","19588","233","0","0","12/30/2022 12:00:00 AM","2019","70461","NYTIMES-USCENSUS"
"12/31/2022 12:00:00 AM","Chowan County","North Carolina","South","South Atlantic","37041","36.128979","-76.602752 ","4903","66","0","0","12/30/2022 12:00:00 AM","2019","13943","NYTIMES-USCENSUS"
"12/31/2022 12:00:00 AM","Choctaw County","Alabama","South","East South Central","01023","31.990954","-88.248889 ","2204","63","0","0","12/30/2022 12:00:00 AM","2019","12589","NYTIMES-USCENSUS"
"12/31/2022 12:00:00 AM","Chittenden County","Vermont","Northeast","New England","50007","44.463329","-73.06941 ","38899","200","0","0","12/30/2022 12:00:00 AM","2019","163774","NYTIMES-USCENSUS"
"12/31/2022 12:00:00 AM","Chisago County","Minnesota","Midwest","West North Central","27025","45.505444","-92.903849 ","16982","131","0","0","12/30/2022 12:00:00 AM","2019","56579","NYTIMES-USCENSUS"
"12/31/2022 12:00:00 AM","Chippewa County","Minnesota","Midwest","West North Central","27023","45.028625","-95.564108 ","3714","53","0","0","12/30/2022 12:00:00 AM","2019","11800","NYTIMES-USCENSUS"
"12/31/2022 12:00:00 AM","Chilton County","Alabama","South","East South Central","01021","32.854051","-86.726607 ","12596","223","0","0","12/30/2022 12:00:00 AM","2019","44428","NYTIMES-USCENSUS"
"12/31/2022 12:00:00 AM","Childress County","Texas","South","West South Central","48075","34.524624","-100.208166 ","2952","34","0","0","12/30/2022 12:00:00 AM","2019","7306","NYTIMES-USCENSUS"
"12/31/2022 12:00:00 AM","Chicot County","Arkansas","South","West South Central","05017","33.267139","-91.297158 ","3094","63","0","0","12/30/2022 12:00:00 AM","2019","10118","NYTIMES-USCENSUS"
"12/31/2022 12:00:00 AM","Chickasaw County","Iowa","Midwest","West North Central","19037","43.059741","-92.31721 ","3123","37","0","0","12/30/2022 12:00:00 AM","2019","11933","NYTIMES-USCENSUS"
"12/31/2022 12:00:00 AM","Cheyenne County","Nebraska","Midwest","West North Central","31033","41.214236","-103.011929 ","2361","33","0","0","12/30/2022 12:00:00 AM","2019","8910","NYTIMES-USCENSUS"
"12/31/2022 12:00:00 AM","Butler County","Kentucky","South","East South Central","21031","37.207013","-86.682471 ","4590","58","0","0","12/30/2022 12:00:00 AM","2019","12879","NYTIMES-USCENSUS"
"12/31/2022 12:00:00 AM","Burt County","Nebraska","Midwest","West North Central","31021","41.854179","-96.337746 ","1515","27","0","0","12/30/2022 12:00:00 AM","2019","6459","NYTIMES-USCENSUS"
"12/31/2022 12:00:00 AM","Burnett County","Wisconsin","Midwest","East North Central","55013","45.866897","-92.37573 ","5022","60","0","0","12/30/2022 12:00:00 AM","2019","15414","NYTIMES-USCENSUS"
"12/31/2022 12:00:00 AM","Burnet County","Texas","South","West South Central","48053","30.78963","-98.201187 ","13296","179","0","0","12/30/2022 12:00:00 AM","2019","48155","NYTIMES-USCENSUS"
"12/31/2022 12:00:00 AM","Burlington County","New Jersey","Northeast","Middle Atlantic","34005","39.875786","-74.663006 ","135666","1344","0","0","12/30/2022 12:00:00 AM","2019","445349","NYTIMES-USCENSUS"
"12/31/2022 12:00:00 AM","Burleson County","Texas","South","West South Central","48051","30.493487","-96.622091 ","5896","70","0","0","12/30/2022 12:00:00 AM","2019","18443","NYTIMES-USCENSUS"
"12/31/2022 12:00:00 AM","Burleigh County","North Dakota","Midwest","West North Central","38015","46.978829","-100.469533 ","40327","303","0","0","12/30/2022 12:00:00 AM","2019","95626","NYTIMES-USCENSUS"
"12/31/2022 12:00:00 AM","Burke County","Georgia","South","South Atlantic","13033","33.060181","-82.000164 ","6164","122","0","0","12/30/2022 12:00:00 AM","2019","22383","NYTIMES-USCENSUS"
"12/31/2022 12:00:00 AM","Bureau County","Illinois","Midwest","East North Central","17011","41.401304","-89.528377 ","10057","146","0","0","12/30/2022 12:00:00 AM","2019","32628","NYTIMES-USCENSUS"
"12/31/2022 12:00:00 AM","Buncombe County","North Carolina","South","South Atlantic","37021","35.609371","-82.530423 ","67885","680","0","0","12/30/2022 12:00:00 AM","2019","261191","NYTIMES-USCENSUS"
"12/31/2022 12:00:00 AM","Bullock County","Alabama","South","East South Central","01011","32.101759","-85.717261 ","2886","54","0","0","12/30/2022 12:00:00 AM","2019","10101","NYTIMES-USCENSUS"
"12/31/2022 12:00:00 AM","Bulloch County","Georgia","South","South Atlantic","13031","32.394481","-81.741618 ","17552","280","0","0","12/30/2022 12:00:00 AM","2019","79608","NYTIMES-USCENSUS"
"12/31/2022 12:00:00 AM","Bullitt County","Kentucky","South","East South Central","21029","37.969945","-85.702635 ","28007","253","0","0","12/30/2022 12:00:00 AM","2019","81676","NYTIMES-USCENSUS"
"12/31/2022 12:00:00 AM","Buffalo County","Nebraska","Midwest","West North Central","31019","40.855265","-99.074984 ","14032","146","0","0","12/30/2022 12:00:00 AM","2019","49659","NYTIMES-USCENSUS"
"12/31/2022 12:00:00 AM","Buena Vista County","Iowa","Midwest","West North Central","19021","42.741522","-95.141432 ","6843","64","0","0","12/30/2022 12:00:00 AM","2019","19620","NYTIMES-USCENSUS"
"12/31/2022 12:00:00 AM","Oxford County","Maine","Northeast","New England","23017","44.4945","-70.734421 ","14174","173","4","0","12/30/2022 12:00:00 AM","2019","57975","NYTIMES-USCENSUS"
"12/31/2022 12:00:00 AM","Owyhee County","Idaho","West","Mountain","16073","42.572851","-116.18969 ","2559","55","0","0","12/30/2022 12:00:00 AM","2019","11823","NYTIMES-USCENSUS"
"12/31/2022 12:00:00 AM","Owsley County","Kentucky","South","East South Central","21189","37.423622","-83.691637 ","2039","32","0","0","12/30/2022 12:00:00 AM","2019","4415","NYTIMES-USCENSUS"
"12/31/2022 12:00:00 AM","Owen County","Indiana","Midwest","East North Central","18119","39.317339","-86.838845 ","6773","135","0","0","12/30/2022 12:00:00 AM","2019","20799","NYTIMES-USCENSUS"
"12/31/2022 12:00:00 AM","Overton County","Tennessee","South","East South Central","47133","36.34485","-85.283076 ","8427","132","0","0","12/30/2022 12:00:00 AM","2019","22241","NYTIMES-USCENSUS"
