"monitor_date","county","state_name","region","subregion","fips","latitude","longitude","case_count_to_date","death_count_to_date","case_count","death_count","previous_monitor_date","population_year","population","source"
"7/8/2021 12:00:00 AM","Potter County","Texas","South","West South Central","48375","35.398675","-101.893804 ","17726","463","7","0","7/7/2021 12:00:00 AM","2019","117415","NYTIMES-USCENSUS"
"7/8/2021 12:00:00 AM","Willacy County","Texas","South","West South Central","48489","26.481861","-97.594731 ","3239","92","20","0","7/7/2021 12:00:00 AM","2019","21358","NYTIMES-USCENSUS"
"7/8/2021 12:00:00 AM","Red River Parish","Louisiana","South","West South Central","22081","32.101213","-93.34905 ","914","38","3","0","7/7/2021 12:00:00 AM","2019","8442","NYTIMES-USCENSUS"
"7/8/2021 12:00:00 AM","Laurel County","Kentucky","South","East South Central","21125","37.113268","-84.119395 ","7612","81","13","0","7/7/2021 12:00:00 AM","2019","60813","NYTIMES-USCENSUS"
"7/8/2021 12:00:00 AM","Sarasota County","Florida","South","South Atlantic","12115","27.225327","-82.423714 ","32632","844","0","0","7/7/2021 12:00:00 AM","2019","433742","NYTIMES-USCENSUS"
"7/8/2021 12:00:00 AM","Daviess County","Indiana","Midwest","East North Central","18027","38.69609","-87.076943 ","3071","102","1","0","7/7/2021 12:00:00 AM","2019","33351","NYTIMES-USCENSUS"
"7/8/2021 12:00:00 AM","Columbia County","Oregon","West","Pacific","41009","45.941932","-123.081079 ","1971","30","4","0","7/7/2021 12:00:00 AM","2019","52354","NYTIMES-USCENSUS"
"7/8/2021 12:00:00 AM","Nicholas County","West Virginia","South","South Atlantic","54067","38.291432","-80.797515 ","1909","22","1","0","7/7/2021 12:00:00 AM","2019","24496","NYTIMES-USCENSUS"
"7/8/2021 12:00:00 AM","Houston County","Georgia","South","South Atlantic","13153","32.458287","-83.662522 ","15040","274","16","0","7/7/2021 12:00:00 AM","2019","157863","NYTIMES-USCENSUS"
"7/8/2021 12:00:00 AM","Webster Parish","Louisiana","South","West South Central","22119","32.732152","-93.339825 ","4305","115","5","0","7/7/2021 12:00:00 AM","2019","38340","NYTIMES-USCENSUS"
"7/8/2021 12:00:00 AM","Eagle County","Colorado","West","Mountain","08037","39.626992","-106.695169 ","6374","23","2","0","7/7/2021 12:00:00 AM","2019","55127","NYTIMES-USCENSUS"
"7/8/2021 12:00:00 AM","Dakota County","Minnesota","Midwest","West North Central","27037","44.670893","-93.062481 ","46975","474","11","0","7/7/2021 12:00:00 AM","2019","429021","NYTIMES-USCENSUS"
"7/8/2021 12:00:00 AM","Ramsey County","Minnesota","Midwest","West North Central","27123","45.015204","-93.099965 ","52654","907","15","0","7/7/2021 12:00:00 AM","2019","550321","NYTIMES-USCENSUS"
"7/8/2021 12:00:00 AM","Sullivan County","Tennessee","South","East South Central","47163","36.509681","-82.301336 ","17382","311","12","1","7/7/2021 12:00:00 AM","2019","158348","NYTIMES-USCENSUS"
"7/8/2021 12:00:00 AM","Schuyler County","Missouri","Midwest","West North Central","29197","40.469361","-92.519016 ","347","7","0","0","7/7/2021 12:00:00 AM","2019","4660","NYTIMES-USCENSUS"
"7/8/2021 12:00:00 AM","St. Charles Parish","Louisiana","South","West South Central","22089","29.905722","-90.357855 ","5740","98","18","0","7/7/2021 12:00:00 AM","2019","53100","NYTIMES-USCENSUS"
"7/8/2021 12:00:00 AM","Douglas County","Georgia","South","South Atlantic","13097","33.701242","-84.767314 ","15685","233","8","0","7/7/2021 12:00:00 AM","2019","146343","NYTIMES-USCENSUS"
"7/8/2021 12:00:00 AM","Perry County","Tennessee","South","East South Central","47135","35.663752","-87.869326 ","1075","29","0","0","7/7/2021 12:00:00 AM","2019","8076","NYTIMES-USCENSUS"
"7/8/2021 12:00:00 AM","Dooly County","Georgia","South","South Atlantic","13093","32.151995","-83.807167 ","1097","44","1","0","7/7/2021 12:00:00 AM","2019","13390","NYTIMES-USCENSUS"
"7/8/2021 12:00:00 AM","Columbia County","Pennsylvania","Northeast","Middle Atlantic","42037","41.045517","-76.40426 ","5909","136","2","0","7/7/2021 12:00:00 AM","2019","64964","NYTIMES-USCENSUS"
"7/8/2021 12:00:00 AM","Saguache County","Colorado","West","Mountain","08109","38.031651","-106.234666 ","461","5","1","0","7/7/2021 12:00:00 AM","2019","6824","NYTIMES-USCENSUS"
"7/8/2021 12:00:00 AM","Manistee County","Michigan","Midwest","East North Central","26101","44.245268","-86.327537 ","1981","24","0","0","7/7/2021 12:00:00 AM","2019","24558","NYTIMES-USCENSUS"
"7/8/2021 12:00:00 AM","Kershaw County","South Carolina","South","South Atlantic","45055","34.338356","-80.590885 ","7572","140","2","0","7/7/2021 12:00:00 AM","2019","66551","NYTIMES-USCENSUS"
"7/8/2021 12:00:00 AM","Wayne County","Missouri","Midwest","West North Central","29223","37.111074","-90.453931 ","1054","14","2","0","7/7/2021 12:00:00 AM","2019","12873","NYTIMES-USCENSUS"
"7/8/2021 12:00:00 AM","Lawrence County","Missouri","Midwest","West North Central","29109","37.10659","-93.830551 ","3840","89","15","0","7/7/2021 12:00:00 AM","2019","38355","NYTIMES-USCENSUS"
"7/8/2021 12:00:00 AM","Orleans Parish","Louisiana","South","West South Central","22071","30.05342","-89.934502 ","31340","805","38","0","7/7/2021 12:00:00 AM","2019","390144","NYTIMES-USCENSUS"
"7/8/2021 12:00:00 AM","Luna County","New Mexico","West","Mountain","35029","32.184523","-107.747191 ","3397","92","2","0","7/7/2021 12:00:00 AM","2019","23709","NYTIMES-USCENSUS"
"7/8/2021 12:00:00 AM","Santa Clara County","California","West","Pacific","06085","37.221614","-121.68954 ","119758","1699","80","0","7/7/2021 12:00:00 AM","2019","1927852","NYTIMES-USCENSUS"
"7/8/2021 12:00:00 AM","Perry County","Kentucky","South","East South Central","21193","37.241282","-83.217772 ","2805","66","3","0","7/7/2021 12:00:00 AM","2019","25758","NYTIMES-USCENSUS"
"7/8/2021 12:00:00 AM","DeKalb County","Tennessee","South","East South Central","47041","35.982219","-85.833596 ","2874","56","0","0","7/7/2021 12:00:00 AM","2019","20490","NYTIMES-USCENSUS"
"7/8/2021 12:00:00 AM","Pasco County","Florida","South","South Atlantic","12101","28.309823","-82.511006 ","43428","802","0","0","7/7/2021 12:00:00 AM","2019","553947","NYTIMES-USCENSUS"
"7/8/2021 12:00:00 AM","Barren County","Kentucky","South","East South Central","21009","36.962805","-85.932108 ","4520","104","1","0","7/7/2021 12:00:00 AM","2019","44249","NYTIMES-USCENSUS"
"7/8/2021 12:00:00 AM","Copiah County","Mississippi","South","East South Central","28029","31.866915","-90.448758 ","3038","66","7","0","7/7/2021 12:00:00 AM","2019","28065","NYTIMES-USCENSUS"
"7/8/2021 12:00:00 AM","Caldwell County","Missouri","Midwest","West North Central","29025","39.658998","-93.979179 ","887","15","1","0","7/7/2021 12:00:00 AM","2019","9020","NYTIMES-USCENSUS"
"7/8/2021 12:00:00 AM","Pennington County","South Dakota","Midwest","West North Central","46103","44.002349","-102.823801 ","13970","205","0","0","7/7/2021 12:00:00 AM","2019","113775","NYTIMES-USCENSUS"
"7/8/2021 12:00:00 AM","Goshen County","Wyoming","West","Mountain","56015","42.089455","-104.35354 ","1247","24","-1","0","7/7/2021 12:00:00 AM","2019","13211","NYTIMES-USCENSUS"
"7/8/2021 12:00:00 AM","Webster County","Missouri","Midwest","West North Central","29225","37.280804","-92.87608 ","4254","59","36","0","7/7/2021 12:00:00 AM","2019","39592","NYTIMES-USCENSUS"
"7/8/2021 12:00:00 AM","Bartow County","Georgia","South","South Atlantic","13015","34.240917","-84.838188 ","15139","237","14","0","7/7/2021 12:00:00 AM","2019","107738","NYTIMES-USCENSUS"
"7/8/2021 12:00:00 AM","Wayne County","Tennessee","South","East South Central","47181","35.242847","-87.819843 ","3012","36","1","0","7/7/2021 12:00:00 AM","2019","16673","NYTIMES-USCENSUS"
"7/8/2021 12:00:00 AM","Otsego County","New York","Northeast","Middle Atlantic","36077","42.629776","-75.028841 ","3473","47","0","0","7/7/2021 12:00:00 AM","2019","59493","NYTIMES-USCENSUS"
"7/8/2021 12:00:00 AM","Shelby County","Texas","South","West South Central","48419","31.790139","-94.142579 ","2027","72","0","0","7/7/2021 12:00:00 AM","2019","25274","NYTIMES-USCENSUS"
"7/8/2021 12:00:00 AM","Surry County","Virginia","South","South Atlantic","51181","37.119761","-76.880172 ","424","9","0","0","7/7/2021 12:00:00 AM","2019","6422","NYTIMES-USCENSUS"
"7/8/2021 12:00:00 AM","Patrick County","Virginia","South","South Atlantic","51141","36.667138","-80.286413 ","1409","43","2","0","7/7/2021 12:00:00 AM","2019","17608","NYTIMES-USCENSUS"
"7/8/2021 12:00:00 AM","Comal County","Texas","South","West South Central","48091","29.812377","-98.258129 ","11508","328","33","0","7/7/2021 12:00:00 AM","2019","156209","NYTIMES-USCENSUS"
"7/8/2021 12:00:00 AM","Greene County","Mississippi","South","East South Central","28041","31.212845","-88.634811 ","1323","34","0","0","7/7/2021 12:00:00 AM","2019","13586","NYTIMES-USCENSUS"
"7/8/2021 12:00:00 AM","Franklin County","Pennsylvania","Northeast","Middle Atlantic","42055","39.926772","-77.724521 ","15489","375","3","0","7/7/2021 12:00:00 AM","2019","155027","NYTIMES-USCENSUS"
"7/8/2021 12:00:00 AM","Isle of Wight County","Virginia","South","South Atlantic","51093","36.901418","-76.707569 ","3186","70","2","0","7/7/2021 12:00:00 AM","2019","37109","NYTIMES-USCENSUS"
"7/8/2021 12:00:00 AM","Morrow County","Ohio","Midwest","East North Central","39117","40.525266","-82.797729 ","2928","42","1","0","7/7/2021 12:00:00 AM","2019","35328","NYTIMES-USCENSUS"
"7/8/2021 12:00:00 AM","Vermilion County","Illinois","Midwest","East North Central","17183","40.186754","-87.726778 ","10066","164","4","1","7/7/2021 12:00:00 AM","2019","75758","NYTIMES-USCENSUS"
"7/8/2021 12:00:00 AM","Somerset County","Pennsylvania","Northeast","Middle Atlantic","42111","39.981297","-79.028486 ","8084","218","2","0","7/7/2021 12:00:00 AM","2019","73447","NYTIMES-USCENSUS"
"7/8/2021 12:00:00 AM","Bethel Census Area","Alaska","West","Pacific","02050","60.929141","-160.152625 ","3920","22","0","0","7/7/2021 12:00:00 AM","2019","18386","NYTIMES-USCENSUS"
"7/8/2021 12:00:00 AM","Montgomery County","Virginia","South","South Atlantic","51121","37.175538","-80.387794 ","9428","96","0","-1","7/7/2021 12:00:00 AM","2019","98535","NYTIMES-USCENSUS"
"7/8/2021 12:00:00 AM","Fairfax city","Virginia","South","South Atlantic","51600","38.853183","-77.299025 ","575","20","1","0","7/7/2021 12:00:00 AM","2019","24019","NYTIMES-USCENSUS"
"7/8/2021 12:00:00 AM","Scott County","Indiana","Midwest","East North Central","18143","38.679431","-85.751898 ","2719","60","0","0","7/7/2021 12:00:00 AM","2019","23873","NYTIMES-USCENSUS"
"7/8/2021 12:00:00 AM","Ouachita County","Arkansas","South","West South Central","05103","33.591168","-92.878413 ","2487","63","12","0","7/7/2021 12:00:00 AM","2019","23382","NYTIMES-USCENSUS"
"7/8/2021 12:00:00 AM","Hardeman County","Texas","South","West South Central","48197","34.289904","-99.745697 ","387","12","0","0","7/7/2021 12:00:00 AM","2019","3933","NYTIMES-USCENSUS"
"7/8/2021 12:00:00 AM","Musselshell County","Montana","West","Mountain","30065","46.505281","-108.439763 ","377","14","0","0","7/7/2021 12:00:00 AM","2019","4633","NYTIMES-USCENSUS"
"7/8/2021 12:00:00 AM","Monroe County","West Virginia","South","South Atlantic","54063","37.554062","-80.550329 ","1226","17","0","0","7/7/2021 12:00:00 AM","2019","13275","NYTIMES-USCENSUS"
"7/8/2021 12:00:00 AM","Wolfe County","Kentucky","South","East South Central","21237","37.743893","-83.49511 ","549","6","0","0","7/7/2021 12:00:00 AM","2019","7157","NYTIMES-USCENSUS"
"7/8/2021 12:00:00 AM","Heard County","Georgia","South","South Atlantic","13149","33.291347","-85.137886 ","893","23","0","0","7/7/2021 12:00:00 AM","2019","11923","NYTIMES-USCENSUS"
"7/8/2021 12:00:00 AM","Dutchess County","New York","Northeast","Middle Atlantic","36027","41.75477","-73.740041 ","29538","446","6","0","7/7/2021 12:00:00 AM","2019","294218","NYTIMES-USCENSUS"
"7/8/2021 12:00:00 AM","Lexington County","South Carolina","South","South Atlantic","45063","33.899246","-81.266118 ","33873","480","17","0","7/7/2021 12:00:00 AM","2019","298750","NYTIMES-USCENSUS"
"7/8/2021 12:00:00 AM","Sumter County","South Carolina","South","South Atlantic","45085","33.91614","-80.382376 ","10659","211","5","0","7/7/2021 12:00:00 AM","2019","106721","NYTIMES-USCENSUS"
"7/8/2021 12:00:00 AM","Susquehanna County","Pennsylvania","Northeast","Middle Atlantic","42115","41.819665","-75.800969 ","2659","62","0","0","7/7/2021 12:00:00 AM","2019","40328","NYTIMES-USCENSUS"
"7/8/2021 12:00:00 AM","Wilcox County","Georgia","South","South Atlantic","13315","31.96272","-83.438259 ","844","48","-1","0","7/7/2021 12:00:00 AM","2019","8635","NYTIMES-USCENSUS"
"7/8/2021 12:00:00 AM","Karnes County","Texas","South","West South Central","48255","28.908996","-97.852205 ","2395","37","-1","0","7/7/2021 12:00:00 AM","2019","15601","NYTIMES-USCENSUS"
"7/8/2021 12:00:00 AM","McCormick County","South Carolina","South","South Atlantic","45065","33.897599","-82.316196 ","1036","28","1","0","7/7/2021 12:00:00 AM","2019","9463","NYTIMES-USCENSUS"
"7/8/2021 12:00:00 AM","Lancaster County","South Carolina","South","South Atlantic","45057","34.686818","-80.703688 ","10990","173","13","0","7/7/2021 12:00:00 AM","2019","98012","NYTIMES-USCENSUS"
"7/8/2021 12:00:00 AM","Marshall County","Alabama","South","East South Central","01095","34.309564","-86.321668 ","12527","232","0","0","7/7/2021 12:00:00 AM","2019","96774","NYTIMES-USCENSUS"
"7/8/2021 12:00:00 AM","Flathead County","Montana","West","Mountain","30029","48.295422","-114.052059 ","12534","103","29","0","7/7/2021 12:00:00 AM","2019","103806","NYTIMES-USCENSUS"
"7/8/2021 12:00:00 AM","Lenawee County","Michigan","Midwest","East North Central","26091","41.896022","-84.074356 ","10857","178","0","0","7/7/2021 12:00:00 AM","2019","98451","NYTIMES-USCENSUS"
"7/8/2021 12:00:00 AM","Broward County","Florida","South","South Atlantic","12011","26.193535","-80.476683 ","247298","3079","0","0","7/7/2021 12:00:00 AM","2019","1952778","NYTIMES-USCENSUS"
"7/8/2021 12:00:00 AM","Hall County","Georgia","South","South Atlantic","13139","34.317569","-83.8185 ","28087","494","16","0","7/7/2021 12:00:00 AM","2019","204441","NYTIMES-USCENSUS"
"7/8/2021 12:00:00 AM","Sequatchie County","Tennessee","South","East South Central","47153","35.372336","-85.410082 ","1764","29","0","0","7/7/2021 12:00:00 AM","2019","15026","NYTIMES-USCENSUS"
"7/8/2021 12:00:00 AM","Henry County","Illinois","Midwest","East North Central","17073","41.350021","-90.130838 ","5083","99","0","0","7/7/2021 12:00:00 AM","2019","48913","NYTIMES-USCENSUS"
"7/8/2021 12:00:00 AM","Beaufort County","North Carolina","South","South Atlantic","37013","35.482313","-76.842014 ","4803","103","4","0","7/7/2021 12:00:00 AM","2019","46994","NYTIMES-USCENSUS"
"7/8/2021 12:00:00 AM","Ripley County","Missouri","Midwest","West North Central","29181","36.65017","-90.874834 ","1120","17","1","0","7/7/2021 12:00:00 AM","2019","13288","NYTIMES-USCENSUS"
"7/8/2021 12:00:00 AM","Lewis County","Tennessee","South","East South Central","47101","35.523244","-87.496983 ","1627","26","0","0","7/7/2021 12:00:00 AM","2019","12268","NYTIMES-USCENSUS"
"7/8/2021 12:00:00 AM","Yamhill County","Oregon","West","Pacific","41071","45.247827","-123.316399 ","4861","80","10","0","7/7/2021 12:00:00 AM","2019","107100","NYTIMES-USCENSUS"
"7/8/2021 12:00:00 AM","Taylor County","Florida","South","South Atlantic","12123","29.967146","-83.639573 ","2764","48","0","0","7/7/2021 12:00:00 AM","2019","21569","NYTIMES-USCENSUS"
"7/8/2021 12:00:00 AM","White Pine County","Nevada","West","Mountain","32033","39.418176","-114.900565 ","637","6","1","0","7/7/2021 12:00:00 AM","2019","9580","NYTIMES-USCENSUS"
"7/8/2021 12:00:00 AM","Wheeler County","Georgia","South","South Atlantic","13309","32.105258","-82.733849 ","640","25","1","0","7/7/2021 12:00:00 AM","2019","7855","NYTIMES-USCENSUS"
"7/8/2021 12:00:00 AM","Jasper County","South Carolina","South","South Atlantic","45053","32.43059","-81.021627 ","2437","50","1","0","7/7/2021 12:00:00 AM","2019","30073","NYTIMES-USCENSUS"
"7/8/2021 12:00:00 AM","Stanton County","Kansas","Midwest","West North Central","20187","37.565932","-101.789383 ","187","6","0","0","7/7/2021 12:00:00 AM","2019","2006","NYTIMES-USCENSUS"
"7/8/2021 12:00:00 AM","Porter County","Indiana","Midwest","East North Central","18127","41.509914","-87.071313 ","19483","338","9","0","7/7/2021 12:00:00 AM","2019","170389","NYTIMES-USCENSUS"
"7/8/2021 12:00:00 AM","Mercer County","Pennsylvania","Northeast","Middle Atlantic","42085","41.300014","-80.252786 ","9731","266","0","0","7/7/2021 12:00:00 AM","2019","109424","NYTIMES-USCENSUS"
"7/8/2021 12:00:00 AM","Kent County","Delaware","South","South Atlantic","10001","39.097088","-75.502982 ","18277","349","5","0","7/7/2021 12:00:00 AM","2019","180786","NYTIMES-USCENSUS"
"7/8/2021 12:00:00 AM","Morgan County","Tennessee","South","East South Central","47129","36.138697","-84.639262 ","2560","37","0","0","7/7/2021 12:00:00 AM","2019","21403","NYTIMES-USCENSUS"
"7/8/2021 12:00:00 AM","Fairfield County","Ohio","Midwest","East North Central","39045","39.747694","-82.626685 ","16624","206","10","0","7/7/2021 12:00:00 AM","2019","157574","NYTIMES-USCENSUS"
"7/8/2021 12:00:00 AM","Mariposa County","California","West","Pacific","06043","37.574343","-119.911721 ","468","7","0","0","7/7/2021 12:00:00 AM","2019","17203","NYTIMES-USCENSUS"
"7/8/2021 12:00:00 AM","Lee County","Arkansas","South","West South Central","05077","34.779505","-90.779717 ","1717","38","1","0","7/7/2021 12:00:00 AM","2019","8857","NYTIMES-USCENSUS"
"7/8/2021 12:00:00 AM","Lincoln County","Wisconsin","Midwest","East North Central","55069","45.333148","-89.73224 ","3290","96","0","0","7/7/2021 12:00:00 AM","2019","27593","NYTIMES-USCENSUS"
"7/8/2021 12:00:00 AM","Escambia County","Florida","South","South Atlantic","12033","30.529998","-87.320322 ","33244","706","0","0","7/7/2021 12:00:00 AM","2019","318316","NYTIMES-USCENSUS"
"7/8/2021 12:00:00 AM","Parke County","Indiana","Midwest","East North Central","18121","39.77425","-87.19695 ","1515","16","5","0","7/7/2021 12:00:00 AM","2019","16937","NYTIMES-USCENSUS"
"7/8/2021 12:00:00 AM","Lincoln County","Kentucky","South","East South Central","21137","37.457174","-84.658335 ","2411","59","-1","0","7/7/2021 12:00:00 AM","2019","24549","NYTIMES-USCENSUS"
"7/8/2021 12:00:00 AM","Polk County","Minnesota","Midwest","West North Central","27119","47.774254","-96.400027 ","3894","72","1","0","7/7/2021 12:00:00 AM","2019","31364","NYTIMES-USCENSUS"
"7/8/2021 12:00:00 AM","Stephenson County","Illinois","Midwest","East North Central","17177","42.349726","-89.665994 ","4850","105","-1","0","7/7/2021 12:00:00 AM","2019","44498","NYTIMES-USCENSUS"
"7/8/2021 12:00:00 AM","McIntosh County","Georgia","South","South Atlantic","13191","31.485629","-81.372141 ","871","16","0","0","7/7/2021 12:00:00 AM","2019","14378","NYTIMES-USCENSUS"
"7/8/2021 12:00:00 AM","Orangeburg County","South Carolina","South","South Atlantic","45075","33.436135","-80.802913 ","9887","255","2","0","7/7/2021 12:00:00 AM","2019","86175","NYTIMES-USCENSUS"
"7/8/2021 12:00:00 AM","Washington County","Texas","South","West South Central","48477","30.215075","-96.410272 ","4306","96","3","1","7/7/2021 12:00:00 AM","2019","35882","NYTIMES-USCENSUS"
"7/8/2021 12:00:00 AM","Essex County","Virginia","South","South Atlantic","51057","37.936389","-76.933747 ","789","11","0","0","7/7/2021 12:00:00 AM","2019","10953","NYTIMES-USCENSUS"
"7/8/2021 12:00:00 AM","Swain County","North Carolina","South","South Atlantic","37173","35.568849","-83.465614 ","1210","18","0","0","7/7/2021 12:00:00 AM","2019","14271","NYTIMES-USCENSUS"
"7/8/2021 12:00:00 AM","Madison County","Indiana","Midwest","East North Central","18095","40.166203","-85.722454 ","13293","365","13","0","7/7/2021 12:00:00 AM","2019","129569","NYTIMES-USCENSUS"
"7/8/2021 12:00:00 AM","Coconino County","Arizona","West","Mountain","04005","35.829692","-111.773728 ","18098","331","15","0","7/7/2021 12:00:00 AM","2019","143476","NYTIMES-USCENSUS"
"7/8/2021 12:00:00 AM","Archer County","Texas","South","West South Central","48009","33.616305","-98.687267 ","813","12","0","0","7/7/2021 12:00:00 AM","2019","8553","NYTIMES-USCENSUS"
"7/8/2021 12:00:00 AM","Clay County","Minnesota","Midwest","West North Central","27027","46.898377","-96.494901 ","8276","92","0","0","7/7/2021 12:00:00 AM","2019","64222","NYTIMES-USCENSUS"
"7/8/2021 12:00:00 AM","Oklahoma County","Oklahoma","South","West South Central","40109","35.554611","-97.409401 ","87981","1313","0","0","7/7/2021 12:00:00 AM","2019","797434","NYTIMES-USCENSUS"
"7/8/2021 12:00:00 AM","Van Buren County","Tennessee","South","East South Central","47175","35.699234","-85.458409 ","872","23","0","0","7/7/2021 12:00:00 AM","2019","5872","NYTIMES-USCENSUS"
"7/8/2021 12:00:00 AM","Alfalfa County","Oklahoma","South","West South Central","40003","36.729703","-98.323445 ","1156","7","0","0","7/7/2021 12:00:00 AM","2019","5702","NYTIMES-USCENSUS"
"7/8/2021 12:00:00 AM","Buchanan County","Missouri","Midwest","West North Central","29021","39.660369","-94.808173 ","11200","186","0","0","7/7/2021 12:00:00 AM","2019","87364","NYTIMES-USCENSUS"
"7/8/2021 12:00:00 AM","Crosby County","Texas","South","West South Central","48107","33.609144","-101.29871 ","759","29","0","0","7/7/2021 12:00:00 AM","2019","5737","NYTIMES-USCENSUS"
"7/8/2021 12:00:00 AM","Winneshiek County","Iowa","Midwest","West North Central","19191","43.292989","-91.850788 ","2006","35","0","0","7/7/2021 12:00:00 AM","2019","19991","NYTIMES-USCENSUS"
"7/8/2021 12:00:00 AM","Mayes County","Oklahoma","South","West South Central","40097","36.303804","-95.235638 ","4331","74","0","0","7/7/2021 12:00:00 AM","2019","41100","NYTIMES-USCENSUS"
"7/8/2021 12:00:00 AM","Red Willow County","Nebraska","Midwest","West North Central","31145","40.16942","-100.468576 ","1214","15","0","0","7/7/2021 12:00:00 AM","2019","10724","NYTIMES-USCENSUS"
"7/8/2021 12:00:00 AM","Henry County","Georgia","South","South Atlantic","13151","33.452947","-84.154021 ","26106","335","17","0","7/7/2021 12:00:00 AM","2019","234561","NYTIMES-USCENSUS"
"7/8/2021 12:00:00 AM","Talbot County","Maryland","South","South Atlantic","24041","38.748349","-76.178476 ","2185","44","0","0","7/7/2021 12:00:00 AM","2019","37181","NYTIMES-USCENSUS"
"7/8/2021 12:00:00 AM","Nobles County","Minnesota","Midwest","West North Central","27105","43.677686","-95.763132 ","4084","50","0","0","7/7/2021 12:00:00 AM","2019","21629","NYTIMES-USCENSUS"
"7/8/2021 12:00:00 AM","Fannin County","Georgia","South","South Atlantic","13111","34.866543","-84.317331 ","2489","74","2","0","7/7/2021 12:00:00 AM","2019","26188","NYTIMES-USCENSUS"
"7/8/2021 12:00:00 AM","Morris County","Kansas","Midwest","West North Central","20127","38.688204","-96.651448 ","613","23","0","0","7/7/2021 12:00:00 AM","2019","5620","NYTIMES-USCENSUS"
"7/8/2021 12:00:00 AM","Prince Edward County","Virginia","South","South Atlantic","51147","37.224881","-78.432957 ","2173","36","0","0","7/7/2021 12:00:00 AM","2019","22802","NYTIMES-USCENSUS"
"7/8/2021 12:00:00 AM","Cherokee County","North Carolina","South","South Atlantic","37039","35.13715","-84.061449 ","2648","38","1","0","7/7/2021 12:00:00 AM","2019","28612","NYTIMES-USCENSUS"
"7/8/2021 12:00:00 AM","Lauderdale County","Alabama","South","East South Central","01077","34.904122","-87.650997 ","9674","252","0","0","7/7/2021 12:00:00 AM","2019","92729","NYTIMES-USCENSUS"
"7/8/2021 12:00:00 AM","Sullivan County","New Hampshire","Northeast","New England","33019","43.361188","-72.222084 ","1891","26","0","0","7/7/2021 12:00:00 AM","2019","43146","NYTIMES-USCENSUS"
"7/8/2021 12:00:00 AM","Mineral County","Colorado","West","Mountain","08079","37.549067","-107.003236 ","94","1","0","0","7/7/2021 12:00:00 AM","2019","769","NYTIMES-USCENSUS"
"7/8/2021 12:00:00 AM","Troup County","Georgia","South","South Atlantic","13285","33.034482","-85.02836 ","7705","239","9","0","7/7/2021 12:00:00 AM","2019","69922","NYTIMES-USCENSUS"
"7/8/2021 12:00:00 AM","York County","Maine","Northeast","New England","23031","43.426019","-70.668425 ","13557","134","7","0","7/7/2021 12:00:00 AM","2019","207641","NYTIMES-USCENSUS"
"7/8/2021 12:00:00 AM","Curry County","Oregon","West","Pacific","41015","42.466439","-124.210929 ","746","12","0","0","7/7/2021 12:00:00 AM","2019","22925","NYTIMES-USCENSUS"
"7/8/2021 12:00:00 AM","Washington County","Alabama","South","East South Central","01129","31.408503","-88.212404 ","1709","39","0","0","7/7/2021 12:00:00 AM","2019","16326","NYTIMES-USCENSUS"
"7/8/2021 12:00:00 AM","Lanier County","Georgia","South","South Atlantic","13173","31.038197","-83.063164 ","802","13","2","0","7/7/2021 12:00:00 AM","2019","10423","NYTIMES-USCENSUS"
"7/8/2021 12:00:00 AM","Lafayette County","Missouri","Midwest","West North Central","29107","39.068705","-93.802639 ","3253","57","5","0","7/7/2021 12:00:00 AM","2019","32708","NYTIMES-USCENSUS"
"7/8/2021 12:00:00 AM","West Carroll Parish","Louisiana","South","West South Central","22123","32.79248","-91.451998 ","1201","41","0","0","7/7/2021 12:00:00 AM","2019","10830","NYTIMES-USCENSUS"
"7/8/2021 12:00:00 AM","Garden County","Nebraska","Midwest","West North Central","31069","41.633364","-102.302985 ","118","1","0","0","7/7/2021 12:00:00 AM","2019","1837","NYTIMES-USCENSUS"
"7/8/2021 12:00:00 AM","Lyon County","Kentucky","South","East South Central","21143","37.023976","-88.083391 ","1558","21","0","0","7/7/2021 12:00:00 AM","2019","8210","NYTIMES-USCENSUS"
"7/8/2021 12:00:00 AM","Duval County","Texas","South","West South Central","48131","27.681123","-98.497393 ","1276","42","0","0","7/7/2021 12:00:00 AM","2019","11157","NYTIMES-USCENSUS"
"7/8/2021 12:00:00 AM","Bryan County","Georgia","South","South Atlantic","13029","32.017969","-81.438543 ","3802","41","5","0","7/7/2021 12:00:00 AM","2019","39627","NYTIMES-USCENSUS"
"7/8/2021 12:00:00 AM","Nelson County","Virginia","South","South Atlantic","51125","37.789079","-78.88344 ","893","13","0","0","7/7/2021 12:00:00 AM","2019","14930","NYTIMES-USCENSUS"
"7/8/2021 12:00:00 AM","Putnam County","Illinois","Midwest","East North Central","17155","41.198961","-89.298347 ","489","4","0","0","7/7/2021 12:00:00 AM","2019","5739","NYTIMES-USCENSUS"
"7/8/2021 12:00:00 AM","Travis County","Texas","South","West South Central","48453","30.239513","-97.69127 ","85047","1041","159","0","7/7/2021 12:00:00 AM","2019","1273954","NYTIMES-USCENSUS"
"7/8/2021 12:00:00 AM","Monroe County","Michigan","Midwest","East North Central","26115","41.916097","-83.487106 ","15442","264","0","0","7/7/2021 12:00:00 AM","2019","150500","NYTIMES-USCENSUS"
"7/8/2021 12:00:00 AM","Alcorn County","Mississippi","South","East South Central","28003","34.886569","-88.581109 ","3368","74","15","0","7/7/2021 12:00:00 AM","2019","36953","NYTIMES-USCENSUS"
"7/8/2021 12:00:00 AM","King County","Washington","West","Pacific","53033","47.490552","-121.833977 ","113207","1673","115","1","7/7/2021 12:00:00 AM","2019","2252782","NYTIMES-USCENSUS"
"7/8/2021 12:00:00 AM","Franklin County","Tennessee","South","East South Central","47051","35.155926","-86.099203 ","5244","92","3","0","7/7/2021 12:00:00 AM","2019","42208","NYTIMES-USCENSUS"
"7/8/2021 12:00:00 AM","Warren County","Missouri","Midwest","West North Central","29219","38.761902","-91.159306 ","3300","39","7","0","7/7/2021 12:00:00 AM","2019","35649","NYTIMES-USCENSUS"
"7/8/2021 12:00:00 AM","Elmore County","Idaho","West","Mountain","16039","43.394698","-115.471205 ","2138","19","3","0","7/7/2021 12:00:00 AM","2019","27511","NYTIMES-USCENSUS"
"7/8/2021 12:00:00 AM","Howell County","Missouri","Midwest","West North Central","29091","36.774369","-91.887368 ","3735","47","16","0","7/7/2021 12:00:00 AM","2019","40117","NYTIMES-USCENSUS"
"7/8/2021 12:00:00 AM","Johnson County","Illinois","Midwest","East North Central","17087","37.460709","-88.882131 ","1491","22","3","0","7/7/2021 12:00:00 AM","2019","12417","NYTIMES-USCENSUS"
"7/8/2021 12:00:00 AM","Saline County","Nebraska","Midwest","West North Central","31151","40.516802","-97.131755 ","2041","3","0","0","7/7/2021 12:00:00 AM","2019","14224","NYTIMES-USCENSUS"
"7/8/2021 12:00:00 AM","Bowman County","North Dakota","Midwest","West North Central","38011","46.110144","-103.505943 ","408","5","0","0","7/7/2021 12:00:00 AM","2019","3024","NYTIMES-USCENSUS"
"7/8/2021 12:00:00 AM","Charles Mix County","South Dakota","Midwest","West North Central","46023","43.206185","-98.595143 ","1392","22","0","0","7/7/2021 12:00:00 AM","2019","9292","NYTIMES-USCENSUS"
"7/8/2021 12:00:00 AM","West Baton Rouge Parish","Louisiana","South","West South Central","22121","30.464052","-91.309808 ","3030","63","3","0","7/7/2021 12:00:00 AM","2019","26465","NYTIMES-USCENSUS"
"7/8/2021 12:00:00 AM","Frontier County","Nebraska","Midwest","West North Central","31063","40.530947","-100.406683 ","193","1","0","0","7/7/2021 12:00:00 AM","2019","2627","NYTIMES-USCENSUS"
"7/8/2021 12:00:00 AM","St. Clair County","Illinois","Midwest","East North Central","17163","38.470198","-89.928546 ","31822","564","0","0","7/7/2021 12:00:00 AM","2019","259686","NYTIMES-USCENSUS"
"7/8/2021 12:00:00 AM","Loudoun County","Virginia","South","South Atlantic","51107","39.0812","-77.638898 ","28114","283","4","0","7/7/2021 12:00:00 AM","2019","413538","NYTIMES-USCENSUS"
"7/8/2021 12:00:00 AM","Danville city","Virginia","South","South Atlantic","51590","36.583334","-79.408071 ","4502","141","0","0","7/7/2021 12:00:00 AM","2019","40044","NYTIMES-USCENSUS"
"7/8/2021 12:00:00 AM","Adams County","Iowa","Midwest","West North Central","19003","41.021656","-94.696906 ","349","4","0","0","7/7/2021 12:00:00 AM","2019","3602","NYTIMES-USCENSUS"
"7/8/2021 12:00:00 AM","Knox County","Ohio","Midwest","East North Central","39083","40.40362","-82.422393 ","4582","112","0","0","7/7/2021 12:00:00 AM","2019","62322","NYTIMES-USCENSUS"
"7/8/2021 12:00:00 AM","Park County","Colorado","West","Mountain","08093","39.118914","-105.717648 ","836","5","2","0","7/7/2021 12:00:00 AM","2019","18845","NYTIMES-USCENSUS"
"7/8/2021 12:00:00 AM","Jackson County","Oklahoma","South","West South Central","40065","34.594006","-99.412235 ","3141","56","0","0","7/7/2021 12:00:00 AM","2019","24530","NYTIMES-USCENSUS"
"7/8/2021 12:00:00 AM","Prairie County","Arkansas","South","West South Central","05117","34.831116","-91.55362 ","921","22","1","0","7/7/2021 12:00:00 AM","2019","8062","NYTIMES-USCENSUS"
"7/8/2021 12:00:00 AM","Carter County","Kentucky","South","East South Central","21043","38.314094","-83.038988 ","2404","35","5","0","7/7/2021 12:00:00 AM","2019","26797","NYTIMES-USCENSUS"
"7/8/2021 12:00:00 AM","Utah County","Utah","West","Mountain","49049","40.120425","-111.668508 ","99456","408","134","0","7/7/2021 12:00:00 AM","2019","636235","NYTIMES-USCENSUS"
"7/8/2021 12:00:00 AM","Union County","Oregon","West","Pacific","41061","45.304081","-117.999149 ","1532","24","1","0","7/7/2021 12:00:00 AM","2019","26835","NYTIMES-USCENSUS"
"7/8/2021 12:00:00 AM","Camp County","Texas","South","West South Central","48063","32.974581","-94.979085 ","1328","44","0","0","7/7/2021 12:00:00 AM","2019","13094","NYTIMES-USCENSUS"
"7/8/2021 12:00:00 AM","Talladega County","Alabama","South","East South Central","01121","33.369314","-86.17593 ","8498","185","0","0","7/7/2021 12:00:00 AM","2019","79978","NYTIMES-USCENSUS"
"7/8/2021 12:00:00 AM","Henry County","Kentucky","South","East South Central","21103","38.451383","-85.119647 ","1390","20","0","0","7/7/2021 12:00:00 AM","2019","16126","NYTIMES-USCENSUS"
"7/8/2021 12:00:00 AM","Clarke County","Virginia","South","South Atlantic","51043","39.115307","-77.990748 ","1022","21","0","0","7/7/2021 12:00:00 AM","2019","14619","NYTIMES-USCENSUS"
"7/8/2021 12:00:00 AM","Colusa County","California","West","Pacific","06011","39.177739","-122.237563 ","2298","18","0","0","7/7/2021 12:00:00 AM","2019","21547","NYTIMES-USCENSUS"
"7/8/2021 12:00:00 AM","Orange County","Virginia","South","South Atlantic","51137","38.249326","-78.011092 ","2247","39","-3","-1","7/7/2021 12:00:00 AM","2019","37051","NYTIMES-USCENSUS"
"7/8/2021 12:00:00 AM","Catoosa County","Georgia","South","South Atlantic","13047","34.900212","-85.139385 ","6760","75","9","0","7/7/2021 12:00:00 AM","2019","67580","NYTIMES-USCENSUS"
"7/8/2021 12:00:00 AM","Cherokee County","Kansas","Midwest","West North Central","20021","37.169392","-94.845698 ","2699","53","0","0","7/7/2021 12:00:00 AM","2019","19939","NYTIMES-USCENSUS"
"7/8/2021 12:00:00 AM","Gulf County","Florida","South","South Atlantic","12045","29.859238","-85.272013 ","1996","45","0","0","7/7/2021 12:00:00 AM","2019","13639","NYTIMES-USCENSUS"
"7/8/2021 12:00:00 AM","Cochise County","Arizona","West","Mountain","04003","31.840129","-109.775163 ","12229","293","6","0","7/7/2021 12:00:00 AM","2019","125922","NYTIMES-USCENSUS"
"7/8/2021 12:00:00 AM","Greenlee County","Arizona","West","Mountain","04011","33.238872","-109.242323 ","584","10","1","0","7/7/2021 12:00:00 AM","2019","9498","NYTIMES-USCENSUS"
"7/8/2021 12:00:00 AM","Tangipahoa Parish","Louisiana","South","West South Central","22105","30.621348","-90.40649 ","13468","308","34","0","7/7/2021 12:00:00 AM","2019","134758","NYTIMES-USCENSUS"
"7/8/2021 12:00:00 AM","Jefferson County","Wisconsin","Midwest","East North Central","55055","43.013804","-88.773985 ","9705","136","3","0","7/7/2021 12:00:00 AM","2019","84769","NYTIMES-USCENSUS"
"7/8/2021 12:00:00 AM","Putnam County","Ohio","Midwest","East North Central","39137","41.024533","-84.129879 ","4337","104","0","0","7/7/2021 12:00:00 AM","2019","33861","NYTIMES-USCENSUS"
"7/8/2021 12:00:00 AM","Henderson County","North Carolina","South","South Atlantic","37089","35.336415","-82.479741 ","10341","165","11","0","7/7/2021 12:00:00 AM","2019","117417","NYTIMES-USCENSUS"
"7/8/2021 12:00:00 AM","Taylor County","Texas","South","West South Central","48441","32.297126","-99.89043 ","16061","416","4","0","7/7/2021 12:00:00 AM","2019","138034","NYTIMES-USCENSUS"
"7/8/2021 12:00:00 AM","Union County","Pennsylvania","Northeast","Middle Atlantic","42119","40.962179","-77.055475 ","6165","89","1","0","7/7/2021 12:00:00 AM","2019","44923","NYTIMES-USCENSUS"
"7/8/2021 12:00:00 AM","Stearns County","Minnesota","Midwest","West North Central","27145","45.555235","-94.610482 ","22595","226","2","0","7/7/2021 12:00:00 AM","2019","161075","NYTIMES-USCENSUS"
"7/8/2021 12:00:00 AM","Iberia Parish","Louisiana","South","West South Central","22045","29.606013","-91.842706 ","7524","161","11","0","7/7/2021 12:00:00 AM","2019","69830","NYTIMES-USCENSUS"
"7/8/2021 12:00:00 AM","Oconee County","South Carolina","South","South Atlantic","45073","34.748766","-83.06154 ","9961","140","2","0","7/7/2021 12:00:00 AM","2019","79546","NYTIMES-USCENSUS"
"7/8/2021 12:00:00 AM","Washtenaw County","Michigan","Midwest","East North Central","26161","42.252217","-83.843423 ","27175","311","12","0","7/7/2021 12:00:00 AM","2019","367601","NYTIMES-USCENSUS"
"7/8/2021 12:00:00 AM","Johnson County","Nebraska","Midwest","West North Central","31097","40.394955","-96.265264 ","656","10","0","0","7/7/2021 12:00:00 AM","2019","5071","NYTIMES-USCENSUS"
"7/8/2021 12:00:00 AM","Walton County","Florida","South","South Atlantic","12131","30.571247","-86.162798 ","7138","89","0","0","7/7/2021 12:00:00 AM","2019","74071","NYTIMES-USCENSUS"
"7/8/2021 12:00:00 AM","Amherst County","Virginia","South","South Atlantic","51009","37.629304","-79.154667 ","2994","40","2","0","7/7/2021 12:00:00 AM","2019","31605","NYTIMES-USCENSUS"
"7/8/2021 12:00:00 AM","Carter County","Missouri","Midwest","West North Central","29035","36.944858","-90.945705 ","553","11","0","0","7/7/2021 12:00:00 AM","2019","5982","NYTIMES-USCENSUS"
"7/8/2021 12:00:00 AM","Passaic County","New Jersey","Northeast","Middle Atlantic","34031","41.036655","-74.299408 ","73511","1939","23","0","7/7/2021 12:00:00 AM","2019","501826","NYTIMES-USCENSUS"
"7/8/2021 12:00:00 AM","Washington County","Iowa","Midwest","West North Central","19183","41.329401","-91.725052 ","2575","51","0","0","7/7/2021 12:00:00 AM","2019","21965","NYTIMES-USCENSUS"
"7/8/2021 12:00:00 AM","Lake County","Minnesota","Midwest","West North Central","27075","47.517111","-91.411704 ","834","20","0","0","7/7/2021 12:00:00 AM","2019","10641","NYTIMES-USCENSUS"
"7/8/2021 12:00:00 AM","Lewis and Clark County","Montana","West","Mountain","30049","47.132013","-112.373367 ","7072","92","1","0","7/7/2021 12:00:00 AM","2019","69432","NYTIMES-USCENSUS"
"7/8/2021 12:00:00 AM","Dawes County","Nebraska","Midwest","West North Central","31045","42.713038","-103.135436 ","771","20","0","0","7/7/2021 12:00:00 AM","2019","8589","NYTIMES-USCENSUS"
"7/8/2021 12:00:00 AM","Towns County","Georgia","South","South Atlantic","13281","34.902529","-83.732264 ","1286","60","1","0","7/7/2021 12:00:00 AM","2019","12037","NYTIMES-USCENSUS"
"7/8/2021 12:00:00 AM","Oconee County","Georgia","South","South Atlantic","13219","33.834125","-83.437728 ","4065","73","3","0","7/7/2021 12:00:00 AM","2019","40280","NYTIMES-USCENSUS"
"7/8/2021 12:00:00 AM","Johnson County","Kansas","Midwest","West North Central","20091","38.883907","-94.82233 ","60246","773","0","0","7/7/2021 12:00:00 AM","2019","602401","NYTIMES-USCENSUS"
"7/8/2021 12:00:00 AM","Warren County","North Carolina","South","South Atlantic","37185","36.398105","-78.099899 ","1819","20","0","0","7/7/2021 12:00:00 AM","2019","19731","NYTIMES-USCENSUS"
"7/8/2021 12:00:00 AM","Pasquotank County","North Carolina","South","South Atlantic","37139","36.265199","-76.260691 ","3456","85","3","1","7/7/2021 12:00:00 AM","2019","39824","NYTIMES-USCENSUS"
"7/8/2021 12:00:00 AM","Woods County","Oklahoma","South","West South Central","40151","36.726984","-98.863649 ","1220","18","0","0","7/7/2021 12:00:00 AM","2019","8793","NYTIMES-USCENSUS"
"7/8/2021 12:00:00 AM","Yadkin County","North Carolina","South","South Atlantic","37197","36.158765","-80.665164 ","4141","55","3","0","7/7/2021 12:00:00 AM","2019","37667","NYTIMES-USCENSUS"
"7/8/2021 12:00:00 AM","Wythe County","Virginia","South","South Atlantic","51197","36.899867","-81.083001 ","2746","81","3","0","7/7/2021 12:00:00 AM","2019","28684","NYTIMES-USCENSUS"
"7/8/2021 12:00:00 AM","Madison County","Mississippi","South","East South Central","28089","32.63437","-90.03416 ","10382","227","13","0","7/7/2021 12:00:00 AM","2019","106272","NYTIMES-USCENSUS"
"7/8/2021 12:00:00 AM","Halifax County","North Carolina","South","South Atlantic","37083","36.251438","-77.644842 ","5697","115","6","0","7/7/2021 12:00:00 AM","2019","50010","NYTIMES-USCENSUS"
"7/8/2021 12:00:00 AM","Cattaraugus County","New York","Northeast","Middle Atlantic","36009","42.239099","-78.662332 ","5729","92","0","0","7/7/2021 12:00:00 AM","2019","76117","NYTIMES-USCENSUS"
"7/8/2021 12:00:00 AM","Concordia Parish","Louisiana","South","West South Central","22029","31.469805","-91.626315 ","1932","62","0","0","7/7/2021 12:00:00 AM","2019","19259","NYTIMES-USCENSUS"
"7/8/2021 12:00:00 AM","Stark County","Ohio","Midwest","East North Central","39151","40.814131","-81.365667 ","33498","936","14","0","7/7/2021 12:00:00 AM","2019","370606","NYTIMES-USCENSUS"
"7/8/2021 12:00:00 AM","Crow Wing County","Minnesota","Midwest","West North Central","27035","46.491653","-94.070718 ","6845","97","6","0","7/7/2021 12:00:00 AM","2019","65055","NYTIMES-USCENSUS"
"7/8/2021 12:00:00 AM","Elbert County","Colorado","West","Mountain","08039","39.315157","-104.114076 ","1897","14","2","0","7/7/2021 12:00:00 AM","2019","26729","NYTIMES-USCENSUS"
"7/8/2021 12:00:00 AM","Tioga County","Pennsylvania","Northeast","Middle Atlantic","42117","41.766859","-77.257288 ","3133","112","1","0","7/7/2021 12:00:00 AM","2019","40591","NYTIMES-USCENSUS"
"7/8/2021 12:00:00 AM","Muscogee County","Georgia","South","South Atlantic","13215","32.510197","-84.874946 ","17018","500","25","0","7/7/2021 12:00:00 AM","2019","195769","NYTIMES-USCENSUS"
"7/8/2021 12:00:00 AM","Ottawa County","Ohio","Midwest","East North Central","39123","41.545495","-83.012613 ","3738","81","-1","0","7/7/2021 12:00:00 AM","2019","40525","NYTIMES-USCENSUS"
"7/8/2021 12:00:00 AM","Mills County","Texas","South","West South Central","48333","31.494888","-98.594623 ","660","21","0","0","7/7/2021 12:00:00 AM","2019","4873","NYTIMES-USCENSUS"
"7/8/2021 12:00:00 AM","Washita County","Oklahoma","South","West South Central","40149","35.289497","-98.991436 ","1089","23","0","0","7/7/2021 12:00:00 AM","2019","10916","NYTIMES-USCENSUS"
"7/8/2021 12:00:00 AM","Liberty County","Georgia","South","South Atlantic","13179","31.807458","-81.457871 ","4209","68","1","0","7/7/2021 12:00:00 AM","2019","61435","NYTIMES-USCENSUS"
"7/8/2021 12:00:00 AM","Boone County","Nebraska","Midwest","West North Central","31011","41.703934","-98.070476 ","585","4","0","0","7/7/2021 12:00:00 AM","2019","5192","NYTIMES-USCENSUS"
"7/8/2021 12:00:00 AM","Greenwood County","Kansas","Midwest","West North Central","20073","37.879347","-96.241732 ","589","11","0","0","7/7/2021 12:00:00 AM","2019","5982","NYTIMES-USCENSUS"
"7/8/2021 12:00:00 AM","Marion County","Oregon","West","Pacific","41047","44.900898","-122.57626 ","23746","327","27","0","7/7/2021 12:00:00 AM","2019","347818","NYTIMES-USCENSUS"
"7/8/2021 12:00:00 AM","Roosevelt County","Montana","West","Mountain","30085","48.282747","-104.99517 ","1670","55","0","0","7/7/2021 12:00:00 AM","2019","11004","NYTIMES-USCENSUS"
"7/8/2021 12:00:00 AM","Louisa County","Virginia","South","South Atlantic","51109","37.972704","-77.959795 ","2032","34","0","0","7/7/2021 12:00:00 AM","2019","37591","NYTIMES-USCENSUS"
"7/8/2021 12:00:00 AM","Churchill County","Nevada","West","Mountain","32001","39.53771","-118.264166 ","2139","49","1","0","7/7/2021 12:00:00 AM","2019","24909","NYTIMES-USCENSUS"
"7/8/2021 12:00:00 AM","Warren County","Illinois","Midwest","East North Central","17187","40.850441","-90.620223 ","1854","52","1","0","7/7/2021 12:00:00 AM","2019","16844","NYTIMES-USCENSUS"
"7/8/2021 12:00:00 AM","Montgomery County","Missouri","Midwest","West North Central","29139","38.935184","-91.465427 ","1090","13","2","0","7/7/2021 12:00:00 AM","2019","11551","NYTIMES-USCENSUS"
"7/8/2021 12:00:00 AM","Clinton County","Missouri","Midwest","West North Central","29049","39.608723","-94.395803 ","2049","65","-1","0","7/7/2021 12:00:00 AM","2019","20387","NYTIMES-USCENSUS"
"7/8/2021 12:00:00 AM","Lake County","Montana","West","Mountain","30047","47.642901","-114.083687 ","2141","36","1","0","7/7/2021 12:00:00 AM","2019","30458","NYTIMES-USCENSUS"
"7/8/2021 12:00:00 AM","Floyd County","Texas","South","West South Central","48153","34.07373","-101.303274 ","900","30","0","0","7/7/2021 12:00:00 AM","2019","5712","NYTIMES-USCENSUS"
"7/8/2021 12:00:00 AM","New Madrid County","Missouri","Midwest","West North Central","29143","36.594261","-89.655948 ","2161","47","1","0","7/7/2021 12:00:00 AM","2019","17076","NYTIMES-USCENSUS"
"7/8/2021 12:00:00 AM","Bedford County","Tennessee","South","East South Central","47003","35.51366","-86.458294 ","6727","132","2","0","7/7/2021 12:00:00 AM","2019","49713","NYTIMES-USCENSUS"
"7/8/2021 12:00:00 AM","Monroe County","Indiana","Midwest","East North Central","18105","39.160729","-86.52331 ","12337","181","10","0","7/7/2021 12:00:00 AM","2019","148431","NYTIMES-USCENSUS"
"7/8/2021 12:00:00 AM","Randolph County","North Carolina","South","South Atlantic","37151","35.709915","-79.806215 ","15390","232","18","0","7/7/2021 12:00:00 AM","2019","143667","NYTIMES-USCENSUS"
"7/8/2021 12:00:00 AM","Scotts Bluff County","Nebraska","Midwest","West North Central","31157","41.850331","-103.701549 ","4686","96","0","0","7/7/2021 12:00:00 AM","2019","35618","NYTIMES-USCENSUS"
"7/8/2021 12:00:00 AM","Russell County","Virginia","South","South Atlantic","51167","36.93342","-82.095934 ","2312","40","0","0","7/7/2021 12:00:00 AM","2019","26586","NYTIMES-USCENSUS"
"7/8/2021 12:00:00 AM","O'Brien County","Iowa","Midwest","West North Central","19141","43.083746","-95.625624 ","1997","61","0","0","7/7/2021 12:00:00 AM","2019","13753","NYTIMES-USCENSUS"
"7/8/2021 12:00:00 AM","Benton County","Iowa","Midwest","West North Central","19011","42.092547","-92.05763 ","2618","55","0","0","7/7/2021 12:00:00 AM","2019","25645","NYTIMES-USCENSUS"
"7/8/2021 12:00:00 AM","Marion County","Tennessee","South","East South Central","47115","35.133422","-85.618399 ","3271","49","0","0","7/7/2021 12:00:00 AM","2019","28907","NYTIMES-USCENSUS"
"7/8/2021 12:00:00 AM","Ware County","Georgia","South","South Atlantic","13299","31.050881","-82.421507 ","5013","182","1","0","7/7/2021 12:00:00 AM","2019","35734","NYTIMES-USCENSUS"
"7/8/2021 12:00:00 AM","Sioux County","North Dakota","Midwest","West North Central","38085","46.110618","-101.061284 ","665","12","0","0","7/7/2021 12:00:00 AM","2019","4230","NYTIMES-USCENSUS"
"7/8/2021 12:00:00 AM","Williamson County","Tennessee","South","East South Central","47187","35.894807","-86.898068 ","28714","218","15","0","7/7/2021 12:00:00 AM","2019","238412","NYTIMES-USCENSUS"
"7/8/2021 12:00:00 AM","Stark County","North Dakota","Midwest","West North Central","38089","46.817031","-102.662026 ","4964","52","3","0","7/7/2021 12:00:00 AM","2019","31489","NYTIMES-USCENSUS"
"7/8/2021 12:00:00 AM","Pemiscot County","Missouri","Midwest","West North Central","29155","36.209916","-89.785942 ","1630","39","0","0","7/7/2021 12:00:00 AM","2019","15805","NYTIMES-USCENSUS"
"7/8/2021 12:00:00 AM","DeKalb County","Georgia","South","South Atlantic","13089","33.770661","-84.226343 ","67900","1075","24","-1","7/7/2021 12:00:00 AM","2019","759297","NYTIMES-USCENSUS"
"7/8/2021 12:00:00 AM","Florence County","Wisconsin","Midwest","East North Central","55037","45.871828","-88.406988 ","509","14","2","1","7/7/2021 12:00:00 AM","2019","4295","NYTIMES-USCENSUS"
"7/8/2021 12:00:00 AM","Fountain County","Indiana","Midwest","East North Central","18045","40.121237","-87.234872 ","2297","50","3","1","7/7/2021 12:00:00 AM","2019","16346","NYTIMES-USCENSUS"
"7/8/2021 12:00:00 AM","Buffalo County","Wisconsin","Midwest","East North Central","55011","44.385633","-91.761294 ","1418","7","-1","0","7/7/2021 12:00:00 AM","2019","13031","NYTIMES-USCENSUS"
"7/8/2021 12:00:00 AM","Bernalillo County","New Mexico","West","Mountain","35001","35.053628","-106.66908 ","59285","969","46","2","7/7/2021 12:00:00 AM","2019","679121","NYTIMES-USCENSUS"
"7/8/2021 12:00:00 AM","Izard County","Arkansas","South","West South Central","05065","36.094879","-91.913625 ","1758","42","15","0","7/7/2021 12:00:00 AM","2019","13629","NYTIMES-USCENSUS"
"7/8/2021 12:00:00 AM","Sullivan County","Indiana","Midwest","East North Central","18153","39.089225","-87.415843 ","2169","43","1","0","7/7/2021 12:00:00 AM","2019","20669","NYTIMES-USCENSUS"
"7/8/2021 12:00:00 AM","Clay County","Arkansas","South","West South Central","05021","36.367302","-90.418704 ","1814","52","1","0","7/7/2021 12:00:00 AM","2019","14551","NYTIMES-USCENSUS"
"7/8/2021 12:00:00 AM","Crawford County","Pennsylvania","Northeast","Middle Atlantic","42039","41.687876","-80.107795 ","7562","156","3","0","7/7/2021 12:00:00 AM","2019","84629","NYTIMES-USCENSUS"
"7/8/2021 12:00:00 AM","Union County","Mississippi","South","East South Central","28145","34.489533","-89.002339 ","4193","79","6","1","7/7/2021 12:00:00 AM","2019","28815","NYTIMES-USCENSUS"
"7/8/2021 12:00:00 AM","Osage County","Kansas","Midwest","West North Central","20139","38.650215","-95.708255 ","1273","26","0","0","7/7/2021 12:00:00 AM","2019","15949","NYTIMES-USCENSUS"
"7/8/2021 12:00:00 AM","Page County","Virginia","South","South Atlantic","51139","38.623209","-78.491872 ","2131","59","0","0","7/7/2021 12:00:00 AM","2019","23902","NYTIMES-USCENSUS"
"7/8/2021 12:00:00 AM","Schuylkill County","Pennsylvania","Northeast","Middle Atlantic","42107","40.703682","-76.217788 ","14834","413","3","0","7/7/2021 12:00:00 AM","2019","141359","NYTIMES-USCENSUS"
"7/8/2021 12:00:00 AM","Edgecombe County","North Carolina","South","South Atlantic","37065","35.917077","-77.602742 ","5722","113","1","0","7/7/2021 12:00:00 AM","2019","51472","NYTIMES-USCENSUS"
"7/8/2021 12:00:00 AM","Davidson County","North Carolina","South","South Atlantic","37057","35.795131","-80.207107 ","17041","200","-11","0","7/7/2021 12:00:00 AM","2019","167609","NYTIMES-USCENSUS"
"7/8/2021 12:00:00 AM","Pierce County","Georgia","South","South Atlantic","13229","31.353998","-82.21037 ","2541","62","1","0","7/7/2021 12:00:00 AM","2019","19465","NYTIMES-USCENSUS"
"7/8/2021 12:00:00 AM","Edmonson County","Kentucky","South","East South Central","21061","37.227514","-86.218015 ","925","25","0","0","7/7/2021 12:00:00 AM","2019","12150","NYTIMES-USCENSUS"
"7/8/2021 12:00:00 AM","Gloucester County","Virginia","South","South Atlantic","51073","37.403541","-76.523505 ","2284","50","5","0","7/7/2021 12:00:00 AM","2019","37348","NYTIMES-USCENSUS"
"7/8/2021 12:00:00 AM","Roane County","Tennessee","South","East South Central","47145","35.84725","-84.523929 ","6381","109","0","0","7/7/2021 12:00:00 AM","2019","53382","NYTIMES-USCENSUS"
"7/8/2021 12:00:00 AM","Lake County","Tennessee","South","East South Central","47095","36.333905","-89.485536 ","1728","30","0","0","7/7/2021 12:00:00 AM","2019","7016","NYTIMES-USCENSUS"
"7/8/2021 12:00:00 AM","Schoharie County","New York","Northeast","Middle Atlantic","36095","42.591294","-74.438172 ","1706","18","1","0","7/7/2021 12:00:00 AM","2019","30999","NYTIMES-USCENSUS"
"7/8/2021 12:00:00 AM","Indiana County","Pennsylvania","Northeast","Middle Atlantic","42063","40.651432","-79.087545 ","6418","179","1","0","7/7/2021 12:00:00 AM","2019","84073","NYTIMES-USCENSUS"
"7/8/2021 12:00:00 AM","Redwood County","Minnesota","Midwest","West North Central","27127","44.403536","-95.254241 ","1768","40","0","0","7/7/2021 12:00:00 AM","2019","15170","NYTIMES-USCENSUS"
"7/8/2021 12:00:00 AM","Eaton County","Michigan","Midwest","East North Central","26045","42.58953","-84.84645 ","10161","212","0","0","7/7/2021 12:00:00 AM","2019","110268","NYTIMES-USCENSUS"
"7/8/2021 12:00:00 AM","Winnebago County","Illinois","Midwest","East North Central","17201","42.337396","-89.161205 ","34293","545","22","0","7/7/2021 12:00:00 AM","2019","282572","NYTIMES-USCENSUS"
"7/8/2021 12:00:00 AM","Pulaski County","Illinois","Midwest","East North Central","17153","37.215615","-89.127755 ","704","7","0","0","7/7/2021 12:00:00 AM","2019","5335","NYTIMES-USCENSUS"
"7/8/2021 12:00:00 AM","Cleveland County","Arkansas","South","West South Central","05025","33.893201","-92.188714 ","1010","25","4","0","7/7/2021 12:00:00 AM","2019","7956","NYTIMES-USCENSUS"
"7/8/2021 12:00:00 AM","Sumner County","Kansas","Midwest","West North Central","20191","37.236662","-97.493352 ","2248","53","0","0","7/7/2021 12:00:00 AM","2019","22836","NYTIMES-USCENSUS"
"7/8/2021 12:00:00 AM","Trimble County","Kentucky","South","East South Central","21223","38.62004","-85.351208 ","708","7","0","0","7/7/2021 12:00:00 AM","2019","8471","NYTIMES-USCENSUS"
"7/8/2021 12:00:00 AM","Pittsylvania County","Virginia","South","South Atlantic","51143","36.821721","-79.398502 ","5646","82","3","0","7/7/2021 12:00:00 AM","2019","60354","NYTIMES-USCENSUS"
"7/8/2021 12:00:00 AM","Van Buren County","Michigan","Midwest","East North Central","26159","42.28215","-86.306076 ","7153","131","0","0","7/7/2021 12:00:00 AM","2019","75677","NYTIMES-USCENSUS"
"7/8/2021 12:00:00 AM","Keokuk County","Iowa","Midwest","West North Central","19107","41.331182","-92.167721 ","973","32","0","0","7/7/2021 12:00:00 AM","2019","10246","NYTIMES-USCENSUS"
"7/8/2021 12:00:00 AM","Audrain County","Missouri","Midwest","West North Central","29007","39.214481","-91.843418 ","2835","58","20","0","7/7/2021 12:00:00 AM","2019","25388","NYTIMES-USCENSUS"
"7/8/2021 12:00:00 AM","Washington County","Missouri","Midwest","West North Central","29221","37.942611","-90.897018 ","2807","52","2","0","7/7/2021 12:00:00 AM","2019","24730","NYTIMES-USCENSUS"
"7/8/2021 12:00:00 AM","Ferry County","Washington","West","Pacific","53019","48.473256","-118.533589 ","404","8","0","0","7/7/2021 12:00:00 AM","2019","7627","NYTIMES-USCENSUS"
"7/8/2021 12:00:00 AM","Norfolk city","Virginia","South","South Atlantic","51710","36.923015","-76.244641 ","18088","273","6","0","7/7/2021 12:00:00 AM","2019","242742","NYTIMES-USCENSUS"
"7/8/2021 12:00:00 AM","Spink County","South Dakota","Midwest","West North Central","46115","44.923772","-98.339615 ","848","26","0","0","7/7/2021 12:00:00 AM","2019","6376","NYTIMES-USCENSUS"
"7/8/2021 12:00:00 AM","Henry County","Alabama","South","East South Central","01067","31.516978","-85.239971 ","1963","44","0","0","7/7/2021 12:00:00 AM","2019","17205","NYTIMES-USCENSUS"
"7/8/2021 12:00:00 AM","Rush County","Indiana","Midwest","East North Central","18139","39.622362","-85.466529 ","1832","26","0","0","7/7/2021 12:00:00 AM","2019","16581","NYTIMES-USCENSUS"
"7/8/2021 12:00:00 AM","Phillips County","Colorado","West","Mountain","08095","40.594712","-102.345105 ","400","13","0","0","7/7/2021 12:00:00 AM","2019","4265","NYTIMES-USCENSUS"
"7/8/2021 12:00:00 AM","Franklin County","Florida","South","South Atlantic","12037","29.677794","-84.815213 ","1335","20","0","0","7/7/2021 12:00:00 AM","2019","12125","NYTIMES-USCENSUS"
"7/8/2021 12:00:00 AM","Becker County","Minnesota","Midwest","West North Central","27005","46.937629","-95.741757 ","3878","56","1","0","7/7/2021 12:00:00 AM","2019","34423","NYTIMES-USCENSUS"
"7/8/2021 12:00:00 AM","Pitkin County","Colorado","West","Mountain","08097","39.217541","-106.916162 ","2625","4","1","0","7/7/2021 12:00:00 AM","2019","17767","NYTIMES-USCENSUS"
"7/8/2021 12:00:00 AM","Belknap County","New Hampshire","Northeast","New England","33001","43.519109","-71.425366 ","4197","100","5","0","7/7/2021 12:00:00 AM","2019","61303","NYTIMES-USCENSUS"
"7/8/2021 12:00:00 AM","Knox County","Illinois","Midwest","East North Central","17095","40.930945","-90.213792 ","5678","187","6","0","7/7/2021 12:00:00 AM","2019","49699","NYTIMES-USCENSUS"
"7/8/2021 12:00:00 AM","Glacier County","Montana","West","Mountain","30035","48.705671","-112.990502 ","1548","44","0","0","7/7/2021 12:00:00 AM","2019","13753","NYTIMES-USCENSUS"
"7/8/2021 12:00:00 AM","Scott County","Tennessee","South","East South Central","47151","36.435234","-84.50352 ","3228","48","0","0","7/7/2021 12:00:00 AM","2019","22068","NYTIMES-USCENSUS"
"7/8/2021 12:00:00 AM","Posey County","Indiana","Midwest","East North Central","18129","38.027614","-87.868653 ","2765","35","3","0","7/7/2021 12:00:00 AM","2019","25427","NYTIMES-USCENSUS"
"7/8/2021 12:00:00 AM","Cullman County","Alabama","South","East South Central","01043","34.131923","-86.869267 ","10031","202","0","0","7/7/2021 12:00:00 AM","2019","83768","NYTIMES-USCENSUS"
"7/8/2021 12:00:00 AM","Miller County","Arkansas","South","West South Central","05091","33.305505","-93.901502 ","4484","37","8","0","7/7/2021 12:00:00 AM","2019","43257","NYTIMES-USCENSUS"
"7/8/2021 12:00:00 AM","Blue Earth County","Minnesota","Midwest","West North Central","27013","44.03371","-94.064012 ","7645","44","-1","0","7/7/2021 12:00:00 AM","2019","67653","NYTIMES-USCENSUS"
"7/8/2021 12:00:00 AM","Converse County","Wyoming","West","Mountain","56009","42.984623","-105.524752 ","1046","18","1","0","7/7/2021 12:00:00 AM","2019","13822","NYTIMES-USCENSUS"
"7/8/2021 12:00:00 AM","Pembina County","North Dakota","Midwest","West North Central","38067","48.766896","-97.545405 ","824","11","0","0","7/7/2021 12:00:00 AM","2019","6801","NYTIMES-USCENSUS"
"7/8/2021 12:00:00 AM","Sevier County","Tennessee","South","East South Central","47155","35.787822","-83.5249 ","13630","179","12","1","7/7/2021 12:00:00 AM","2019","98250","NYTIMES-USCENSUS"
"7/8/2021 12:00:00 AM","Levy County","Florida","South","South Atlantic","12075","29.271854","-82.831233 ","3636","56","0","0","7/7/2021 12:00:00 AM","2019","41503","NYTIMES-USCENSUS"
"7/8/2021 12:00:00 AM","DeSoto County","Mississippi","South","East South Central","28033","34.874922","-89.991211 ","22474","274","20","0","7/7/2021 12:00:00 AM","2019","184945","NYTIMES-USCENSUS"
"7/8/2021 12:00:00 AM","Chase County","Kansas","Midwest","West North Central","20017","38.299475","-96.594029 ","280","3","0","0","7/7/2021 12:00:00 AM","2019","2648","NYTIMES-USCENSUS"
"7/8/2021 12:00:00 AM","Grant County","Indiana","Midwest","East North Central","18053","40.515758","-85.654946 ","7700","187","7","0","7/7/2021 12:00:00 AM","2019","65769","NYTIMES-USCENSUS"
"7/8/2021 12:00:00 AM","Jerome County","Idaho","West","Mountain","16053","42.691395","-114.262086 ","2662","23","1","0","7/7/2021 12:00:00 AM","2019","24412","NYTIMES-USCENSUS"
"7/8/2021 12:00:00 AM","Monroe County","Tennessee","South","East South Central","47123","35.447818","-84.249705 ","5991","97","1","0","7/7/2021 12:00:00 AM","2019","46545","NYTIMES-USCENSUS"
"7/8/2021 12:00:00 AM","Haralson County","Georgia","South","South Atlantic","13143","33.795165","-85.220063 ","2720","90","2","0","7/7/2021 12:00:00 AM","2019","29792","NYTIMES-USCENSUS"
"7/8/2021 12:00:00 AM","Monroe County","Pennsylvania","Northeast","Middle Atlantic","42089","41.05624","-75.329065 ","14848","321","5","0","7/7/2021 12:00:00 AM","2019","170271","NYTIMES-USCENSUS"
"7/8/2021 12:00:00 AM","Montour County","Pennsylvania","Northeast","Middle Atlantic","42093","41.029284","-76.665225 ","2008","67","0","0","7/7/2021 12:00:00 AM","2019","18230","NYTIMES-USCENSUS"
"7/8/2021 12:00:00 AM","Sagadahoc County","Maine","Northeast","New England","23023","43.916845","-69.844227 ","1476","11","0","0","7/7/2021 12:00:00 AM","2019","35856","NYTIMES-USCENSUS"
"7/8/2021 12:00:00 AM","Conecuh County","Alabama","South","East South Central","01035","31.430926","-86.988722 ","1153","30","0","0","7/7/2021 12:00:00 AM","2019","12067","NYTIMES-USCENSUS"
"7/8/2021 12:00:00 AM","Ector County","Texas","South","West South Central","48135","31.865301","-102.542507 ","17645","379","27","0","7/7/2021 12:00:00 AM","2019","166223","NYTIMES-USCENSUS"
"7/8/2021 12:00:00 AM","Saline County","Missouri","Midwest","West North Central","29195","39.13584","-93.204164 ","2915","38","4","0","7/7/2021 12:00:00 AM","2019","22761","NYTIMES-USCENSUS"
"7/8/2021 12:00:00 AM","Anderson County","Kentucky","South","East South Central","21005","38.005396","-84.986417 ","1806","23","6","0","7/7/2021 12:00:00 AM","2019","22747","NYTIMES-USCENSUS"
"7/8/2021 12:00:00 AM","Monmouth County","New Jersey","Northeast","Middle Atlantic","34025","40.287048","-74.152446 ","76390","1638","40","0","7/7/2021 12:00:00 AM","2019","618795","NYTIMES-USCENSUS"
"7/8/2021 12:00:00 AM","Randolph County","Indiana","Midwest","East North Central","18135","40.164079","-85.00579 ","2495","84","0","0","7/7/2021 12:00:00 AM","2019","24665","NYTIMES-USCENSUS"
"7/8/2021 12:00:00 AM","Mitchell County","North Carolina","South","South Atlantic","37121","36.013102","-82.163554 ","1478","16","-1","0","7/7/2021 12:00:00 AM","2019","14964","NYTIMES-USCENSUS"
"7/8/2021 12:00:00 AM","Jeff Davis County","Georgia","South","South Atlantic","13161","31.811615","-82.636825 ","1932","44","2","0","7/7/2021 12:00:00 AM","2019","15115","NYTIMES-USCENSUS"
"7/8/2021 12:00:00 AM","Lee County","Alabama","South","East South Central","01081","32.604064","-85.353048 ","16390","178","0","0","7/7/2021 12:00:00 AM","2019","164542","NYTIMES-USCENSUS"
"7/8/2021 12:00:00 AM","St. Mary Parish","Louisiana","South","West South Central","22101","29.629349","-91.463804 ","5207","143","18","0","7/7/2021 12:00:00 AM","2019","49348","NYTIMES-USCENSUS"
"7/8/2021 12:00:00 AM","Pine County","Minnesota","Midwest","West North Central","27115","46.10094","-92.763094 ","3356","23","1","0","7/7/2021 12:00:00 AM","2019","29579","NYTIMES-USCENSUS"
"7/8/2021 12:00:00 AM","Peoria County","Illinois","Midwest","East North Central","17143","40.785972","-89.766993 ","23593","369","0","0","7/7/2021 12:00:00 AM","2019","179179","NYTIMES-USCENSUS"
"7/8/2021 12:00:00 AM","Camden County","Missouri","Midwest","West North Central","29029","38.026527","-92.765327 ","4559","92","24","1","7/7/2021 12:00:00 AM","2019","46305","NYTIMES-USCENSUS"
"7/8/2021 12:00:00 AM","Wirt County","West Virginia","South","South Atlantic","54105","39.020034","-81.382975 ","457","4","0","0","7/7/2021 12:00:00 AM","2019","5821","NYTIMES-USCENSUS"
"7/8/2021 12:00:00 AM","Lafayette County","Mississippi","South","East South Central","28071","34.353078","-89.485385 ","6345","124","2","0","7/7/2021 12:00:00 AM","2019","54019","NYTIMES-USCENSUS"
"7/8/2021 12:00:00 AM","Donley County","Texas","South","West South Central","48129","34.955036","-100.815846 ","424","15","0","0","7/7/2021 12:00:00 AM","2019","3278","NYTIMES-USCENSUS"
"7/8/2021 12:00:00 AM","Hunterdon County","New Jersey","Northeast","Middle Atlantic","34019","40.565283","-74.911969 ","9917","176","2","0","7/7/2021 12:00:00 AM","2019","124371","NYTIMES-USCENSUS"
"7/8/2021 12:00:00 AM","Pulaski County","Virginia","South","South Atlantic","51155","37.063385","-80.713444 ","2733","63","1","0","7/7/2021 12:00:00 AM","2019","34027","NYTIMES-USCENSUS"
"7/8/2021 12:00:00 AM","Chaves County","New Mexico","West","Mountain","35005","33.361604","-104.469837 ","9307","171","2","0","7/7/2021 12:00:00 AM","2019","64615","NYTIMES-USCENSUS"
"7/8/2021 12:00:00 AM","Crittenden County","Kentucky","South","East South Central","21055","37.358149","-88.10501 ","692","24","0","0","7/7/2021 12:00:00 AM","2019","8806","NYTIMES-USCENSUS"
"7/8/2021 12:00:00 AM","Cocke County","Tennessee","South","East South Central","47029","35.916198","-83.119224 ","4550","100","3","0","7/7/2021 12:00:00 AM","2019","36004","NYTIMES-USCENSUS"
"7/8/2021 12:00:00 AM","Rutherford County","Tennessee","South","East South Central","47149","35.843369","-86.417213 ","43799","450","15","1","7/7/2021 12:00:00 AM","2019","332285","NYTIMES-USCENSUS"
"7/8/2021 12:00:00 AM","Perry County","Pennsylvania","Northeast","Middle Atlantic","42099","40.39778","-77.266328 ","3854","101","0","0","7/7/2021 12:00:00 AM","2019","46272","NYTIMES-USCENSUS"
"7/8/2021 12:00:00 AM","Coweta County","Georgia","South","South Atlantic","13077","33.352897","-84.762138 ","14472","232","13","0","7/7/2021 12:00:00 AM","2019","148509","NYTIMES-USCENSUS"
"7/8/2021 12:00:00 AM","Carlton County","Minnesota","Midwest","West North Central","27017","46.603818","-92.671044 ","3549","57","2","0","7/7/2021 12:00:00 AM","2019","35871","NYTIMES-USCENSUS"
"7/8/2021 12:00:00 AM","Anson County","North Carolina","South","South Atlantic","37007","34.974972","-80.109763 ","2641","56","2","0","7/7/2021 12:00:00 AM","2019","24446","NYTIMES-USCENSUS"
"7/8/2021 12:00:00 AM","Douglas County","South Dakota","Midwest","West North Central","46043","43.391506","-98.358433 ","456","9","0","0","7/7/2021 12:00:00 AM","2019","2921","NYTIMES-USCENSUS"
"7/8/2021 12:00:00 AM","Lincoln County","New Mexico","West","Mountain","35027","33.740841","-105.449805 ","1768","19","1","0","7/7/2021 12:00:00 AM","2019","19572","NYTIMES-USCENSUS"
"7/8/2021 12:00:00 AM","Hendry County","Florida","South","South Atlantic","12051","26.539967","-81.152114 ","4946","87","0","0","7/7/2021 12:00:00 AM","2019","42022","NYTIMES-USCENSUS"
"7/8/2021 12:00:00 AM","Calhoun County","West Virginia","South","South Atlantic","54013","38.844159","-81.115478 ","397","1","1","0","7/7/2021 12:00:00 AM","2019","7109","NYTIMES-USCENSUS"
"7/8/2021 12:00:00 AM","Kenosha County","Wisconsin","Midwest","East North Central","55059","42.585882","-87.876398 ","18868","336","22","0","7/7/2021 12:00:00 AM","2019","169561","NYTIMES-USCENSUS"
"7/8/2021 12:00:00 AM","Barnstable County","Massachusetts","Northeast","New England","25001","41.706123","-70.164823 ","13969","471","2","0","7/7/2021 12:00:00 AM","2019","212990","NYTIMES-USCENSUS"
"7/8/2021 12:00:00 AM","Taylor County","Wisconsin","Midwest","East North Central","55119","45.211656","-90.504853 ","2139","38","0","0","7/7/2021 12:00:00 AM","2019","20343","NYTIMES-USCENSUS"
"7/8/2021 12:00:00 AM","Hillsborough County","New Hampshire","Northeast","New England","33011","42.911532","-71.723055 ","36450","647","7","0","7/7/2021 12:00:00 AM","2019","417025","NYTIMES-USCENSUS"
"7/8/2021 12:00:00 AM","Lee County","Texas","South","West South Central","48287","30.321498","-96.976823 ","2250","39","3","0","7/7/2021 12:00:00 AM","2019","17239","NYTIMES-USCENSUS"
"7/8/2021 12:00:00 AM","Putnam County","Indiana","Midwest","East North Central","18133","39.665548","-86.853373 ","3767","62","4","0","7/7/2021 12:00:00 AM","2019","37576","NYTIMES-USCENSUS"
"7/8/2021 12:00:00 AM","Pinellas County","Florida","South","South Atlantic","12103","27.905342","-82.798066 ","80951","1671","0","0","7/7/2021 12:00:00 AM","2019","974996","NYTIMES-USCENSUS"
"7/8/2021 12:00:00 AM","Shannon County","Missouri","Midwest","West North Central","29203","37.152498","-91.391328 ","625","12","0","0","7/7/2021 12:00:00 AM","2019","8166","NYTIMES-USCENSUS"
"7/8/2021 12:00:00 AM","Putnam County","Florida","South","South Atlantic","12107","29.593896","-81.732039 ","6874","160","0","0","7/7/2021 12:00:00 AM","2019","74521","NYTIMES-USCENSUS"
"7/8/2021 12:00:00 AM","Williamsburg city","Virginia","South","South Atlantic","51830","37.269481","-76.708193 ","770","14","1","0","7/7/2021 12:00:00 AM","2019","14954","NYTIMES-USCENSUS"
"7/8/2021 12:00:00 AM","Meade County","Kansas","Midwest","West North Central","20119","37.243886","-100.360094 ","513","13","0","0","7/7/2021 12:00:00 AM","2019","4033","NYTIMES-USCENSUS"
"7/8/2021 12:00:00 AM","Union County","Ohio","Midwest","East North Central","39159","40.295901","-83.367042 ","5866","49","4","0","7/7/2021 12:00:00 AM","2019","58988","NYTIMES-USCENSUS"
"7/8/2021 12:00:00 AM","Floyd County","Virginia","South","South Atlantic","51063","36.931433","-80.350266 ","886","22","0","0","7/7/2021 12:00:00 AM","2019","15749","NYTIMES-USCENSUS"
"7/8/2021 12:00:00 AM","Kalamazoo County","Michigan","Midwest","East North Central","26077","42.246266","-85.532854 ","23210","402","0","0","7/7/2021 12:00:00 AM","2019","265066","NYTIMES-USCENSUS"
"7/8/2021 12:00:00 AM","Harlan County","Kentucky","South","East South Central","21095","36.859223","-83.221497 ","2954","91","-2","0","7/7/2021 12:00:00 AM","2019","26010","NYTIMES-USCENSUS"
"7/8/2021 12:00:00 AM","Calhoun County","Florida","South","South Atlantic","12013","30.388801","-85.197915 ","1724","45","0","0","7/7/2021 12:00:00 AM","2019","14105","NYTIMES-USCENSUS"
"7/8/2021 12:00:00 AM","Bremer County","Iowa","Midwest","West North Central","19017","42.780895","-92.327356 ","2896","62","0","0","7/7/2021 12:00:00 AM","2019","25062","NYTIMES-USCENSUS"
"7/8/2021 12:00:00 AM","Spartanburg County","South Carolina","South","South Atlantic","45083","34.932014","-81.991624 ","42100","833","8","0","7/7/2021 12:00:00 AM","2019","319785","NYTIMES-USCENSUS"
"7/8/2021 12:00:00 AM","Amador County","California","West","Pacific","06005","38.443549","-120.653858 ","3769","47","2","0","7/7/2021 12:00:00 AM","2019","39752","NYTIMES-USCENSUS"
"7/8/2021 12:00:00 AM","Larimer County","Colorado","West","Mountain","08069","40.658093","-105.486764 ","27907","248","35","0","7/7/2021 12:00:00 AM","2019","356899","NYTIMES-USCENSUS"
"7/8/2021 12:00:00 AM","Cameron Parish","Louisiana","South","West South Central","22023","29.871812","-93.164948 ","636","7","1","0","7/7/2021 12:00:00 AM","2019","6973","NYTIMES-USCENSUS"
"7/8/2021 12:00:00 AM","Grant County","Washington","West","Pacific","53025","47.213633","-119.467788 ","10813","133","0","0","7/7/2021 12:00:00 AM","2019","97733","NYTIMES-USCENSUS"
"7/8/2021 12:00:00 AM","Santa Cruz County","California","West","Pacific","06087","37.012347","-122.007789 ","16317","207","11","0","7/7/2021 12:00:00 AM","2019","273213","NYTIMES-USCENSUS"
"7/8/2021 12:00:00 AM","Carlisle County","Kentucky","South","East South Central","21039","36.85718","-88.976614 ","487","10","-1","0","7/7/2021 12:00:00 AM","2019","4760","NYTIMES-USCENSUS"
"7/8/2021 12:00:00 AM","Geauga County","Ohio","Midwest","East North Central","39055","41.499322","-81.173505 ","6882","153","5","0","7/7/2021 12:00:00 AM","2019","93649","NYTIMES-USCENSUS"
"7/8/2021 12:00:00 AM","Tippah County","Mississippi","South","East South Central","28139","34.763618","-88.918819 ","2940","68","1","0","7/7/2021 12:00:00 AM","2019","22015","NYTIMES-USCENSUS"
"7/8/2021 12:00:00 AM","Walworth County","South Dakota","Midwest","West North Central","46129","45.427605","-100.027856 ","773","15","0","0","7/7/2021 12:00:00 AM","2019","5435","NYTIMES-USCENSUS"
"7/8/2021 12:00:00 AM","Payne County","Oklahoma","South","West South Central","40119","36.079225","-96.975255 ","8742","76","0","0","7/7/2021 12:00:00 AM","2019","81784","NYTIMES-USCENSUS"
"7/8/2021 12:00:00 AM","York County","Virginia","South","South Atlantic","51199","37.220914","-76.395533 ","3814","59","4","0","7/7/2021 12:00:00 AM","2019","68280","NYTIMES-USCENSUS"
"7/8/2021 12:00:00 AM","Walsh County","North Dakota","Midwest","West North Central","38099","48.376979","-97.72223 ","1913","27","0","0","7/7/2021 12:00:00 AM","2019","10641","NYTIMES-USCENSUS"
"7/8/2021 12:00:00 AM","Nottoway County","Virginia","South","South Atlantic","51135","37.141167","-78.053866 ","1931","50","4","1","7/7/2021 12:00:00 AM","2019","15232","NYTIMES-USCENSUS"
"7/8/2021 12:00:00 AM","Dawson County","Georgia","South","South Atlantic","13085","34.442608","-84.173261 ","3152","50","2","0","7/7/2021 12:00:00 AM","2019","26108","NYTIMES-USCENSUS"
"7/8/2021 12:00:00 AM","Branch County","Michigan","Midwest","East North Central","26023","41.918455","-85.066885 ","5773","121","0","0","7/7/2021 12:00:00 AM","2019","43517","NYTIMES-USCENSUS"
"7/8/2021 12:00:00 AM","Plymouth County","Iowa","Midwest","West North Central","19149","42.737585","-96.215864 ","4037","82","0","0","7/7/2021 12:00:00 AM","2019","25177","NYTIMES-USCENSUS"
"7/8/2021 12:00:00 AM","Pulaski County","Arkansas","South","West South Central","05119","34.770311","-92.312996 ","42021","683","175","2","7/7/2021 12:00:00 AM","2019","391911","NYTIMES-USCENSUS"
"7/8/2021 12:00:00 AM","Morgan County","Missouri","Midwest","West North Central","29141","38.420806","-92.874835 ","1862","44","5","0","7/7/2021 12:00:00 AM","2019","20627","NYTIMES-USCENSUS"
"7/8/2021 12:00:00 AM","Winchester city","Virginia","South","South Atlantic","51840","39.173869","-78.176356 ","2949","49","1","0","7/7/2021 12:00:00 AM","2019","28078","NYTIMES-USCENSUS"
"7/8/2021 12:00:00 AM","Crawford County","Iowa","Midwest","West North Central","19047","42.043119","-95.38909 ","2692","41","0","0","7/7/2021 12:00:00 AM","2019","16820","NYTIMES-USCENSUS"
"7/8/2021 12:00:00 AM","Jefferson County","Colorado","West","Mountain","08059","39.579511","-105.245462 ","49081","806","26","0","7/7/2021 12:00:00 AM","2019","582881","NYTIMES-USCENSUS"
"7/8/2021 12:00:00 AM","Bacon County","Georgia","South","South Atlantic","13005","31.55021","-82.451433 ","1679","40","0","0","7/7/2021 12:00:00 AM","2019","11164","NYTIMES-USCENSUS"
"7/8/2021 12:00:00 AM","Bowie County","Texas","South","West South Central","48037","33.446065","-94.422393 ","7790","225","18","0","7/7/2021 12:00:00 AM","2019","93245","NYTIMES-USCENSUS"
"7/8/2021 12:00:00 AM","Lincoln County","Washington","West","Pacific","53043","47.582743","-118.417692 ","681","12","2","0","7/7/2021 12:00:00 AM","2019","10939","NYTIMES-USCENSUS"
"7/8/2021 12:00:00 AM","St. James Parish","Louisiana","South","West South Central","22093","30.024777","-90.793956 ","2058","51","2","0","7/7/2021 12:00:00 AM","2019","21096","NYTIMES-USCENSUS"
"7/8/2021 12:00:00 AM","Luzerne County","Pennsylvania","Northeast","Middle Atlantic","42079","41.173078","-75.976053 ","32151","829","8","0","7/7/2021 12:00:00 AM","2019","317417","NYTIMES-USCENSUS"
"7/8/2021 12:00:00 AM","Brazoria County","Texas","South","West South Central","48039","29.167817","-95.434647 ","38965","535","101","0","7/7/2021 12:00:00 AM","2019","374264","NYTIMES-USCENSUS"
"7/8/2021 12:00:00 AM","Potter County","Pennsylvania","Northeast","Middle Atlantic","42105","41.748587","-77.894436 ","1223","25","0","0","7/7/2021 12:00:00 AM","2019","16526","NYTIMES-USCENSUS"
"7/8/2021 12:00:00 AM","Amite County","Mississippi","South","East South Central","28005","31.203933","-90.795542 ","1281","43","0","0","7/7/2021 12:00:00 AM","2019","12297","NYTIMES-USCENSUS"
"7/8/2021 12:00:00 AM","Van Zandt County","Texas","South","West South Central","48467","32.558787","-95.836906 ","4511","123","0","0","7/7/2021 12:00:00 AM","2019","56590","NYTIMES-USCENSUS"
"7/8/2021 12:00:00 AM","Lafayette County","Wisconsin","Midwest","East North Central","55065","42.655578","-90.130292 ","1727","10","-1","0","7/7/2021 12:00:00 AM","2019","16665","NYTIMES-USCENSUS"
"7/8/2021 12:00:00 AM","Plymouth County","Massachusetts","Northeast","New England","25023","41.987196","-70.741942 ","49342","1446","3","-1","7/7/2021 12:00:00 AM","2019","521202","NYTIMES-USCENSUS"
"7/8/2021 12:00:00 AM","Pulaski County","Missouri","Midwest","West North Central","29169","37.824835","-92.207022 ","3724","56","24","1","7/7/2021 12:00:00 AM","2019","52607","NYTIMES-USCENSUS"
"7/8/2021 12:00:00 AM","Nassau County","Florida","South","South Atlantic","12089","30.605963","-81.765087 ","8582","127","0","0","7/7/2021 12:00:00 AM","2019","88625","NYTIMES-USCENSUS"
"7/8/2021 12:00:00 AM","Cherokee County","Iowa","Midwest","West North Central","19035","42.742737","-95.633262 ","1600","38","0","0","7/7/2021 12:00:00 AM","2019","11235","NYTIMES-USCENSUS"
"7/8/2021 12:00:00 AM","Wilson County","Tennessee","South","East South Central","47189","36.149527","-86.291242 ","19427","250","13","0","7/7/2021 12:00:00 AM","2019","144657","NYTIMES-USCENSUS"
"7/8/2021 12:00:00 AM","Hockley County","Texas","South","West South Central","48219","33.605932","-102.343398 ","3134","104","0","0","7/7/2021 12:00:00 AM","2019","23021","NYTIMES-USCENSUS"
"7/8/2021 12:00:00 AM","Harris County","Georgia","South","South Atlantic","13145","32.731549","-84.912432 ","2666","63","5","0","7/7/2021 12:00:00 AM","2019","35236","NYTIMES-USCENSUS"
"7/8/2021 12:00:00 AM","Lewis County","Washington","West","Pacific","53041","46.580071","-122.377444 ","5378","77","6","0","7/7/2021 12:00:00 AM","2019","80707","NYTIMES-USCENSUS"
"7/8/2021 12:00:00 AM","Pointe Coupee Parish","Louisiana","South","West South Central","22077","30.708319","-91.604621 ","2753","75","1","0","7/7/2021 12:00:00 AM","2019","21730","NYTIMES-USCENSUS"
"7/8/2021 12:00:00 AM","Hardy County","West Virginia","South","South Atlantic","54031","39.011361","-78.841729 ","1586","24","-1","0","7/7/2021 12:00:00 AM","2019","13776","NYTIMES-USCENSUS"
"7/8/2021 12:00:00 AM","Henrico County","Virginia","South","South Atlantic","51087","37.43752","-77.300333 ","26018","640","-16","2","7/7/2021 12:00:00 AM","2019","330818","NYTIMES-USCENSUS"
"7/8/2021 12:00:00 AM","Rusk County","Wisconsin","Midwest","East North Central","55107","45.472734","-91.136745 ","1464","24","-1","0","7/7/2021 12:00:00 AM","2019","14178","NYTIMES-USCENSUS"
"7/8/2021 12:00:00 AM","Logan County","Illinois","Midwest","East North Central","17107","40.129277","-89.365309 ","4011","77","0","0","7/7/2021 12:00:00 AM","2019","28618","NYTIMES-USCENSUS"
"7/8/2021 12:00:00 AM","Lancaster County","Pennsylvania","Northeast","Middle Atlantic","42071","40.041992","-76.250198 ","55451","1166","0","1","7/7/2021 12:00:00 AM","2019","545724","NYTIMES-USCENSUS"
"7/8/2021 12:00:00 AM","Livingston County","Illinois","Midwest","East North Central","17105","40.894376","-88.552852 ","4911","104","1","0","7/7/2021 12:00:00 AM","2019","35648","NYTIMES-USCENSUS"
"7/8/2021 12:00:00 AM","Johnson County","Missouri","Midwest","West North Central","29101","38.741528","-93.811863 ","4927","59","14","0","7/7/2021 12:00:00 AM","2019","54062","NYTIMES-USCENSUS"
"7/8/2021 12:00:00 AM","Pulaski County","Indiana","Midwest","East North Central","18131","41.045272","-86.692538 ","1216","48","1","0","7/7/2021 12:00:00 AM","2019","12353","NYTIMES-USCENSUS"
"7/8/2021 12:00:00 AM","Grant County","Arkansas","South","West South Central","05053","34.285568","-92.422979 ","1839","37","21","1","7/7/2021 12:00:00 AM","2019","18265","NYTIMES-USCENSUS"
"7/8/2021 12:00:00 AM","York County","Pennsylvania","Northeast","Middle Atlantic","42133","39.921751","-76.728889 ","47088","832","10","0","7/7/2021 12:00:00 AM","2019","449058","NYTIMES-USCENSUS"
"7/8/2021 12:00:00 AM","Castro County","Texas","South","West South Central","48069","34.533621","-102.258786 ","1068","32","-1","0","7/7/2021 12:00:00 AM","2019","7530","NYTIMES-USCENSUS"
"7/8/2021 12:00:00 AM","Clay County","Alabama","South","East South Central","01027","33.2704","-85.863525 ","1603","59","0","0","7/7/2021 12:00:00 AM","2019","13235","NYTIMES-USCENSUS"
"7/8/2021 12:00:00 AM","Rutland County","Vermont","Northeast","New England","50021","43.580858","-73.038202 ","2288","20","0","0","7/7/2021 12:00:00 AM","2019","58191","NYTIMES-USCENSUS"
"7/8/2021 12:00:00 AM","Grant County","Kentucky","South","East South Central","21081","38.649167","-84.625924 ","2594","23","2","0","7/7/2021 12:00:00 AM","2019","25069","NYTIMES-USCENSUS"
"7/8/2021 12:00:00 AM","Franklin County","Alabama","South","East South Central","01059","34.441989","-87.842814 ","4330","81","0","0","7/7/2021 12:00:00 AM","2019","31362","NYTIMES-USCENSUS"
"7/8/2021 12:00:00 AM","Marinette County","Wisconsin","Midwest","East North Central","55075","45.346899","-87.991198 ","4714","73","0","0","7/7/2021 12:00:00 AM","2019","40350","NYTIMES-USCENSUS"
"7/8/2021 12:00:00 AM","Douglas County","Nebraska","Midwest","West North Central","31055","41.297091","-96.154066 ","72411","733","31","1","7/7/2021 12:00:00 AM","2019","571327","NYTIMES-USCENSUS"
"7/8/2021 12:00:00 AM","Woodson County","Kansas","Midwest","West North Central","20207","37.888193","-95.758469 ","225","5","0","0","7/7/2021 12:00:00 AM","2019","3138","NYTIMES-USCENSUS"
"7/8/2021 12:00:00 AM","Bonneville County","Idaho","West","Mountain","16019","43.395171","-111.621878 ","15069","177","1","0","7/7/2021 12:00:00 AM","2019","119062","NYTIMES-USCENSUS"
"7/8/2021 12:00:00 AM","Washoe County","Nevada","West","Mountain","32031","40.73132","-119.663269 ","46440","687","16","0","7/7/2021 12:00:00 AM","2019","471519","NYTIMES-USCENSUS"
"7/8/2021 12:00:00 AM","East Baton Rouge Parish","Louisiana","South","West South Central","22033","30.54393","-91.093131 ","41661","845","66","2","7/7/2021 12:00:00 AM","2019","440059","NYTIMES-USCENSUS"
"7/8/2021 12:00:00 AM","Osborne County","Kansas","Midwest","West North Central","20141","39.348261","-98.767942 ","294","12","0","0","7/7/2021 12:00:00 AM","2019","3421","NYTIMES-USCENSUS"
"7/8/2021 12:00:00 AM","Bayfield County","Wisconsin","Midwest","East North Central","55007","46.634199","-91.177282 ","1289","20","-1","0","7/7/2021 12:00:00 AM","2019","15036","NYTIMES-USCENSUS"
"7/8/2021 12:00:00 AM","McKenzie County","North Dakota","Midwest","West North Central","38053","47.742475","-103.403215 ","1465","14","0","0","7/7/2021 12:00:00 AM","2019","15024","NYTIMES-USCENSUS"
"7/8/2021 12:00:00 AM","Lamar County","Georgia","South","South Atlantic","13171","33.07444","-84.146689 ","2081","58","1","0","7/7/2021 12:00:00 AM","2019","19077","NYTIMES-USCENSUS"
"7/8/2021 12:00:00 AM","Greene County","Virginia","South","South Atlantic","51079","38.297981","-78.470163 ","1324","19","19","1","7/7/2021 12:00:00 AM","2019","19819","NYTIMES-USCENSUS"
"7/8/2021 12:00:00 AM","Latimer County","Oklahoma","South","West South Central","40077","34.875137","-95.272262 ","846","13","0","0","7/7/2021 12:00:00 AM","2019","10073","NYTIMES-USCENSUS"
"7/8/2021 12:00:00 AM","Staunton city","Virginia","South","South Atlantic","51790","38.157978","-79.061876 ","2534","70","1","0","7/7/2021 12:00:00 AM","2019","24932","NYTIMES-USCENSUS"
"7/8/2021 12:00:00 AM","Fulton County","Arkansas","South","West South Central","05049","36.381322","-91.819285 ","1190","47","3","0","7/7/2021 12:00:00 AM","2019","12477","NYTIMES-USCENSUS"
"7/8/2021 12:00:00 AM","Weld County","Colorado","West","Mountain","08123","40.555961","-104.383666 ","33660","352","23","0","7/7/2021 12:00:00 AM","2019","324492","NYTIMES-USCENSUS"
"7/8/2021 12:00:00 AM","Polk County","Georgia","South","South Atlantic","13233","33.996015","-85.188338 ","5759","100","1","0","7/7/2021 12:00:00 AM","2019","42613","NYTIMES-USCENSUS"
"7/8/2021 12:00:00 AM","Grant County","Oklahoma","South","West South Central","40053","36.788254","-97.788151 ","550","7","0","0","7/7/2021 12:00:00 AM","2019","4333","NYTIMES-USCENSUS"
"7/8/2021 12:00:00 AM","Siskiyou County","California","West","Pacific","06093","41.587986","-122.533287 ","2433","40","10","0","7/7/2021 12:00:00 AM","2019","43539","NYTIMES-USCENSUS"
"7/8/2021 12:00:00 AM","Shenandoah County","Virginia","South","South Atlantic","51171","38.856204","-78.573987 ","4314","134","1","0","7/7/2021 12:00:00 AM","2019","43616","NYTIMES-USCENSUS"
"7/8/2021 12:00:00 AM","Boundary County","Idaho","West","Mountain","16021","48.773131","-116.524668 ","902","11","0","0","7/7/2021 12:00:00 AM","2019","12245","NYTIMES-USCENSUS"
"7/8/2021 12:00:00 AM","Union County","Florida","South","South Atlantic","12125","30.05428","-82.366918 ","1891","74","0","0","7/7/2021 12:00:00 AM","2019","15237","NYTIMES-USCENSUS"
"7/8/2021 12:00:00 AM","Cloud County","Kansas","Midwest","West North Central","20029","39.487329","-97.64139 ","1004","25","0","0","7/7/2021 12:00:00 AM","2019","8786","NYTIMES-USCENSUS"
"7/8/2021 12:00:00 AM","Aroostook County","Maine","Northeast","New England","23003","46.709193","-68.612409 ","1904","48","0","0","7/7/2021 12:00:00 AM","2019","67055","NYTIMES-USCENSUS"
"7/8/2021 12:00:00 AM","Wright County","Iowa","Midwest","West North Central","19197","42.733007","-93.734735 ","1867","40","0","0","7/7/2021 12:00:00 AM","2019","12562","NYTIMES-USCENSUS"
"7/8/2021 12:00:00 AM","Neosho County","Kansas","Midwest","West North Central","20133","37.564283","-95.315682 ","1838","35","0","0","7/7/2021 12:00:00 AM","2019","16007","NYTIMES-USCENSUS"
"7/8/2021 12:00:00 AM","Jasper County","Georgia","South","South Atlantic","13159","33.316981","-83.689151 ","1421","40","1","0","7/7/2021 12:00:00 AM","2019","14219","NYTIMES-USCENSUS"
"7/8/2021 12:00:00 AM","Bossier Parish","Louisiana","South","West South Central","22015","32.698481","-93.626561 ","14578","310","9","0","7/7/2021 12:00:00 AM","2019","127039","NYTIMES-USCENSUS"
"7/8/2021 12:00:00 AM","Canyon County","Idaho","West","Mountain","16027","43.625796","-116.709058 ","27734","313","17","0","7/7/2021 12:00:00 AM","2019","229849","NYTIMES-USCENSUS"
"7/8/2021 12:00:00 AM","Sarpy County","Nebraska","Midwest","West North Central","31153","41.115064","-96.109125 ","22460","132","0","0","7/7/2021 12:00:00 AM","2019","187196","NYTIMES-USCENSUS"
"7/8/2021 12:00:00 AM","Coffey County","Kansas","Midwest","West North Central","20031","38.23645","-95.729137 ","753","23","0","0","7/7/2021 12:00:00 AM","2019","8179","NYTIMES-USCENSUS"
"7/8/2021 12:00:00 AM","Owen County","Indiana","Midwest","East North Central","18119","39.317339","-86.838845 ","2153","60","8","0","7/7/2021 12:00:00 AM","2019","20799","NYTIMES-USCENSUS"
"7/8/2021 12:00:00 AM","Traverse County","Minnesota","Midwest","West North Central","27155","45.769935","-96.474832 ","378","5","0","0","7/7/2021 12:00:00 AM","2019","3259","NYTIMES-USCENSUS"
"7/8/2021 12:00:00 AM","Bedford County","Virginia","South","South Atlantic","51019","37.312257","-79.527223 ","6695","109","0","0","7/7/2021 12:00:00 AM","2019","78997","NYTIMES-USCENSUS"
"7/8/2021 12:00:00 AM","Stephens County","Texas","South","West South Central","48429","32.738052","-98.839344 ","803","25","2","0","7/7/2021 12:00:00 AM","2019","9366","NYTIMES-USCENSUS"
"7/8/2021 12:00:00 AM","Ketchikan Gateway Borough","Alaska","West","Pacific","02130","55.449938","-131.106685 ","659","1","0","0","7/7/2021 12:00:00 AM","2019","13901","NYTIMES-USCENSUS"
"7/8/2021 12:00:00 AM","Jefferson Parish","Louisiana","South","West South Central","22051","29.5033","-90.036231 ","47940","911","63","0","7/7/2021 12:00:00 AM","2019","432493","NYTIMES-USCENSUS"
"7/8/2021 12:00:00 AM","Sandoval County","New Mexico","West","Mountain","35043","35.685091","-106.883119 ","12295","241","8","0","7/7/2021 12:00:00 AM","2019","146748","NYTIMES-USCENSUS"
"7/8/2021 12:00:00 AM","Chelan County","Washington","West","Pacific","53007","47.860974","-120.619041 ","7159","72","0","0","7/7/2021 12:00:00 AM","2019","77200","NYTIMES-USCENSUS"
"7/8/2021 12:00:00 AM","Lowndes County","Alabama","South","East South Central","01085","32.147888","-86.650586 ","1421","54","0","0","7/7/2021 12:00:00 AM","2019","9726","NYTIMES-USCENSUS"
"7/8/2021 12:00:00 AM","Coosa County","Alabama","South","East South Central","01037","32.931445","-86.243482 ","1126","29","0","0","7/7/2021 12:00:00 AM","2019","10663","NYTIMES-USCENSUS"
"7/8/2021 12:00:00 AM","Stutsman County","North Dakota","Midwest","West North Central","38093","46.972223","-98.956123 ","3548","81","1","0","7/7/2021 12:00:00 AM","2019","20704","NYTIMES-USCENSUS"
"7/8/2021 12:00:00 AM","Lake County","Ohio","Midwest","East North Central","39085","41.778142","-81.19733 ","21277","391","10","0","7/7/2021 12:00:00 AM","2019","230149","NYTIMES-USCENSUS"
"7/8/2021 12:00:00 AM","Howard County","Nebraska","Midwest","West North Central","31093","41.216851","-98.513342 ","559","10","0","0","7/7/2021 12:00:00 AM","2019","6445","NYTIMES-USCENSUS"
"7/8/2021 12:00:00 AM","Swisher County","Texas","South","West South Central","48437","34.526319","-101.743865 ","893","18","0","0","7/7/2021 12:00:00 AM","2019","7397","NYTIMES-USCENSUS"
"7/8/2021 12:00:00 AM","Virginia Beach city","Virginia","South","South Atlantic","51810","36.779525","-76.029142 ","36526","417","19","0","7/7/2021 12:00:00 AM","2019","449974","NYTIMES-USCENSUS"
"7/8/2021 12:00:00 AM","Clark County","Illinois","Midwest","East North Central","17023","39.332334","-87.791683 ","1870","42","3","1","7/7/2021 12:00:00 AM","2019","15441","NYTIMES-USCENSUS"
"7/8/2021 12:00:00 AM","Martin County","Minnesota","Midwest","West North Central","27091","43.677173","-94.547096 ","2355","33","0","0","7/7/2021 12:00:00 AM","2019","19683","NYTIMES-USCENSUS"
"7/8/2021 12:00:00 AM","Freestone County","Texas","South","West South Central","48161","31.701749","-96.144957 ","1986","50","3","0","7/7/2021 12:00:00 AM","2019","19717","NYTIMES-USCENSUS"
"7/8/2021 12:00:00 AM","Jackson County","Illinois","Midwest","East North Central","17077","37.786096","-89.381212 ","5143","76","13","0","7/7/2021 12:00:00 AM","2019","56750","NYTIMES-USCENSUS"
"7/8/2021 12:00:00 AM","Tuolumne County","California","West","Pacific","06109","38.021434","-119.964733 ","4261","72","3","0","7/7/2021 12:00:00 AM","2019","54478","NYTIMES-USCENSUS"
"7/8/2021 12:00:00 AM","Benzie County","Michigan","Midwest","East North Central","26019","44.636844","-86.231999 ","1283","36","0","0","7/7/2021 12:00:00 AM","2019","17766","NYTIMES-USCENSUS"
"7/8/2021 12:00:00 AM","Chippewa County","Wisconsin","Midwest","East North Central","55017","45.069092","-91.283505 ","7717","97","2","0","7/7/2021 12:00:00 AM","2019","64658","NYTIMES-USCENSUS"
"7/8/2021 12:00:00 AM","Hampton city","Virginia","South","South Atlantic","51650","37.047961","-76.297293 ","10755","182","6","0","7/7/2021 12:00:00 AM","2019","134510","NYTIMES-USCENSUS"
"7/8/2021 12:00:00 AM","Taylor County","Iowa","Midwest","West North Central","19173","40.737949","-94.697108 ","668","12","0","0","7/7/2021 12:00:00 AM","2019","6121","NYTIMES-USCENSUS"
"7/8/2021 12:00:00 AM","Clinton County","Ohio","Midwest","East North Central","39027","39.416681","-83.804583 ","3831","66","4","0","7/7/2021 12:00:00 AM","2019","41968","NYTIMES-USCENSUS"
"7/8/2021 12:00:00 AM","Klickitat County","Washington","West","Pacific","53039","45.870446","-120.779305 ","898","11","3","0","7/7/2021 12:00:00 AM","2019","22425","NYTIMES-USCENSUS"
"7/8/2021 12:00:00 AM","Sharkey County","Mississippi","South","East South Central","28125","32.892395","-90.827613 ","511","18","0","0","7/7/2021 12:00:00 AM","2019","4321","NYTIMES-USCENSUS"
"7/8/2021 12:00:00 AM","Hamblen County","Tennessee","South","East South Central","47063","36.218397","-83.266071 ","8701","174","9","0","7/7/2021 12:00:00 AM","2019","64934","NYTIMES-USCENSUS"
"7/8/2021 12:00:00 AM","Denton County","Texas","South","West South Central","48121","33.205132","-97.12114 ","77343","780","73","0","7/7/2021 12:00:00 AM","2019","887207","NYTIMES-USCENSUS"
"7/8/2021 12:00:00 AM","Huron County","Ohio","Midwest","East North Central","39077","41.14508","-82.594641 ","5580","122","3","0","7/7/2021 12:00:00 AM","2019","58266","NYTIMES-USCENSUS"
"7/8/2021 12:00:00 AM","Dallam County","Texas","South","West South Central","48111","36.28637","-102.59402 ","987","26","0","0","7/7/2021 12:00:00 AM","2019","7287","NYTIMES-USCENSUS"
"7/8/2021 12:00:00 AM","Trempealeau County","Wisconsin","Midwest","East North Central","55121","44.30305","-91.358867 ","3670","48","0","0","7/7/2021 12:00:00 AM","2019","29649","NYTIMES-USCENSUS"
"7/8/2021 12:00:00 AM","St. Francois County","Missouri","Midwest","West North Central","29187","37.810707","-90.473868 ","9016","116","8","0","7/7/2021 12:00:00 AM","2019","67215","NYTIMES-USCENSUS"
"7/8/2021 12:00:00 AM","Davis County","Utah","West","Mountain","49011","41.037559","-112.201943 ","40171","184","83","0","7/7/2021 12:00:00 AM","2019","355481","NYTIMES-USCENSUS"
"7/8/2021 12:00:00 AM","Ellsworth County","Kansas","Midwest","West North Central","20053","38.700845","-98.205355 ","1229","25","0","0","7/7/2021 12:00:00 AM","2019","6102","NYTIMES-USCENSUS"
"7/8/2021 12:00:00 AM","Lane County","Kansas","Midwest","West North Central","20101","38.481286","-100.466185 ","143","7","0","0","7/7/2021 12:00:00 AM","2019","1535","NYTIMES-USCENSUS"
"7/8/2021 12:00:00 AM","Rogers County","Oklahoma","South","West South Central","40131","36.377794","-95.601383 ","10778","196","0","0","7/7/2021 12:00:00 AM","2019","92459","NYTIMES-USCENSUS"
"7/8/2021 12:00:00 AM","Crawford County","Wisconsin","Midwest","East North Central","55023","43.242768","-90.935185 ","1804","19","1","0","7/7/2021 12:00:00 AM","2019","16131","NYTIMES-USCENSUS"
"7/8/2021 12:00:00 AM","Gadsden County","Florida","South","South Atlantic","12039","30.578687","-84.612607 ","5836","99","0","0","7/7/2021 12:00:00 AM","2019","45660","NYTIMES-USCENSUS"
"7/8/2021 12:00:00 AM","Bent County","Colorado","West","Mountain","08011","37.931891","-103.077584 ","1545","22","0","0","7/7/2021 12:00:00 AM","2019","5577","NYTIMES-USCENSUS"
"7/8/2021 12:00:00 AM","Otsego County","Michigan","Midwest","East North Central","26137","45.021787","-84.576603 ","2368","41","0","0","7/7/2021 12:00:00 AM","2019","24668","NYTIMES-USCENSUS"
"7/8/2021 12:00:00 AM","Barry County","Michigan","Midwest","East North Central","26015","42.582811","-85.31455 ","5969","69","0","0","7/7/2021 12:00:00 AM","2019","61550","NYTIMES-USCENSUS"
"7/8/2021 12:00:00 AM","Clay County","South Dakota","Midwest","West North Central","46027","42.91615","-96.980468 ","1933","15","0","0","7/7/2021 12:00:00 AM","2019","14070","NYTIMES-USCENSUS"
"7/8/2021 12:00:00 AM","Carroll County","Missouri","Midwest","West North Central","29033","39.427375","-93.500227 ","1083","24","2","0","7/7/2021 12:00:00 AM","2019","8679","NYTIMES-USCENSUS"
"7/8/2021 12:00:00 AM","McLennan County","Texas","South","West South Central","48309","31.549596","-97.201511 ","27865","482","0","0","7/7/2021 12:00:00 AM","2019","256623","NYTIMES-USCENSUS"
"7/8/2021 12:00:00 AM","Washington County","Tennessee","South","East South Central","47179","36.295665","-82.495037 ","14880","254","4","0","7/7/2021 12:00:00 AM","2019","129375","NYTIMES-USCENSUS"
"7/8/2021 12:00:00 AM","Houston County","Texas","South","West South Central","48225","31.323036","-95.4216 ","1958","59","0","1","7/7/2021 12:00:00 AM","2019","22968","NYTIMES-USCENSUS"
"7/8/2021 12:00:00 AM","Miami County","Kansas","Midwest","West North Central","20121","38.566772","-94.832963 ","2836","42","0","0","7/7/2021 12:00:00 AM","2019","34237","NYTIMES-USCENSUS"
"7/8/2021 12:00:00 AM","Gwinnett County","Georgia","South","South Atlantic","13135","33.958756","-84.025735 ","103683","1208","86","0","7/7/2021 12:00:00 AM","2019","936250","NYTIMES-USCENSUS"
"7/8/2021 12:00:00 AM","Warren County","Kentucky","South","East South Central","21227","36.995634","-86.423579 ","16394","187","10","2","7/7/2021 12:00:00 AM","2019","132896","NYTIMES-USCENSUS"
"7/8/2021 12:00:00 AM","Bullitt County","Kentucky","South","East South Central","21029","37.969945","-85.702635 ","7478","83","7","0","7/7/2021 12:00:00 AM","2019","81676","NYTIMES-USCENSUS"
"7/8/2021 12:00:00 AM","Hocking County","Ohio","Midwest","East North Central","39073","39.490342","-82.483447 ","2207","63","0","0","7/7/2021 12:00:00 AM","2019","28264","NYTIMES-USCENSUS"
"7/8/2021 12:00:00 AM","Sabine County","Texas","South","West South Central","48403","31.3433","-93.851913 ","527","45","0","0","7/7/2021 12:00:00 AM","2019","10542","NYTIMES-USCENSUS"
"7/8/2021 12:00:00 AM","Kent County","Maryland","South","South Atlantic","24029","39.241279","-76.125987 ","1363","51","0","0","7/7/2021 12:00:00 AM","2019","19422","NYTIMES-USCENSUS"
"7/8/2021 12:00:00 AM","Union County","Iowa","Midwest","West North Central","19175","41.02855","-94.245091 ","1302","35","0","0","7/7/2021 12:00:00 AM","2019","12241","NYTIMES-USCENSUS"
"7/8/2021 12:00:00 AM","Carter County","Oklahoma","South","West South Central","40019","34.251848","-97.287927 ","6374","130","0","0","7/7/2021 12:00:00 AM","2019","48111","NYTIMES-USCENSUS"
"7/8/2021 12:00:00 AM","Lassen County","California","West","Pacific","06035","40.715287","-120.621223 ","5829","26","1","0","7/7/2021 12:00:00 AM","2019","30573","NYTIMES-USCENSUS"
"7/8/2021 12:00:00 AM","Gallatin County","Montana","West","Mountain","30031","45.518054","-111.163921 ","15045","63","5","0","7/7/2021 12:00:00 AM","2019","114434","NYTIMES-USCENSUS"
"7/8/2021 12:00:00 AM","Ben Hill County","Georgia","South","South Atlantic","13017","31.740772","-83.147197 ","2144","83","2","0","7/7/2021 12:00:00 AM","2019","16700","NYTIMES-USCENSUS"
"7/8/2021 12:00:00 AM","Upshur County","West Virginia","South","South Atlantic","54097","38.90253","-80.231606 ","1978","34","3","0","7/7/2021 12:00:00 AM","2019","24176","NYTIMES-USCENSUS"
"7/8/2021 12:00:00 AM","Griggs County","North Dakota","Midwest","West North Central","38039","47.456334","-98.232286 ","330","2","0","0","7/7/2021 12:00:00 AM","2019","2231","NYTIMES-USCENSUS"
"7/8/2021 12:00:00 AM","Lipscomb County","Texas","South","West South Central","48295","36.2802","-100.272683 ","350","12","0","0","7/7/2021 12:00:00 AM","2019","3233","NYTIMES-USCENSUS"
"7/8/2021 12:00:00 AM","Hughes County","South Dakota","Midwest","West North Central","46065","44.384452","-99.975684 ","2527","42","0","0","7/7/2021 12:00:00 AM","2019","17526","NYTIMES-USCENSUS"
"7/8/2021 12:00:00 AM","Navajo County","Arizona","West","Mountain","04017","35.390785","-110.321025 ","16793","552","19","0","7/7/2021 12:00:00 AM","2019","110924","NYTIMES-USCENSUS"
"7/8/2021 12:00:00 AM","Ouachita Parish","Louisiana","South","West South Central","22073","32.480932","-92.151581 ","19232","466","31","0","7/7/2021 12:00:00 AM","2019","153279","NYTIMES-USCENSUS"
"7/8/2021 12:00:00 AM","Kitsap County","Washington","West","Pacific","53035","47.639595","-122.649634 ","8909","119","13","1","7/7/2021 12:00:00 AM","2019","271473","NYTIMES-USCENSUS"
"7/8/2021 12:00:00 AM","Duplin County","North Carolina","South","South Atlantic","37061","34.934403","-77.933543 ","6397","142","4","0","7/7/2021 12:00:00 AM","2019","58741","NYTIMES-USCENSUS"
"7/8/2021 12:00:00 AM","Cass County","North Dakota","Midwest","West North Central","38017","46.927003","-97.252375 ","24797","211","2","1","7/7/2021 12:00:00 AM","2019","181923","NYTIMES-USCENSUS"
"7/8/2021 12:00:00 AM","Charlotte County","Florida","South","South Atlantic","12015","26.906396","-82.003657 ","13478","437","0","0","7/7/2021 12:00:00 AM","2019","188910","NYTIMES-USCENSUS"
"7/8/2021 12:00:00 AM","Dakota County","Nebraska","Midwest","West North Central","31043","42.391624","-96.561327 ","4150","82","0","0","7/7/2021 12:00:00 AM","2019","20026","NYTIMES-USCENSUS"
"7/8/2021 12:00:00 AM","Jones County","North Carolina","South","South Atlantic","37103","35.032268","-77.356195 ","901","28","0","0","7/7/2021 12:00:00 AM","2019","9419","NYTIMES-USCENSUS"
"7/8/2021 12:00:00 AM","Miller County","Georgia","South","South Atlantic","13201","31.162931","-84.730398 ","856","14","0","0","7/7/2021 12:00:00 AM","2019","5718","NYTIMES-USCENSUS"
"7/8/2021 12:00:00 AM","St. John the Baptist Parish","Louisiana","South","West South Central","22095","30.144068","-90.49096 ","3926","141","10","0","7/7/2021 12:00:00 AM","2019","42837","NYTIMES-USCENSUS"
"7/8/2021 12:00:00 AM","Jefferson County","Iowa","Midwest","West North Central","19101","41.006376","-91.966628 ","1341","35","0","0","7/7/2021 12:00:00 AM","2019","18295","NYTIMES-USCENSUS"
"7/8/2021 12:00:00 AM","Dallas County","Texas","South","West South Central","48113","32.766987","-96.778424 ","307352","4135","319","1","7/7/2021 12:00:00 AM","2019","2635516","NYTIMES-USCENSUS"
"7/8/2021 12:00:00 AM","Lafayette County","Florida","South","South Atlantic","12067","29.990066","-83.17851 ","1631","26","0","0","7/7/2021 12:00:00 AM","2019","8422","NYTIMES-USCENSUS"
"7/8/2021 12:00:00 AM","Polk County","Florida","South","South Atlantic","12105","27.953649","-81.693534 ","72447","1387","0","0","7/7/2021 12:00:00 AM","2019","724777","NYTIMES-USCENSUS"
"7/8/2021 12:00:00 AM","Montrose County","Colorado","West","Mountain","08085","38.407507","-108.266282 ","3773","66","4","0","7/7/2021 12:00:00 AM","2019","42758","NYTIMES-USCENSUS"
"7/8/2021 12:00:00 AM","Marquette County","Michigan","Midwest","East North Central","26103","46.656596","-87.584028 ","5941","65","0","0","7/7/2021 12:00:00 AM","2019","66699","NYTIMES-USCENSUS"
"7/8/2021 12:00:00 AM","Ida County","Iowa","Midwest","West North Central","19093","42.39186","-95.507421 ","917","35","0","0","7/7/2021 12:00:00 AM","2019","6860","NYTIMES-USCENSUS"
"7/8/2021 12:00:00 AM","Starke County","Indiana","Midwest","East North Central","18149","41.284478","-86.644636 ","2294","61","3","0","7/7/2021 12:00:00 AM","2019","22995","NYTIMES-USCENSUS"
"7/8/2021 12:00:00 AM","Kane County","Illinois","Midwest","East North Central","17089","41.939594","-88.42804 ","59606","865","1","1","7/7/2021 12:00:00 AM","2019","532403","NYTIMES-USCENSUS"
"7/8/2021 12:00:00 AM","Addison County","Vermont","Northeast","New England","50001","44.031248","-73.141581 ","1068","8","0","0","7/7/2021 12:00:00 AM","2019","36777","NYTIMES-USCENSUS"
"7/8/2021 12:00:00 AM","Campbell County","Kentucky","South","East South Central","21037","38.946981","-84.379583 ","8920","84","3","0","7/7/2021 12:00:00 AM","2019","93584","NYTIMES-USCENSUS"
"7/8/2021 12:00:00 AM","Washington County","Minnesota","Midwest","West North Central","27163","45.037929","-92.890117 ","27493","295","10","0","7/7/2021 12:00:00 AM","2019","262440","NYTIMES-USCENSUS"
"7/8/2021 12:00:00 AM","Calhoun County","Iowa","Midwest","West North Central","19025","42.38617","-94.643683 ","1401","13","0","0","7/7/2021 12:00:00 AM","2019","9668","NYTIMES-USCENSUS"
"7/8/2021 12:00:00 AM","Kemper County","Mississippi","South","East South Central","28069","32.750136","-88.625631 ","974","29","4","0","7/7/2021 12:00:00 AM","2019","9742","NYTIMES-USCENSUS"
