"monitor_date","county","state_name","region","subregion","fips","latitude","longitude","case_count_to_date","death_count_to_date","case_count","death_count","previous_monitor_date","population_year","population","source"
"7/24/2021 12:00:00 AM","Alcona County","Michigan","Midwest","East North Central","26001","44.657509","-83.29458 ","743","33","743","33","","2019","10405","NYTIMES-USCENSUS"
"7/24/2021 12:00:00 AM","Contra Costa County","California","West","Pacific","06013","37.919479","-121.951543 ","74666","830","74666","830","","2019","1153526","NYTIMES-USCENSUS"
"7/24/2021 12:00:00 AM","Wilson County","North Carolina","South","South Atlantic","37195","35.700357","-77.921598 ","10050","181","10050","181","","2019","81801","NYTIMES-USCENSUS"
"7/24/2021 12:00:00 AM","Washita County","Oklahoma","South","West South Central","40149","35.289497","-98.991436 ","1103","23","1103","23","","2019","10916","NYTIMES-USCENSUS"
"7/24/2021 12:00:00 AM","Macon County","Tennessee","South","East South Central","47111","36.537757","-86.00096 ","3692","78","3692","78","","2019","24602","NYTIMES-USCENSUS"
"7/24/2021 12:00:00 AM","Llano County","Texas","South","West South Central","48299","30.707584","-98.68469 ","1766","54","1766","54","","2019","21795","NYTIMES-USCENSUS"
"7/24/2021 12:00:00 AM","Vermilion County","Illinois","Midwest","East North Central","17183","40.186754","-87.726778 ","10162","171","10162","171","","2019","75758","NYTIMES-USCENSUS"
"7/24/2021 12:00:00 AM","Madison County","Florida","South","South Atlantic","12079","30.447233","-83.470416 ","2150","45","2150","45","","2019","18493","NYTIMES-USCENSUS"
"7/24/2021 12:00:00 AM","Elko County","Nevada","West","Mountain","32007","41.141133","-115.351424 ","5316","60","5316","60","","2019","52778","NYTIMES-USCENSUS"
"7/24/2021 12:00:00 AM","Valley County","Nebraska","Midwest","West North Central","31175","41.564094","-98.983484 ","344","2","344","2","","2019","4158","NYTIMES-USCENSUS"
"7/24/2021 12:00:00 AM","Ohio County","Kentucky","South","East South Central","21183","37.477859","-86.844871 ","2575","55","2575","55","","2019","23994","NYTIMES-USCENSUS"
"7/24/2021 12:00:00 AM","Yavapai County","Arizona","West","Mountain","04025","34.631071","-112.577225 ","20459","536","20459","536","","2019","235099","NYTIMES-USCENSUS"
"7/24/2021 12:00:00 AM","Chenango County","New York","Northeast","Middle Atlantic","36017","42.478024","-75.602241 ","3527","77","3527","77","","2019","47207","NYTIMES-USCENSUS"
"7/24/2021 12:00:00 AM","Garfield County","Utah","West","Mountain","49017","37.831664","-111.450908 ","479","10","479","10","","2019","5051","NYTIMES-USCENSUS"
"7/24/2021 12:00:00 AM","Carlton County","Minnesota","Midwest","West North Central","27017","46.603818","-92.671044 ","3569","58","3569","58","","2019","35871","NYTIMES-USCENSUS"
"7/24/2021 12:00:00 AM","Monroe County","Missouri","Midwest","West North Central","29137","39.49827","-92.006458 ","1061","12","1061","12","","2019","8644","NYTIMES-USCENSUS"
"7/24/2021 12:00:00 AM","Pulaski County","Kentucky","South","East South Central","21199","37.107452","-84.576969 ","6819","124","6819","124","","2019","64979","NYTIMES-USCENSUS"
"7/24/2021 12:00:00 AM","Bedford County","Pennsylvania","Northeast","Middle Atlantic","42009","39.998634","-78.494747 ","4747","142","4747","142","","2019","47888","NYTIMES-USCENSUS"
"7/24/2021 12:00:00 AM","Forrest County","Mississippi","South","East South Central","28035","31.18858","-89.259447 ","8210","157","8210","157","","2019","74897","NYTIMES-USCENSUS"
"7/24/2021 12:00:00 AM","Ector County","Texas","South","West South Central","48135","31.865301","-102.542507 ","18064","379","18064","379","","2019","166223","NYTIMES-USCENSUS"
"7/24/2021 12:00:00 AM","Kanawha County","West Virginia","South","South Atlantic","54039","38.328068","-81.523516 ","15594","361","15594","361","","2019","178124","NYTIMES-USCENSUS"
"7/24/2021 12:00:00 AM","Sullivan County","New Hampshire","Northeast","New England","33019","43.361188","-72.222084 ","1901","27","1901","27","","2019","43146","NYTIMES-USCENSUS"
"7/24/2021 12:00:00 AM","Guthrie County","Iowa","Midwest","West North Central","19077","41.683573","-94.501272 ","1245","32","1245","32","","2019","10689","NYTIMES-USCENSUS"
"7/24/2021 12:00:00 AM","Douglas County","South Dakota","Midwest","West North Central","46043","43.391506","-98.358433 ","458","9","458","9","","2019","2921","NYTIMES-USCENSUS"
"7/24/2021 12:00:00 AM","Ralls County","Missouri","Midwest","West North Central","29173","39.553455","-91.524787 ","1169","13","1169","13","","2019","10309","NYTIMES-USCENSUS"
"7/24/2021 12:00:00 AM","Barton County","Kansas","Midwest","West North Central","20009","38.481239","-98.767837 ","2670","51","2670","51","","2019","25779","NYTIMES-USCENSUS"
"7/24/2021 12:00:00 AM","Grundy County","Missouri","Midwest","West North Central","29079","40.112541","-93.565054 ","1185","36","1185","36","","2019","9850","NYTIMES-USCENSUS"
"7/24/2021 12:00:00 AM","Anderson County","Texas","South","West South Central","48001","31.841261","-95.661727 ","6212","133","6212","133","","2019","57735","NYTIMES-USCENSUS"
"7/24/2021 12:00:00 AM","Greer County","Oklahoma","South","West South Central","40055","34.933853","-99.552968 ","591","22","591","22","","2019","5712","NYTIMES-USCENSUS"
"7/24/2021 12:00:00 AM","Brazoria County","Texas","South","West South Central","48039","29.167817","-95.434647 ","40090","540","40090","540","","2019","374264","NYTIMES-USCENSUS"
"7/24/2021 12:00:00 AM","Stephens County","Texas","South","West South Central","48429","32.738052","-98.839344 ","802","25","802","25","","2019","9366","NYTIMES-USCENSUS"
"7/24/2021 12:00:00 AM","Livingston County","Michigan","Midwest","East North Central","26093","42.602532","-83.911718 ","16922","198","16922","198","","2019","191995","NYTIMES-USCENSUS"
"7/24/2021 12:00:00 AM","Swain County","North Carolina","South","South Atlantic","37173","35.568849","-83.465614 ","1223","18","1223","18","","2019","14271","NYTIMES-USCENSUS"
"7/24/2021 12:00:00 AM","Hopkins County","Kentucky","South","East South Central","21107","37.31107","-87.542196 ","4993","152","4993","152","","2019","44686","NYTIMES-USCENSUS"
"7/24/2021 12:00:00 AM","St. Clair County","Illinois","Midwest","East North Central","17163","38.470198","-89.928546 ","32588","570","32588","570","","2019","259686","NYTIMES-USCENSUS"
"7/24/2021 12:00:00 AM","Smith County","Mississippi","South","East South Central","28129","32.019029","-89.494876 ","1759","35","1759","35","","2019","15916","NYTIMES-USCENSUS"
"7/24/2021 12:00:00 AM","Hudspeth County","Texas","South","West South Central","48229","31.450868","-105.377549 ","542","12","542","12","","2019","4886","NYTIMES-USCENSUS"
"7/24/2021 12:00:00 AM","Cross County","Arkansas","South","West South Central","05037","35.285692","-90.763984 ","2103","53","2103","53","","2019","16419","NYTIMES-USCENSUS"
"7/24/2021 12:00:00 AM","Calaveras County","California","West","Pacific","06009","38.191068","-120.554107 ","2267","58","2267","58","","2019","45905","NYTIMES-USCENSUS"
"7/24/2021 12:00:00 AM","Audubon County","Iowa","Midwest","West North Central","19009","41.679178","-94.904312 ","529","13","529","13","","2019","5496","NYTIMES-USCENSUS"
"7/24/2021 12:00:00 AM","Tarrant County","Texas","South","West South Central","48439","32.772119","-97.291224 ","269138","3615","269138","3615","","2019","2102515","NYTIMES-USCENSUS"
"7/24/2021 12:00:00 AM","Jefferson County","Texas","South","West South Central","48245","29.854","-94.149331 ","21146","447","21146","447","","2019","251565","NYTIMES-USCENSUS"
"7/24/2021 12:00:00 AM","Caddo County","Oklahoma","South","West South Central","40015","35.16792","-98.381045 ","4016","96","4016","96","","2019","28762","NYTIMES-USCENSUS"
"7/24/2021 12:00:00 AM","Lake County","Ohio","Midwest","East North Central","39085","41.778142","-81.19733 ","21442","396","21442","396","","2019","230149","NYTIMES-USCENSUS"
"7/24/2021 12:00:00 AM","Casey County","Kentucky","South","East South Central","21045","37.321962","-84.92822 ","1548","41","1548","41","","2019","16159","NYTIMES-USCENSUS"
"7/24/2021 12:00:00 AM","Bartholomew County","Indiana","Midwest","East North Central","18005","39.205843","-85.897999 ","8257","162","8257","162","","2019","83779","NYTIMES-USCENSUS"
"7/24/2021 12:00:00 AM","Montgomery County","Arkansas","South","West South Central","05097","34.545656","-93.664153 ","793","33","793","33","","2019","8986","NYTIMES-USCENSUS"
"7/24/2021 12:00:00 AM","Muskegon County","Michigan","Midwest","East North Central","26121","43.428739","-86.420908 ","18551","383","18551","383","","2019","173566","NYTIMES-USCENSUS"
"7/24/2021 12:00:00 AM","Putnam County","Florida","South","South Atlantic","12107","29.593896","-81.732039 ","7507","160","7507","160","","2019","74521","NYTIMES-USCENSUS"
"7/24/2021 12:00:00 AM","Carteret County","North Carolina","South","South Atlantic","37031","34.858343","-76.53586 ","5334","57","5334","57","","2019","69473","NYTIMES-USCENSUS"
"7/24/2021 12:00:00 AM","Bergen County","New Jersey","Northeast","Middle Atlantic","34003","40.959698","-74.074727 ","105922","2899","105922","2899","","2019","932202","NYTIMES-USCENSUS"
"7/24/2021 12:00:00 AM","King George County","Virginia","South","South Atlantic","51099","38.27718","-77.162636 ","1748","20","1748","20","","2019","26836","NYTIMES-USCENSUS"
"7/24/2021 12:00:00 AM","Charlton County","Georgia","South","South Atlantic","13049","30.779904","-82.139644 ","1745","36","1745","36","","2019","13392","NYTIMES-USCENSUS"
"7/24/2021 12:00:00 AM","Volusia County","Florida","South","South Atlantic","12127","29.057769","-81.161792 ","49698","846","49698","846","","2019","553284","NYTIMES-USCENSUS"
"7/24/2021 12:00:00 AM","Delaware County","Indiana","Midwest","East North Central","18035","40.227543","-85.399262 ","11115","205","11115","205","","2019","114135","NYTIMES-USCENSUS"
"7/24/2021 12:00:00 AM","Juneau City and Borough","Alaska","West","Pacific","02110","58.37291","-134.178445 ","1569","3","1569","3","","2019","31974","NYTIMES-USCENSUS"
"7/24/2021 12:00:00 AM","Comanche County","Kansas","Midwest","West North Central","20033","37.181442","-99.251293 ","172","10","172","10","","2019","1700","NYTIMES-USCENSUS"
"7/24/2021 12:00:00 AM","Juniata County","Pennsylvania","Northeast","Middle Atlantic","42067","40.530673","-77.400438 ","2149","88","2149","88","","2019","24763","NYTIMES-USCENSUS"
"7/24/2021 12:00:00 AM","Livingston County","New York","Northeast","Middle Atlantic","36051","42.729042","-77.778463 ","4550","60","4550","60","","2019","62914","NYTIMES-USCENSUS"
"7/24/2021 12:00:00 AM","Lee County","Texas","South","West South Central","48287","30.321498","-96.976823 ","2277","40","2277","40","","2019","17239","NYTIMES-USCENSUS"
"7/24/2021 12:00:00 AM","Spotsylvania County","Virginia","South","South Atlantic","51177","38.182431","-77.657226 ","10350","125","10350","125","","2019","136215","NYTIMES-USCENSUS"
"7/24/2021 12:00:00 AM","Beaufort County","South Carolina","South","South Atlantic","45013","32.358112","-80.689422 ","17450","210","17450","210","","2019","192122","NYTIMES-USCENSUS"
"7/24/2021 12:00:00 AM","Merrimack County","New Hampshire","Northeast","New England","33013","43.299579","-71.680041 ","9765","117","9765","117","","2019","151391","NYTIMES-USCENSUS"
"7/24/2021 12:00:00 AM","Hopewell city","Virginia","South","South Atlantic","51670","37.29101","-77.298944 ","2735","79","2735","79","","2019","22529","NYTIMES-USCENSUS"
"7/24/2021 12:00:00 AM","Clearfield County","Pennsylvania","Northeast","Middle Atlantic","42033","41.006862","-78.477724 ","8690","156","8690","156","","2019","79255","NYTIMES-USCENSUS"
"7/24/2021 12:00:00 AM","Cuyahoga County","Ohio","Midwest","East North Central","39035","41.555037","-81.604957 ","117064","2259","117064","2259","","2019","1235072","NYTIMES-USCENSUS"
"7/24/2021 12:00:00 AM","Humboldt County","Nevada","West","Mountain","32013","41.407914","-118.127591 ","1241","14","1241","14","","2019","16831","NYTIMES-USCENSUS"
"7/24/2021 12:00:00 AM","Franklin County","Illinois","Midwest","East North Central","17055","37.991852","-88.926321 ","4781","90","4781","90","","2019","38469","NYTIMES-USCENSUS"
"7/24/2021 12:00:00 AM","Houston County","Texas","South","West South Central","48225","31.323036","-95.4216 ","2003","59","2003","59","","2019","22968","NYTIMES-USCENSUS"
"7/24/2021 12:00:00 AM","Iredell County","North Carolina","South","South Atlantic","37097","35.806251","-80.874524 ","19573","236","19573","236","","2019","181806","NYTIMES-USCENSUS"
"7/24/2021 12:00:00 AM","Christian County","Missouri","Midwest","West North Central","29043","36.969739","-93.187614 ","11158","103","11158","103","","2019","88595","NYTIMES-USCENSUS"
"7/24/2021 12:00:00 AM","Mecklenburg County","North Carolina","South","South Atlantic","37119","35.246862","-80.833832 ","116949","988","116949","988","","2019","1110356","NYTIMES-USCENSUS"
"7/24/2021 12:00:00 AM","Fall River County","South Dakota","Midwest","West North Central","46047","43.221619","-103.512609 ","609","16","609","16","","2019","6713","NYTIMES-USCENSUS"
"7/24/2021 12:00:00 AM","Beaver County","Pennsylvania","Northeast","Middle Atlantic","42007","40.68414","-80.350721 ","15646","390","15646","390","","2019","163929","NYTIMES-USCENSUS"
"7/24/2021 12:00:00 AM","King and Queen County","Virginia","South","South Atlantic","51097","37.717772","-76.905581 ","418","7","418","7","","2019","7025","NYTIMES-USCENSUS"
"7/24/2021 12:00:00 AM","Murray County","Georgia","South","South Atlantic","13213","34.797097","-84.73799 ","5106","92","5106","92","","2019","40096","NYTIMES-USCENSUS"
"7/24/2021 12:00:00 AM","Hardin County","Iowa","Midwest","West North Central","19083","42.390208","-93.241669 ","1911","44","1911","44","","2019","16846","NYTIMES-USCENSUS"
"7/24/2021 12:00:00 AM","Thomas County","Georgia","South","South Atlantic","13275","30.864619","-83.919815 ","4835","128","4835","128","","2019","44451","NYTIMES-USCENSUS"
"7/24/2021 12:00:00 AM","San Juan County","Colorado","West","Mountain","08111","37.781049","-107.670257 ","47","0","47","0","","2019","728","NYTIMES-USCENSUS"
"7/24/2021 12:00:00 AM","Warren County","Ohio","Midwest","East North Central","39165","39.425663","-84.16994 ","24864","312","24864","312","","2019","234602","NYTIMES-USCENSUS"
"7/24/2021 12:00:00 AM","Monroe County","Arkansas","South","West South Central","05095","34.679512","-91.20331 ","948","19","948","19","","2019","6701","NYTIMES-USCENSUS"
"7/24/2021 12:00:00 AM","Lee County","Virginia","South","South Atlantic","51105","36.701721","-83.130112 ","2450","49","2450","49","","2019","23423","NYTIMES-USCENSUS"
"7/24/2021 12:00:00 AM","Henry County","Indiana","Midwest","East North Central","18065","39.929591","-85.397363 ","5954","113","5954","113","","2019","47972","NYTIMES-USCENSUS"
"7/24/2021 12:00:00 AM","Isabella County","Michigan","Midwest","East North Central","26073","43.645233","-84.839424 ","6363","100","6363","100","","2019","69872","NYTIMES-USCENSUS"
"7/24/2021 12:00:00 AM","Henderson County","North Carolina","South","South Atlantic","37089","35.336415","-82.479741 ","10494","165","10494","165","","2019","117417","NYTIMES-USCENSUS"
"7/24/2021 12:00:00 AM","Tattnall County","Georgia","South","South Atlantic","13267","32.043768","-82.059208 ","2450","69","2450","69","","2019","25286","NYTIMES-USCENSUS"
"7/24/2021 12:00:00 AM","Caroline County","Maryland","South","South Atlantic","24011","38.871531","-75.831662 ","2363","30","2363","30","","2019","33406","NYTIMES-USCENSUS"
"7/24/2021 12:00:00 AM","Crook County","Wyoming","West","Mountain","56011","44.589266","-104.567298 ","470","13","470","13","","2019","7584","NYTIMES-USCENSUS"
"7/24/2021 12:00:00 AM","Wilcox County","Georgia","South","South Atlantic","13315","31.96272","-83.438259 ","851","48","851","48","","2019","8635","NYTIMES-USCENSUS"
"7/24/2021 12:00:00 AM","Yolo County","California","West","Pacific","06113","38.679609","-121.90275 ","14557","214","14557","214","","2019","220500","NYTIMES-USCENSUS"
"7/24/2021 12:00:00 AM","Wright County","Minnesota","Midwest","West North Central","27171","45.175091","-93.966396 ","16518","153","16518","153","","2019","138377","NYTIMES-USCENSUS"
"7/24/2021 12:00:00 AM","Prowers County","Colorado","West","Mountain","08099","37.958181","-102.392161 ","1285","22","1285","22","","2019","12172","NYTIMES-USCENSUS"
"7/24/2021 12:00:00 AM","Story County","Iowa","Midwest","West North Central","19169","42.037538","-93.466093 ","10828","48","10828","48","","2019","97117","NYTIMES-USCENSUS"
"7/24/2021 12:00:00 AM","Linn County","Missouri","Midwest","West North Central","29115","39.86444","-93.108019 ","1655","20","1655","20","","2019","11920","NYTIMES-USCENSUS"
"7/24/2021 12:00:00 AM","Dent County","Missouri","Midwest","West North Central","29065","37.603072","-91.489717 ","1185","19","1185","19","","2019","15573","NYTIMES-USCENSUS"
"7/24/2021 12:00:00 AM","Quitman County","Mississippi","South","East South Central","28119","34.252833","-90.290171 ","835","19","835","19","","2019","6792","NYTIMES-USCENSUS"
"7/24/2021 12:00:00 AM","Lawrence County","Alabama","South","East South Central","01079","34.529776","-87.321865 ","3188","101","3188","101","","2019","32924","NYTIMES-USCENSUS"
"7/24/2021 12:00:00 AM","Jefferson County","Florida","South","South Atlantic","12065","30.396898","-83.921761 ","1556","28","1556","28","","2019","14246","NYTIMES-USCENSUS"
"7/24/2021 12:00:00 AM","Mississippi County","Arkansas","South","West South Central","05093","35.766944","-90.052207 ","6044","111","6044","111","","2019","40651","NYTIMES-USCENSUS"
"7/24/2021 12:00:00 AM","Middlesex County","Virginia","South","South Atlantic","51119","37.606975","-76.528082 ","590","22","590","22","","2019","10582","NYTIMES-USCENSUS"
"7/24/2021 12:00:00 AM","Howard County","Iowa","Midwest","West North Central","19089","43.365312","-92.321908 ","1053","22","1053","22","","2019","9158","NYTIMES-USCENSUS"
"7/24/2021 12:00:00 AM","Custer County","Colorado","West","Mountain","08027","38.101996","-105.373512 ","236","2","236","2","","2019","5068","NYTIMES-USCENSUS"
"7/24/2021 12:00:00 AM","Worth County","Georgia","South","South Atlantic","13321","31.551773","-83.84996 ","1835","69","1835","69","","2019","20247","NYTIMES-USCENSUS"
"7/24/2021 12:00:00 AM","Leon County","Texas","South","West South Central","48289","31.300493","-95.995622 ","1687","43","1687","43","","2019","17404","NYTIMES-USCENSUS"
"7/24/2021 12:00:00 AM","Castro County","Texas","South","West South Central","48069","34.533621","-102.258786 ","1081","32","1081","32","","2019","7530","NYTIMES-USCENSUS"
"7/24/2021 12:00:00 AM","Boyd County","Kentucky","South","East South Central","21019","38.360003","-82.681406 ","5239","76","5239","76","","2019","46718","NYTIMES-USCENSUS"
"7/24/2021 12:00:00 AM","Reno County","Kansas","Midwest","West North Central","20155","37.948185","-98.078346 ","8700","143","8700","143","","2019","61998","NYTIMES-USCENSUS"
"7/24/2021 12:00:00 AM","Grundy County","Illinois","Midwest","East North Central","17063","41.29241","-88.401054 ","6033","83","6033","83","","2019","51054","NYTIMES-USCENSUS"
"7/24/2021 12:00:00 AM","Jersey County","Illinois","Midwest","East North Central","17083","39.080195","-90.361385 ","2766","71","2766","71","","2019","21773","NYTIMES-USCENSUS"
"7/24/2021 12:00:00 AM","Mountrail County","North Dakota","Midwest","West North Central","38061","48.210073","-102.364895 ","1401","18","1401","18","","2019","10545","NYTIMES-USCENSUS"
"7/24/2021 12:00:00 AM","Park County","Colorado","West","Mountain","08093","39.118914","-105.717648 ","865","5","865","5","","2019","18845","NYTIMES-USCENSUS"
"7/24/2021 12:00:00 AM","Thayer County","Nebraska","Midwest","West North Central","31169","40.173845","-97.596263 ","490","7","490","7","","2019","5003","NYTIMES-USCENSUS"
"7/24/2021 12:00:00 AM","Waldo County","Maine","Northeast","New England","23027","44.505822","-69.138961 ","1085","21","1085","21","","2019","39715","NYTIMES-USCENSUS"
"7/24/2021 12:00:00 AM","Buncombe County","North Carolina","South","South Atlantic","37021","35.609371","-82.530423 ","18421","337","18421","337","","2019","261191","NYTIMES-USCENSUS"
"7/24/2021 12:00:00 AM","St. Tammany Parish","Louisiana","South","West South Central","22103","30.410022","-89.951962 ","28915","532","28915","532","","2019","260419","NYTIMES-USCENSUS"
"7/24/2021 12:00:00 AM","Highland County","Ohio","Midwest","East North Central","39071","39.184422","-83.601359 ","3647","68","3647","68","","2019","43161","NYTIMES-USCENSUS"
"7/24/2021 12:00:00 AM","Rio Grande County","Colorado","West","Mountain","08105","37.485853","-106.453128 ","941","18","941","18","","2019","11267","NYTIMES-USCENSUS"
"7/24/2021 12:00:00 AM","Natchitoches Parish","Louisiana","South","West South Central","22069","31.732509","-93.082546 ","4297","95","4297","95","","2019","38158","NYTIMES-USCENSUS"
"7/24/2021 12:00:00 AM","Gibson County","Indiana","Midwest","East North Central","18051","38.317398","-87.580523 ","4611","99","4611","99","","2019","33659","NYTIMES-USCENSUS"
"7/24/2021 12:00:00 AM","Simpson County","Kentucky","South","East South Central","21213","36.740937","-86.581793 ","2220","43","2220","43","","2019","18572","NYTIMES-USCENSUS"
"7/24/2021 12:00:00 AM","Morton County","Kansas","Midwest","West North Central","20129","37.185249","-101.809516 ","273","9","273","9","","2019","2587","NYTIMES-USCENSUS"
"7/24/2021 12:00:00 AM","Meagher County","Montana","West","Mountain","30059","46.5857","-110.92174 ","152","7","152","7","","2019","1862","NYTIMES-USCENSUS"
"7/24/2021 12:00:00 AM","Rusk County","Texas","South","West South Central","48401","32.109423","-94.756382 ","4706","112","4706","112","","2019","54406","NYTIMES-USCENSUS"
"7/24/2021 12:00:00 AM","Boone County","Missouri","Midwest","West North Central","29019","38.989861","-92.310202 ","20451","118","20451","118","","2019","180463","NYTIMES-USCENSUS"
"7/24/2021 12:00:00 AM","Taylor County","Wisconsin","Midwest","East North Central","55119","45.211656","-90.504853 ","2148","40","2148","40","","2019","20343","NYTIMES-USCENSUS"
"7/24/2021 12:00:00 AM","Effingham County","Illinois","Midwest","East North Central","17049","39.047945","-88.592849 ","4804","85","4804","85","","2019","34008","NYTIMES-USCENSUS"
"7/24/2021 12:00:00 AM","Wilkes County","Georgia","South","South Atlantic","13317","33.779031","-82.747921 ","1129","31","1129","31","","2019","9777","NYTIMES-USCENSUS"
"7/24/2021 12:00:00 AM","Ashe County","North Carolina","South","South Atlantic","37009","36.443469","-81.499334 ","2274","45","2274","45","","2019","27203","NYTIMES-USCENSUS"
"7/24/2021 12:00:00 AM","Kenton County","Kentucky","South","East South Central","21117","38.930503","-84.533438 ","17452","214","17452","214","","2019","166998","NYTIMES-USCENSUS"
"7/24/2021 12:00:00 AM","Cape Girardeau County","Missouri","Midwest","West North Central","29031","37.384141","-89.685658 ","9685","141","9685","141","","2019","78871","NYTIMES-USCENSUS"
"7/24/2021 12:00:00 AM","Morgan County","Kentucky","South","East South Central","21175","37.92294","-83.258944 ","2336","5","2336","5","","2019","13309","NYTIMES-USCENSUS"
"7/24/2021 12:00:00 AM","Adams County","Idaho","West","Mountain","16003","44.877004","-116.461624 ","346","4","346","4","","2019","4294","NYTIMES-USCENSUS"
"7/24/2021 12:00:00 AM","Atoka County","Oklahoma","South","West South Central","40005","34.392469","-96.036558 ","1922","28","1922","28","","2019","13758","NYTIMES-USCENSUS"
"7/24/2021 12:00:00 AM","Maries County","Missouri","Midwest","West North Central","29125","38.162615","-91.923601 ","716","8","716","8","","2019","8697","NYTIMES-USCENSUS"
"7/24/2021 12:00:00 AM","Colusa County","California","West","Pacific","06011","39.177739","-122.237563 ","2339","18","2339","18","","2019","21547","NYTIMES-USCENSUS"
"7/24/2021 12:00:00 AM","Saratoga County","New York","Northeast","Middle Atlantic","36091","43.106135","-73.855387 ","15563","168","15563","168","","2019","229863","NYTIMES-USCENSUS"
"7/24/2021 12:00:00 AM","Williamson County","Texas","South","West South Central","48491","30.649082","-97.605065 ","49099","489","49099","489","","2019","590551","NYTIMES-USCENSUS"
"7/24/2021 12:00:00 AM","Wheatland County","Montana","West","Mountain","30107","46.496967","-109.857684 ","183","8","183","8","","2019","2126","NYTIMES-USCENSUS"
"7/24/2021 12:00:00 AM","Harford County","Maryland","South","South Atlantic","24025","39.537429","-76.299789 ","16781","303","16781","303","","2019","255441","NYTIMES-USCENSUS"
"7/24/2021 12:00:00 AM","Putnam County","Ohio","Midwest","East North Central","39137","41.024533","-84.129879 ","4350","104","4350","104","","2019","33861","NYTIMES-USCENSUS"
"7/24/2021 12:00:00 AM","Crockett County","Tennessee","South","East South Central","47033","35.818795","-89.132494 ","2107","50","2107","50","","2019","14230","NYTIMES-USCENSUS"
"7/24/2021 12:00:00 AM","West Carroll Parish","Louisiana","South","West South Central","22123","32.79248","-91.451998 ","1223","41","1223","41","","2019","10830","NYTIMES-USCENSUS"
"7/24/2021 12:00:00 AM","Arkansas County","Arkansas","South","West South Central","05001","34.28957","-91.376547 ","2444","39","2444","39","","2019","17486","NYTIMES-USCENSUS"
"7/24/2021 12:00:00 AM","Marshall County","Minnesota","Midwest","West North Central","27089","48.362728","-96.357761 ","888","17","888","17","","2019","9336","NYTIMES-USCENSUS"
"7/24/2021 12:00:00 AM","Miner County","South Dakota","Midwest","West North Central","46097","44.021541","-97.608122 ","306","10","306","10","","2019","2216","NYTIMES-USCENSUS"
"7/24/2021 12:00:00 AM","Brown County","Ohio","Midwest","East North Central","39015","38.931377","-83.866772 ","4093","62","4093","62","","2019","43432","NYTIMES-USCENSUS"
"7/24/2021 12:00:00 AM","Stafford County","Kansas","Midwest","West North Central","20185","38.03563","-98.719889 ","352","10","352","10","","2019","4156","NYTIMES-USCENSUS"
"7/24/2021 12:00:00 AM","Hall County","Georgia","South","South Atlantic","13139","34.317569","-83.8185 ","28370","499","28370","499","","2019","204441","NYTIMES-USCENSUS"
"7/24/2021 12:00:00 AM","Carroll County","Virginia","South","South Atlantic","51035","36.731963","-80.727831 ","2741","79","2741","79","","2019","29791","NYTIMES-USCENSUS"
"7/24/2021 12:00:00 AM","Blair County","Pennsylvania","Northeast","Middle Atlantic","42013","40.498683","-78.309597 ","13540","344","13540","344","","2019","121829","NYTIMES-USCENSUS"
"7/24/2021 12:00:00 AM","Le Flore County","Oklahoma","South","West South Central","40079","34.897356","-94.695074 ","5827","67","5827","67","","2019","49853","NYTIMES-USCENSUS"
"7/24/2021 12:00:00 AM","Mineral County","Colorado","West","Mountain","08079","37.549067","-107.003236 ","96","1","96","1","","2019","769","NYTIMES-USCENSUS"
"7/24/2021 12:00:00 AM","Yellow Medicine County","Minnesota","Midwest","West North Central","27173","44.715736","-95.862756 ","1153","20","1153","20","","2019","9709","NYTIMES-USCENSUS"
"7/24/2021 12:00:00 AM","Gladwin County","Michigan","Midwest","East North Central","26051","43.98975","-84.389816 ","2313","61","2313","61","","2019","25449","NYTIMES-USCENSUS"
"7/24/2021 12:00:00 AM","Nevada County","California","West","Pacific","06057","39.297508","-120.771343 ","5183","75","5183","75","","2019","99755","NYTIMES-USCENSUS"
"7/24/2021 12:00:00 AM","Juneau County","Wisconsin","Midwest","East North Central","55057","43.932836","-90.113984 ","3366","31","3366","31","","2019","26687","NYTIMES-USCENSUS"
"7/24/2021 12:00:00 AM","Clackamas County","Oregon","West","Pacific","41005","45.160493","-122.195127 ","19603","246","19603","246","","2019","418187","NYTIMES-USCENSUS"
"7/24/2021 12:00:00 AM","Uintah County","Utah","West","Mountain","49047","40.125887","-109.517748 ","3238","26","3238","26","","2019","35734","NYTIMES-USCENSUS"
"7/24/2021 12:00:00 AM","Brooke County","West Virginia","South","South Atlantic","54009","40.272645","-80.578691 ","2257","60","2257","60","","2019","21939","NYTIMES-USCENSUS"
"7/24/2021 12:00:00 AM","Johnson County","Arkansas","South","West South Central","05071","35.573359","-93.466322 ","3118","38","3118","38","","2019","26578","NYTIMES-USCENSUS"
"7/24/2021 12:00:00 AM","Tuscarawas County","Ohio","Midwest","East North Central","39157","40.44749","-81.471105 ","8707","254","8707","254","","2019","91987","NYTIMES-USCENSUS"
"7/24/2021 12:00:00 AM","Knox County","Maine","Northeast","New England","23013","44.042045","-69.038514 ","1182","7","1182","7","","2019","39772","NYTIMES-USCENSUS"
"7/24/2021 12:00:00 AM","Dane County","Wisconsin","Midwest","East North Central","55025","43.067468","-89.417852 ","47159","339","47159","339","","2019","546695","NYTIMES-USCENSUS"
"7/24/2021 12:00:00 AM","Sequoyah County","Oklahoma","South","West South Central","40135","35.502435","-94.750757 ","4327","57","4327","57","","2019","41569","NYTIMES-USCENSUS"
"7/24/2021 12:00:00 AM","Montgomery County","Iowa","Midwest","West North Central","19137","41.021735","-95.15779 ","1067","38","1067","38","","2019","9917","NYTIMES-USCENSUS"
"7/24/2021 12:00:00 AM","Spokane County","Washington","West","Pacific","53063","47.620375","-117.403371 ","48358","693","48358","693","","2019","522798","NYTIMES-USCENSUS"
"7/24/2021 12:00:00 AM","Tazewell County","Virginia","South","South Atlantic","51185","37.125395","-81.562924 ","3779","75","3779","75","","2019","40595","NYTIMES-USCENSUS"
"7/24/2021 12:00:00 AM","Panola County","Mississippi","South","East South Central","28107","34.365205","-89.963065 ","4723","112","4723","112","","2019","34192","NYTIMES-USCENSUS"
"7/24/2021 12:00:00 AM","Richmond County","Virginia","South","South Atlantic","51159","37.942894","-76.730561 ","1337","12","1337","12","","2019","9023","NYTIMES-USCENSUS"
"7/24/2021 12:00:00 AM","Clay County","Arkansas","South","West South Central","05021","36.367302","-90.418704 ","1894","52","1894","52","","2019","14551","NYTIMES-USCENSUS"
"7/24/2021 12:00:00 AM","Mesa County","Colorado","West","Mountain","08077","39.019524","-108.460571 ","18053","264","18053","264","","2019","154210","NYTIMES-USCENSUS"
"7/24/2021 12:00:00 AM","Leavenworth County","Kansas","Midwest","West North Central","20103","39.189511","-95.038977 ","7675","96","7675","96","","2019","81758","NYTIMES-USCENSUS"
"7/24/2021 12:00:00 AM","Montgomery County","New York","Northeast","Middle Atlantic","36057","42.900891","-74.435357 ","4276","128","4276","128","","2019","49221","NYTIMES-USCENSUS"
"7/24/2021 12:00:00 AM","Shelby County","Indiana","Midwest","East North Central","18145","39.524135","-85.792174 ","6091","108","6091","108","","2019","44729","NYTIMES-USCENSUS"
"7/24/2021 12:00:00 AM","Lake County","Indiana","Midwest","East North Central","18089","41.472247","-87.374337 ","56881","1070","56881","1070","","2019","485493","NYTIMES-USCENSUS"
"7/24/2021 12:00:00 AM","Douglas County","Minnesota","Midwest","West North Central","27041","45.936835","-95.462155 ","4777","81","4777","81","","2019","38141","NYTIMES-USCENSUS"
"7/24/2021 12:00:00 AM","Martin County","Minnesota","Midwest","West North Central","27091","43.677173","-94.547096 ","2369","33","2369","33","","2019","19683","NYTIMES-USCENSUS"
"7/24/2021 12:00:00 AM","Pasquotank County","North Carolina","South","South Atlantic","37139","36.265199","-76.260691 ","3478","87","3478","87","","2019","39824","NYTIMES-USCENSUS"
"7/24/2021 12:00:00 AM","Union County","South Dakota","Midwest","West North Central","46127","42.831106","-96.650829 ","2238","43","2238","43","","2019","15932","NYTIMES-USCENSUS"
"7/24/2021 12:00:00 AM","Elk County","Kansas","Midwest","West North Central","20049","37.456026","-96.244642 ","187","5","187","5","","2019","2530","NYTIMES-USCENSUS"
"7/24/2021 12:00:00 AM","Morgan County","Colorado","West","Mountain","08087","40.263159","-103.81221 ","2772","96","2772","96","","2019","29068","NYTIMES-USCENSUS"
"7/24/2021 12:00:00 AM","Butler County","Nebraska","Midwest","West North Central","31023","41.226072","-97.132039 ","864","12","864","12","","2019","8016","NYTIMES-USCENSUS"
"7/24/2021 12:00:00 AM","Culpeper County","Virginia","South","South Atlantic","51047","38.48593","-77.956476 ","4763","67","4763","67","","2019","52605","NYTIMES-USCENSUS"
"7/24/2021 12:00:00 AM","Putnam County","Tennessee","South","East South Central","47141","36.14094","-85.49618 ","11935","183","11935","183","","2019","80245","NYTIMES-USCENSUS"
"7/24/2021 12:00:00 AM","Mason County","Washington","West","Pacific","53045","47.350832","-123.173103 ","3005","38","3005","38","","2019","66768","NYTIMES-USCENSUS"
"7/24/2021 12:00:00 AM","McLean County","Kentucky","South","East South Central","21149","37.526707","-87.265597 ","916","28","916","28","","2019","9207","NYTIMES-USCENSUS"
"7/24/2021 12:00:00 AM","Shackelford County","Texas","South","West South Central","48417","32.74382","-99.347005 ","279","5","279","5","","2019","3265","NYTIMES-USCENSUS"
"7/24/2021 12:00:00 AM","Chautauqua County","Kansas","Midwest","West North Central","20019","37.154259","-96.245396 ","292","6","292","6","","2019","3250","NYTIMES-USCENSUS"
"7/24/2021 12:00:00 AM","Brown County","Minnesota","Midwest","West North Central","27015","44.246541","-94.733647 ","3086","40","3086","40","","2019","25008","NYTIMES-USCENSUS"
"7/24/2021 12:00:00 AM","Cass County","North Dakota","Midwest","West North Central","38017","46.927003","-97.252375 ","24858","213","24858","213","","2019","181923","NYTIMES-USCENSUS"
"7/24/2021 12:00:00 AM","Brule County","South Dakota","Midwest","West North Central","46015","43.729873","-99.092909 ","721","10","721","10","","2019","5297","NYTIMES-USCENSUS"
"7/24/2021 12:00:00 AM","Cherokee County","Kansas","Midwest","West North Central","20021","37.169392","-94.845698 ","2904","57","2904","57","","2019","19939","NYTIMES-USCENSUS"
"7/24/2021 12:00:00 AM","Wyandot County","Ohio","Midwest","East North Central","39175","40.839782","-83.313681 ","2352","57","2352","57","","2019","21772","NYTIMES-USCENSUS"
"7/24/2021 12:00:00 AM","Elmore County","Alabama","South","East South Central","01051","32.597229","-86.142735 ","10636","217","10636","217","","2019","81209","NYTIMES-USCENSUS"
"7/24/2021 12:00:00 AM","Union County","Iowa","Midwest","West North Central","19175","41.02855","-94.245091 ","1295","35","1295","35","","2019","12241","NYTIMES-USCENSUS"
"7/24/2021 12:00:00 AM","Morrill County","Nebraska","Midwest","West North Central","31123","41.732204","-102.990594 ","513","15","513","15","","2019","4642","NYTIMES-USCENSUS"
"7/24/2021 12:00:00 AM","Luzerne County","Pennsylvania","Northeast","Middle Atlantic","42079","41.173078","-75.976053 ","32290","830","32290","830","","2019","317417","NYTIMES-USCENSUS"
"7/24/2021 12:00:00 AM","Collier County","Florida","South","South Atlantic","12021","26.118786","-81.400955 ","38460","551","38460","551","","2019","384902","NYTIMES-USCENSUS"
"7/24/2021 12:00:00 AM","Bay County","Florida","South","South Atlantic","12005","30.15914","-85.534395 ","21904","394","21904","394","","2019","174705","NYTIMES-USCENSUS"
"7/24/2021 12:00:00 AM","Athens County","Ohio","Midwest","East North Central","39009","39.332755","-82.045885 ","5263","60","5263","60","","2019","65327","NYTIMES-USCENSUS"
"7/24/2021 12:00:00 AM","Butler County","Ohio","Midwest","East North Central","39017","39.439747","-84.565734 ","39902","614","39902","614","","2019","383134","NYTIMES-USCENSUS"
"7/24/2021 12:00:00 AM","Kankakee County","Illinois","Midwest","East North Central","17091","41.13951","-87.861117 ","14715","232","14715","232","","2019","109862","NYTIMES-USCENSUS"
"7/24/2021 12:00:00 AM","Halifax County","North Carolina","South","South Atlantic","37083","36.251438","-77.644842 ","5743","115","5743","115","","2019","50010","NYTIMES-USCENSUS"
"7/24/2021 12:00:00 AM","Oliver County","North Dakota","Midwest","West North Central","38065","47.118079","-101.33142 ","159","3","159","3","","2019","1959","NYTIMES-USCENSUS"
"7/24/2021 12:00:00 AM","Sanpete County","Utah","West","Mountain","49039","39.373426","-111.576933 ","4000","24","4000","24","","2019","30939","NYTIMES-USCENSUS"
"7/24/2021 12:00:00 AM","Dakota County","Nebraska","Midwest","West North Central","31043","42.391624","-96.561327 ","4155","82","4155","82","","2019","20026","NYTIMES-USCENSUS"
"7/24/2021 12:00:00 AM","McKinley County","New Mexico","West","Mountain","35031","35.584062","-108.253294 ","12488","480","12488","480","","2019","71367","NYTIMES-USCENSUS"
"7/24/2021 12:00:00 AM","Cherokee County","South Carolina","South","South Atlantic","45021","35.049796","-81.607647 ","6300","159","6300","159","","2019","57300","NYTIMES-USCENSUS"
"7/24/2021 12:00:00 AM","Franklin County","Georgia","South","South Atlantic","13119","34.375266","-83.227532 ","2802","57","2802","57","","2019","23349","NYTIMES-USCENSUS"
"7/24/2021 12:00:00 AM","Webster County","Nebraska","Midwest","West North Central","31181","40.180646","-98.49859 ","419","8","419","8","","2019","3487","NYTIMES-USCENSUS"
"7/24/2021 12:00:00 AM","Jefferson County","West Virginia","South","South Atlantic","54037","39.307398","-77.86322 ","4829","60","4829","60","","2019","57146","NYTIMES-USCENSUS"
"7/24/2021 12:00:00 AM","Bledsoe County","Tennessee","South","East South Central","47007","35.593561","-85.20591 ","2256","12","2256","12","","2019","15064","NYTIMES-USCENSUS"
"7/24/2021 12:00:00 AM","Smith County","Texas","South","West South Central","48423","32.377016","-95.270041 ","21268","492","21268","492","","2019","232751","NYTIMES-USCENSUS"
"7/24/2021 12:00:00 AM","Bonner County","Idaho","West","Mountain","16017","48.316796","-116.612362 ","3440","46","3440","46","","2019","45739","NYTIMES-USCENSUS"
"7/24/2021 12:00:00 AM","Todd County","South Dakota","Midwest","West North Central","46121","43.208794","-100.707664 ","1240","33","1240","33","","2019","10177","NYTIMES-USCENSUS"
"7/24/2021 12:00:00 AM","DeKalb County","Indiana","Midwest","East North Central","18033","41.39676","-85.002697 ","4519","88","4519","88","","2019","43475","NYTIMES-USCENSUS"
"7/24/2021 12:00:00 AM","Texas County","Oklahoma","South","West South Central","40139","36.746317","-101.483855 ","3557","35","3557","35","","2019","19983","NYTIMES-USCENSUS"
"7/24/2021 12:00:00 AM","Lincoln Parish","Louisiana","South","West South Central","22061","32.601823","-92.662303 ","4906","95","4906","95","","2019","46742","NYTIMES-USCENSUS"
"7/24/2021 12:00:00 AM","Honolulu County","Hawaii","West","Pacific","15003","21.461365","-158.201974 ","29482","408","29482","408","","2019","974563","NYTIMES-USCENSUS"
"7/24/2021 12:00:00 AM","Chattahoochee County","Georgia","South","South Atlantic","13053","32.347445","-84.788021 ","4814","17","4814","17","","2019","10907","NYTIMES-USCENSUS"
"7/24/2021 12:00:00 AM","Itasca County","Minnesota","Midwest","West North Central","27061","47.490817","-93.611102 ","4627","68","4627","68","","2019","45130","NYTIMES-USCENSUS"
"7/24/2021 12:00:00 AM","McHenry County","North Dakota","Midwest","West North Central","38049","48.233842","-100.633267 ","664","23","664","23","","2019","5745","NYTIMES-USCENSUS"
"7/24/2021 12:00:00 AM","Forsyth County","Georgia","South","South Atlantic","13117","34.225143","-84.127408 ","23719","205","23719","205","","2019","244252","NYTIMES-USCENSUS"
"7/24/2021 12:00:00 AM","Knox County","Nebraska","Midwest","West North Central","31107","42.634404","-97.891349 ","1159","13","1159","13","","2019","8332","NYTIMES-USCENSUS"
"7/24/2021 12:00:00 AM","Coleman County","Texas","South","West South Central","48083","31.914205","-99.346622 ","787","34","787","34","","2019","8175","NYTIMES-USCENSUS"
"7/24/2021 12:00:00 AM","Marshall County","West Virginia","South","South Atlantic","54051","39.854426","-80.671794 ","3565","79","3565","79","","2019","30531","NYTIMES-USCENSUS"
"7/24/2021 12:00:00 AM","Gordon County","Georgia","South","South Atlantic","13129","34.509667","-84.873862 ","8449","120","8449","120","","2019","57963","NYTIMES-USCENSUS"
"7/24/2021 12:00:00 AM","Cerro Gordo County","Iowa","Midwest","West North Central","19033","43.074975","-93.250965 ","5622","97","5622","97","","2019","42450","NYTIMES-USCENSUS"
"7/24/2021 12:00:00 AM","Jack County","Texas","South","West South Central","48237","33.23216","-98.171177 ","602","16","602","16","","2019","8935","NYTIMES-USCENSUS"
"7/24/2021 12:00:00 AM","Monona County","Iowa","Midwest","West North Central","19133","42.049432","-95.956566 ","859","31","859","31","","2019","8615","NYTIMES-USCENSUS"
"7/24/2021 12:00:00 AM","San Benito County","California","West","Pacific","06069","36.611651","-121.085811 ","6200","63","6200","63","","2019","62808","NYTIMES-USCENSUS"
"7/24/2021 12:00:00 AM","San Juan County","Utah","West","Mountain","49037","37.602633","-109.791574 ","1967","37","1967","37","","2019","15308","NYTIMES-USCENSUS"
"7/24/2021 12:00:00 AM","Ascension Parish","Louisiana","South","West South Central","22005","30.206444","-90.912502 ","14324","170","14324","170","","2019","126604","NYTIMES-USCENSUS"
"7/24/2021 12:00:00 AM","Hillsborough County","New Hampshire","Northeast","New England","33011","42.911532","-71.723055 ","36590","648","36590","648","","2019","417025","NYTIMES-USCENSUS"
"7/24/2021 12:00:00 AM","Polk County","Tennessee","South","East South Central","47139","35.109437","-84.541112 ","2131","24","2131","24","","2019","16832","NYTIMES-USCENSUS"
"7/24/2021 12:00:00 AM","Sioux County","Iowa","Midwest","West North Central","19167","43.082646","-96.17801 ","5191","74","5191","74","","2019","34855","NYTIMES-USCENSUS"
"7/24/2021 12:00:00 AM","Estill County","Kentucky","South","East South Central","21065","37.692449","-83.963983 ","1203","12","1203","12","","2019","14106","NYTIMES-USCENSUS"
"7/24/2021 12:00:00 AM","Swisher County","Texas","South","West South Central","48437","34.526319","-101.743865 ","910","18","910","18","","2019","7397","NYTIMES-USCENSUS"
"7/24/2021 12:00:00 AM","Cherokee County","Alabama","South","East South Central","01019","34.069515","-85.654242 ","1938","48","1938","48","","2019","26196","NYTIMES-USCENSUS"
"7/24/2021 12:00:00 AM","Charlevoix County","Michigan","Midwest","East North Central","26029","45.618554","-85.543684 ","1696","22","1696","22","","2019","26143","NYTIMES-USCENSUS"
"7/24/2021 12:00:00 AM","Mitchell County","Iowa","Midwest","West North Central","19131","43.348564","-92.784466 ","1272","43","1272","43","","2019","10586","NYTIMES-USCENSUS"
"7/24/2021 12:00:00 AM","White Pine County","Nevada","West","Mountain","32033","39.418176","-114.900565 ","654","6","654","6","","2019","9580","NYTIMES-USCENSUS"
"7/24/2021 12:00:00 AM","Johnson County","Tennessee","South","East South Central","47091","36.453203","-81.861247 ","2468","39","2468","39","","2019","17788","NYTIMES-USCENSUS"
"7/24/2021 12:00:00 AM","Scott County","Kansas","Midwest","West North Central","20171","38.481877","-100.90636 ","621","25","621","25","","2019","4823","NYTIMES-USCENSUS"
"7/24/2021 12:00:00 AM","Parker County","Texas","South","West South Central","48367","32.777096","-97.805905 ","16751","193","16751","193","","2019","142878","NYTIMES-USCENSUS"
"7/24/2021 12:00:00 AM","Edgecombe County","North Carolina","South","South Atlantic","37065","35.917077","-77.602742 ","5794","114","5794","114","","2019","51472","NYTIMES-USCENSUS"
"7/24/2021 12:00:00 AM","McKean County","Pennsylvania","Northeast","Middle Atlantic","42083","41.81459","-78.572463 ","3844","75","3844","75","","2019","40625","NYTIMES-USCENSUS"
"7/24/2021 12:00:00 AM","Cibola County","New Mexico","West","Mountain","35006","34.928272","-107.99268 ","3583","128","3583","128","","2019","26675","NYTIMES-USCENSUS"
"7/24/2021 12:00:00 AM","Crane County","Texas","South","West South Central","48103","31.422796","-102.487774 ","568","12","568","12","","2019","4797","NYTIMES-USCENSUS"
"7/24/2021 12:00:00 AM","Des Moines County","Iowa","Midwest","West North Central","19057","40.915339","-91.186925 ","4782","75","4782","75","","2019","38967","NYTIMES-USCENSUS"
"7/24/2021 12:00:00 AM","Nottoway County","Virginia","South","South Atlantic","51135","37.141167","-78.053866 ","1966","51","1966","51","","2019","15232","NYTIMES-USCENSUS"
"7/24/2021 12:00:00 AM","Sampson County","North Carolina","South","South Atlantic","37163","34.989298","-78.371261 ","8306","115","8306","115","","2019","63531","NYTIMES-USCENSUS"
"7/24/2021 12:00:00 AM","Montgomery County","Kansas","Midwest","West North Central","20125","37.189537","-95.742403 ","3590","84","3590","84","","2019","31829","NYTIMES-USCENSUS"
"7/24/2021 12:00:00 AM","Cleveland County","North Carolina","South","South Atlantic","37045","35.33463","-81.557114 ","11959","228","11959","228","","2019","97947","NYTIMES-USCENSUS"
"7/24/2021 12:00:00 AM","Bamberg County","South Carolina","South","South Atlantic","45009","33.203021","-81.053161 ","1609","53","1609","53","","2019","14066","NYTIMES-USCENSUS"
"7/24/2021 12:00:00 AM","Yadkin County","North Carolina","South","South Atlantic","37197","36.158765","-80.665164 ","4187","55","4187","55","","2019","37667","NYTIMES-USCENSUS"
"7/24/2021 12:00:00 AM","Ballard County","Kentucky","South","East South Central","21007","37.051323","-89.010367 ","423","10","423","10","","2019","7888","NYTIMES-USCENSUS"
"7/24/2021 12:00:00 AM","Emmet County","Michigan","Midwest","East North Central","26047","45.590094","-84.986822 ","2399","43","2399","43","","2019","33415","NYTIMES-USCENSUS"
"7/24/2021 12:00:00 AM","Grant County","West Virginia","South","South Atlantic","54023","39.105988","-79.195064 ","1322","29","1322","29","","2019","11568","NYTIMES-USCENSUS"
"7/24/2021 12:00:00 AM","Seward County","Nebraska","Midwest","West North Central","31159","40.871944","-97.140383 ","2049","34","2049","34","","2019","17284","NYTIMES-USCENSUS"
"7/24/2021 12:00:00 AM","Queen Anne's County","Maryland","South","South Atlantic","24035","39.040693","-76.082405 ","3030","52","3030","52","","2019","50381","NYTIMES-USCENSUS"
"7/24/2021 12:00:00 AM","Harney County","Oregon","West","Pacific","41025","43.064449","-118.987169 ","451","11","451","11","","2019","7393","NYTIMES-USCENSUS"
"7/24/2021 12:00:00 AM","Hickman County","Tennessee","South","East South Central","47081","35.802327","-87.467116 ","2913","47","2913","47","","2019","25178","NYTIMES-USCENSUS"
"7/24/2021 12:00:00 AM","Kit Carson County","Colorado","West","Mountain","08063","39.30534","-102.603023 ","657","12","657","12","","2019","7097","NYTIMES-USCENSUS"
"7/24/2021 12:00:00 AM","Mifflin County","Pennsylvania","Northeast","Middle Atlantic","42087","40.601615","-77.651832 ","5448","183","5448","183","","2019","46138","NYTIMES-USCENSUS"
"7/24/2021 12:00:00 AM","Barnwell County","South Carolina","South","South Atlantic","45011","33.260552","-81.434228 ","2651","58","2651","58","","2019","20866","NYTIMES-USCENSUS"
"7/24/2021 12:00:00 AM","Murray County","Oklahoma","South","West South Central","40099","34.485766","-97.071557 ","2078","44","2078","44","","2019","14073","NYTIMES-USCENSUS"
"7/24/2021 12:00:00 AM","Canadian County","Oklahoma","South","West South Central","40017","35.543354","-97.979889 ","17627","190","17627","190","","2019","148306","NYTIMES-USCENSUS"
"7/24/2021 12:00:00 AM","Sac County","Iowa","Midwest","West North Central","19161","42.387526","-95.105224 ","1326","20","1326","20","","2019","9721","NYTIMES-USCENSUS"
"7/24/2021 12:00:00 AM","Salem city","Virginia","South","South Atlantic","51775","37.285333","-80.055241 ","2255","50","2255","50","","2019","25301","NYTIMES-USCENSUS"
"7/24/2021 12:00:00 AM","Doniphan County","Kansas","Midwest","West North Central","20043","39.788502","-95.147225 ","1110","23","1110","23","","2019","7600","NYTIMES-USCENSUS"
"7/24/2021 12:00:00 AM","Carroll County","Arkansas","South","West South Central","05015","36.33737","-93.540972 ","3151","47","3151","47","","2019","28380","NYTIMES-USCENSUS"
"7/24/2021 12:00:00 AM","Poquoson city","Virginia","South","South Atlantic","51735","37.12836","-76.303534 ","912","18","912","18","","2019","12271","NYTIMES-USCENSUS"
"7/24/2021 12:00:00 AM","Crawford County","Wisconsin","Midwest","East North Central","55023","43.242768","-90.935185 ","1807","19","1807","19","","2019","16131","NYTIMES-USCENSUS"
"7/24/2021 12:00:00 AM","Chambers County","Alabama","South","East South Central","01017","32.915504","-85.394032 ","3842","125","3842","125","","2019","33254","NYTIMES-USCENSUS"
"7/24/2021 12:00:00 AM","Alamosa County","Colorado","West","Mountain","08003","37.568442","-105.788041 ","1782","38","1782","38","","2019","16233","NYTIMES-USCENSUS"
"7/24/2021 12:00:00 AM","Okmulgee County","Oklahoma","South","West South Central","40111","35.6435","-95.965947 ","3988","85","3988","85","","2019","38465","NYTIMES-USCENSUS"
"7/24/2021 12:00:00 AM","St. Croix County","Wisconsin","Midwest","East North Central","55109","45.028959","-92.447284 ","9897","72","9897","72","","2019","90687","NYTIMES-USCENSUS"
"7/24/2021 12:00:00 AM","Clay County","West Virginia","South","South Atlantic","54015","38.459826","-81.081866 ","544","11","544","11","","2019","8508","NYTIMES-USCENSUS"
"7/24/2021 12:00:00 AM","Benton County","Oregon","West","Pacific","41003","44.493882","-123.424664 ","3387","22","3387","22","","2019","93053","NYTIMES-USCENSUS"
"7/24/2021 12:00:00 AM","Washington County","Colorado","West","Mountain","08121","39.96579","-103.209744 ","477","13","477","13","","2019","4908","NYTIMES-USCENSUS"
"7/24/2021 12:00:00 AM","Fresno County","California","West","Pacific","06019","36.761006","-119.655019 ","103637","1736","103637","1736","","2019","999101","NYTIMES-USCENSUS"
"7/24/2021 12:00:00 AM","Lyman County","South Dakota","Midwest","West North Central","46085","43.894812","-99.841925 ","660","11","660","11","","2019","3781","NYTIMES-USCENSUS"
"7/24/2021 12:00:00 AM","Livingston Parish","Louisiana","South","West South Central","22063","30.440419","-90.727474 ","16061","219","16061","219","","2019","140789","NYTIMES-USCENSUS"
"7/24/2021 12:00:00 AM","Arapahoe County","Colorado","West","Mountain","08005","39.644554","-104.331706 ","65158","844","65158","844","","2019","656590","NYTIMES-USCENSUS"
"7/24/2021 12:00:00 AM","Kandiyohi County","Minnesota","Midwest","West North Central","27067","45.152714","-95.004981 ","6698","85","6698","85","","2019","43199","NYTIMES-USCENSUS"
"7/24/2021 12:00:00 AM","Foster County","North Dakota","Midwest","West North Central","38031","47.471431","-98.872876 ","600","19","600","19","","2019","3210","NYTIMES-USCENSUS"
"7/24/2021 12:00:00 AM","Sarasota County","Florida","South","South Atlantic","12115","27.225327","-82.423714 ","34258","844","34258","844","","2019","433742","NYTIMES-USCENSUS"
"7/24/2021 12:00:00 AM","Lyon County","Kentucky","South","East South Central","21143","37.023976","-88.083391 ","1565","22","1565","22","","2019","8210","NYTIMES-USCENSUS"
"7/24/2021 12:00:00 AM","Jefferson County","Oregon","West","Pacific","41031","44.645151","-121.178632 ","2456","42","2456","42","","2019","24658","NYTIMES-USCENSUS"
"7/24/2021 12:00:00 AM","Elk County","Pennsylvania","Northeast","Middle Atlantic","42047","41.427332","-78.653937 ","2878","41","2878","41","","2019","29910","NYTIMES-USCENSUS"
"7/24/2021 12:00:00 AM","Clermont County","Ohio","Midwest","East North Central","39025","39.052054","-84.149485 ","20350","260","20350","260","","2019","206428","NYTIMES-USCENSUS"
"7/24/2021 12:00:00 AM","Catoosa County","Georgia","South","South Atlantic","13047","34.900212","-85.139385 ","6863","76","6863","76","","2019","67580","NYTIMES-USCENSUS"
"7/24/2021 12:00:00 AM","Ouachita Parish","Louisiana","South","West South Central","22073","32.480932","-92.151581 ","20011","469","20011","469","","2019","153279","NYTIMES-USCENSUS"
"7/24/2021 12:00:00 AM","Fairbanks North Star Borough","Alaska","West","Pacific","02090","64.676044","-146.548159 ","8086","44","8086","44","","2019","96849","NYTIMES-USCENSUS"
"7/24/2021 12:00:00 AM","Santa Clara County","California","West","Pacific","06085","37.221614","-121.68954 ","121767","2100","121767","2100","","2019","1927852","NYTIMES-USCENSUS"
"7/24/2021 12:00:00 AM","Osceola County","Michigan","Midwest","East North Central","26133","43.997552","-85.322283 ","1971","31","1971","31","","2019","23460","NYTIMES-USCENSUS"
"7/24/2021 12:00:00 AM","Pinellas County","Florida","South","South Atlantic","12103","27.905342","-82.798066 ","85554","1671","85554","1671","","2019","974996","NYTIMES-USCENSUS"
"7/24/2021 12:00:00 AM","Amador County","California","West","Pacific","06005","38.443549","-120.653858 ","3815","48","3815","48","","2019","39752","NYTIMES-USCENSUS"
"7/24/2021 12:00:00 AM","Cabarrus County","North Carolina","South","South Atlantic","37025","35.388346","-80.552728 ","22873","264","22873","264","","2019","216453","NYTIMES-USCENSUS"
"7/24/2021 12:00:00 AM","St. Charles County","Missouri","Midwest","West North Central","29183","38.781102","-90.674915 ","49850","601","49850","601","","2019","402022","NYTIMES-USCENSUS"
"7/24/2021 12:00:00 AM","Oldham County","Kentucky","South","East South Central","21185","38.400127","-85.45615 ","7800","85","7800","85","","2019","66799","NYTIMES-USCENSUS"
"7/24/2021 12:00:00 AM","Gallatin County","Kentucky","South","East South Central","21077","38.755663","-84.865143 ","761","33","761","33","","2019","8869","NYTIMES-USCENSUS"
"7/24/2021 12:00:00 AM","Hendry County","Florida","South","South Atlantic","12051","26.539967","-81.152114 ","5091","87","5091","87","","2019","42022","NYTIMES-USCENSUS"
"7/24/2021 12:00:00 AM","Clay County","Minnesota","Midwest","West North Central","27027","46.898377","-96.494901 ","8296","92","8296","92","","2019","64222","NYTIMES-USCENSUS"
"7/24/2021 12:00:00 AM","Las Animas County","Colorado","West","Mountain","08071","37.318831","-104.04411 ","1236","14","1236","14","","2019","14506","NYTIMES-USCENSUS"
"7/24/2021 12:00:00 AM","New London County","Connecticut","Northeast","New England","09011","41.472652","-72.108634 ","22807","451","22807","451","","2019","265206","NYTIMES-USCENSUS"
"7/24/2021 12:00:00 AM","Kennebec County","Maine","Northeast","New England","23011","44.417012","-69.765764 ","6679","82","6679","82","","2019","122302","NYTIMES-USCENSUS"
"7/24/2021 12:00:00 AM","Clinton County","Missouri","Midwest","West North Central","29049","39.608723","-94.395803 ","2173","65","2173","65","","2019","20387","NYTIMES-USCENSUS"
"7/24/2021 12:00:00 AM","Cedar County","Missouri","Midwest","West North Central","29039","37.733655","-93.850014 ","1319","21","1319","21","","2019","14349","NYTIMES-USCENSUS"
"7/24/2021 12:00:00 AM","Erie County","Pennsylvania","Northeast","Middle Atlantic","42049","42.117952","-80.096386 ","21308","419","21308","419","","2019","269728","NYTIMES-USCENSUS"
"7/24/2021 12:00:00 AM","Calhoun County","Michigan","Midwest","East North Central","26025","42.24299","-85.012385 ","14690","320","14690","320","","2019","134159","NYTIMES-USCENSUS"
"7/24/2021 12:00:00 AM","Pepin County","Wisconsin","Midwest","East North Central","55091","44.627436","-91.83489 ","898","7","898","7","","2019","7287","NYTIMES-USCENSUS"
"7/24/2021 12:00:00 AM","Darke County","Ohio","Midwest","East North Central","39037","40.131467","-84.621191 ","5436","130","5436","130","","2019","51113","NYTIMES-USCENSUS"
"7/24/2021 12:00:00 AM","Talladega County","Alabama","South","East South Central","01121","33.369314","-86.17593 ","8721","187","8721","187","","2019","79978","NYTIMES-USCENSUS"
"7/24/2021 12:00:00 AM","Stark County","North Dakota","Midwest","West North Central","38089","46.817031","-102.662026 ","5000","52","5000","52","","2019","31489","NYTIMES-USCENSUS"
"7/24/2021 12:00:00 AM","Perry County","Ohio","Midwest","East North Central","39127","39.743187","-82.237952 ","2983","50","2983","50","","2019","36134","NYTIMES-USCENSUS"
"7/24/2021 12:00:00 AM","Boyle County","Kentucky","South","East South Central","21021","37.618104","-84.868352 ","3567","78","3567","78","","2019","30060","NYTIMES-USCENSUS"
"7/24/2021 12:00:00 AM","Ouachita County","Arkansas","South","West South Central","05103","33.591168","-92.878413 ","2626","65","2626","65","","2019","23382","NYTIMES-USCENSUS"
"7/24/2021 12:00:00 AM","Saginaw County","Michigan","Midwest","East North Central","26145","43.328267","-84.05541 ","22671","640","22671","640","","2019","190539","NYTIMES-USCENSUS"
"7/24/2021 12:00:00 AM","Scott County","Mississippi","South","East South Central","28123","32.411959","-89.533486 ","3317","75","3317","75","","2019","28124","NYTIMES-USCENSUS"
"7/24/2021 12:00:00 AM","Sullivan County","Pennsylvania","Northeast","Middle Atlantic","42113","41.439285","-76.511717 ","443","21","443","21","","2019","6066","NYTIMES-USCENSUS"
"7/24/2021 12:00:00 AM","Benton County","Iowa","Midwest","West North Central","19011","42.092547","-92.05763 ","2627","55","2627","55","","2019","25645","NYTIMES-USCENSUS"
"7/24/2021 12:00:00 AM","Spencer County","Kentucky","South","East South Central","21215","38.025411","-85.317174 ","1674","25","1674","25","","2019","19351","NYTIMES-USCENSUS"
"7/24/2021 12:00:00 AM","LaGrange County","Indiana","Midwest","East North Central","18087","41.642462","-85.427845 ","2774","74","2774","74","","2019","39614","NYTIMES-USCENSUS"
"7/24/2021 12:00:00 AM","Coal County","Oklahoma","South","West South Central","40029","34.582861","-96.288039 ","723","15","723","15","","2019","5495","NYTIMES-USCENSUS"
"7/24/2021 12:00:00 AM","Knox County","Kentucky","South","East South Central","21121","36.8885","-83.855551 ","3941","47","3941","47","","2019","31145","NYTIMES-USCENSUS"
"7/24/2021 12:00:00 AM","Carver County","Minnesota","Midwest","West North Central","27019","44.82132","-93.800091 ","10737","49","10737","49","","2019","105089","NYTIMES-USCENSUS"
"7/24/2021 12:00:00 AM","Richland County","North Dakota","Midwest","West North Central","38077","46.265219","-96.93796 ","2026","17","2026","17","","2019","16177","NYTIMES-USCENSUS"
"7/24/2021 12:00:00 AM","Osage County","Oklahoma","South","West South Central","40113","36.624299","-96.408112 ","4915","82","4915","82","","2019","46963","NYTIMES-USCENSUS"
"7/24/2021 12:00:00 AM","Lewis County","Tennessee","South","East South Central","47101","35.523244","-87.496983 ","1650","26","1650","26","","2019","12268","NYTIMES-USCENSUS"
"7/24/2021 12:00:00 AM","Fremont County","Wyoming","West","Mountain","56013","43.054831","-108.608935 ","5396","87","5396","87","","2019","39261","NYTIMES-USCENSUS"
"7/24/2021 12:00:00 AM","Keya Paha County","Nebraska","Midwest","West North Central","31103","42.87548","-99.718351 ","56","0","56","0","","2019","806","NYTIMES-USCENSUS"
"7/24/2021 12:00:00 AM","Hardin County","Illinois","Midwest","East North Central","17069","37.517852","-88.266148 ","394","12","394","12","","2019","3821","NYTIMES-USCENSUS"
"7/24/2021 12:00:00 AM","Tillamook County","Oregon","West","Pacific","41057","45.45589","-123.759299 ","728","5","728","5","","2019","27036","NYTIMES-USCENSUS"
"7/24/2021 12:00:00 AM","Bryan County","Oklahoma","South","West South Central","40013","33.964004","-96.265135 ","6391","80","6391","80","","2019","47995","NYTIMES-USCENSUS"
"7/24/2021 12:00:00 AM","Montgomery County","Georgia","South","South Atlantic","13209","32.172108","-82.533349 ","935","23","935","23","","2019","9172","NYTIMES-USCENSUS"
"7/24/2021 12:00:00 AM","Dickinson County","Michigan","Midwest","East North Central","26043","46.012833","-87.866139 ","2772","74","2772","74","","2019","25239","NYTIMES-USCENSUS"
"7/24/2021 12:00:00 AM","Attala County","Mississippi","South","East South Central","28007","33.090468","-89.588622 ","2208","73","2208","73","","2019","18174","NYTIMES-USCENSUS"
"7/24/2021 12:00:00 AM","Grant County","Kansas","Midwest","West North Central","20067","37.547537","-101.299362 ","997","19","997","19","","2019","7150","NYTIMES-USCENSUS"
"7/24/2021 12:00:00 AM","Kent County","Delaware","South","South Atlantic","10001","39.097088","-75.502982 ","18416","349","18416","349","","2019","180786","NYTIMES-USCENSUS"
"7/24/2021 12:00:00 AM","Johnson County","Nebraska","Midwest","West North Central","31097","40.394955","-96.265264 ","656","10","656","10","","2019","5071","NYTIMES-USCENSUS"
"7/24/2021 12:00:00 AM","Miami County","Kansas","Midwest","West North Central","20121","38.566772","-94.832963 ","2939","43","2939","43","","2019","34237","NYTIMES-USCENSUS"
"7/24/2021 12:00:00 AM","Clay County","Missouri","Midwest","West North Central","29047","39.315551","-94.421502 ","11038","176","11038","176","","2019","249948","NYTIMES-USCENSUS"
"7/24/2021 12:00:00 AM","Dunklin County","Missouri","Midwest","West North Central","29069","36.153025","-90.062254 ","3231","50","3231","50","","2019","29131","NYTIMES-USCENSUS"
"7/24/2021 12:00:00 AM","Kootenai County","Idaho","West","Mountain","16055","47.675957","-116.695919 ","19439","219","19439","219","","2019","165697","NYTIMES-USCENSUS"
"7/24/2021 12:00:00 AM","Racine County","Wisconsin","Midwest","East North Central","55101","42.780392","-87.771599 ","25498","400","25498","400","","2019","196311","NYTIMES-USCENSUS"
"7/24/2021 12:00:00 AM","Wicomico County","Maryland","South","South Atlantic","24045","38.36737","-75.632083 ","7795","174","7795","174","","2019","103609","NYTIMES-USCENSUS"
"7/24/2021 12:00:00 AM","Morgan County","Ohio","Midwest","East North Central","39115","39.624946","-81.861697 ","1115","24","1115","24","","2019","14508","NYTIMES-USCENSUS"
"7/24/2021 12:00:00 AM","Harding County","New Mexico","West","Mountain","35021","35.859352","-103.853424 ","13","1","13","1","","2019","625","NYTIMES-USCENSUS"
"7/24/2021 12:00:00 AM","Ogle County","Illinois","Midwest","East North Central","17141","42.041884","-89.320176 ","6275","92","6275","92","","2019","50643","NYTIMES-USCENSUS"
"7/24/2021 12:00:00 AM","Corson County","South Dakota","Midwest","West North Central","46031","45.685671","-101.179665 ","487","12","487","12","","2019","4086","NYTIMES-USCENSUS"
"7/24/2021 12:00:00 AM","Fayette County","Tennessee","South","East South Central","47047","35.196993","-89.413803 ","5333","83","5333","83","","2019","41133","NYTIMES-USCENSUS"
"7/24/2021 12:00:00 AM","Clark County","Illinois","Midwest","East North Central","17023","39.332334","-87.791683 ","1890","42","1890","42","","2019","15441","NYTIMES-USCENSUS"
"7/24/2021 12:00:00 AM","Adair County","Kentucky","South","East South Central","21001","37.105559","-85.28138 ","2018","54","2018","54","","2019","19202","NYTIMES-USCENSUS"
"7/24/2021 12:00:00 AM","Dawes County","Nebraska","Midwest","West North Central","31045","42.713038","-103.135436 ","773","20","773","20","","2019","8589","NYTIMES-USCENSUS"
"7/24/2021 12:00:00 AM","Fulton County","Georgia","South","South Atlantic","13121","33.790034","-84.468182 ","101623","1485","101623","1485","","2019","1063937","NYTIMES-USCENSUS"
"7/24/2021 12:00:00 AM","Grant County","Indiana","Midwest","East North Central","18053","40.515758","-85.654946 ","7750","188","7750","188","","2019","65769","NYTIMES-USCENSUS"
"7/24/2021 12:00:00 AM","Noble County","Ohio","Midwest","East North Central","39121","39.767232","-81.452493 ","1376","39","1376","39","","2019","14424","NYTIMES-USCENSUS"
"7/24/2021 12:00:00 AM","Boone County","Nebraska","Midwest","West North Central","31011","41.703934","-98.070476 ","585","4","585","4","","2019","5192","NYTIMES-USCENSUS"
"7/24/2021 12:00:00 AM","Eaton County","Michigan","Midwest","East North Central","26045","42.58953","-84.84645 ","10210","212","10210","212","","2019","110268","NYTIMES-USCENSUS"
"7/24/2021 12:00:00 AM","Hitchcock County","Nebraska","Midwest","West North Central","31087","40.176896","-101.044217 ","259","5","259","5","","2019","2762","NYTIMES-USCENSUS"
"7/24/2021 12:00:00 AM","Yukon-Koyukuk Census Area","Alaska","West","Pacific","02290","65.375727","-151.57785 ","371","4","371","4","","2019","5230","NYTIMES-USCENSUS"
"7/24/2021 12:00:00 AM","Dukes County","Massachusetts","Northeast","New England","25007","41.38097","-70.701499 ","1436","0","1436","0","","2019","17332","NYTIMES-USCENSUS"
"7/24/2021 12:00:00 AM","Monroe County","Indiana","Midwest","East North Central","18105","39.160729","-86.52331 ","12498","181","12498","181","","2019","148431","NYTIMES-USCENSUS"
"7/24/2021 12:00:00 AM","Ontonagon County","Michigan","Midwest","East North Central","26131","46.835325","-89.276912 ","485","22","485","22","","2019","5720","NYTIMES-USCENSUS"
"7/24/2021 12:00:00 AM","Colonial Heights city","Virginia","South","South Atlantic","51570","37.261685","-77.396804 ","1773","60","1773","60","","2019","17370","NYTIMES-USCENSUS"
"7/24/2021 12:00:00 AM","Hamilton County","Tennessee","South","East South Central","47065","35.163472","-85.201843 ","46391","511","46391","511","","2019","367804","NYTIMES-USCENSUS"
"7/24/2021 12:00:00 AM","Hart County","Kentucky","South","East South Central","21099","37.305827","-85.878443 ","2121","53","2121","53","","2019","19035","NYTIMES-USCENSUS"
"7/24/2021 12:00:00 AM","Anderson County","South Carolina","South","South Atlantic","45007","34.521235","-82.638603 ","23535","536","23535","536","","2019","202558","NYTIMES-USCENSUS"
"7/24/2021 12:00:00 AM","Mitchell County","Texas","South","West South Central","48335","32.304117","-100.924392 ","616","31","616","31","","2019","8545","NYTIMES-USCENSUS"
"7/24/2021 12:00:00 AM","Livingston County","Kentucky","South","East South Central","21139","37.209517","-88.363426 ","932","25","932","25","","2019","9194","NYTIMES-USCENSUS"
"7/24/2021 12:00:00 AM","Putnam County","New York","Northeast","Middle Atlantic","36079","41.427907","-73.743861 ","10682","93","10682","93","","2019","98320","NYTIMES-USCENSUS"
"7/24/2021 12:00:00 AM","Burke County","North Dakota","Midwest","West North Central","38013","48.786453","-102.520087 ","251","3","251","3","","2019","2115","NYTIMES-USCENSUS"
"7/24/2021 12:00:00 AM","Logan County","Illinois","Midwest","East North Central","17107","40.129277","-89.365309 ","4046","78","4046","78","","2019","28618","NYTIMES-USCENSUS"
"7/24/2021 12:00:00 AM","Williamsburg County","South Carolina","South","South Atlantic","45089","33.626462","-79.716474 ","4170","104","4170","104","","2019","30368","NYTIMES-USCENSUS"
"7/24/2021 12:00:00 AM","Sacramento County","California","West","Pacific","06067","38.450136","-121.344329 ","112895","1770","112895","1770","","2019","1552058","NYTIMES-USCENSUS"
"7/24/2021 12:00:00 AM","Apache County","Arizona","West","Mountain","04001","35.385084","-109.490172 ","11680","438","11680","438","","2019","71887","NYTIMES-USCENSUS"
"7/24/2021 12:00:00 AM","Butler County","Iowa","Midwest","West North Central","19023","42.734757","-92.780153 ","1678","35","1678","35","","2019","14439","NYTIMES-USCENSUS"
"7/24/2021 12:00:00 AM","Bennington County","Vermont","Northeast","New England","50003","43.035325","-73.11146 ","2064","15","2064","15","","2019","35470","NYTIMES-USCENSUS"
"7/24/2021 12:00:00 AM","Erie County","Ohio","Midwest","East North Central","39043","41.394143","-82.586835 ","8114","166","8114","166","","2019","74266","NYTIMES-USCENSUS"
"7/24/2021 12:00:00 AM","Edgar County","Illinois","Midwest","East North Central","17045","39.679037","-87.74711 ","1789","62","1789","62","","2019","17161","NYTIMES-USCENSUS"
"7/24/2021 12:00:00 AM","Hughes County","South Dakota","Midwest","West North Central","46065","44.384452","-99.975684 ","2530","42","2530","42","","2019","17526","NYTIMES-USCENSUS"
"7/24/2021 12:00:00 AM","Scotland County","Missouri","Midwest","West North Central","29199","40.447686","-92.142824 ","306","4","306","4","","2019","4902","NYTIMES-USCENSUS"
"7/24/2021 12:00:00 AM","Laurens County","South Carolina","South","South Atlantic","45059","34.483676","-82.005498 ","7615","172","7615","172","","2019","67493","NYTIMES-USCENSUS"
"7/24/2021 12:00:00 AM","Lake County","Minnesota","Midwest","West North Central","27075","47.517111","-91.411704 ","843","20","843","20","","2019","10641","NYTIMES-USCENSUS"
"7/24/2021 12:00:00 AM","Muhlenberg County","Kentucky","South","East South Central","21177","37.213816","-87.134092 ","3268","69","3268","69","","2019","30622","NYTIMES-USCENSUS"
"7/24/2021 12:00:00 AM","Transylvania County","North Carolina","South","South Atlantic","37175","35.210103","-82.816666 ","2443","33","2443","33","","2019","34385","NYTIMES-USCENSUS"
"7/24/2021 12:00:00 AM","Custer County","Nebraska","Midwest","West North Central","31041","41.393893","-99.726866 ","907","19","907","19","","2019","10777","NYTIMES-USCENSUS"
"7/24/2021 12:00:00 AM","Obion County","Tennessee","South","East South Central","47131","36.361892","-89.148078 ","4650","97","4650","97","","2019","30069","NYTIMES-USCENSUS"
"7/24/2021 12:00:00 AM","Okeechobee County","Florida","South","South Atlantic","12093","27.385592","-80.887388 ","4416","89","4416","89","","2019","42168","NYTIMES-USCENSUS"
"7/24/2021 12:00:00 AM","Grady County","Georgia","South","South Atlantic","13131","30.875908","-84.24508 ","2359","66","2359","66","","2019","24633","NYTIMES-USCENSUS"
"7/24/2021 12:00:00 AM","Roane County","West Virginia","South","South Atlantic","54087","38.74295","-81.354494 ","670","9","670","9","","2019","13688","NYTIMES-USCENSUS"
"7/24/2021 12:00:00 AM","Jackson County","South Dakota","Midwest","West North Central","46071","43.677506","-101.626323 ","294","15","294","15","","2019","3344","NYTIMES-USCENSUS"
"7/24/2021 12:00:00 AM","Tensas Parish","Louisiana","South","West South Central","22107","32.001489","-91.342576 ","375","8","375","8","","2019","4334","NYTIMES-USCENSUS"
"7/24/2021 12:00:00 AM","Bottineau County","North Dakota","Midwest","West North Central","38009","48.794412","-100.831257 ","725","20","725","20","","2019","6282","NYTIMES-USCENSUS"
"7/24/2021 12:00:00 AM","Otoe County","Nebraska","Midwest","West North Central","31131","40.637992","-96.131027 ","1479","13","1479","13","","2019","16012","NYTIMES-USCENSUS"
"7/24/2021 12:00:00 AM","Preston County","West Virginia","South","South Atlantic","54077","39.46903","-79.668865 ","2971","47","2971","47","","2019","33432","NYTIMES-USCENSUS"
"7/24/2021 12:00:00 AM","St. Louis County","Minnesota","Midwest","West North Central","27137","47.578635","-92.514593 ","18245","319","18245","319","","2019","199070","NYTIMES-USCENSUS"
"7/24/2021 12:00:00 AM","Polk County","Texas","South","West South Central","48373","30.784553","-94.837338 ","3585","121","3585","121","","2019","51353","NYTIMES-USCENSUS"
"7/24/2021 12:00:00 AM","Loudoun County","Virginia","South","South Atlantic","51107","39.0812","-77.638898 ","28376","283","28376","283","","2019","413538","NYTIMES-USCENSUS"
"7/24/2021 12:00:00 AM","Brown County","Kansas","Midwest","West North Central","20013","39.825931","-95.569905 ","1258","39","1258","39","","2019","9564","NYTIMES-USCENSUS"
"7/24/2021 12:00:00 AM","Screven County","Georgia","South","South Atlantic","13251","32.744751","-81.617585 ","1050","33","1050","33","","2019","13966","NYTIMES-USCENSUS"
"7/24/2021 12:00:00 AM","Randolph County","Alabama","South","East South Central","01111","33.296461","-85.464064 ","1942","44","1942","44","","2019","22722","NYTIMES-USCENSUS"
"7/24/2021 12:00:00 AM","Sherman County","Oregon","West","Pacific","41055","45.399216","-120.678512 ","77","2","77","2","","2019","1780","NYTIMES-USCENSUS"
"7/24/2021 12:00:00 AM","Bucks County","Pennsylvania","Northeast","Middle Atlantic","42017","40.336887","-75.10706 ","61250","1335","61250","1335","","2019","628270","NYTIMES-USCENSUS"
"7/24/2021 12:00:00 AM","Onondaga County","New York","Northeast","Middle Atlantic","36067","43.006516","-76.196134 ","39280","680","39280","680","","2019","460528","NYTIMES-USCENSUS"
"7/24/2021 12:00:00 AM","Roane County","Tennessee","South","East South Central","47145","35.84725","-84.523929 ","6445","109","6445","109","","2019","53382","NYTIMES-USCENSUS"
"7/24/2021 12:00:00 AM","Red River County","Texas","South","West South Central","48387","33.619625","-95.048429 ","822","38","822","38","","2019","12023","NYTIMES-USCENSUS"
"7/24/2021 12:00:00 AM","Shawnee County","Kansas","Midwest","West North Central","20177","39.041805","-95.755664 ","18204","376","18204","376","","2019","176875","NYTIMES-USCENSUS"
"7/24/2021 12:00:00 AM","Henry County","Illinois","Midwest","East North Central","17073","41.350021","-90.130838 ","5129","99","5129","99","","2019","48913","NYTIMES-USCENSUS"
"7/24/2021 12:00:00 AM","Barron County","Wisconsin","Midwest","East North Central","55005","45.437192","-91.852892 ","6071","86","6071","86","","2019","45244","NYTIMES-USCENSUS"
"7/24/2021 12:00:00 AM","Milam County","Texas","South","West South Central","48331","30.791242","-96.984395 ","2645","52","2645","52","","2019","24823","NYTIMES-USCENSUS"
"7/24/2021 12:00:00 AM","Marion County","Georgia","South","South Atlantic","13197","32.359312","-84.528735 ","594","25","594","25","","2019","8359","NYTIMES-USCENSUS"
"7/24/2021 12:00:00 AM","Anderson County","Kansas","Midwest","West North Central","20003","38.215114","-95.292046 ","870","19","870","19","","2019","7858","NYTIMES-USCENSUS"
"7/24/2021 12:00:00 AM","Cambria County","Pennsylvania","Northeast","Middle Atlantic","42021","40.510227","-78.710477 ","14875","441","14875","441","","2019","130192","NYTIMES-USCENSUS"
"7/24/2021 12:00:00 AM","Cook County","Illinois","Midwest","East North Central","17031","41.894294","-87.645455 ","561168","11108","561168","11108","","2019","5150233","NYTIMES-USCENSUS"
"7/24/2021 12:00:00 AM","Craighead County","Arkansas","South","West South Central","05031","35.827729","-90.631421 ","14728","188","14728","188","","2019","110332","NYTIMES-USCENSUS"
"7/24/2021 12:00:00 AM","Merced County","California","West","Pacific","06047","37.194806","-120.722802 ","32961","484","32961","484","","2019","277680","NYTIMES-USCENSUS"
"7/24/2021 12:00:00 AM","Waukesha County","Wisconsin","Midwest","East North Central","55133","43.018368","-88.30424 ","49569","642","49569","642","","2019","404198","NYTIMES-USCENSUS"
"7/24/2021 12:00:00 AM","Platte County","Wyoming","West","Mountain","56031","42.131593","-104.953963 ","739","14","739","14","","2019","8393","NYTIMES-USCENSUS"
"7/24/2021 12:00:00 AM","Lincoln County","Mississippi","South","East South Central","28085","31.535216","-90.453566 ","4098","115","4098","115","","2019","34153","NYTIMES-USCENSUS"
"7/24/2021 12:00:00 AM","Tama County","Iowa","Midwest","West North Central","19171","42.074848","-92.529411 ","2133","72","2133","72","","2019","16854","NYTIMES-USCENSUS"
"7/24/2021 12:00:00 AM","Decatur County","Tennessee","South","East South Central","47039","35.603136","-88.110292 ","1639","39","1639","39","","2019","11663","NYTIMES-USCENSUS"
"7/24/2021 12:00:00 AM","Medina County","Texas","South","West South Central","48325","29.353661","-99.111085 ","4951","107","4951","107","","2019","51584","NYTIMES-USCENSUS"
"7/24/2021 12:00:00 AM","Lafayette County","Missouri","Midwest","West North Central","29107","39.068705","-93.802639 ","3379","57","3379","57","","2019","32708","NYTIMES-USCENSUS"
"7/24/2021 12:00:00 AM","Sheridan County","Wyoming","West","Mountain","56033","44.781369","-106.881211 ","3290","31","3290","31","","2019","30485","NYTIMES-USCENSUS"
"7/24/2021 12:00:00 AM","Hardeman County","Tennessee","South","East South Central","47069","35.218785","-88.988697 ","3580","64","3580","64","","2019","25050","NYTIMES-USCENSUS"
"7/24/2021 12:00:00 AM","Clayton County","Georgia","South","South Atlantic","13063","33.542686","-84.355573 ","28165","527","28165","527","","2019","292256","NYTIMES-USCENSUS"
"7/24/2021 12:00:00 AM","Lancaster County","Virginia","South","South Atlantic","51103","37.704843","-76.412663 ","725","17","725","17","","2019","10603","NYTIMES-USCENSUS"
"7/24/2021 12:00:00 AM","Calhoun County","Mississippi","South","East South Central","28013","33.936634","-89.337114 ","1775","32","1775","32","","2019","14361","NYTIMES-USCENSUS"
"7/24/2021 12:00:00 AM","Crawford County","Georgia","South","South Atlantic","13079","32.709428","-83.979187 ","693","21","693","21","","2019","12404","NYTIMES-USCENSUS"
"7/24/2021 12:00:00 AM","Orangeburg County","South Carolina","South","South Atlantic","45075","33.436135","-80.802913 ","9994","256","9994","256","","2019","86175","NYTIMES-USCENSUS"
"7/24/2021 12:00:00 AM","Fauquier County","Virginia","South","South Atlantic","51061","38.744096","-77.8215 ","4849","69","4849","69","","2019","71222","NYTIMES-USCENSUS"
"7/24/2021 12:00:00 AM","Valley County","Idaho","West","Mountain","16085","44.85596","-115.618061 ","907","6","907","6","","2019","11392","NYTIMES-USCENSUS"
"7/24/2021 12:00:00 AM","Porter County","Indiana","Midwest","East North Central","18127","41.509914","-87.071313 ","19558","338","19558","338","","2019","170389","NYTIMES-USCENSUS"
"7/24/2021 12:00:00 AM","Montour County","Pennsylvania","Northeast","Middle Atlantic","42093","41.029284","-76.665225 ","2012","67","2012","67","","2019","18230","NYTIMES-USCENSUS"
"7/24/2021 12:00:00 AM","Bradley County","Arkansas","South","West South Central","05011","33.466549","-92.169156 ","1569","33","1569","33","","2019","10763","NYTIMES-USCENSUS"
"7/24/2021 12:00:00 AM","Fayette County","Kentucky","South","East South Central","21067","38.040678","-84.458272 ","37136","323","37136","323","","2019","323152","NYTIMES-USCENSUS"
"7/24/2021 12:00:00 AM","Hyde County","North Carolina","South","South Atlantic","37095","35.408157","-76.153687 ","670","9","670","9","","2019","4937","NYTIMES-USCENSUS"
"7/24/2021 12:00:00 AM","San Francisco County","California","West","Pacific","06075","37.727239","-123.032229 ","38957","561","38957","561","","2019","881549","NYTIMES-USCENSUS"
"7/24/2021 12:00:00 AM","Sitka City and Borough","Alaska","West","Pacific","02220","57.193204","-135.367396 ","640","1","640","1","","2019","8493","NYTIMES-USCENSUS"
"7/24/2021 12:00:00 AM","Monroe County","Pennsylvania","Northeast","Middle Atlantic","42089","41.05624","-75.329065 ","14991","321","14991","321","","2019","170271","NYTIMES-USCENSUS"
"7/24/2021 12:00:00 AM","Lake County","Florida","South","South Atlantic","12069","28.764113","-81.712282 ","33688","663","33688","663","","2019","367118","NYTIMES-USCENSUS"
"7/24/2021 12:00:00 AM","Hays County","Texas","South","West South Central","48209","30.061225","-98.029267 ","22020","266","22020","266","","2019","230191","NYTIMES-USCENSUS"
"7/24/2021 12:00:00 AM","Montgomery County","Pennsylvania","Northeast","Middle Atlantic","42091","40.209999","-75.370201 ","70950","1739","70950","1739","","2019","830915","NYTIMES-USCENSUS"
"7/24/2021 12:00:00 AM","Yoakum County","Texas","South","West South Central","48501","33.162339","-102.832241 ","879","28","879","28","","2019","8713","NYTIMES-USCENSUS"
"7/24/2021 12:00:00 AM","Nance County","Nebraska","Midwest","West North Central","31125","41.402385","-97.991408 ","414","10","414","10","","2019","3519","NYTIMES-USCENSUS"
"7/24/2021 12:00:00 AM","Smith County","Tennessee","South","East South Central","47159","36.256645","-85.941915 ","2831","40","2831","40","","2019","20157","NYTIMES-USCENSUS"
"7/24/2021 12:00:00 AM","Baca County","Colorado","West","Mountain","08009","37.30978","-102.543741 ","325","4","325","4","","2019","3581","NYTIMES-USCENSUS"
"7/24/2021 12:00:00 AM","Minnehaha County","South Dakota","Midwest","West North Central","46099","43.667472","-96.795726 ","31851","365","31851","365","","2019","193134","NYTIMES-USCENSUS"
"7/24/2021 12:00:00 AM","Stephens County","Georgia","South","South Atlantic","13257","34.553582","-83.290588 ","3198","81","3198","81","","2019","25925","NYTIMES-USCENSUS"
"7/24/2021 12:00:00 AM","Lynn County","Texas","South","West South Central","48305","33.178412","-101.818493 ","630","24","630","24","","2019","5951","NYTIMES-USCENSUS"
"7/24/2021 12:00:00 AM","Fulton County","Pennsylvania","Northeast","Middle Atlantic","42057","39.91075","-78.122617 ","1389","17","1389","17","","2019","14530","NYTIMES-USCENSUS"
"7/24/2021 12:00:00 AM","Butler County","Kentucky","South","East South Central","21031","37.207013","-86.682471 ","1491","28","1491","28","","2019","12879","NYTIMES-USCENSUS"
"7/24/2021 12:00:00 AM","Jefferson County","Ohio","Midwest","East North Central","39081","40.399384","-80.763527 ","5720","162","5720","162","","2019","65325","NYTIMES-USCENSUS"
"7/24/2021 12:00:00 AM","Sonoma County","California","West","Pacific","06097","38.525182","-122.92611 ","32124","328","32124","328","","2019","494336","NYTIMES-USCENSUS"
"7/24/2021 12:00:00 AM","Brown County","South Dakota","Midwest","West North Central","46013","45.589254","-98.352175 ","5650","95","5650","95","","2019","38839","NYTIMES-USCENSUS"
"7/24/2021 12:00:00 AM","Windham County","Connecticut","Northeast","New England","09015","41.824999","-71.990702 ","11015","195","11015","195","","2019","116782","NYTIMES-USCENSUS"
"7/24/2021 12:00:00 AM","Renville County","Minnesota","Midwest","West North Central","27129","44.723697","-94.955617 ","1831","46","1831","46","","2019","14548","NYTIMES-USCENSUS"
"7/24/2021 12:00:00 AM","Canyon County","Idaho","West","Mountain","16027","43.625796","-116.709058 ","28087","317","28087","317","","2019","229849","NYTIMES-USCENSUS"
"7/24/2021 12:00:00 AM","Greenbrier County","West Virginia","South","South Atlantic","54025","37.924418","-80.45059 ","2919","65","2919","65","","2019","34662","NYTIMES-USCENSUS"
"7/24/2021 12:00:00 AM","Humboldt County","Iowa","Midwest","West North Central","19091","42.782221","-94.202775 ","1245","26","1245","26","","2019","9558","NYTIMES-USCENSUS"
"7/24/2021 12:00:00 AM","Rhea County","Tennessee","South","East South Central","47143","35.60059","-84.949548 ","4431","82","4431","82","","2019","33167","NYTIMES-USCENSUS"
"7/24/2021 12:00:00 AM","Cass County","Texas","South","West South Central","48067","33.083698","-94.357579 ","2336","85","2336","85","","2019","30026","NYTIMES-USCENSUS"
"7/24/2021 12:00:00 AM","Coosa County","Alabama","South","East South Central","01037","32.931445","-86.243482 ","1158","29","1158","29","","2019","10663","NYTIMES-USCENSUS"
"7/24/2021 12:00:00 AM","Sherman County","Texas","South","West South Central","48421","36.278593","-101.899265 ","239","12","239","12","","2019","3022","NYTIMES-USCENSUS"
"7/24/2021 12:00:00 AM","Val Verde County","Texas","South","West South Central","48465","29.875285","-101.143324 ","8099","233","8099","233","","2019","49025","NYTIMES-USCENSUS"
"7/24/2021 12:00:00 AM","Geauga County","Ohio","Midwest","East North Central","39055","41.499322","-81.173505 ","6943","153","6943","153","","2019","93649","NYTIMES-USCENSUS"
"7/24/2021 12:00:00 AM","Franklin County","Arkansas","South","West South Central","05047","35.508558","-93.887665 ","1789","40","1789","40","","2019","17715","NYTIMES-USCENSUS"
"7/24/2021 12:00:00 AM","Delaware County","New York","Northeast","Middle Atlantic","36025","42.193986","-74.966728 ","2412","39","2412","39","","2019","44135","NYTIMES-USCENSUS"
"7/24/2021 12:00:00 AM","Carbon County","Utah","West","Mountain","49007","39.673284","-110.588484 ","1877","19","1877","19","","2019","20463","NYTIMES-USCENSUS"
"7/24/2021 12:00:00 AM","Union County","Florida","South","South Atlantic","12125","30.05428","-82.366918 ","2042","74","2042","74","","2019","15237","NYTIMES-USCENSUS"
"7/24/2021 12:00:00 AM","Wood County","West Virginia","South","South Atlantic","54107","39.211602","-81.516234 ","8005","177","8005","177","","2019","83518","NYTIMES-USCENSUS"
"7/24/2021 12:00:00 AM","Bath County","Kentucky","South","East South Central","21011","38.152249","-83.737641 ","1064","24","1064","24","","2019","12500","NYTIMES-USCENSUS"
"7/24/2021 12:00:00 AM","Stewart County","Georgia","South","South Atlantic","13259","32.073225","-84.834912 ","1130","25","1130","25","","2019","6621","NYTIMES-USCENSUS"
"7/24/2021 12:00:00 AM","Clay County","Kentucky","South","East South Central","21051","37.164273","-83.715473 ","2826","46","2826","46","","2019","19901","NYTIMES-USCENSUS"
"7/24/2021 12:00:00 AM","Clinton County","Kentucky","South","East South Central","21053","36.727258","-85.136098 ","1456","32","1456","32","","2019","10218","NYTIMES-USCENSUS"
"7/24/2021 12:00:00 AM","Trempealeau County","Wisconsin","Midwest","East North Central","55121","44.30305","-91.358867 ","3676","48","3676","48","","2019","29649","NYTIMES-USCENSUS"
"7/24/2021 12:00:00 AM","Champaign County","Ohio","Midwest","East North Central","39021","40.132775","-83.767604 ","3477","60","3477","60","","2019","38885","NYTIMES-USCENSUS"
"7/24/2021 12:00:00 AM","Orleans County","New York","Northeast","Middle Atlantic","36073","43.339906","-78.207028 ","3139","83","3139","83","","2019","40352","NYTIMES-USCENSUS"
"7/24/2021 12:00:00 AM","Twin Falls County","Idaho","West","Mountain","16083","42.352309","-114.665639 ","10071","134","10071","134","","2019","86878","NYTIMES-USCENSUS"
"7/24/2021 12:00:00 AM","Meade County","South Dakota","Midwest","West North Central","46093","44.605282","-102.714169 ","2818","31","2818","31","","2019","28332","NYTIMES-USCENSUS"
"7/24/2021 12:00:00 AM","Jackson County","Tennessee","South","East South Central","47087","36.35425","-85.674128 ","1376","37","1376","37","","2019","11786","NYTIMES-USCENSUS"
"7/24/2021 12:00:00 AM","Weston County","Wyoming","West","Mountain","56045","43.846213","-104.57002 ","672","6","672","6","","2019","6927","NYTIMES-USCENSUS"
"7/24/2021 12:00:00 AM","Elkhart County","Indiana","Midwest","East North Central","18039","41.600693","-85.863986 ","29799","485","29799","485","","2019","206341","NYTIMES-USCENSUS"
"7/24/2021 12:00:00 AM","Tippecanoe County","Indiana","Midwest","East North Central","18157","40.389133","-86.893554 ","23353","233","23353","233","","2019","195732","NYTIMES-USCENSUS"
"7/24/2021 12:00:00 AM","Gates County","North Carolina","South","South Atlantic","37073","36.442135","-76.702355 ","756","13","756","13","","2019","11562","NYTIMES-USCENSUS"
"7/24/2021 12:00:00 AM","Guernsey County","Ohio","Midwest","East North Central","39059","40.056665","-81.497875 ","3297","54","3297","54","","2019","38875","NYTIMES-USCENSUS"
"7/24/2021 12:00:00 AM","Cheatham County","Tennessee","South","East South Central","47021","36.255169","-87.100808 ","4721","56","4721","56","","2019","40667","NYTIMES-USCENSUS"
"7/24/2021 12:00:00 AM","Sanborn County","South Dakota","Midwest","West North Central","46111","44.018942","-98.091709 ","347","3","347","3","","2019","2344","NYTIMES-USCENSUS"
"7/24/2021 12:00:00 AM","Pacific County","Washington","West","Pacific","53049","46.556587","-123.782419 ","1042","14","1042","14","","2019","22471","NYTIMES-USCENSUS"
"7/24/2021 12:00:00 AM","Palo Alto County","Iowa","Midwest","West North Central","19147","43.075337","-94.669055 ","1149","24","1149","24","","2019","8886","NYTIMES-USCENSUS"
"7/24/2021 12:00:00 AM","Lincoln County","Nebraska","Midwest","West North Central","31111","41.050322","-100.744481 ","4176","80","4176","80","","2019","34914","NYTIMES-USCENSUS"
"7/24/2021 12:00:00 AM","Lincoln County","Kentucky","South","East South Central","21137","37.457174","-84.658335 ","2464","60","2464","60","","2019","24549","NYTIMES-USCENSUS"
"7/24/2021 12:00:00 AM","Magoffin County","Kentucky","South","East South Central","21153","37.698983","-83.069721 ","1044","18","1044","18","","2019","12161","NYTIMES-USCENSUS"
"7/24/2021 12:00:00 AM","Barbour County","West Virginia","South","South Atlantic","54001","39.139725","-79.996947 ","1522","34","1522","34","","2019","16441","NYTIMES-USCENSUS"
"7/24/2021 12:00:00 AM","Carroll County","Mississippi","South","East South Central","28015","33.440795","-89.918887 ","1245","31","1245","31","","2019","9947","NYTIMES-USCENSUS"
"7/24/2021 12:00:00 AM","Jackson County","Kansas","Midwest","West North Central","20085","39.411145","-95.794485 ","1456","17","1456","17","","2019","13171","NYTIMES-USCENSUS"
"7/24/2021 12:00:00 AM","Vernon County","Wisconsin","Midwest","East North Central","55123","43.599366","-90.821983 ","2049","43","2049","43","","2019","30822","NYTIMES-USCENSUS"
"7/24/2021 12:00:00 AM","Manitowoc County","Wisconsin","Midwest","East North Central","55071","44.156137","-87.577352 ","8959","96","8959","96","","2019","78981","NYTIMES-USCENSUS"
"7/24/2021 12:00:00 AM","Madison County","Montana","West","Mountain","30057","45.32529","-111.913791 ","802","8","802","8","","2019","8600","NYTIMES-USCENSUS"
"7/24/2021 12:00:00 AM","Lincoln County","Idaho","West","Mountain","16063","42.990782","-114.153089 ","514","11","514","11","","2019","5366","NYTIMES-USCENSUS"
"7/24/2021 12:00:00 AM","Stoddard County","Missouri","Midwest","West North Central","29207","36.851557","-89.947481 ","2744","44","2744","44","","2019","29025","NYTIMES-USCENSUS"
"7/24/2021 12:00:00 AM","Licking County","Ohio","Midwest","East North Central","39089","40.091505","-82.483435 ","16833","227","16833","227","","2019","176862","NYTIMES-USCENSUS"
"7/24/2021 12:00:00 AM","Harvey County","Kansas","Midwest","West North Central","20079","38.050144","-97.436706 ","3763","72","3763","72","","2019","34429","NYTIMES-USCENSUS"
"7/24/2021 12:00:00 AM","Putnam County","West Virginia","South","South Atlantic","54079","38.510518","-81.906109 ","5415","93","5415","93","","2019","56450","NYTIMES-USCENSUS"
"7/24/2021 12:00:00 AM","Fannin County","Georgia","South","South Atlantic","13111","34.866543","-84.317331 ","2537","75","2537","75","","2019","26188","NYTIMES-USCENSUS"
"7/24/2021 12:00:00 AM","Staunton city","Virginia","South","South Atlantic","51790","38.157978","-79.061876 ","2551","70","2551","70","","2019","24932","NYTIMES-USCENSUS"
"7/24/2021 12:00:00 AM","Cottle County","Texas","South","West South Central","48101","34.091906","-100.276442 ","191","7","191","7","","2019","1398","NYTIMES-USCENSUS"
"7/24/2021 12:00:00 AM","Pendleton County","Kentucky","South","East South Central","21191","38.696284","-84.351943 ","1070","4","1070","4","","2019","14590","NYTIMES-USCENSUS"
"7/24/2021 12:00:00 AM","Martin County","North Carolina","South","South Atlantic","37117","35.847301","-77.119602 ","2381","46","2381","46","","2019","22440","NYTIMES-USCENSUS"
"7/24/2021 12:00:00 AM","Riverside County","California","West","Pacific","06065","33.729828","-116.002239 ","305195","4658","305195","4658","","2019","2470546","NYTIMES-USCENSUS"
"7/24/2021 12:00:00 AM","Carbon County","Wyoming","West","Mountain","56007","41.70359","-106.933153 ","1720","24","1720","24","","2019","14800","NYTIMES-USCENSUS"
"7/24/2021 12:00:00 AM","Pickaway County","Ohio","Midwest","East North Central","39129","39.648947","-83.052827 ","8733","123","8733","123","","2019","58457","NYTIMES-USCENSUS"
"7/24/2021 12:00:00 AM","Posey County","Indiana","Midwest","East North Central","18129","38.027614","-87.868653 ","2804","35","2804","35","","2019","25427","NYTIMES-USCENSUS"
"7/24/2021 12:00:00 AM","Montgomery County","Ohio","Midwest","East North Central","39113","39.753736","-84.290591 ","53372","1059","53372","1059","","2019","531687","NYTIMES-USCENSUS"
"7/24/2021 12:00:00 AM","Franklin city","Virginia","South","South Atlantic","51620","36.684014","-76.941396 ","1143","33","1143","33","","2019","7967","NYTIMES-USCENSUS"
"7/24/2021 12:00:00 AM","Smith County","Kansas","Midwest","West North Central","20183","39.78466","-98.785429 ","281","3","281","3","","2019","3583","NYTIMES-USCENSUS"
"7/24/2021 12:00:00 AM","Lee County","South Carolina","South","South Atlantic","45061","34.15864","-80.251209 ","1962","64","1962","64","","2019","16828","NYTIMES-USCENSUS"
"7/24/2021 12:00:00 AM","Gilpin County","Colorado","West","Mountain","08047","39.861156","-105.528878 ","287","3","287","3","","2019","6243","NYTIMES-USCENSUS"
"7/24/2021 12:00:00 AM","Hale County","Alabama","South","East South Central","01065","32.752796","-87.623061 ","2316","78","2316","78","","2019","14651","NYTIMES-USCENSUS"
"7/24/2021 12:00:00 AM","Nolan County","Texas","South","West South Central","48353","32.312338","-100.418108 ","1574","53","1574","53","","2019","14714","NYTIMES-USCENSUS"
"7/24/2021 12:00:00 AM","Franklin County","Massachusetts","Northeast","New England","25011","42.584504","-72.591792 ","2593","113","2593","113","","2019","70180","NYTIMES-USCENSUS"
"7/24/2021 12:00:00 AM","Ashland County","Wisconsin","Midwest","East North Central","55003","46.544424","-90.679691 ","1404","15","1404","15","","2019","15562","NYTIMES-USCENSUS"
"7/24/2021 12:00:00 AM","Mercer County","Kentucky","South","East South Central","21167","37.812085","-84.879695 ","2687","54","2687","54","","2019","21933","NYTIMES-USCENSUS"
"7/24/2021 12:00:00 AM","Escambia County","Alabama","South","East South Central","01053","31.122287","-87.16841 ","4191","82","4191","82","","2019","36633","NYTIMES-USCENSUS"
"7/24/2021 12:00:00 AM","Clinton County","Iowa","Midwest","West North Central","19045","41.898073","-90.534243 ","5643","93","5643","93","","2019","46429","NYTIMES-USCENSUS"
"7/24/2021 12:00:00 AM","Dougherty County","Georgia","South","South Atlantic","13095","31.532588","-84.20904 ","7855","312","7855","312","","2019","87956","NYTIMES-USCENSUS"
"7/24/2021 12:00:00 AM","Leelanau County","Michigan","Midwest","East North Central","26089","45.146182","-86.051574 ","1254","20","1254","20","","2019","21761","NYTIMES-USCENSUS"
"7/24/2021 12:00:00 AM","Logan County","Ohio","Midwest","East North Central","39091","40.387553","-83.766343 ","3914","79","3914","79","","2019","45672","NYTIMES-USCENSUS"
"7/24/2021 12:00:00 AM","Crawford County","Michigan","Midwest","East North Central","26039","44.680175","-84.611343 ","996","14","996","14","","2019","14029","NYTIMES-USCENSUS"
"7/24/2021 12:00:00 AM","Edwards County","Kansas","Midwest","West North Central","20047","37.883595","-99.304746 ","266","12","266","12","","2019","2798","NYTIMES-USCENSUS"
"7/24/2021 12:00:00 AM","Red River Parish","Louisiana","South","West South Central","22081","32.101213","-93.34905 ","938","38","938","38","","2019","8442","NYTIMES-USCENSUS"
"7/24/2021 12:00:00 AM","Burt County","Nebraska","Midwest","West North Central","31021","41.854179","-96.337746 ","671","12","671","12","","2019","6459","NYTIMES-USCENSUS"
"7/24/2021 12:00:00 AM","Aurora County","South Dakota","Midwest","West North Central","46003","43.724719","-98.577587 ","475","15","475","15","","2019","2751","NYTIMES-USCENSUS"
"7/24/2021 12:00:00 AM","Page County","Iowa","Midwest","West North Central","19145","40.739097","-95.144301 ","1954","22","1954","22","","2019","15107","NYTIMES-USCENSUS"
"7/24/2021 12:00:00 AM","Harris County","Georgia","South","South Atlantic","13145","32.731549","-84.912432 ","2719","65","2719","65","","2019","35236","NYTIMES-USCENSUS"
"7/24/2021 12:00:00 AM","Lancaster County","Pennsylvania","Northeast","Middle Atlantic","42071","40.041992","-76.250198 ","55707","1171","55707","1171","","2019","545724","NYTIMES-USCENSUS"
"7/24/2021 12:00:00 AM","Cortland County","New York","Northeast","Middle Atlantic","36023","42.594039","-76.07624 ","3955","64","3955","64","","2019","47581","NYTIMES-USCENSUS"
"7/24/2021 12:00:00 AM","Broomfield County","Colorado","West","Mountain","08014","39.953593","-105.050787 ","5096","76","5096","76","","2019","70465","NYTIMES-USCENSUS"
"7/24/2021 12:00:00 AM","Faulk County","South Dakota","Midwest","West North Central","46049","45.065476","-99.153564 ","372","13","372","13","","2019","2299","NYTIMES-USCENSUS"
"7/24/2021 12:00:00 AM","Patrick County","Virginia","South","South Atlantic","51141","36.667138","-80.286413 ","1425","45","1425","45","","2019","17608","NYTIMES-USCENSUS"
"7/24/2021 12:00:00 AM","Lebanon County","Pennsylvania","Northeast","Middle Atlantic","42075","40.371448","-76.464819 ","16260","295","16260","295","","2019","141793","NYTIMES-USCENSUS"
"7/24/2021 12:00:00 AM","Chowan County","North Carolina","South","South Atlantic","37041","36.128979","-76.602752 ","1525","35","1525","35","","2019","13943","NYTIMES-USCENSUS"
"7/24/2021 12:00:00 AM","Haskell County","Oklahoma","South","West South Central","40061","35.232431","-95.109642 ","1299","17","1299","17","","2019","12627","NYTIMES-USCENSUS"
"7/24/2021 12:00:00 AM","Oconto County","Wisconsin","Midwest","East North Central","55083","44.996575","-88.206516 ","5131","73","5131","73","","2019","37930","NYTIMES-USCENSUS"
"7/24/2021 12:00:00 AM","Lyon County","Iowa","Midwest","West North Central","19119","43.38358","-96.207201 ","1609","41","1609","41","","2019","11755","NYTIMES-USCENSUS"
"7/24/2021 12:00:00 AM","Mitchell County","Georgia","South","South Atlantic","13205","31.228997","-84.192038 ","2174","85","2174","85","","2019","21863","NYTIMES-USCENSUS"
"7/24/2021 12:00:00 AM","Davie County","North Carolina","South","South Atlantic","37059","35.929355","-80.542552 ","4247","42","4247","42","","2019","42846","NYTIMES-USCENSUS"
"7/24/2021 12:00:00 AM","Caribou County","Idaho","West","Mountain","16029","42.786072","-111.544273 ","718","12","718","12","","2019","7155","NYTIMES-USCENSUS"
"7/24/2021 12:00:00 AM","Walsh County","North Dakota","Midwest","West North Central","38099","48.376979","-97.72223 ","1912","27","1912","27","","2019","10641","NYTIMES-USCENSUS"
"7/24/2021 12:00:00 AM","Somerset County","Maryland","South","South Atlantic","24039","38.07445","-75.853323 ","2633","42","2633","42","","2019","25616","NYTIMES-USCENSUS"
"7/24/2021 12:00:00 AM","Baltimore city","Maryland","South","South Atlantic","24510","39.300032","-76.610476 ","53438","1264","53438","1264","","2019","593490","NYTIMES-USCENSUS"
"7/24/2021 12:00:00 AM","Dallas County","Missouri","Midwest","West North Central","29059","37.683583","-93.033815 ","1795","32","1795","32","","2019","16878","NYTIMES-USCENSUS"
"7/24/2021 12:00:00 AM","Mason County","Texas","South","West South Central","48319","30.703916","-99.237302 ","429","6","429","6","","2019","4274","NYTIMES-USCENSUS"
"7/24/2021 12:00:00 AM","Gallatin County","Montana","West","Mountain","30031","45.518054","-111.163921 ","15134","63","15134","63","","2019","114434","NYTIMES-USCENSUS"
"7/24/2021 12:00:00 AM","Albany County","Wyoming","West","Mountain","56001","41.665514","-105.721883 ","4716","18","4716","18","","2019","38880","NYTIMES-USCENSUS"
"7/24/2021 12:00:00 AM","Androscoggin County","Maine","Northeast","New England","23001","44.167681","-70.207435 ","8475","88","8475","88","","2019","108277","NYTIMES-USCENSUS"
"7/24/2021 12:00:00 AM","King William County","Virginia","South","South Atlantic","51101","37.70826","-77.091054 ","1280","15","1280","15","","2019","17148","NYTIMES-USCENSUS"
"7/24/2021 12:00:00 AM","Douglas County","Nebraska","Midwest","West North Central","31055","41.297091","-96.154066 ","72947","737","72947","737","","2019","571327","NYTIMES-USCENSUS"
"7/24/2021 12:00:00 AM","Caldwell County","Missouri","Midwest","West North Central","29025","39.658998","-93.979179 ","936","16","936","16","","2019","9020","NYTIMES-USCENSUS"
"7/24/2021 12:00:00 AM","Antelope County","Nebraska","Midwest","West North Central","31003","42.183225","-98.058037 ","619","8","619","8","","2019","6298","NYTIMES-USCENSUS"
"7/24/2021 12:00:00 AM","San Saba County","Texas","South","West South Central","48411","31.155138","-98.819292 ","786","23","786","23","","2019","6055","NYTIMES-USCENSUS"
"7/24/2021 12:00:00 AM","Graves County","Kentucky","South","East South Central","21083","36.723344","-88.649897 ","4495","98","4495","98","","2019","37266","NYTIMES-USCENSUS"
"7/24/2021 12:00:00 AM","McDowell County","North Carolina","South","South Atlantic","37111","35.682271","-82.048044 ","5355","63","5355","63","","2019","45756","NYTIMES-USCENSUS"
