"monitor_date","county","state_name","region","subregion","fips","latitude","longitude","case_count_to_date","death_count_to_date","case_count","death_count","previous_monitor_date","population_year","population","source"
"3/23/2022 12:00:00 AM","Hardee County","Florida","South","South Atlantic","12049","27.492846","-81.82158 ","8626","123","0","0","3/22/2022 12:00:00 AM","2019","26937","NYTIMES-USCENSUS"
"3/23/2022 12:00:00 AM","Marquette County","Wisconsin","Midwest","East North Central","55077","43.826053","-89.409095 ","3798","60","0","1","3/22/2022 12:00:00 AM","2019","15574","NYTIMES-USCENSUS"
"3/23/2022 12:00:00 AM","Sagadahoc County","Maine","Northeast","New England","23023","43.916845","-69.844227 ","4999","29","8","0","3/22/2022 12:00:00 AM","2019","35856","NYTIMES-USCENSUS"
"3/23/2022 12:00:00 AM","Calaveras County","California","West","Pacific","06009","38.191068","-120.554107 ","7591","120","0","1","3/22/2022 12:00:00 AM","2019","45905","NYTIMES-USCENSUS"
"3/23/2022 12:00:00 AM","Smyth County","Virginia","South","South Atlantic","51173","36.842318","-81.539786 ","8718","168","6","1","3/22/2022 12:00:00 AM","2019","30104","NYTIMES-USCENSUS"
"3/23/2022 12:00:00 AM","Lyman County","South Dakota","Midwest","West North Central","46085","43.894812","-99.841925 ","1203","12","0","0","3/22/2022 12:00:00 AM","2019","3781","NYTIMES-USCENSUS"
"3/23/2022 12:00:00 AM","Carroll County","Virginia","South","South Atlantic","51035","36.731963","-80.727831 ","6615","142","3","1","3/22/2022 12:00:00 AM","2019","29791","NYTIMES-USCENSUS"
"3/23/2022 12:00:00 AM","Jessamine County","Kentucky","South","East South Central","21113","37.873291","-84.58396 ","15109","133","0","0","3/22/2022 12:00:00 AM","2019","54115","NYTIMES-USCENSUS"
"3/23/2022 12:00:00 AM","Panola County","Mississippi","South","East South Central","28107","34.365205","-89.963065 ","10459","168","0","0","3/22/2022 12:00:00 AM","2019","34192","NYTIMES-USCENSUS"
"3/23/2022 12:00:00 AM","Atkinson County","Georgia","South","South Atlantic","13003","31.296806","-82.878151 ","2131","47","-1","0","3/22/2022 12:00:00 AM","2019","8165","NYTIMES-USCENSUS"
"3/23/2022 12:00:00 AM","Sac County","Iowa","Midwest","West North Central","19161","42.387526","-95.105224 ","2398","33","2","0","3/22/2022 12:00:00 AM","2019","9721","NYTIMES-USCENSUS"
"3/23/2022 12:00:00 AM","Custer County","Colorado","West","Mountain","08027","38.101996","-105.373512 ","636","19","3","0","3/22/2022 12:00:00 AM","2019","5068","NYTIMES-USCENSUS"
"3/23/2022 12:00:00 AM","Carter County","Oklahoma","South","West South Central","40019","34.251848","-97.287927 ","14179","224","0","0","3/22/2022 12:00:00 AM","2019","48111","NYTIMES-USCENSUS"
"3/23/2022 12:00:00 AM","Juab County","Utah","West","Mountain","49023","39.71412","-112.790471 ","2881","23","0","0","3/22/2022 12:00:00 AM","2019","12017","NYTIMES-USCENSUS"
"3/23/2022 12:00:00 AM","Franklin County","Maine","Northeast","New England","23007","44.976724","-70.414935 ","5626","57","7","0","3/22/2022 12:00:00 AM","2019","30199","NYTIMES-USCENSUS"
"3/23/2022 12:00:00 AM","Boundary County","Idaho","West","Mountain","16021","48.773131","-116.524668 ","2081","59","0","0","3/22/2022 12:00:00 AM","2019","12245","NYTIMES-USCENSUS"
"3/23/2022 12:00:00 AM","Carbon County","Utah","West","Mountain","49007","39.673284","-110.588484 ","5193","44","3","0","3/22/2022 12:00:00 AM","2019","20463","NYTIMES-USCENSUS"
"3/23/2022 12:00:00 AM","St. John the Baptist Parish","Louisiana","South","West South Central","22095","30.144068","-90.49096 ","10486","184","0","0","3/22/2022 12:00:00 AM","2019","42837","NYTIMES-USCENSUS"
"3/23/2022 12:00:00 AM","Knox County","Ohio","Midwest","East North Central","39083","40.40362","-82.422393 ","13109","226","0","0","3/22/2022 12:00:00 AM","2019","62322","NYTIMES-USCENSUS"
"3/23/2022 12:00:00 AM","Saunders County","Nebraska","Midwest","West North Central","31155","41.223388","-96.642097 ","4998","29","0","0","3/22/2022 12:00:00 AM","2019","21578","NYTIMES-USCENSUS"
"3/23/2022 12:00:00 AM","Darke County","Ohio","Midwest","East North Central","39037","40.131467","-84.621191 ","12348","233","0","0","3/22/2022 12:00:00 AM","2019","51113","NYTIMES-USCENSUS"
"3/23/2022 12:00:00 AM","Ontonagon County","Michigan","Midwest","East North Central","26131","46.835325","-89.276912 ","978","38","3","0","3/22/2022 12:00:00 AM","2019","5720","NYTIMES-USCENSUS"
"3/23/2022 12:00:00 AM","Wilkes County","Georgia","South","South Atlantic","13317","33.779031","-82.747921 ","2237","49","-1","0","3/22/2022 12:00:00 AM","2019","9777","NYTIMES-USCENSUS"
"3/23/2022 12:00:00 AM","Union County","Ohio","Midwest","East North Central","39159","40.295901","-83.367042 ","15557","99","0","0","3/22/2022 12:00:00 AM","2019","58988","NYTIMES-USCENSUS"
"3/23/2022 12:00:00 AM","Stewart County","Georgia","South","South Atlantic","13259","32.073225","-84.834912 ","2484","32","0","0","3/22/2022 12:00:00 AM","2019","6621","NYTIMES-USCENSUS"
"3/23/2022 12:00:00 AM","Champaign County","Ohio","Midwest","East North Central","39021","40.132775","-83.767604 ","8696","145","0","0","3/22/2022 12:00:00 AM","2019","38885","NYTIMES-USCENSUS"
"3/23/2022 12:00:00 AM","Oregon County","Missouri","Midwest","West North Central","29149","36.68531","-91.401827 ","2019","33","0","0","3/22/2022 12:00:00 AM","2019","10529","NYTIMES-USCENSUS"
"3/23/2022 12:00:00 AM","Sullivan County","Pennsylvania","Northeast","Middle Atlantic","42113","41.439285","-76.511717 ","1047","36","0","0","3/22/2022 12:00:00 AM","2019","6066","NYTIMES-USCENSUS"
"3/23/2022 12:00:00 AM","Wilcox County","Georgia","South","South Atlantic","13315","31.96272","-83.438259 ","2002","69","0","0","3/22/2022 12:00:00 AM","2019","8635","NYTIMES-USCENSUS"
"3/23/2022 12:00:00 AM","Cheatham County","Tennessee","South","East South Central","47021","36.255169","-87.100808 ","10896","119","13","1","3/22/2022 12:00:00 AM","2019","40667","NYTIMES-USCENSUS"
"3/23/2022 12:00:00 AM","Phelps County","Missouri","Midwest","West North Central","29161","37.866326","-91.790349 ","10137","237","6","1","3/22/2022 12:00:00 AM","2019","44573","NYTIMES-USCENSUS"
"3/23/2022 12:00:00 AM","Lewis County","Tennessee","South","East South Central","47101","35.523244","-87.496983 ","3568","57","0","1","3/22/2022 12:00:00 AM","2019","12268","NYTIMES-USCENSUS"
"3/23/2022 12:00:00 AM","Hutchinson County","Texas","South","West South Central","48233","35.837047","-101.362746 ","6703","135","1","0","3/22/2022 12:00:00 AM","2019","20938","NYTIMES-USCENSUS"
"3/23/2022 12:00:00 AM","Itasca County","Minnesota","Midwest","West North Central","27061","47.490817","-93.611102 ","10983","144","3","0","3/22/2022 12:00:00 AM","2019","45130","NYTIMES-USCENSUS"
"3/23/2022 12:00:00 AM","Mississippi County","Arkansas","South","West South Central","05093","35.766944","-90.052207 ","13483","208","13","0","3/22/2022 12:00:00 AM","2019","40651","NYTIMES-USCENSUS"
"3/23/2022 12:00:00 AM","Cheyenne County","Colorado","West","Mountain","08017","38.835646","-102.601791 ","321","9","0","0","3/22/2022 12:00:00 AM","2019","1831","NYTIMES-USCENSUS"
"3/23/2022 12:00:00 AM","Campbell County","Kentucky","South","East South Central","21037","38.946981","-84.379583 ","24472","161","0","0","3/22/2022 12:00:00 AM","2019","93584","NYTIMES-USCENSUS"
"3/23/2022 12:00:00 AM","Fillmore County","Minnesota","Midwest","West North Central","27045","43.679187","-92.093937 ","4749","24","3","0","3/22/2022 12:00:00 AM","2019","21067","NYTIMES-USCENSUS"
"3/23/2022 12:00:00 AM","Floyd County","Kentucky","South","East South Central","21071","37.552456","-82.739724 ","12473","168","0","0","3/22/2022 12:00:00 AM","2019","35589","NYTIMES-USCENSUS"
"3/23/2022 12:00:00 AM","Ottawa County","Kansas","Midwest","West North Central","20143","39.137963","-97.654802 ","1202","16","0","0","3/22/2022 12:00:00 AM","2019","5704","NYTIMES-USCENSUS"
"3/23/2022 12:00:00 AM","Charles City County","Virginia","South","South Atlantic","51036","37.361054","-77.05417 ","1148","27","-1","0","3/22/2022 12:00:00 AM","2019","6963","NYTIMES-USCENSUS"
"3/23/2022 12:00:00 AM","Garfield County","Utah","West","Mountain","49017","37.831664","-111.450908 ","921","15","0","1","3/22/2022 12:00:00 AM","2019","5051","NYTIMES-USCENSUS"
"3/23/2022 12:00:00 AM","Blanco County","Texas","South","West South Central","48031","30.266456","-98.399217 ","2523","34","0","0","3/22/2022 12:00:00 AM","2019","11931","NYTIMES-USCENSUS"
"3/23/2022 12:00:00 AM","Chelan County","Washington","West","Pacific","53007","47.860974","-120.619041 ","20014","160","10","2","3/22/2022 12:00:00 AM","2019","77200","NYTIMES-USCENSUS"
"3/23/2022 12:00:00 AM","Clay County","Nebraska","Midwest","West North Central","31035","40.523669","-98.050858 ","1512","23","0","0","3/22/2022 12:00:00 AM","2019","6203","NYTIMES-USCENSUS"
"3/23/2022 12:00:00 AM","Ramsey County","North Dakota","Midwest","West North Central","38071","48.266163","-98.739031 ","3606","57","0","0","3/22/2022 12:00:00 AM","2019","11519","NYTIMES-USCENSUS"
"3/23/2022 12:00:00 AM","Bureau County","Illinois","Midwest","East North Central","17011","41.401304","-89.528377 ","8322","140","0","0","3/22/2022 12:00:00 AM","2019","32628","NYTIMES-USCENSUS"
"3/23/2022 12:00:00 AM","Gallatin County","Illinois","Midwest","East North Central","17059","37.768677","-88.227964 ","1402","17","0","0","3/22/2022 12:00:00 AM","2019","4828","NYTIMES-USCENSUS"
"3/23/2022 12:00:00 AM","Taos County","New Mexico","West","Mountain","35055","36.577183","-105.638878 ","5297","89","3","0","3/22/2022 12:00:00 AM","2019","32723","NYTIMES-USCENSUS"
"3/23/2022 12:00:00 AM","Macon County","Illinois","Midwest","East North Central","17115","39.860237","-88.961529 ","30338","349","2","0","3/22/2022 12:00:00 AM","2019","104009","NYTIMES-USCENSUS"
"3/23/2022 12:00:00 AM","Frontier County","Nebraska","Midwest","West North Central","31063","40.530947","-100.406683 ","541","2","0","0","3/22/2022 12:00:00 AM","2019","2627","NYTIMES-USCENSUS"
"3/23/2022 12:00:00 AM","Montrose County","Colorado","West","Mountain","08085","38.407507","-108.266282 ","9189","158","19","0","3/22/2022 12:00:00 AM","2019","42758","NYTIMES-USCENSUS"
"3/23/2022 12:00:00 AM","Wells County","North Dakota","Midwest","West North Central","38103","47.580851","-99.682213 ","1010","12","0","0","3/22/2022 12:00:00 AM","2019","3834","NYTIMES-USCENSUS"
"3/23/2022 12:00:00 AM","Carbon County","Pennsylvania","Northeast","Middle Atlantic","42025","40.918367","-75.705039 ","15807","289","3","0","3/22/2022 12:00:00 AM","2019","64182","NYTIMES-USCENSUS"
"3/23/2022 12:00:00 AM","Stanley County","South Dakota","Midwest","West North Central","46117","44.413984","-100.747822 ","633","7","0","0","3/22/2022 12:00:00 AM","2019","3098","NYTIMES-USCENSUS"
"3/23/2022 12:00:00 AM","Teller County","Colorado","West","Mountain","08119","38.869976","-105.187365 ","4765","57","6","0","3/22/2022 12:00:00 AM","2019","25388","NYTIMES-USCENSUS"
"3/23/2022 12:00:00 AM","Whitfield County","Georgia","South","South Atlantic","13313","34.801726","-84.968541 ","34031","420","5","0","3/22/2022 12:00:00 AM","2019","104628","NYTIMES-USCENSUS"
"3/23/2022 12:00:00 AM","Menominee County","Wisconsin","Midwest","East North Central","55078","44.991304","-88.669251 ","1900","14","0","0","3/22/2022 12:00:00 AM","2019","4556","NYTIMES-USCENSUS"
"3/23/2022 12:00:00 AM","Schuyler County","Missouri","Midwest","West North Central","29197","40.469361","-92.519016 ","734","26","7","0","3/22/2022 12:00:00 AM","2019","4660","NYTIMES-USCENSUS"
"3/23/2022 12:00:00 AM","Iberville Parish","Louisiana","South","West South Central","22047","30.270653","-91.365872 ","8974","150","0","0","3/22/2022 12:00:00 AM","2019","32511","NYTIMES-USCENSUS"
"3/23/2022 12:00:00 AM","Oklahoma County","Oklahoma","South","West South Central","40109","35.554611","-97.409401 ","196413","2333","0","0","3/22/2022 12:00:00 AM","2019","797434","NYTIMES-USCENSUS"
"3/23/2022 12:00:00 AM","Allegan County","Michigan","Midwest","East North Central","26005","42.421251","-86.261403 ","26998","342","13","0","3/22/2022 12:00:00 AM","2019","118081","NYTIMES-USCENSUS"
"3/23/2022 12:00:00 AM","Pulaski County","Illinois","Midwest","East North Central","17153","37.215615","-89.127755 ","1719","19","0","0","3/22/2022 12:00:00 AM","2019","5335","NYTIMES-USCENSUS"
"3/23/2022 12:00:00 AM","Adams County","Ohio","Midwest","East North Central","39001","38.834468","-83.478082 ","6918","141","0","0","3/22/2022 12:00:00 AM","2019","27698","NYTIMES-USCENSUS"
"3/23/2022 12:00:00 AM","Skagit County","Washington","West","Pacific","53057","48.493292","-121.81577 ","21939","197","22","-1","3/22/2022 12:00:00 AM","2019","129205","NYTIMES-USCENSUS"
"3/23/2022 12:00:00 AM","Butler County","Nebraska","Midwest","West North Central","31023","41.226072","-97.132039 ","1894","17","0","0","3/22/2022 12:00:00 AM","2019","8016","NYTIMES-USCENSUS"
"3/23/2022 12:00:00 AM","Monroe County","Kentucky","South","East South Central","21171","36.714077","-85.713508 ","3614","75","0","0","3/22/2022 12:00:00 AM","2019","10650","NYTIMES-USCENSUS"
"3/23/2022 12:00:00 AM","Mackinac County","Michigan","Midwest","East North Central","26097","46.167868","-85.303762 ","2383","30","4","1","3/22/2022 12:00:00 AM","2019","10799","NYTIMES-USCENSUS"
"3/23/2022 12:00:00 AM","New Haven County","Connecticut","Northeast","New England","09009","41.349718","-72.900203 ","194103","2788","86","-1","3/22/2022 12:00:00 AM","2019","854757","NYTIMES-USCENSUS"
"3/23/2022 12:00:00 AM","Livingston County","New York","Northeast","Middle Atlantic","36051","42.729042","-77.778463 ","11562","114","5","0","3/22/2022 12:00:00 AM","2019","62914","NYTIMES-USCENSUS"
"3/23/2022 12:00:00 AM","Hickman County","Tennessee","South","East South Central","47081","35.802327","-87.467116 ","6815","108","4","0","3/22/2022 12:00:00 AM","2019","25178","NYTIMES-USCENSUS"
"3/23/2022 12:00:00 AM","Lincoln County","New Mexico","West","Mountain","35027","33.740841","-105.449805 ","5191","65","3","0","3/22/2022 12:00:00 AM","2019","19572","NYTIMES-USCENSUS"
"3/23/2022 12:00:00 AM","Highland County","Ohio","Midwest","East North Central","39071","39.184422","-83.601359 ","10595","177","0","0","3/22/2022 12:00:00 AM","2019","43161","NYTIMES-USCENSUS"
"3/23/2022 12:00:00 AM","Graves County","Kentucky","South","East South Central","21083","36.723344","-88.649897 ","11336","172","0","0","3/22/2022 12:00:00 AM","2019","37266","NYTIMES-USCENSUS"
"3/23/2022 12:00:00 AM","La Crosse County","Wisconsin","Midwest","East North Central","55063","43.908222","-91.111758 ","34552","176","10","0","3/22/2022 12:00:00 AM","2019","118016","NYTIMES-USCENSUS"
"3/23/2022 12:00:00 AM","Putnam County","Ohio","Midwest","East North Central","39137","41.024533","-84.129879 ","8435","154","0","0","3/22/2022 12:00:00 AM","2019","33861","NYTIMES-USCENSUS"
"3/23/2022 12:00:00 AM","Franklin County","Alabama","South","East South Central","01059","34.441989","-87.842814 ","9849","137","1","0","3/22/2022 12:00:00 AM","2019","31362","NYTIMES-USCENSUS"
"3/23/2022 12:00:00 AM","Knox County","Nebraska","Midwest","West North Central","31107","42.634404","-97.891349 ","1677","13","-1","0","3/22/2022 12:00:00 AM","2019","8332","NYTIMES-USCENSUS"
"3/23/2022 12:00:00 AM","Clear Creek County","Colorado","West","Mountain","08019","39.689403","-105.670783 ","1517","12","1","0","3/22/2022 12:00:00 AM","2019","9700","NYTIMES-USCENSUS"
"3/23/2022 12:00:00 AM","Grant County","North Dakota","Midwest","West North Central","38037","46.357827","-101.639049 ","451","11","0","0","3/22/2022 12:00:00 AM","2019","2274","NYTIMES-USCENSUS"
"3/23/2022 12:00:00 AM","Lafayette Parish","Louisiana","South","West South Central","22055","30.206507","-92.06417 ","62210","491","6","0","3/22/2022 12:00:00 AM","2019","244390","NYTIMES-USCENSUS"
"3/23/2022 12:00:00 AM","McHenry County","North Dakota","Midwest","West North Central","38049","48.233842","-100.633267 ","1301","31","0","0","3/22/2022 12:00:00 AM","2019","5745","NYTIMES-USCENSUS"
"3/23/2022 12:00:00 AM","Middlesex County","Massachusetts","Northeast","New England","25017","42.481718","-71.394916 ","322156","3939","328","-1","3/22/2022 12:00:00 AM","2019","1611699","NYTIMES-USCENSUS"
"3/23/2022 12:00:00 AM","Florence County","South Carolina","South","South Atlantic","45041","34.028535","-79.710233 ","41676","620","0","0","3/22/2022 12:00:00 AM","2019","138293","NYTIMES-USCENSUS"
"3/23/2022 12:00:00 AM","Cabarrus County","North Carolina","South","South Atlantic","37025","35.388346","-80.552728 ","55392","467","41","1","3/22/2022 12:00:00 AM","2019","216453","NYTIMES-USCENSUS"
"3/23/2022 12:00:00 AM","Tazewell County","Illinois","Midwest","East North Central","17179","40.508074","-89.51626 ","36486","495","8","0","3/22/2022 12:00:00 AM","2019","131803","NYTIMES-USCENSUS"
"3/23/2022 12:00:00 AM","Price County","Wisconsin","Midwest","East North Central","55099","45.679072","-90.35965 ","3246","32","2","0","3/22/2022 12:00:00 AM","2019","13351","NYTIMES-USCENSUS"
"3/23/2022 12:00:00 AM","Missaukee County","Michigan","Midwest","East North Central","26113","44.325424","-85.085471 ","2901","59","2","0","3/22/2022 12:00:00 AM","2019","15118","NYTIMES-USCENSUS"
"3/23/2022 12:00:00 AM","Holmes County","Ohio","Midwest","East North Central","39075","40.565597","-81.930001 ","5098","180","0","0","3/22/2022 12:00:00 AM","2019","43960","NYTIMES-USCENSUS"
"3/23/2022 12:00:00 AM","Fresno County","California","West","Pacific","06019","36.761006","-119.655019 ","251576","2708","177","1","3/22/2022 12:00:00 AM","2019","999101","NYTIMES-USCENSUS"
"3/23/2022 12:00:00 AM","Kanawha County","West Virginia","South","South Atlantic","54039","38.328068","-81.523516 ","47031","707","10","5","3/22/2022 12:00:00 AM","2019","178124","NYTIMES-USCENSUS"
"3/23/2022 12:00:00 AM","Clark County","Illinois","Midwest","East North Central","17023","39.332334","-87.791683 ","4841","60","2","0","3/22/2022 12:00:00 AM","2019","15441","NYTIMES-USCENSUS"
"3/23/2022 12:00:00 AM","Bartow County","Georgia","South","South Atlantic","13015","34.240917","-84.838188 ","29074","437","5","0","3/22/2022 12:00:00 AM","2019","107738","NYTIMES-USCENSUS"
"3/23/2022 12:00:00 AM","Winston County","Alabama","South","East South Central","01133","34.154566","-87.365346 ","7567","128","0","0","3/22/2022 12:00:00 AM","2019","23629","NYTIMES-USCENSUS"
"3/23/2022 12:00:00 AM","Winkler County","Texas","South","West South Central","48495","31.832862","-103.054925 ","1837","34","0","0","3/22/2022 12:00:00 AM","2019","8010","NYTIMES-USCENSUS"
"3/23/2022 12:00:00 AM","Kittitas County","Washington","West","Pacific","53037","47.124441","-120.676709 ","8207","59","43","1","3/22/2022 12:00:00 AM","2019","47935","NYTIMES-USCENSUS"
"3/23/2022 12:00:00 AM","Harlan County","Kentucky","South","East South Central","21095","36.859223","-83.221497 ","9188","195","0","0","3/22/2022 12:00:00 AM","2019","26010","NYTIMES-USCENSUS"
"3/23/2022 12:00:00 AM","Runnels County","Texas","South","West South Central","48399","31.845119","-99.982715 ","2284","66","2","0","3/22/2022 12:00:00 AM","2019","10264","NYTIMES-USCENSUS"
"3/23/2022 12:00:00 AM","Stephens County","Oklahoma","South","West South Central","40137","34.481361","-97.855607 ","10934","195","0","0","3/22/2022 12:00:00 AM","2019","43143","NYTIMES-USCENSUS"
"3/23/2022 12:00:00 AM","Clay County","South Dakota","Midwest","West North Central","46027","42.91615","-96.980468 ","3484","21","3","0","3/22/2022 12:00:00 AM","2019","14070","NYTIMES-USCENSUS"
"3/23/2022 12:00:00 AM","Noble County","Oklahoma","South","West South Central","40103","36.384901","-97.236335 ","3021","36","0","0","3/22/2022 12:00:00 AM","2019","11131","NYTIMES-USCENSUS"
"3/23/2022 12:00:00 AM","Hillsdale County","Michigan","Midwest","East North Central","26059","41.927461","-84.637479 ","10310","203","9","1","3/22/2022 12:00:00 AM","2019","45605","NYTIMES-USCENSUS"
"3/23/2022 12:00:00 AM","Fleming County","Kentucky","South","East South Central","21069","38.367848","-83.699205 ","3714","51","0","0","3/22/2022 12:00:00 AM","2019","14581","NYTIMES-USCENSUS"
"3/23/2022 12:00:00 AM","Staunton city","Virginia","South","South Atlantic","51790","38.157978","-79.061876 ","5606","109","-6","0","3/22/2022 12:00:00 AM","2019","24932","NYTIMES-USCENSUS"
"3/23/2022 12:00:00 AM","Yates County","New York","Northeast","Middle Atlantic","36123","42.638237","-77.104324 ","3342","39","6","0","3/22/2022 12:00:00 AM","2019","24913","NYTIMES-USCENSUS"
"3/23/2022 12:00:00 AM","Webster County","Nebraska","Midwest","West North Central","31181","40.180646","-98.49859 ","711","10","0","0","3/22/2022 12:00:00 AM","2019","3487","NYTIMES-USCENSUS"
"3/23/2022 12:00:00 AM","Rockbridge County","Virginia","South","South Atlantic","51163","37.814517","-79.447754 ","3243","75","2","0","3/22/2022 12:00:00 AM","2019","22573","NYTIMES-USCENSUS"
"3/23/2022 12:00:00 AM","Tensas Parish","Louisiana","South","West South Central","22107","32.001489","-91.342576 ","984","11","0","0","3/22/2022 12:00:00 AM","2019","4334","NYTIMES-USCENSUS"
"3/23/2022 12:00:00 AM","Henry County","Tennessee","South","East South Central","47079","36.325295","-88.300288 ","8244","154","7","0","3/22/2022 12:00:00 AM","2019","32345","NYTIMES-USCENSUS"
"3/23/2022 12:00:00 AM","Bremer County","Iowa","Midwest","West North Central","19017","42.780895","-92.327356 ","5480","81","8","1","3/22/2022 12:00:00 AM","2019","25062","NYTIMES-USCENSUS"
"3/23/2022 12:00:00 AM","Worcester County","Massachusetts","Northeast","New England","25027","42.311693","-71.940282 ","190918","2561","97","0","3/22/2022 12:00:00 AM","2019","830622","NYTIMES-USCENSUS"
"3/23/2022 12:00:00 AM","Hyde County","North Carolina","South","South Atlantic","37095","35.408157","-76.153687 ","1308","13","0","0","3/22/2022 12:00:00 AM","2019","4937","NYTIMES-USCENSUS"
"3/23/2022 12:00:00 AM","Claiborne County","Mississippi","South","East South Central","28021","31.97281","-90.915424 ","2138","46","0","0","3/22/2022 12:00:00 AM","2019","8988","NYTIMES-USCENSUS"
"3/23/2022 12:00:00 AM","Amador County","California","West","Pacific","06005","38.443549","-120.653858 ","9105","86","1","1","3/22/2022 12:00:00 AM","2019","39752","NYTIMES-USCENSUS"
"3/23/2022 12:00:00 AM","Sunflower County","Mississippi","South","East South Central","28133","33.605529","-90.59509 ","5760","121","0","0","3/22/2022 12:00:00 AM","2019","25110","NYTIMES-USCENSUS"
"3/23/2022 12:00:00 AM","Franklin County","Illinois","Midwest","East North Central","17055","37.991852","-88.926321 ","12258","177","0","0","3/22/2022 12:00:00 AM","2019","38469","NYTIMES-USCENSUS"
"3/23/2022 12:00:00 AM","Mason County","Kentucky","South","East South Central","21161","38.594137","-83.828125 ","4681","103","0","0","3/22/2022 12:00:00 AM","2019","17070","NYTIMES-USCENSUS"
"3/23/2022 12:00:00 AM","Lyon County","Nevada","West","Mountain","32019","39.022213","-119.197425 ","9974","169","-776","0","3/22/2022 12:00:00 AM","2019","57510","NYTIMES-USCENSUS"
"3/23/2022 12:00:00 AM","Pickens County","Georgia","South","South Atlantic","13227","34.456746","-84.490351 ","8317","162","1","0","3/22/2022 12:00:00 AM","2019","32591","NYTIMES-USCENSUS"
"3/23/2022 12:00:00 AM","Brooke County","West Virginia","South","South Atlantic","54009","40.272645","-80.578691 ","5003","105","4","0","3/22/2022 12:00:00 AM","2019","21939","NYTIMES-USCENSUS"
"3/23/2022 12:00:00 AM","Southeast Fairbanks Census Area","Alaska","West","Pacific","02240","63.864997","-143.218628 ","1994","19","1","1","3/22/2022 12:00:00 AM","2019","6893","NYTIMES-USCENSUS"
"3/23/2022 12:00:00 AM","St. Clair County","Michigan","Midwest","East North Central","26147","42.928803","-82.668913 ","40394","823","44","3","3/22/2022 12:00:00 AM","2019","159128","NYTIMES-USCENSUS"
"3/23/2022 12:00:00 AM","Griggs County","North Dakota","Midwest","West North Central","38039","47.456334","-98.232286 ","569","2","0","0","3/22/2022 12:00:00 AM","2019","2231","NYTIMES-USCENSUS"
"3/23/2022 12:00:00 AM","Umatilla County","Oregon","West","Pacific","41059","45.5912","-118.73388 ","22296","206","1","0","3/22/2022 12:00:00 AM","2019","77950","NYTIMES-USCENSUS"
"3/23/2022 12:00:00 AM","Potter County","Texas","South","West South Central","48375","35.398675","-101.893804 ","35651","701","-23","2","3/22/2022 12:00:00 AM","2019","117415","NYTIMES-USCENSUS"
"3/23/2022 12:00:00 AM","Iberia Parish","Louisiana","South","West South Central","22045","29.606013","-91.842706 ","19038","262","2","0","3/22/2022 12:00:00 AM","2019","69830","NYTIMES-USCENSUS"
"3/23/2022 12:00:00 AM","Medina County","Ohio","Midwest","East North Central","39103","41.116174","-81.899764 ","39906","498","0","0","3/22/2022 12:00:00 AM","2019","179746","NYTIMES-USCENSUS"
"3/23/2022 12:00:00 AM","Johnson County","Arkansas","South","West South Central","05071","35.573359","-93.466322 ","6793","81","5","0","3/22/2022 12:00:00 AM","2019","26578","NYTIMES-USCENSUS"
"3/23/2022 12:00:00 AM","Denver County","Colorado","West","Mountain","08031","39.76185","-104.881105 ","166945","1283","138","1","3/22/2022 12:00:00 AM","2019","727211","NYTIMES-USCENSUS"
"3/23/2022 12:00:00 AM","Stanton County","Nebraska","Midwest","West North Central","31167","41.905045","-97.177109 ","743","11","0","0","3/22/2022 12:00:00 AM","2019","5920","NYTIMES-USCENSUS"
"3/23/2022 12:00:00 AM","Sussex County","New Jersey","Northeast","Middle Atlantic","34037","41.137461","-74.691914 ","33667","470","14","0","3/22/2022 12:00:00 AM","2019","140488","NYTIMES-USCENSUS"
"3/23/2022 12:00:00 AM","Aiken County","South Carolina","South","South Atlantic","45003","33.550013","-81.632983 ","41385","436","0","0","3/22/2022 12:00:00 AM","2019","170872","NYTIMES-USCENSUS"
"3/23/2022 12:00:00 AM","Deer Lodge County","Montana","West","Mountain","30023","46.094672","-113.141624 ","2546","28","0","0","3/22/2022 12:00:00 AM","2019","9140","NYTIMES-USCENSUS"
"3/23/2022 12:00:00 AM","Providence County","Rhode Island","Northeast","New England","44007","41.869768","-71.578625 ","219344","2462","824","4","3/22/2022 12:00:00 AM","2019","638931","NYTIMES-USCENSUS"
"3/23/2022 12:00:00 AM","Clay County","Arkansas","South","West South Central","05021","36.367302","-90.418704 ","4098","90","0","0","3/22/2022 12:00:00 AM","2019","14551","NYTIMES-USCENSUS"
"3/23/2022 12:00:00 AM","Jackson County","Oregon","West","Pacific","41029","42.411621","-122.675611 ","42520","505","17","0","3/22/2022 12:00:00 AM","2019","220944","NYTIMES-USCENSUS"
"3/23/2022 12:00:00 AM","Cassia County","Idaho","West","Mountain","16031","42.282313","-113.626328 ","5033","52","2","0","3/22/2022 12:00:00 AM","2019","24030","NYTIMES-USCENSUS"
"3/23/2022 12:00:00 AM","Bailey County","Texas","South","West South Central","48017","34.067521","-102.830345 ","1442","39","17","0","3/22/2022 12:00:00 AM","2019","7000","NYTIMES-USCENSUS"
"3/23/2022 12:00:00 AM","Fremont County","Colorado","West","Mountain","08043","38.45517","-105.424958 ","15019","178","0","0","3/22/2022 12:00:00 AM","2019","47839","NYTIMES-USCENSUS"
"3/23/2022 12:00:00 AM","Lee County","Texas","South","West South Central","48287","30.321498","-96.976823 ","4235","60","5","0","3/22/2022 12:00:00 AM","2019","17239","NYTIMES-USCENSUS"
"3/23/2022 12:00:00 AM","Santa Clara County","California","West","Pacific","06085","37.221614","-121.68954 ","323072","2250","278","4","3/22/2022 12:00:00 AM","2019","1927852","NYTIMES-USCENSUS"
"3/23/2022 12:00:00 AM","Clermont County","Ohio","Midwest","East North Central","39025","39.052054","-84.149485 ","51131","537","0","0","3/22/2022 12:00:00 AM","2019","206428","NYTIMES-USCENSUS"
"3/23/2022 12:00:00 AM","Muskegon County","Michigan","Midwest","East North Central","26121","43.428739","-86.420908 ","41575","640","30","3","3/22/2022 12:00:00 AM","2019","173566","NYTIMES-USCENSUS"
"3/23/2022 12:00:00 AM","Suffolk County","New York","Northeast","Middle Atlantic","36103","40.943554","-72.692218 ","424691","4358","133","0","3/22/2022 12:00:00 AM","2019","1476601","NYTIMES-USCENSUS"
"3/23/2022 12:00:00 AM","Rogers County","Oklahoma","South","West South Central","40131","36.377794","-95.601383 ","25291","377","0","0","3/22/2022 12:00:00 AM","2019","92459","NYTIMES-USCENSUS"
"3/23/2022 12:00:00 AM","Jasper County","Iowa","Midwest","West North Central","19099","41.685551","-93.054147 ","8637","107","6","0","3/22/2022 12:00:00 AM","2019","37185","NYTIMES-USCENSUS"
"3/23/2022 12:00:00 AM","Henry County","Indiana","Midwest","East North Central","18065","39.929591","-85.397363 ","12973","228","2","0","3/22/2022 12:00:00 AM","2019","47972","NYTIMES-USCENSUS"
"3/23/2022 12:00:00 AM","Henderson County","North Carolina","South","South Atlantic","37089","35.336415","-82.479741 ","24830","288","16","0","3/22/2022 12:00:00 AM","2019","117417","NYTIMES-USCENSUS"
"3/23/2022 12:00:00 AM","Kershaw County","South Carolina","South","South Atlantic","45055","34.338356","-80.590885 ","21374","251","0","0","3/22/2022 12:00:00 AM","2019","66551","NYTIMES-USCENSUS"
"3/23/2022 12:00:00 AM","Sandoval County","New Mexico","West","Mountain","35043","35.685091","-106.883119 ","33329","393","16","0","3/22/2022 12:00:00 AM","2019","146748","NYTIMES-USCENSUS"
"3/23/2022 12:00:00 AM","Marshall County","Indiana","Midwest","East North Central","18099","41.325003","-86.269036 ","12317","195","0","0","3/22/2022 12:00:00 AM","2019","46258","NYTIMES-USCENSUS"
"3/23/2022 12:00:00 AM","Cherokee County","South Carolina","South","South Atlantic","45021","35.049796","-81.607647 ","14550","313","0","0","3/22/2022 12:00:00 AM","2019","57300","NYTIMES-USCENSUS"
"3/23/2022 12:00:00 AM","McLeod County","Minnesota","Midwest","West North Central","27085","44.821657","-94.272323 ","10534","107","3","0","3/22/2022 12:00:00 AM","2019","35893","NYTIMES-USCENSUS"
"3/23/2022 12:00:00 AM","Yolo County","California","West","Pacific","06113","38.679609","-121.90275 ","39349","308","43","1","3/22/2022 12:00:00 AM","2019","220500","NYTIMES-USCENSUS"
"3/23/2022 12:00:00 AM","Webster County","Mississippi","South","East South Central","28155","33.612061","-89.283961 ","3385","69","0","0","3/22/2022 12:00:00 AM","2019","9689","NYTIMES-USCENSUS"
"3/23/2022 12:00:00 AM","Newport County","Rhode Island","Northeast","New England","44005","41.501045","-71.283063 ","19751","82","85","0","3/22/2022 12:00:00 AM","2019","82082","NYTIMES-USCENSUS"
"3/23/2022 12:00:00 AM","Somerset County","New Jersey","Northeast","Middle Atlantic","34035","40.565527","-74.619938 ","67163","966","47","0","3/22/2022 12:00:00 AM","2019","328934","NYTIMES-USCENSUS"
"3/23/2022 12:00:00 AM","Maries County","Missouri","Midwest","West North Central","29125","38.162615","-91.923601 ","1598","36","0","0","3/22/2022 12:00:00 AM","2019","8697","NYTIMES-USCENSUS"
"3/23/2022 12:00:00 AM","Crosby County","Texas","South","West South Central","48107","33.609144","-101.29871 ","1869","45","0","0","3/22/2022 12:00:00 AM","2019","5737","NYTIMES-USCENSUS"
"3/23/2022 12:00:00 AM","Crawford County","Iowa","Midwest","West North Central","19047","42.043119","-95.38909 ","4519","54","3","1","3/22/2022 12:00:00 AM","2019","16820","NYTIMES-USCENSUS"
"3/23/2022 12:00:00 AM","Lancaster County","Pennsylvania","Northeast","Middle Atlantic","42071","40.041992","-76.250198 ","120605","1874","17","0","3/22/2022 12:00:00 AM","2019","545724","NYTIMES-USCENSUS"
"3/23/2022 12:00:00 AM","Lincoln County","Montana","West","Mountain","30053","48.552385","-115.463185 ","4711","86","0","0","3/22/2022 12:00:00 AM","2019","19980","NYTIMES-USCENSUS"
"3/23/2022 12:00:00 AM","Concho County","Texas","South","West South Central","48095","31.318883","-99.863649 ","1074","11","3","0","3/22/2022 12:00:00 AM","2019","2726","NYTIMES-USCENSUS"
"3/23/2022 12:00:00 AM","Las Animas County","Colorado","West","Mountain","08071","37.318831","-104.04411 ","3543","41","3","0","3/22/2022 12:00:00 AM","2019","14506","NYTIMES-USCENSUS"
"3/23/2022 12:00:00 AM","San Bernardino County","California","West","Pacific","06071","34.856661","-116.181571 ","584685","6811","161","4","3/22/2022 12:00:00 AM","2019","2180085","NYTIMES-USCENSUS"
"3/23/2022 12:00:00 AM","Ohio County","Kentucky","South","East South Central","21183","37.477859","-86.844871 ","7291","96","0","0","3/22/2022 12:00:00 AM","2019","23994","NYTIMES-USCENSUS"
"3/23/2022 12:00:00 AM","Alfalfa County","Oklahoma","South","West South Central","40003","36.729703","-98.323445 ","1713","14","0","0","3/22/2022 12:00:00 AM","2019","5702","NYTIMES-USCENSUS"
"3/23/2022 12:00:00 AM","Waupaca County","Wisconsin","Midwest","East North Central","55135","44.478004","-88.967005 ","13586","249","1","0","3/22/2022 12:00:00 AM","2019","50990","NYTIMES-USCENSUS"
"3/23/2022 12:00:00 AM","Garland County","Arkansas","South","West South Central","05051","34.578852","-93.146932 ","23235","502","3","-1","3/22/2022 12:00:00 AM","2019","99386","NYTIMES-USCENSUS"
"3/23/2022 12:00:00 AM","Guilford County","North Carolina","South","South Atlantic","37081","36.079065","-79.788665 ","116035","1153","56","4","3/22/2022 12:00:00 AM","2019","537174","NYTIMES-USCENSUS"
"3/23/2022 12:00:00 AM","Dallas County","Arkansas","South","West South Central","05039","33.967823","-92.653999 ","1735","31","1","0","3/22/2022 12:00:00 AM","2019","7009","NYTIMES-USCENSUS"
"3/23/2022 12:00:00 AM","McDowell County","West Virginia","South","South Atlantic","54047","37.38276","-81.658204 ","5582","67","1","0","3/22/2022 12:00:00 AM","2019","17624","NYTIMES-USCENSUS"
"3/23/2022 12:00:00 AM","Carroll County","Kentucky","South","East South Central","21041","38.668394","-85.124024 ","3478","44","0","0","3/22/2022 12:00:00 AM","2019","10631","NYTIMES-USCENSUS"
"3/23/2022 12:00:00 AM","Duplin County","North Carolina","South","South Atlantic","37061","34.934403","-77.933543 ","16788","238","-1","5","3/22/2022 12:00:00 AM","2019","58741","NYTIMES-USCENSUS"
"3/23/2022 12:00:00 AM","Harding County","New Mexico","West","Mountain","35021","35.859352","-103.853424 ","81","4","0","0","3/22/2022 12:00:00 AM","2019","625","NYTIMES-USCENSUS"
"3/23/2022 12:00:00 AM","St. Charles Parish","Louisiana","South","West South Central","22089","29.905722","-90.357855 ","13782","143","3","0","3/22/2022 12:00:00 AM","2019","53100","NYTIMES-USCENSUS"
"3/23/2022 12:00:00 AM","Collier County","Florida","South","South Atlantic","12021","26.118786","-81.400955 ","82944","980","0","0","3/22/2022 12:00:00 AM","2019","384902","NYTIMES-USCENSUS"
"3/23/2022 12:00:00 AM","Murray County","Minnesota","Midwest","West North Central","27101","44.015594","-95.761581 ","2025","15","0","0","3/22/2022 12:00:00 AM","2019","8194","NYTIMES-USCENSUS"
"3/23/2022 12:00:00 AM","Pamlico County","North Carolina","South","South Atlantic","37137","35.147575","-76.665268 ","2592","27","1","0","3/22/2022 12:00:00 AM","2019","12726","NYTIMES-USCENSUS"
"3/23/2022 12:00:00 AM","Polk County","Oregon","West","Pacific","41053","44.900372","-123.39864 ","15214","127","1","0","3/22/2022 12:00:00 AM","2019","86085","NYTIMES-USCENSUS"
"3/23/2022 12:00:00 AM","Tyrrell County","North Carolina","South","South Atlantic","37177","35.87042","-76.165345 ","973","8","0","0","3/22/2022 12:00:00 AM","2019","4016","NYTIMES-USCENSUS"
"3/23/2022 12:00:00 AM","St. Landry Parish","Louisiana","South","West South Central","22097","30.583441","-91.989274 ","22151","412","5","0","3/22/2022 12:00:00 AM","2019","82124","NYTIMES-USCENSUS"
"3/23/2022 12:00:00 AM","Cambria County","Pennsylvania","Northeast","Middle Atlantic","42021","40.510227","-78.710477 ","34486","717","6","0","3/22/2022 12:00:00 AM","2019","130192","NYTIMES-USCENSUS"
"3/23/2022 12:00:00 AM","Montague County","Texas","South","West South Central","48337","33.678356","-97.725014 ","4649","125","3","0","3/22/2022 12:00:00 AM","2019","19818","NYTIMES-USCENSUS"
"3/23/2022 12:00:00 AM","Wayne County","Pennsylvania","Northeast","Middle Atlantic","42127","41.646602","-75.292493 ","10075","168","3","0","3/22/2022 12:00:00 AM","2019","51361","NYTIMES-USCENSUS"
"3/23/2022 12:00:00 AM","Brown County","Ohio","Midwest","East North Central","39015","38.931377","-83.866772 ","11165","174","0","0","3/22/2022 12:00:00 AM","2019","43432","NYTIMES-USCENSUS"
"3/23/2022 12:00:00 AM","Wyandot County","Ohio","Midwest","East North Central","39175","40.839782","-83.313681 ","5399","103","0","0","3/22/2022 12:00:00 AM","2019","21772","NYTIMES-USCENSUS"
"3/23/2022 12:00:00 AM","Blount County","Tennessee","South","East South Central","47009","35.688185","-83.922973 ","39027","418","37","5","3/22/2022 12:00:00 AM","2019","133088","NYTIMES-USCENSUS"
"3/23/2022 12:00:00 AM","Washington County","Idaho","West","Mountain","16087","44.448223","-116.797792 ","2368","57","1","0","3/22/2022 12:00:00 AM","2019","10194","NYTIMES-USCENSUS"
"3/23/2022 12:00:00 AM","Liberty County","Montana","West","Mountain","30051","48.559654","-111.036924 ","396","4","1","0","3/22/2022 12:00:00 AM","2019","2337","NYTIMES-USCENSUS"
"3/23/2022 12:00:00 AM","Silver Bow County","Montana","West","Mountain","30093","45.896232","-112.660071 ","8454","129","1","0","3/22/2022 12:00:00 AM","2019","34915","NYTIMES-USCENSUS"
"3/23/2022 12:00:00 AM","La Salle County","Texas","South","West South Central","48283","28.351098","-99.096774 ","2340","48","7","0","3/22/2022 12:00:00 AM","2019","7520","NYTIMES-USCENSUS"
"3/23/2022 12:00:00 AM","Caldwell County","Missouri","Midwest","West North Central","29025","39.658998","-93.979179 ","1683","37","0","0","3/22/2022 12:00:00 AM","2019","9020","NYTIMES-USCENSUS"
"3/23/2022 12:00:00 AM","Ida County","Iowa","Midwest","West North Central","19093","42.39186","-95.507421 ","1799","48","1","0","3/22/2022 12:00:00 AM","2019","6860","NYTIMES-USCENSUS"
"3/23/2022 12:00:00 AM","Carteret County","North Carolina","South","South Atlantic","37031","34.858343","-76.53586 ","14055","85","5","0","3/22/2022 12:00:00 AM","2019","69473","NYTIMES-USCENSUS"
"3/23/2022 12:00:00 AM","Forest County","Pennsylvania","Northeast","Middle Atlantic","42053","41.513304","-79.249705 ","2237","35","0","0","3/22/2022 12:00:00 AM","2019","7247","NYTIMES-USCENSUS"
"3/23/2022 12:00:00 AM","Carroll County","Indiana","Midwest","East North Central","18015","40.58498","-86.565141 ","4221","67","-1","1","3/22/2022 12:00:00 AM","2019","20257","NYTIMES-USCENSUS"
"3/23/2022 12:00:00 AM","Jefferson County","Florida","South","South Atlantic","12065","30.396898","-83.921761 ","3922","51","0","0","3/22/2022 12:00:00 AM","2019","14246","NYTIMES-USCENSUS"
"3/23/2022 12:00:00 AM","Irion County","Texas","South","West South Central","48235","31.303424","-100.981304 ","439","3","0","0","3/22/2022 12:00:00 AM","2019","1536","NYTIMES-USCENSUS"
"3/23/2022 12:00:00 AM","Brunswick County","Virginia","South","South Atlantic","51025","36.764204","-77.861483 ","3182","45","3","0","3/22/2022 12:00:00 AM","2019","16231","NYTIMES-USCENSUS"
"3/23/2022 12:00:00 AM","Clark County","Ohio","Midwest","East North Central","39023","39.917032","-83.783676 ","34903","566","0","0","3/22/2022 12:00:00 AM","2019","134083","NYTIMES-USCENSUS"
"3/23/2022 12:00:00 AM","Coweta County","Georgia","South","South Atlantic","13077","33.352897","-84.762138 ","32845","470","7","0","3/22/2022 12:00:00 AM","2019","148509","NYTIMES-USCENSUS"
"3/23/2022 12:00:00 AM","Lyon County","Kentucky","South","East South Central","21143","37.023976","-88.083391 ","2864","33","0","0","3/22/2022 12:00:00 AM","2019","8210","NYTIMES-USCENSUS"
"3/23/2022 12:00:00 AM","Pinellas County","Florida","South","South Atlantic","12103","27.905342","-82.798066 ","207695","3248","0","0","3/22/2022 12:00:00 AM","2019","974996","NYTIMES-USCENSUS"
"3/23/2022 12:00:00 AM","Citrus County","Florida","South","South Atlantic","12017","28.850292","-82.595552 ","29404","950","0","0","3/22/2022 12:00:00 AM","2019","149657","NYTIMES-USCENSUS"
"3/23/2022 12:00:00 AM","Crawford County","Missouri","Midwest","West North Central","29055","37.966559","-91.313936 ","5382","101","1","0","3/22/2022 12:00:00 AM","2019","23920","NYTIMES-USCENSUS"
"3/23/2022 12:00:00 AM","Sumter County","Florida","South","South Atlantic","12119","28.715444","-82.069952 ","21550","551","0","0","3/22/2022 12:00:00 AM","2019","132420","NYTIMES-USCENSUS"
"3/23/2022 12:00:00 AM","Calhoun County","Iowa","Midwest","West North Central","19025","42.38617","-94.643683 ","2591","24","3","1","3/22/2022 12:00:00 AM","2019","9668","NYTIMES-USCENSUS"
"3/23/2022 12:00:00 AM","Manassas city","Virginia","South","South Atlantic","51683","38.746808","-77.482633 ","9046","70","4","0","3/22/2022 12:00:00 AM","2019","41085","NYTIMES-USCENSUS"
"3/23/2022 12:00:00 AM","Richland County","Ohio","Midwest","East North Central","39139","40.774159","-82.542781 ","31438","500","0","0","3/22/2022 12:00:00 AM","2019","121154","NYTIMES-USCENSUS"
"3/23/2022 12:00:00 AM","Clinton County","New York","Northeast","Middle Atlantic","36019","44.752712","-73.705643 ","16574","86","12","1","3/22/2022 12:00:00 AM","2019","80485","NYTIMES-USCENSUS"
"3/23/2022 12:00:00 AM","Luzerne County","Pennsylvania","Northeast","Middle Atlantic","42079","41.173078","-75.976053 ","73277","1337","15","1","3/22/2022 12:00:00 AM","2019","317417","NYTIMES-USCENSUS"
"3/23/2022 12:00:00 AM","Ballard County","Kentucky","South","East South Central","21007","37.051323","-89.010367 ","1287","28","0","0","3/22/2022 12:00:00 AM","2019","7888","NYTIMES-USCENSUS"
"3/23/2022 12:00:00 AM","Switzerland County","Indiana","Midwest","East North Central","18155","38.825854","-85.029681 ","2308","20","1","0","3/22/2022 12:00:00 AM","2019","10751","NYTIMES-USCENSUS"
"3/23/2022 12:00:00 AM","Oconee County","South Carolina","South","South Atlantic","45073","34.748766","-83.06154 ","24133","335","0","0","3/22/2022 12:00:00 AM","2019","79546","NYTIMES-USCENSUS"
"3/23/2022 12:00:00 AM","Hendricks County","Indiana","Midwest","East North Central","18063","39.768963","-86.509908 ","40745","551","5","1","3/22/2022 12:00:00 AM","2019","170311","NYTIMES-USCENSUS"
"3/23/2022 12:00:00 AM","Edmonson County","Kentucky","South","East South Central","21061","37.227514","-86.218015 ","2549","41","0","0","3/22/2022 12:00:00 AM","2019","12150","NYTIMES-USCENSUS"
"3/23/2022 12:00:00 AM","Schuyler County","New York","Northeast","Middle Atlantic","36097","42.419776","-76.938603 ","3421","25","6","0","3/22/2022 12:00:00 AM","2019","17807","NYTIMES-USCENSUS"
"3/23/2022 12:00:00 AM","Kendall County","Illinois","Midwest","East North Central","17093","41.58814","-88.430626 ","30794","169","10","0","3/22/2022 12:00:00 AM","2019","128990","NYTIMES-USCENSUS"
"3/23/2022 12:00:00 AM","Colusa County","California","West","Pacific","06011","39.177739","-122.237563 ","4525","21","1","0","3/22/2022 12:00:00 AM","2019","21547","NYTIMES-USCENSUS"
"3/23/2022 12:00:00 AM","Halifax County","Virginia","South","South Atlantic","51083","36.766461","-78.939614 ","7004","151","1","0","3/22/2022 12:00:00 AM","2019","33911","NYTIMES-USCENSUS"
"3/23/2022 12:00:00 AM","Camden County","North Carolina","South","South Atlantic","37029","36.342344","-76.162488 ","1747","9","2","0","3/22/2022 12:00:00 AM","2019","10867","NYTIMES-USCENSUS"
"3/23/2022 12:00:00 AM","Columbia County","Georgia","South","South Atlantic","13073","33.552075","-82.249608 ","35781","372","4","0","3/22/2022 12:00:00 AM","2019","156714","NYTIMES-USCENSUS"
"3/23/2022 12:00:00 AM","Caddo Parish","Louisiana","South","West South Central","22017","32.580106","-93.88497 ","67156","1132","6","0","3/22/2022 12:00:00 AM","2019","240204","NYTIMES-USCENSUS"
"3/23/2022 12:00:00 AM","Virginia Beach city","Virginia","South","South Atlantic","51810","36.779525","-76.029142 ","88897","801","30","1","3/22/2022 12:00:00 AM","2019","449974","NYTIMES-USCENSUS"
"3/23/2022 12:00:00 AM","Lexington city","Virginia","South","South Atlantic","51678","37.782332","-79.44432 ","2826","40","2","0","3/22/2022 12:00:00 AM","2019","7446","NYTIMES-USCENSUS"
"3/23/2022 12:00:00 AM","Carroll County","Maryland","South","South Atlantic","24013","39.563328","-77.01533 ","21263","397","10","1","3/22/2022 12:00:00 AM","2019","168447","NYTIMES-USCENSUS"
"3/23/2022 12:00:00 AM","Iron County","Utah","West","Mountain","49021","37.909304","-113.30674 ","14654","88","2","3","3/22/2022 12:00:00 AM","2019","54839","NYTIMES-USCENSUS"
"3/23/2022 12:00:00 AM","Converse County","Wyoming","West","Mountain","56009","42.984623","-105.524752 ","3133","55","0","0","3/22/2022 12:00:00 AM","2019","13822","NYTIMES-USCENSUS"
"3/23/2022 12:00:00 AM","Evangeline Parish","Louisiana","South","West South Central","22039","30.720693","-92.404086 ","8375","156","0","0","3/22/2022 12:00:00 AM","2019","33395","NYTIMES-USCENSUS"
"3/23/2022 12:00:00 AM","Fayette County","Indiana","Midwest","East North Central","18041","39.639655","-85.185032 ","6868","146","0","0","3/22/2022 12:00:00 AM","2019","23102","NYTIMES-USCENSUS"
"3/23/2022 12:00:00 AM","Lincoln County","Kentucky","South","East South Central","21137","37.457174","-84.658335 ","6308","126","0","0","3/22/2022 12:00:00 AM","2019","24549","NYTIMES-USCENSUS"
"3/23/2022 12:00:00 AM","Washington County","Ohio","Midwest","East North Central","39167","39.450676","-81.490636 ","12327","203","0","0","3/22/2022 12:00:00 AM","2019","59911","NYTIMES-USCENSUS"
"3/23/2022 12:00:00 AM","Marion County","Florida","South","South Atlantic","12083","29.202805","-82.0431 ","83041","2048","0","0","3/22/2022 12:00:00 AM","2019","365579","NYTIMES-USCENSUS"
"3/23/2022 12:00:00 AM","York County","Virginia","South","South Atlantic","51199","37.220914","-76.395533 ","9741","104","7","0","3/22/2022 12:00:00 AM","2019","68280","NYTIMES-USCENSUS"
"3/23/2022 12:00:00 AM","Crawford County","Kansas","Midwest","West North Central","20037","37.505821","-94.853897 ","11862","130","1","0","3/22/2022 12:00:00 AM","2019","38818","NYTIMES-USCENSUS"
"3/23/2022 12:00:00 AM","Calcasieu Parish","Louisiana","South","West South Central","22019","30.229559","-93.358015 ","54579","701","2","0","3/22/2022 12:00:00 AM","2019","203436","NYTIMES-USCENSUS"
"3/23/2022 12:00:00 AM","Roane County","West Virginia","South","South Atlantic","54087","38.74295","-81.354494 ","3137","37","1","0","3/22/2022 12:00:00 AM","2019","13688","NYTIMES-USCENSUS"
"3/23/2022 12:00:00 AM","Noxubee County","Mississippi","South","East South Central","28103","33.106606","-88.566152 ","2719","48","0","0","3/22/2022 12:00:00 AM","2019","10417","NYTIMES-USCENSUS"
"3/23/2022 12:00:00 AM","Jefferson County","Iowa","Midwest","West North Central","19101","41.006376","-91.966628 ","3466","51","1","0","3/22/2022 12:00:00 AM","2019","18295","NYTIMES-USCENSUS"
"3/23/2022 12:00:00 AM","Bent County","Colorado","West","Mountain","08011","37.931891","-103.077584 ","2510","47","5","0","3/22/2022 12:00:00 AM","2019","5577","NYTIMES-USCENSUS"
"3/23/2022 12:00:00 AM","DeKalb County","Indiana","Midwest","East North Central","18033","41.39676","-85.002697 ","11334","149","8","0","3/22/2022 12:00:00 AM","2019","43475","NYTIMES-USCENSUS"
"3/23/2022 12:00:00 AM","Natrona County","Wyoming","West","Mountain","56025","42.977645","-106.768219 ","22228","268","0","0","3/22/2022 12:00:00 AM","2019","79858","NYTIMES-USCENSUS"
"3/23/2022 12:00:00 AM","Johnson County","Kentucky","South","East South Central","21115","37.847756","-82.830121 ","5968","101","0","0","3/22/2022 12:00:00 AM","2019","22188","NYTIMES-USCENSUS"
"3/23/2022 12:00:00 AM","Crook County","Wyoming","West","Mountain","56011","44.589266","-104.567298 ","1346","28","0","0","3/22/2022 12:00:00 AM","2019","7584","NYTIMES-USCENSUS"
"3/23/2022 12:00:00 AM","Cass County","Michigan","Midwest","East North Central","26027","41.917243","-86.000142 ","11083","141","4","1","3/22/2022 12:00:00 AM","2019","51787","NYTIMES-USCENSUS"
"3/23/2022 12:00:00 AM","Faribault County","Minnesota","Midwest","West North Central","27043","43.676522","-93.947234 ","3739","50","0","0","3/22/2022 12:00:00 AM","2019","13653","NYTIMES-USCENSUS"
"3/23/2022 12:00:00 AM","Lake County","Montana","West","Mountain","30047","47.642901","-114.083687 ","6573","98","3","0","3/22/2022 12:00:00 AM","2019","30458","NYTIMES-USCENSUS"
"3/23/2022 12:00:00 AM","Dorchester County","South Carolina","South","South Atlantic","45035","33.082186","-80.404697 ","55794","486","0","0","3/22/2022 12:00:00 AM","2019","162809","NYTIMES-USCENSUS"
"3/23/2022 12:00:00 AM","Beaver County","Pennsylvania","Northeast","Middle Atlantic","42007","40.68414","-80.350721 ","40032","727","8","2","3/22/2022 12:00:00 AM","2019","163929","NYTIMES-USCENSUS"
"3/23/2022 12:00:00 AM","Winona County","Minnesota","Midwest","West North Central","27169","43.981353","-91.777044 ","12634","72","3","0","3/22/2022 12:00:00 AM","2019","50484","NYTIMES-USCENSUS"
"3/23/2022 12:00:00 AM","Williamson County","Tennessee","South","East South Central","47187","35.894807","-86.898068 ","61839","395","56","2","3/22/2022 12:00:00 AM","2019","238412","NYTIMES-USCENSUS"
"3/23/2022 12:00:00 AM","Chester County","Pennsylvania","Northeast","Middle Atlantic","42029","39.974029","-75.749751 ","91216","1133","23","1","3/22/2022 12:00:00 AM","2019","524989","NYTIMES-USCENSUS"
"3/23/2022 12:00:00 AM","Lake County","Minnesota","Midwest","West North Central","27075","47.517111","-91.411704 ","2062","28","0","0","3/22/2022 12:00:00 AM","2019","10641","NYTIMES-USCENSUS"
"3/23/2022 12:00:00 AM","Saline County","Kansas","Midwest","West North Central","20169","38.791804","-97.651478 ","14108","234","9","1","3/22/2022 12:00:00 AM","2019","54224","NYTIMES-USCENSUS"
"3/23/2022 12:00:00 AM","Montgomery County","Georgia","South","South Atlantic","13209","32.172108","-82.533349 ","2059","51","6","1","3/22/2022 12:00:00 AM","2019","9172","NYTIMES-USCENSUS"
"3/23/2022 12:00:00 AM","LaSalle Parish","Louisiana","South","West South Central","22059","31.680083","-92.161596 ","4215","56","1","0","3/22/2022 12:00:00 AM","2019","14892","NYTIMES-USCENSUS"
"3/23/2022 12:00:00 AM","Albemarle County","Virginia","South","South Atlantic","51003","38.024184","-78.553506 ","15930","152","64","1","3/22/2022 12:00:00 AM","2019","109330","NYTIMES-USCENSUS"
"3/23/2022 12:00:00 AM","Titus County","Texas","South","West South Central","48449","33.214599","-94.966783 ","8570","127","9","0","3/22/2022 12:00:00 AM","2019","32750","NYTIMES-USCENSUS"
"3/23/2022 12:00:00 AM","DeSoto County","Mississippi","South","East South Central","28033","34.874922","-89.991211 ","49981","548","0","0","3/22/2022 12:00:00 AM","2019","184945","NYTIMES-USCENSUS"
"3/23/2022 12:00:00 AM","Fayette County","Alabama","South","East South Central","01057","33.716157","-87.764292 ","4971","94","1","0","3/22/2022 12:00:00 AM","2019","16302","NYTIMES-USCENSUS"
"3/23/2022 12:00:00 AM","Marion County","Alabama","South","East South Central","01093","34.138219","-87.881551 ","8070","151","0","0","3/22/2022 12:00:00 AM","2019","29709","NYTIMES-USCENSUS"
"3/23/2022 12:00:00 AM","Henry County","Alabama","South","East South Central","01067","31.516978","-85.239971 ","4450","73","0","0","3/22/2022 12:00:00 AM","2019","17205","NYTIMES-USCENSUS"
"3/23/2022 12:00:00 AM","Cook County","Georgia","South","South Atlantic","13075","31.152516","-83.429445 ","4886","72","0","0","3/22/2022 12:00:00 AM","2019","17270","NYTIMES-USCENSUS"
"3/23/2022 12:00:00 AM","Alleghany County","Virginia","South","South Atlantic","51005","37.787905","-80.008669 ","3480","94","-4","1","3/22/2022 12:00:00 AM","2019","14860","NYTIMES-USCENSUS"
"3/23/2022 12:00:00 AM","Bienville Parish","Louisiana","South","West South Central","22013","32.340952","-93.041151 ","3970","111","0","0","3/22/2022 12:00:00 AM","2019","13241","NYTIMES-USCENSUS"
"3/23/2022 12:00:00 AM","Roscommon County","Michigan","Midwest","East North Central","26143","44.339517","-84.611271 ","4606","113","4","0","3/22/2022 12:00:00 AM","2019","24019","NYTIMES-USCENSUS"
"3/23/2022 12:00:00 AM","Daviess County","Missouri","Midwest","West North Central","29061","39.962839","-93.970053 ","1707","27","4","0","3/22/2022 12:00:00 AM","2019","8278","NYTIMES-USCENSUS"
"3/23/2022 12:00:00 AM","Cass County","Iowa","Midwest","West North Central","19029","41.333824","-94.933302 ","2949","77","2","1","3/22/2022 12:00:00 AM","2019","12836","NYTIMES-USCENSUS"
"3/23/2022 12:00:00 AM","Lincoln County","Washington","West","Pacific","53043","47.582743","-118.417692 ","2200","27","0","0","3/22/2022 12:00:00 AM","2019","10939","NYTIMES-USCENSUS"
"3/23/2022 12:00:00 AM","Monroe County","Ohio","Midwest","East North Central","39111","39.726253","-81.090983 ","3454","80","0","0","3/22/2022 12:00:00 AM","2019","13654","NYTIMES-USCENSUS"
"3/23/2022 12:00:00 AM","Columbia County","Arkansas","South","West South Central","05027","33.223038","-93.232843 ","5405","91","2","0","3/22/2022 12:00:00 AM","2019","23457","NYTIMES-USCENSUS"
"3/23/2022 12:00:00 AM","Claiborne County","Tennessee","South","East South Central","47025","36.501572","-83.660698 ","9084","176","14","1","3/22/2022 12:00:00 AM","2019","31959","NYTIMES-USCENSUS"
"3/23/2022 12:00:00 AM","Alexandria city","Virginia","South","South Atlantic","51510","38.819251","-77.08367 ","29993","186","47","1","3/22/2022 12:00:00 AM","2019","159428","NYTIMES-USCENSUS"
"3/23/2022 12:00:00 AM","Madison Parish","Louisiana","South","West South Central","22065","32.346878","-91.231932 ","3255","58","0","0","3/22/2022 12:00:00 AM","2019","10951","NYTIMES-USCENSUS"
"3/23/2022 12:00:00 AM","Okaloosa County","Florida","South","South Atlantic","12091","30.614325","-86.59108 ","51180","671","0","0","3/22/2022 12:00:00 AM","2019","210738","NYTIMES-USCENSUS"
"3/23/2022 12:00:00 AM","Cape Girardeau County","Missouri","Midwest","West North Central","29031","37.384141","-89.685658 ","18658","241","8","0","3/22/2022 12:00:00 AM","2019","78871","NYTIMES-USCENSUS"
"3/23/2022 12:00:00 AM","Valdez-Cordova Census Area","Alaska","West","Pacific","02261","61.4","-144.5","2875","17","13","1","3/22/2022 12:00:00 AM","2019","9202","NYTIMES-USCENSUS"
"3/23/2022 12:00:00 AM","Kauai County","Hawaii","West","Pacific","15007","22.012038","-159.705965 ","11776","29","84","0","3/22/2022 12:00:00 AM","2019","72293","NYTIMES-USCENSUS"
"3/23/2022 12:00:00 AM","Randolph County","Arkansas","South","West South Central","05121","36.341298","-91.028441 ","5159","83","3","0","3/22/2022 12:00:00 AM","2019","17958","NYTIMES-USCENSUS"
"3/23/2022 12:00:00 AM","Pasquotank County","North Carolina","South","South Atlantic","37139","36.265199","-76.260691 ","8460","111","9","0","3/22/2022 12:00:00 AM","2019","39824","NYTIMES-USCENSUS"
"3/23/2022 12:00:00 AM","Fairfield County","Connecticut","Northeast","New England","09001","41.227413","-73.367061 ","200891","2686","105","0","3/22/2022 12:00:00 AM","2019","943332","NYTIMES-USCENSUS"
"3/23/2022 12:00:00 AM","Beckham County","Oklahoma","South","West South Central","40009","35.270601","-99.690057 ","5924","105","0","0","3/22/2022 12:00:00 AM","2019","21859","NYTIMES-USCENSUS"
"3/23/2022 12:00:00 AM","Wyandotte County","Kansas","Midwest","West North Central","20209","39.115384","-94.763087 ","46737","489","12","0","3/22/2022 12:00:00 AM","2019","165429","NYTIMES-USCENSUS"
"3/23/2022 12:00:00 AM","Emmons County","North Dakota","Midwest","West North Central","38029","46.284255","-100.237842 ","726","18","0","0","3/22/2022 12:00:00 AM","2019","3241","NYTIMES-USCENSUS"
"3/23/2022 12:00:00 AM","San Juan County","Utah","West","Mountain","49037","37.602633","-109.791574 ","3969","47","0","0","3/22/2022 12:00:00 AM","2019","15308","NYTIMES-USCENSUS"
"3/23/2022 12:00:00 AM","West Carroll Parish","Louisiana","South","West South Central","22123","32.79248","-91.451998 ","3619","64","0","0","3/22/2022 12:00:00 AM","2019","10830","NYTIMES-USCENSUS"
"3/23/2022 12:00:00 AM","Webster County","Georgia","South","South Atlantic","13307","32.046691","-84.553828 ","436","8","0","0","3/22/2022 12:00:00 AM","2019","2607","NYTIMES-USCENSUS"
"3/23/2022 12:00:00 AM","Harrison County","Kentucky","South","East South Central","21097","38.444578","-84.334131 ","6205","66","0","0","3/22/2022 12:00:00 AM","2019","18886","NYTIMES-USCENSUS"
"3/23/2022 12:00:00 AM","Dallas County","Missouri","Midwest","West North Central","29059","37.683583","-93.033815 ","3792","71","0","0","3/22/2022 12:00:00 AM","2019","16878","NYTIMES-USCENSUS"
"3/23/2022 12:00:00 AM","Baltimore city","Maryland","South","South Atlantic","24510","39.300032","-76.610476 ","111226","1760","37","1","3/22/2022 12:00:00 AM","2019","593490","NYTIMES-USCENSUS"
"3/23/2022 12:00:00 AM","Scott County","Kentucky","South","East South Central","21209","38.28571","-84.57834 ","16308","98","0","0","3/22/2022 12:00:00 AM","2019","57004","NYTIMES-USCENSUS"
"3/23/2022 12:00:00 AM","Adair County","Oklahoma","South","West South Central","40001","35.898043","-94.651026 ","7841","71","0","0","3/22/2022 12:00:00 AM","2019","22194","NYTIMES-USCENSUS"
"3/23/2022 12:00:00 AM","Graham County","Arizona","West","Mountain","04009","32.931828","-109.87831 ","11933","173","1","0","3/22/2022 12:00:00 AM","2019","38837","NYTIMES-USCENSUS"
"3/23/2022 12:00:00 AM","Richland County","Wisconsin","Midwest","East North Central","55103","43.376199","-90.435693 ","3828","45","2","0","3/22/2022 12:00:00 AM","2019","17252","NYTIMES-USCENSUS"
"3/23/2022 12:00:00 AM","Plumas County","California","West","Pacific","06063","39.992295","-120.824371 ","3098","13","0","0","3/22/2022 12:00:00 AM","2019","18807","NYTIMES-USCENSUS"
"3/23/2022 12:00:00 AM","Haywood County","North Carolina","South","South Atlantic","37087","35.558882","-82.981307 ","12883","198","4","1","3/22/2022 12:00:00 AM","2019","62317","NYTIMES-USCENSUS"
"3/23/2022 12:00:00 AM","Beaverhead County","Montana","West","Mountain","30001","45.133863","-112.892869 ","2125","28","1","0","3/22/2022 12:00:00 AM","2019","9453","NYTIMES-USCENSUS"
"3/23/2022 12:00:00 AM","Delaware County","Pennsylvania","Northeast","Middle Atlantic","42045","39.916685","-75.398818 ","109443","1851","19","1","3/22/2022 12:00:00 AM","2019","566747","NYTIMES-USCENSUS"
"3/23/2022 12:00:00 AM","Union County","New Jersey","Northeast","Middle Atlantic","34039","40.659871","-74.308696 ","143873","2351","71","-1","3/22/2022 12:00:00 AM","2019","556341","NYTIMES-USCENSUS"
"3/23/2022 12:00:00 AM","Fergus County","Montana","West","Mountain","30027","47.221816","-109.232956 ","2507","54","2","0","3/22/2022 12:00:00 AM","2019","11050","NYTIMES-USCENSUS"
"3/23/2022 12:00:00 AM","Laramie County","Wyoming","West","Mountain","56021","41.29283","-104.660395 ","26071","286","0","0","3/22/2022 12:00:00 AM","2019","99500","NYTIMES-USCENSUS"
"3/23/2022 12:00:00 AM","Ravalli County","Montana","West","Mountain","30081","46.077744","-114.105795 ","7020","141","2","0","3/22/2022 12:00:00 AM","2019","43806","NYTIMES-USCENSUS"
"3/23/2022 12:00:00 AM","Crawford County","Ohio","Midwest","East North Central","39033","40.848524","-82.924783 ","11149","209","0","0","3/22/2022 12:00:00 AM","2019","41494","NYTIMES-USCENSUS"
"3/23/2022 12:00:00 AM","White County","Tennessee","South","East South Central","47185","35.927049","-85.455785 ","8224","127","3","1","3/22/2022 12:00:00 AM","2019","27345","NYTIMES-USCENSUS"
"3/23/2022 12:00:00 AM","Hockley County","Texas","South","West South Central","48219","33.605932","-102.343398 ","7639","161","2","0","3/22/2022 12:00:00 AM","2019","23021","NYTIMES-USCENSUS"
"3/23/2022 12:00:00 AM","Columbia County","Florida","South","South Atlantic","12023","30.221651","-82.623371 ","21123","379","0","0","3/22/2022 12:00:00 AM","2019","71686","NYTIMES-USCENSUS"
"3/23/2022 12:00:00 AM","Nome Census Area","Alaska","West","Pacific","02180","64.783686","-164.188912 ","5833","5","45","0","3/22/2022 12:00:00 AM","2019","10004","NYTIMES-USCENSUS"
"3/23/2022 12:00:00 AM","Kent County","Maryland","South","South Atlantic","24029","39.241279","-76.125987 ","3037","66","2","0","3/22/2022 12:00:00 AM","2019","19422","NYTIMES-USCENSUS"
"3/23/2022 12:00:00 AM","Macon County","Georgia","South","South Atlantic","13193","32.362686","-84.051231 ","2131","49","1","0","3/22/2022 12:00:00 AM","2019","12947","NYTIMES-USCENSUS"
"3/23/2022 12:00:00 AM","Clarke County","Alabama","South","East South Central","01025","31.685521","-87.818624 ","7083","98","3","0","3/22/2022 12:00:00 AM","2019","23622","NYTIMES-USCENSUS"
"3/23/2022 12:00:00 AM","Hancock County","Georgia","South","South Atlantic","13141","33.26922","-83.000465 ","1575","88","0","0","3/22/2022 12:00:00 AM","2019","8457","NYTIMES-USCENSUS"
"3/23/2022 12:00:00 AM","Kodiak Island Borough","Alaska","West","Pacific","02150","57.7044","-153.918372 ","4902","12","7","1","3/22/2022 12:00:00 AM","2019","12998","NYTIMES-USCENSUS"
"3/23/2022 12:00:00 AM","Tioga County","New York","Northeast","Middle Atlantic","36107","42.178057","-76.297456 ","10629","82","16","0","3/22/2022 12:00:00 AM","2019","48203","NYTIMES-USCENSUS"
"3/23/2022 12:00:00 AM","Carlisle County","Kentucky","South","East South Central","21039","36.85718","-88.976614 ","995","19","0","0","3/22/2022 12:00:00 AM","2019","4760","NYTIMES-USCENSUS"
"3/23/2022 12:00:00 AM","Madera County","California","West","Pacific","06039","37.209821","-119.749802 ","43324","354","16","0","3/22/2022 12:00:00 AM","2019","157327","NYTIMES-USCENSUS"
"3/23/2022 12:00:00 AM","Lincoln County","Minnesota","Midwest","West North Central","27081","44.408238","-96.272032 ","1212","6","0","0","3/22/2022 12:00:00 AM","2019","5639","NYTIMES-USCENSUS"
"3/23/2022 12:00:00 AM","Troup County","Georgia","South","South Atlantic","13285","33.034482","-85.02836 ","15410","373","1","2","3/22/2022 12:00:00 AM","2019","69922","NYTIMES-USCENSUS"
"3/23/2022 12:00:00 AM","Vernon Parish","Louisiana","South","West South Central","22115","31.102841","-93.18833 ","9917","188","1","0","3/22/2022 12:00:00 AM","2019","47429","NYTIMES-USCENSUS"
"3/23/2022 12:00:00 AM","Rains County","Texas","South","West South Central","48379","32.870457","-95.795613 ","1831","59","0","0","3/22/2022 12:00:00 AM","2019","12514","NYTIMES-USCENSUS"
"3/23/2022 12:00:00 AM","Lawrence County","Kentucky","South","East South Central","21127","38.074453","-82.73829 ","4539","67","0","0","3/22/2022 12:00:00 AM","2019","15317","NYTIMES-USCENSUS"
"3/23/2022 12:00:00 AM","Benton County","Minnesota","Midwest","West North Central","27009","45.701225","-94.00144 ","13975","174","2","0","3/22/2022 12:00:00 AM","2019","40889","NYTIMES-USCENSUS"
"3/23/2022 12:00:00 AM","Yankton County","South Dakota","Midwest","West North Central","46135","43.006603","-97.388361 ","5901","58","0","0","3/22/2022 12:00:00 AM","2019","22814","NYTIMES-USCENSUS"
"3/23/2022 12:00:00 AM","Day County","South Dakota","Midwest","West North Central","46037","45.355161","-97.58143 ","1271","35","-1","0","3/22/2022 12:00:00 AM","2019","5424","NYTIMES-USCENSUS"
"3/23/2022 12:00:00 AM","Stanton County","Kansas","Midwest","West North Central","20187","37.565932","-101.789383 ","429","8","0","0","3/22/2022 12:00:00 AM","2019","2006","NYTIMES-USCENSUS"
"3/23/2022 12:00:00 AM","Caswell County","North Carolina","South","South Atlantic","37033","36.394298","-79.339609 ","5254","44","8","0","3/22/2022 12:00:00 AM","2019","22604","NYTIMES-USCENSUS"
"3/23/2022 12:00:00 AM","Glascock County","Georgia","South","South Atlantic","13125","33.227491","-82.606913 ","608","25","0","0","3/22/2022 12:00:00 AM","2019","2971","NYTIMES-USCENSUS"
"3/23/2022 12:00:00 AM","Williamson County","Texas","South","West South Central","48491","30.649082","-97.605065 ","132134","873","71","2","3/22/2022 12:00:00 AM","2019","590551","NYTIMES-USCENSUS"
"3/23/2022 12:00:00 AM","Duchesne County","Utah","West","Mountain","49013","40.289393","-110.429584 ","4331","26","1","1","3/22/2022 12:00:00 AM","2019","19938","NYTIMES-USCENSUS"
"3/23/2022 12:00:00 AM","Marshall County","Tennessee","South","East South Central","47117","35.468343","-86.765865 ","10351","119","8","2","3/22/2022 12:00:00 AM","2019","34375","NYTIMES-USCENSUS"
"3/23/2022 12:00:00 AM","Shelby County","Missouri","Midwest","West North Central","29205","39.797531","-92.088719 ","1526","15","4","0","3/22/2022 12:00:00 AM","2019","5930","NYTIMES-USCENSUS"
"3/23/2022 12:00:00 AM","Bryan County","Georgia","South","South Atlantic","13029","32.017969","-81.438543 ","9088","89","4","0","3/22/2022 12:00:00 AM","2019","39627","NYTIMES-USCENSUS"
"3/23/2022 12:00:00 AM","Pike County","Missouri","Midwest","West North Central","29163","39.339959","-91.171607 ","4237","63","0","0","3/22/2022 12:00:00 AM","2019","18302","NYTIMES-USCENSUS"
"3/23/2022 12:00:00 AM","Asotin County","Washington","West","Pacific","53003","46.181861","-117.227781 ","4514","65","5","0","3/22/2022 12:00:00 AM","2019","22582","NYTIMES-USCENSUS"
"3/23/2022 12:00:00 AM","Stafford County","Virginia","South","South Atlantic","51179","38.423084","-77.458048 ","29980","169","12","1","3/22/2022 12:00:00 AM","2019","152882","NYTIMES-USCENSUS"
"3/23/2022 12:00:00 AM","Vernon County","Wisconsin","Midwest","East North Central","55123","43.599366","-90.821983 ","5984","93","3","0","3/22/2022 12:00:00 AM","2019","30822","NYTIMES-USCENSUS"
"3/23/2022 12:00:00 AM","Calhoun County","Illinois","Midwest","East North Central","17013","39.164262","-90.666295 ","1519","8","0","0","3/22/2022 12:00:00 AM","2019","4739","NYTIMES-USCENSUS"
"3/23/2022 12:00:00 AM","Carroll County","Mississippi","South","East South Central","28015","33.440795","-89.918887 ","2557","52","0","0","3/22/2022 12:00:00 AM","2019","9947","NYTIMES-USCENSUS"
"3/23/2022 12:00:00 AM","McKean County","Pennsylvania","Northeast","Middle Atlantic","42083","41.81459","-78.572463 ","8154","138","6","0","3/22/2022 12:00:00 AM","2019","40625","NYTIMES-USCENSUS"
"3/23/2022 12:00:00 AM","Menominee County","Michigan","Midwest","East North Central","26109","45.535568","-87.501457 ","5610","69","9","0","3/22/2022 12:00:00 AM","2019","22780","NYTIMES-USCENSUS"
"3/23/2022 12:00:00 AM","Wright County","Minnesota","Midwest","West North Central","27171","45.175091","-93.966396 ","36415","304","3","0","3/22/2022 12:00:00 AM","2019","138377","NYTIMES-USCENSUS"
"3/23/2022 12:00:00 AM","Blaine County","Oklahoma","South","West South Central","40011","35.877795","-98.429031 ","2441","40","0","0","3/22/2022 12:00:00 AM","2019","9429","NYTIMES-USCENSUS"
"3/23/2022 12:00:00 AM","Bond County","Illinois","Midwest","East North Central","17005","38.885924","-89.436592 ","4308","37","2","0","3/22/2022 12:00:00 AM","2019","16426","NYTIMES-USCENSUS"
"3/23/2022 12:00:00 AM","Rockingham County","New Hampshire","Northeast","New England","33015","42.988664","-71.09908 ","66192","520","28","0","3/22/2022 12:00:00 AM","2019","309769","NYTIMES-USCENSUS"
"3/23/2022 12:00:00 AM","Davidson County","North Carolina","South","South Atlantic","37057","35.795131","-80.207107 ","42932","393","11","0","3/22/2022 12:00:00 AM","2019","167609","NYTIMES-USCENSUS"
"3/23/2022 12:00:00 AM","McClain County","Oklahoma","South","West South Central","40087","35.016436","-97.449803 ","11589","131","0","0","3/22/2022 12:00:00 AM","2019","40474","NYTIMES-USCENSUS"
"3/23/2022 12:00:00 AM","Comanche County","Oklahoma","South","West South Central","40031","34.662625","-98.476586 ","32736","376","0","0","3/22/2022 12:00:00 AM","2019","120749","NYTIMES-USCENSUS"
"3/23/2022 12:00:00 AM","Fountain County","Indiana","Midwest","East North Central","18045","40.121237","-87.234872 ","5389","101","6","0","3/22/2022 12:00:00 AM","2019","16346","NYTIMES-USCENSUS"
"3/23/2022 12:00:00 AM","Jackson County","Missouri","Midwest","West North Central","29095","39.005364","-94.343211 ","96001","1183","62","0","3/22/2022 12:00:00 AM","2019","703011","NYTIMES-USCENSUS"
"3/23/2022 12:00:00 AM","Lincoln County","Nevada","West","Mountain","32017","37.634605","-114.863037 ","550","7","-408","0","3/22/2022 12:00:00 AM","2019","5183","NYTIMES-USCENSUS"
"3/23/2022 12:00:00 AM","Tulare County","California","West","Pacific","06107","36.228834","-118.781055 ","132601","1391","81","2","3/22/2022 12:00:00 AM","2019","466195","NYTIMES-USCENSUS"
"3/23/2022 12:00:00 AM","Schuylkill County","Pennsylvania","Northeast","Middle Atlantic","42107","40.703682","-76.217788 ","34351","671","2","1","3/22/2022 12:00:00 AM","2019","141359","NYTIMES-USCENSUS"
"3/23/2022 12:00:00 AM","Houston County","Minnesota","Midwest","West North Central","27055","43.66699","-91.501556 ","4496","18","2","0","3/22/2022 12:00:00 AM","2019","18600","NYTIMES-USCENSUS"
"3/23/2022 12:00:00 AM","Dakota County","Minnesota","Midwest","West North Central","27037","44.670893","-93.062481 ","109423","762","21","0","3/22/2022 12:00:00 AM","2019","429021","NYTIMES-USCENSUS"
"3/23/2022 12:00:00 AM","Craig County","Virginia","South","South Atlantic","51045","37.473603","-80.231051 ","1113","17","1","0","3/22/2022 12:00:00 AM","2019","5131","NYTIMES-USCENSUS"
"3/23/2022 12:00:00 AM","Harrison County","Missouri","Midwest","West North Central","29081","40.34562","-93.992582 ","1817","33","0","0","3/22/2022 12:00:00 AM","2019","8352","NYTIMES-USCENSUS"
"3/23/2022 12:00:00 AM","Person County","North Carolina","South","South Atlantic","37145","36.38635","-78.965623 ","9241","104","5","0","3/22/2022 12:00:00 AM","2019","39490","NYTIMES-USCENSUS"
"3/23/2022 12:00:00 AM","Llano County","Texas","South","West South Central","48299","30.707584","-98.68469 ","3871","97","5","0","3/22/2022 12:00:00 AM","2019","21795","NYTIMES-USCENSUS"
"3/23/2022 12:00:00 AM","Sibley County","Minnesota","Midwest","West North Central","27143","44.575734","-94.230123 ","3490","23","2","0","3/22/2022 12:00:00 AM","2019","14865","NYTIMES-USCENSUS"
"3/23/2022 12:00:00 AM","Sullivan County","New Hampshire","Northeast","New England","33019","43.361188","-72.222084 ","9171","67","9","0","3/22/2022 12:00:00 AM","2019","43146","NYTIMES-USCENSUS"
"3/23/2022 12:00:00 AM","Jefferson County","Illinois","Midwest","East North Central","17081","38.30078","-88.92421 ","11027","174","0","1","3/22/2022 12:00:00 AM","2019","37684","NYTIMES-USCENSUS"
"3/23/2022 12:00:00 AM","Tama County","Iowa","Midwest","West North Central","19171","42.074848","-92.529411 ","3849","90","1","1","3/22/2022 12:00:00 AM","2019","16854","NYTIMES-USCENSUS"
"3/23/2022 12:00:00 AM","Sussex County","Delaware","South","South Atlantic","10005","38.673227","-75.337024 ","61301","825","16","0","3/22/2022 12:00:00 AM","2019","234225","NYTIMES-USCENSUS"
"3/23/2022 12:00:00 AM","Franklin County","New York","Northeast","Middle Atlantic","36033","44.594376","-74.31067 ","9386","44","27","0","3/22/2022 12:00:00 AM","2019","50022","NYTIMES-USCENSUS"
"3/23/2022 12:00:00 AM","Chattahoochee County","Georgia","South","South Atlantic","13053","32.347445","-84.788021 ","7051","22","2","0","3/22/2022 12:00:00 AM","2019","10907","NYTIMES-USCENSUS"
"3/23/2022 12:00:00 AM","Pender County","North Carolina","South","South Atlantic","37141","34.512556","-77.888106 ","15214","118","-2","0","3/22/2022 12:00:00 AM","2019","63060","NYTIMES-USCENSUS"
"3/23/2022 12:00:00 AM","White County","Indiana","Midwest","East North Central","18181","40.75095","-86.864293 ","6841","93","2","0","3/22/2022 12:00:00 AM","2019","24102","NYTIMES-USCENSUS"
"3/23/2022 12:00:00 AM","Franklin County","Vermont","Northeast","New England","50011","44.858964","-72.909402 ","9391","66","13","0","3/22/2022 12:00:00 AM","2019","49402","NYTIMES-USCENSUS"
"3/23/2022 12:00:00 AM","Polk County","North Carolina","South","South Atlantic","37149","35.277901","-82.167621 ","3835","54","0","0","3/22/2022 12:00:00 AM","2019","20724","NYTIMES-USCENSUS"
"3/23/2022 12:00:00 AM","Mercer County","Illinois","Midwest","East North Central","17131","41.205605","-90.74177 ","3989","47","2","0","3/22/2022 12:00:00 AM","2019","15437","NYTIMES-USCENSUS"
"3/23/2022 12:00:00 AM","Atoka County","Oklahoma","South","West South Central","40005","34.392469","-96.036558 ","3857","48","0","0","3/22/2022 12:00:00 AM","2019","13758","NYTIMES-USCENSUS"
"3/23/2022 12:00:00 AM","Bollinger County","Missouri","Midwest","West North Central","29017","37.318427","-90.024645 ","2568","37","-2","0","3/22/2022 12:00:00 AM","2019","12133","NYTIMES-USCENSUS"
"3/23/2022 12:00:00 AM","Montcalm County","Michigan","Midwest","East North Central","26117","43.312782","-85.149468 ","17108","214","9","2","3/22/2022 12:00:00 AM","2019","63888","NYTIMES-USCENSUS"
"3/23/2022 12:00:00 AM","Wayne County","Iowa","Midwest","West North Central","19185","40.739983","-93.332613 ","1263","33","0","0","3/22/2022 12:00:00 AM","2019","6441","NYTIMES-USCENSUS"
"3/23/2022 12:00:00 AM","Monroe County","Michigan","Midwest","East North Central","26115","41.916097","-83.487106 ","37824","466","24","2","3/22/2022 12:00:00 AM","2019","150500","NYTIMES-USCENSUS"
"3/23/2022 12:00:00 AM","Lyon County","Kansas","Midwest","West North Central","20111","38.455403","-96.161641 ","9948","117","2","2","3/22/2022 12:00:00 AM","2019","33195","NYTIMES-USCENSUS"
"3/23/2022 12:00:00 AM","Murray County","Georgia","South","South Atlantic","13213","34.797097","-84.73799 ","11495","181","-3","1","3/22/2022 12:00:00 AM","2019","40096","NYTIMES-USCENSUS"
"3/23/2022 12:00:00 AM","Lake County","Colorado","West","Mountain","08065","39.205341","-106.350079 ","1784","2","0","0","3/22/2022 12:00:00 AM","2019","8127","NYTIMES-USCENSUS"
"3/23/2022 12:00:00 AM","Grant County","Kansas","Midwest","West North Central","20067","37.547537","-101.299362 ","2260","35","1","1","3/22/2022 12:00:00 AM","2019","7150","NYTIMES-USCENSUS"
"3/23/2022 12:00:00 AM","Chautauqua County","New York","Northeast","Middle Atlantic","36013","42.304216","-79.407595 ","23475","296","12","0","3/22/2022 12:00:00 AM","2019","126903","NYTIMES-USCENSUS"
"3/23/2022 12:00:00 AM","Lake County","Florida","South","South Atlantic","12069","28.764113","-81.712282 ","84293","1479","0","0","3/22/2022 12:00:00 AM","2019","367118","NYTIMES-USCENSUS"
"3/23/2022 12:00:00 AM","Orleans County","New York","Northeast","Middle Atlantic","36073","43.339906","-78.207028 ","8564","113","6","0","3/22/2022 12:00:00 AM","2019","40352","NYTIMES-USCENSUS"
"3/23/2022 12:00:00 AM","Randolph County","Alabama","South","East South Central","01111","33.296461","-85.464064 ","5066","74","0","0","3/22/2022 12:00:00 AM","2019","22722","NYTIMES-USCENSUS"
"3/23/2022 12:00:00 AM","Union County","South Dakota","Midwest","West North Central","46127","42.831106","-96.650829 ","3998","52","0","0","3/22/2022 12:00:00 AM","2019","15932","NYTIMES-USCENSUS"
"3/23/2022 12:00:00 AM","Thayer County","Nebraska","Midwest","West North Central","31169","40.173845","-97.596263 ","1109","8","0","0","3/22/2022 12:00:00 AM","2019","5003","NYTIMES-USCENSUS"
"3/23/2022 12:00:00 AM","Allegheny County","Pennsylvania","Northeast","Middle Atlantic","42003","40.469757","-79.980451 ","262636","3275","80","3","3/22/2022 12:00:00 AM","2019","1216045","NYTIMES-USCENSUS"
"3/23/2022 12:00:00 AM","Summers County","West Virginia","South","South Atlantic","54089","37.655999","-80.856325 ","2801","50","2","0","3/22/2022 12:00:00 AM","2019","12573","NYTIMES-USCENSUS"
"3/23/2022 12:00:00 AM","Wilbarger County","Texas","South","West South Central","48487","34.08492","-99.24244 ","3443","86","0","0","3/22/2022 12:00:00 AM","2019","12769","NYTIMES-USCENSUS"
"3/23/2022 12:00:00 AM","Fairfax city","Virginia","South","South Atlantic","51600","38.853183","-77.299025 ","1954","42","5","0","3/22/2022 12:00:00 AM","2019","24019","NYTIMES-USCENSUS"
"3/23/2022 12:00:00 AM","Jefferson County","Indiana","Midwest","East North Central","18077","38.783604","-85.44009 ","9348","154","1","0","3/22/2022 12:00:00 AM","2019","32308","NYTIMES-USCENSUS"
"3/23/2022 12:00:00 AM","Mower County","Minnesota","Midwest","West North Central","27099","43.666249","-92.759514 ","11801","71","6","0","3/22/2022 12:00:00 AM","2019","40062","NYTIMES-USCENSUS"
"3/23/2022 12:00:00 AM","Benton County","Tennessee","South","East South Central","47005","36.070948","-88.071232 ","4471","90","5","0","3/22/2022 12:00:00 AM","2019","16160","NYTIMES-USCENSUS"
"3/23/2022 12:00:00 AM","Dallam County","Texas","South","West South Central","48111","36.28637","-102.59402 ","2148","40","1","0","3/22/2022 12:00:00 AM","2019","7287","NYTIMES-USCENSUS"
"3/23/2022 12:00:00 AM","Boyle County","Kentucky","South","East South Central","21021","37.618104","-84.868352 ","8371","124","0","0","3/22/2022 12:00:00 AM","2019","30060","NYTIMES-USCENSUS"
"3/23/2022 12:00:00 AM","Livingston County","Kentucky","South","East South Central","21139","37.209517","-88.363426 ","2434","59","0","0","3/22/2022 12:00:00 AM","2019","9194","NYTIMES-USCENSUS"
"3/23/2022 12:00:00 AM","Morgan County","Kentucky","South","East South Central","21175","37.92294","-83.258944 ","4878","21","0","0","3/22/2022 12:00:00 AM","2019","13309","NYTIMES-USCENSUS"
"3/23/2022 12:00:00 AM","Adams County","Washington","West","Pacific","53001","47.011238","-118.512861 ","4911","38","2","0","3/22/2022 12:00:00 AM","2019","19983","NYTIMES-USCENSUS"
"3/23/2022 12:00:00 AM","Traill County","North Dakota","Midwest","West North Central","38097","47.446215","-97.164754 ","2185","26","0","0","3/22/2022 12:00:00 AM","2019","8036","NYTIMES-USCENSUS"
"3/23/2022 12:00:00 AM","Lynn County","Texas","South","West South Central","48305","33.178412","-101.818493 ","1483","38","17","0","3/22/2022 12:00:00 AM","2019","5951","NYTIMES-USCENSUS"
"3/23/2022 12:00:00 AM","Indiana County","Pennsylvania","Northeast","Middle Atlantic","42063","40.651432","-79.087545 ","17361","351","1","0","3/22/2022 12:00:00 AM","2019","84073","NYTIMES-USCENSUS"
"3/23/2022 12:00:00 AM","Rhea County","Tennessee","South","East South Central","47143","35.60059","-84.949548 ","9959","154","18","1","3/22/2022 12:00:00 AM","2019","33167","NYTIMES-USCENSUS"
"3/23/2022 12:00:00 AM","Torrance County","New Mexico","West","Mountain","35057","34.554978","-105.890557 ","3111","52","-2","0","3/22/2022 12:00:00 AM","2019","15461","NYTIMES-USCENSUS"
"3/23/2022 12:00:00 AM","Dodge County","Wisconsin","Midwest","East North Central","55027","43.429628","-88.701939 ","27015","327","11","2","3/22/2022 12:00:00 AM","2019","87839","NYTIMES-USCENSUS"
"3/23/2022 12:00:00 AM","Wabasha County","Minnesota","Midwest","West North Central","27157","44.289634","-92.233454 ","5546","16","0","0","3/22/2022 12:00:00 AM","2019","21627","NYTIMES-USCENSUS"
"3/23/2022 12:00:00 AM","Johnson County","Kansas","Midwest","West North Central","20091","38.883907","-94.82233 ","144965","1193","98","3","3/22/2022 12:00:00 AM","2019","602401","NYTIMES-USCENSUS"
"3/23/2022 12:00:00 AM","Wilkinson County","Mississippi","South","East South Central","28157","31.161091","-91.324617 ","1795","46","0","0","3/22/2022 12:00:00 AM","2019","8630","NYTIMES-USCENSUS"
"3/23/2022 12:00:00 AM","Burleson County","Texas","South","West South Central","48051","30.493487","-96.622091 ","5001","66","1","0","3/22/2022 12:00:00 AM","2019","18443","NYTIMES-USCENSUS"
"3/23/2022 12:00:00 AM","Mitchell County","Iowa","Midwest","West North Central","19131","43.348564","-92.784466 ","2464","50","1","0","3/22/2022 12:00:00 AM","2019","10586","NYTIMES-USCENSUS"
"3/23/2022 12:00:00 AM","Renville County","Minnesota","Midwest","West North Central","27129","44.723697","-94.955617 ","3726","56","0","0","3/22/2022 12:00:00 AM","2019","14548","NYTIMES-USCENSUS"
"3/23/2022 12:00:00 AM","Greenbrier County","West Virginia","South","South Atlantic","54025","37.924418","-80.45059 ","9457","150","2","0","3/22/2022 12:00:00 AM","2019","34662","NYTIMES-USCENSUS"
"3/23/2022 12:00:00 AM","Morton County","North Dakota","Midwest","West North Central","38059","46.710819","-101.298265 ","11211","142","0","0","3/22/2022 12:00:00 AM","2019","31364","NYTIMES-USCENSUS"
"3/23/2022 12:00:00 AM","Carbon County","Wyoming","West","Mountain","56007","41.70359","-106.933153 ","4613","52","0","0","3/22/2022 12:00:00 AM","2019","14800","NYTIMES-USCENSUS"
"3/23/2022 12:00:00 AM","Carroll County","Ohio","Midwest","East North Central","39019","40.579884","-81.090787 ","5249","124","0","0","3/22/2022 12:00:00 AM","2019","26914","NYTIMES-USCENSUS"
"3/23/2022 12:00:00 AM","Miami-Dade County","Florida","South","South Atlantic","12086","25.616009","-80.50375 ","1173564","10643","0","0","3/22/2022 12:00:00 AM","2019","2716940","NYTIMES-USCENSUS"
"3/23/2022 12:00:00 AM","Greeley County","Nebraska","Midwest","West North Central","31077","41.567571","-98.530565 ","408","2","0","0","3/22/2022 12:00:00 AM","2019","2356","NYTIMES-USCENSUS"
"3/23/2022 12:00:00 AM","Wexford County","Michigan","Midwest","East North Central","26165","44.331375","-85.570046 ","7046","106","7","1","3/22/2022 12:00:00 AM","2019","33631","NYTIMES-USCENSUS"
"3/23/2022 12:00:00 AM","Campbell County","Tennessee","South","East South Central","47013","36.401592","-84.159249 ","12204","160","77","3","3/22/2022 12:00:00 AM","2019","39842","NYTIMES-USCENSUS"
"3/23/2022 12:00:00 AM","Muscogee County","Georgia","South","South Atlantic","13215","32.510197","-84.874946 ","37968","787","9","0","3/22/2022 12:00:00 AM","2019","195769","NYTIMES-USCENSUS"
"3/23/2022 12:00:00 AM","Haralson County","Georgia","South","South Atlantic","13143","33.795165","-85.220063 ","5425","164","2","0","3/22/2022 12:00:00 AM","2019","29792","NYTIMES-USCENSUS"
"3/23/2022 12:00:00 AM","Box Elder County","Utah","West","Mountain","49003","41.622623","-113.060252 ","14046","122","0","2","3/22/2022 12:00:00 AM","2019","56046","NYTIMES-USCENSUS"
"3/23/2022 12:00:00 AM","Big Horn County","Montana","West","Mountain","30003","45.407868","-107.518162 ","4953","92","-1","0","3/22/2022 12:00:00 AM","2019","13319","NYTIMES-USCENSUS"
"3/23/2022 12:00:00 AM","St. Joseph County","Indiana","Midwest","East North Central","18141","41.617723","-86.288048 ","70498","863","10","0","3/22/2022 12:00:00 AM","2019","271826","NYTIMES-USCENSUS"
"3/23/2022 12:00:00 AM","Mercer County","Kentucky","South","East South Central","21167","37.812085","-84.879695 ","7322","101","0","0","3/22/2022 12:00:00 AM","2019","21933","NYTIMES-USCENSUS"
"3/23/2022 12:00:00 AM","Harris County","Texas","South","West South Central","48201","29.857273","-95.393037 ","1009474","10831","8467","12","3/22/2022 12:00:00 AM","2019","4713325","NYTIMES-USCENSUS"
"3/23/2022 12:00:00 AM","Quitman County","Georgia","South","South Atlantic","13239","31.862938","-85.004798 ","412","4","0","0","3/22/2022 12:00:00 AM","2019","2299","NYTIMES-USCENSUS"
"3/23/2022 12:00:00 AM","Chippewa County","Minnesota","Midwest","West North Central","27023","45.028625","-95.564108 ","3067","47","0","0","3/22/2022 12:00:00 AM","2019","11800","NYTIMES-USCENSUS"
"3/23/2022 12:00:00 AM","Barbour County","West Virginia","South","South Atlantic","54001","39.139725","-79.996947 ","4781","75","1","0","3/22/2022 12:00:00 AM","2019","16441","NYTIMES-USCENSUS"
"3/23/2022 12:00:00 AM","Cherokee County","Oklahoma","South","West South Central","40021","35.904367","-94.996796 ","14499","143","0","0","3/22/2022 12:00:00 AM","2019","48657","NYTIMES-USCENSUS"
"3/23/2022 12:00:00 AM","Marshall County","Mississippi","South","East South Central","28093","34.76619","-89.504231 ","9893","172","0","0","3/22/2022 12:00:00 AM","2019","35294","NYTIMES-USCENSUS"
"3/23/2022 12:00:00 AM","Dimmit County","Texas","South","West South Central","48127","28.423587","-99.765871 ","5742","51","0","0","3/22/2022 12:00:00 AM","2019","10124","NYTIMES-USCENSUS"
"3/23/2022 12:00:00 AM","Hernando County","Florida","South","South Atlantic","12053","28.555995","-82.525969 ","41798","1061","0","0","3/22/2022 12:00:00 AM","2019","193920","NYTIMES-USCENSUS"
"3/23/2022 12:00:00 AM","Sherman County","Kansas","Midwest","West North Central","20181","39.351352","-101.719859 ","1507","20","1","1","3/22/2022 12:00:00 AM","2019","5917","NYTIMES-USCENSUS"
"3/23/2022 12:00:00 AM","Martin County","North Carolina","South","South Atlantic","37117","35.847301","-77.119602 ","6047","89","0","0","3/22/2022 12:00:00 AM","2019","22440","NYTIMES-USCENSUS"
"3/23/2022 12:00:00 AM","Cayuga County","New York","Northeast","Middle Atlantic","36011","43.008546","-76.574587 ","15951","144","61","0","3/22/2022 12:00:00 AM","2019","76576","NYTIMES-USCENSUS"
"3/23/2022 12:00:00 AM","Belknap County","New Hampshire","Northeast","New England","33001","43.519109","-71.425366 ","13423","173","25","1","3/22/2022 12:00:00 AM","2019","61303","NYTIMES-USCENSUS"
"3/23/2022 12:00:00 AM","Sierra County","California","West","Pacific","06091","39.576925","-120.521993 ","315","4","0","0","3/22/2022 12:00:00 AM","2019","3005","NYTIMES-USCENSUS"
"3/23/2022 12:00:00 AM","Greene County","Mississippi","South","East South Central","28041","31.212845","-88.634811 ","3184","59","0","0","3/22/2022 12:00:00 AM","2019","13586","NYTIMES-USCENSUS"
"3/23/2022 12:00:00 AM","Norton County","Kansas","Midwest","West North Central","20137","39.783867","-99.899235 ","2151","37","0","0","3/22/2022 12:00:00 AM","2019","5361","NYTIMES-USCENSUS"
"3/23/2022 12:00:00 AM","Hand County","South Dakota","Midwest","West North Central","46059","44.546713","-99.004575 ","561","12","0","0","3/22/2022 12:00:00 AM","2019","3191","NYTIMES-USCENSUS"
"3/23/2022 12:00:00 AM","Androscoggin County","Maine","Northeast","New England","23001","44.167681","-70.207435 ","22331","268","3","2","3/22/2022 12:00:00 AM","2019","108277","NYTIMES-USCENSUS"
"3/23/2022 12:00:00 AM","Kiowa County","Oklahoma","South","West South Central","40075","34.921489","-98.981617 ","1944","50","0","0","3/22/2022 12:00:00 AM","2019","8708","NYTIMES-USCENSUS"
"3/23/2022 12:00:00 AM","Towns County","Georgia","South","South Atlantic","13281","34.902529","-83.732264 ","2386","107","0","1","3/22/2022 12:00:00 AM","2019","12037","NYTIMES-USCENSUS"
"3/23/2022 12:00:00 AM","Braxton County","West Virginia","South","South Atlantic","54007","38.69933","-80.73166 ","3892","42","3","0","3/22/2022 12:00:00 AM","2019","13957","NYTIMES-USCENSUS"
"3/23/2022 12:00:00 AM","Custer County","Oklahoma","South","West South Central","40039","35.645601","-98.997386 ","7828","163","0","0","3/22/2022 12:00:00 AM","2019","29003","NYTIMES-USCENSUS"
"3/23/2022 12:00:00 AM","Guthrie County","Iowa","Midwest","West North Central","19077","41.683573","-94.501272 ","2346","45","1","1","3/22/2022 12:00:00 AM","2019","10689","NYTIMES-USCENSUS"
"3/23/2022 12:00:00 AM","Ben Hill County","Georgia","South","South Atlantic","13017","31.740772","-83.147197 ","4324","119","0","0","3/22/2022 12:00:00 AM","2019","16700","NYTIMES-USCENSUS"
"3/23/2022 12:00:00 AM","Buffalo County","South Dakota","Midwest","West North Central","46017","44.044306","-99.203998 ","618","18","0","0","3/22/2022 12:00:00 AM","2019","1962","NYTIMES-USCENSUS"
"3/23/2022 12:00:00 AM","Mineral County","West Virginia","South","South Atlantic","54057","39.404781","-78.95669 ","7826","155","1","0","3/22/2022 12:00:00 AM","2019","26868","NYTIMES-USCENSUS"
"3/23/2022 12:00:00 AM","St. Clair County","Missouri","Midwest","West North Central","29185","38.04223","-93.77656 ","2099","33","0","0","3/22/2022 12:00:00 AM","2019","9397","NYTIMES-USCENSUS"
"3/23/2022 12:00:00 AM","Loudoun County","Virginia","South","South Atlantic","51107","39.0812","-77.638898 ","67416","373","234","0","3/22/2022 12:00:00 AM","2019","413538","NYTIMES-USCENSUS"
"3/23/2022 12:00:00 AM","Pendleton County","Kentucky","South","East South Central","21191","38.696284","-84.351943 ","3435","37","0","0","3/22/2022 12:00:00 AM","2019","14590","NYTIMES-USCENSUS"
"3/23/2022 12:00:00 AM","Jones County","North Carolina","South","South Atlantic","37103","35.032268","-77.356195 ","2206","38","0","0","3/22/2022 12:00:00 AM","2019","9419","NYTIMES-USCENSUS"
"3/23/2022 12:00:00 AM","Cheshire County","New Hampshire","Northeast","New England","33005","42.92546","-72.248183 ","14560","108","46","0","3/22/2022 12:00:00 AM","2019","76085","NYTIMES-USCENSUS"
"3/23/2022 12:00:00 AM","Pierce County","North Dakota","Midwest","West North Central","38069","48.238883","-99.966497 ","1059","32","0","0","3/22/2022 12:00:00 AM","2019","3975","NYTIMES-USCENSUS"
"3/23/2022 12:00:00 AM","Nobles County","Minnesota","Midwest","West North Central","27105","43.677686","-95.763132 ","6928","59","1","0","3/22/2022 12:00:00 AM","2019","21629","NYTIMES-USCENSUS"
"3/23/2022 12:00:00 AM","Warren County","Iowa","Midwest","West North Central","19181","41.332446","-93.568751 ","12468","135","15","0","3/22/2022 12:00:00 AM","2019","51466","NYTIMES-USCENSUS"
"3/23/2022 12:00:00 AM","Republic County","Kansas","Midwest","West North Central","20157","39.828906","-97.650883 ","1345","16","0","0","3/22/2022 12:00:00 AM","2019","4636","NYTIMES-USCENSUS"
"3/23/2022 12:00:00 AM","Tuscaloosa County","Alabama","South","East South Central","01125","33.29022","-87.522783 ","55687","758","30","2","3/22/2022 12:00:00 AM","2019","209355","NYTIMES-USCENSUS"
"3/23/2022 12:00:00 AM","Fairbanks North Star Borough","Alaska","West","Pacific","02090","64.676044","-146.548159 ","27114","135","43","1","3/22/2022 12:00:00 AM","2019","96849","NYTIMES-USCENSUS"
"3/23/2022 12:00:00 AM","Newton County","Arkansas","South","West South Central","05101","35.910742","-93.215898 ","1716","47","1","0","3/22/2022 12:00:00 AM","2019","7753","NYTIMES-USCENSUS"
"3/23/2022 12:00:00 AM","Dooly County","Georgia","South","South Atlantic","13093","32.151995","-83.807167 ","2372","68","0","0","3/22/2022 12:00:00 AM","2019","13390","NYTIMES-USCENSUS"
"3/23/2022 12:00:00 AM","Lincoln County","Wyoming","West","Mountain","56023","42.229993","-110.682961 ","3966","30","0","0","3/22/2022 12:00:00 AM","2019","19830","NYTIMES-USCENSUS"
"3/23/2022 12:00:00 AM","Crawford County","Indiana","Midwest","East North Central","18025","38.289433","-86.440871 ","2544","38","2","0","3/22/2022 12:00:00 AM","2019","10577","NYTIMES-USCENSUS"
"3/23/2022 12:00:00 AM","Fayette County","Pennsylvania","Northeast","Middle Atlantic","42051","39.918907","-79.640119 ","30940","662","6","0","3/22/2022 12:00:00 AM","2019","129274","NYTIMES-USCENSUS"
"3/23/2022 12:00:00 AM","Martin County","Texas","South","West South Central","48317","32.30983","-101.961836 ","1179","26","2","0","3/22/2022 12:00:00 AM","2019","5771","NYTIMES-USCENSUS"
"3/23/2022 12:00:00 AM","Effingham County","Illinois","Midwest","East North Central","17049","39.047945","-88.592849 ","10605","145","3","0","3/22/2022 12:00:00 AM","2019","34008","NYTIMES-USCENSUS"
"3/23/2022 12:00:00 AM","Goochland County","Virginia","South","South Atlantic","51075","37.718814","-77.917626 ","3892","47","6","1","3/22/2022 12:00:00 AM","2019","23753","NYTIMES-USCENSUS"
"3/23/2022 12:00:00 AM","Steuben County","Indiana","Midwest","East North Central","18151","41.643467","-85.002405 ","9620","120","1","0","3/22/2022 12:00:00 AM","2019","34594","NYTIMES-USCENSUS"
"3/23/2022 12:00:00 AM","Bottineau County","North Dakota","Midwest","West North Central","38009","48.794412","-100.831257 ","1584","26","0","0","3/22/2022 12:00:00 AM","2019","6282","NYTIMES-USCENSUS"
"3/23/2022 12:00:00 AM","Transylvania County","North Carolina","South","South Atlantic","37175","35.210103","-82.816666 ","6109","69","9","0","3/22/2022 12:00:00 AM","2019","34385","NYTIMES-USCENSUS"
"3/23/2022 12:00:00 AM","Lemhi County","Idaho","West","Mountain","16059","44.928506","-113.887042 ","1252","25","0","0","3/22/2022 12:00:00 AM","2019","8027","NYTIMES-USCENSUS"
"3/23/2022 12:00:00 AM","Lassen County","California","West","Pacific","06035","40.715287","-120.621223 ","10696","68","0","0","3/22/2022 12:00:00 AM","2019","30573","NYTIMES-USCENSUS"
"3/23/2022 12:00:00 AM","Caroline County","Virginia","South","South Atlantic","51033","38.028033","-77.353736 ","6806","79","7","0","3/22/2022 12:00:00 AM","2019","30725","NYTIMES-USCENSUS"
"3/23/2022 12:00:00 AM","Page County","Iowa","Midwest","West North Central","19145","40.739097","-95.144301 ","3327","46","1","0","3/22/2022 12:00:00 AM","2019","15107","NYTIMES-USCENSUS"
"3/23/2022 12:00:00 AM","Haskell County","Oklahoma","South","West South Central","40061","35.232431","-95.109642 ","2777","39","0","0","3/22/2022 12:00:00 AM","2019","12627","NYTIMES-USCENSUS"
"3/23/2022 12:00:00 AM","Chaffee County","Colorado","West","Mountain","08015","38.734599","-106.300025 ","4390","44","12","1","3/22/2022 12:00:00 AM","2019","20356","NYTIMES-USCENSUS"
"3/23/2022 12:00:00 AM","Macomb County","Michigan","Midwest","East North Central","26099","42.671553","-82.911456 ","228247","3911","330","5","3/22/2022 12:00:00 AM","2019","873972","NYTIMES-USCENSUS"
"3/23/2022 12:00:00 AM","Frederick County","Maryland","South","South Atlantic","24021","39.470177","-77.397636 ","45411","515","16","1","3/22/2022 12:00:00 AM","2019","259547","NYTIMES-USCENSUS"
"3/23/2022 12:00:00 AM","Santa Cruz County","California","West","Pacific","06087","37.012347","-122.007789 ","49210","259","20","0","3/22/2022 12:00:00 AM","2019","273213","NYTIMES-USCENSUS"
"3/23/2022 12:00:00 AM","Craighead County","Arkansas","South","West South Central","05031","35.827729","-90.631421 ","37467","325","25","0","3/22/2022 12:00:00 AM","2019","110332","NYTIMES-USCENSUS"
"3/23/2022 12:00:00 AM","Sherman County","Oregon","West","Pacific","41055","45.399216","-120.678512 ","317","4","0","0","3/22/2022 12:00:00 AM","2019","1780","NYTIMES-USCENSUS"
"3/23/2022 12:00:00 AM","Tipton County","Indiana","Midwest","East North Central","18159","40.310229","-86.056207 ","3528","87","1","0","3/22/2022 12:00:00 AM","2019","15148","NYTIMES-USCENSUS"
"3/23/2022 12:00:00 AM","Gentry County","Missouri","Midwest","West North Central","29075","40.208127","-94.405321 ","2155","31","0","0","3/22/2022 12:00:00 AM","2019","6571","NYTIMES-USCENSUS"
"3/23/2022 12:00:00 AM","Jackson County","Kansas","Midwest","West North Central","20085","39.411145","-95.794485 ","3881","29","2","0","3/22/2022 12:00:00 AM","2019","13171","NYTIMES-USCENSUS"
"3/23/2022 12:00:00 AM","Randolph County","Missouri","Midwest","West North Central","29175","39.439249","-92.492959 ","6005","102","0","0","3/22/2022 12:00:00 AM","2019","24748","NYTIMES-USCENSUS"
"3/23/2022 12:00:00 AM","Montezuma County","Colorado","West","Mountain","08083","37.338025","-108.595786 ","6133","72","6","0","3/22/2022 12:00:00 AM","2019","26183","NYTIMES-USCENSUS"
"3/23/2022 12:00:00 AM","Garden County","Nebraska","Midwest","West North Central","31069","41.633364","-102.302985 ","368","1","0","0","3/22/2022 12:00:00 AM","2019","1837","NYTIMES-USCENSUS"
"3/23/2022 12:00:00 AM","Shackelford County","Texas","South","West South Central","48417","32.74382","-99.347005 ","673","12","0","0","3/22/2022 12:00:00 AM","2019","3265","NYTIMES-USCENSUS"
"3/23/2022 12:00:00 AM","Wheatland County","Montana","West","Mountain","30107","46.496967","-109.857684 ","384","14","0","0","3/22/2022 12:00:00 AM","2019","2126","NYTIMES-USCENSUS"
"3/23/2022 12:00:00 AM","Labette County","Kansas","Midwest","West North Central","20099","37.191468","-95.297473 ","6609","74","0","0","3/22/2022 12:00:00 AM","2019","19618","NYTIMES-USCENSUS"
"3/23/2022 12:00:00 AM","Tillamook County","Oregon","West","Pacific","41057","45.45589","-123.759299 ","3631","60","5","0","3/22/2022 12:00:00 AM","2019","27036","NYTIMES-USCENSUS"
"3/23/2022 12:00:00 AM","Pipestone County","Minnesota","Midwest","West North Central","27117","44.015361","-96.257015 ","1983","34","0","0","3/22/2022 12:00:00 AM","2019","9126","NYTIMES-USCENSUS"
"3/23/2022 12:00:00 AM","Polk County","Arkansas","South","West South Central","05113","34.490915","-94.230884 ","4143","148","0","0","3/22/2022 12:00:00 AM","2019","19964","NYTIMES-USCENSUS"
"3/23/2022 12:00:00 AM","Huron County","Ohio","Midwest","East North Central","39077","41.14508","-82.594641 ","14439","221","0","0","3/22/2022 12:00:00 AM","2019","58266","NYTIMES-USCENSUS"
"3/23/2022 12:00:00 AM","Johnston County","Oklahoma","South","West South Central","40069","34.313455","-96.654254 ","3028","52","0","0","3/22/2022 12:00:00 AM","2019","11085","NYTIMES-USCENSUS"
"3/23/2022 12:00:00 AM","Kalamazoo County","Michigan","Midwest","East North Central","26077","42.246266","-85.532854 ","58811","666","47","1","3/22/2022 12:00:00 AM","2019","265066","NYTIMES-USCENSUS"
"3/23/2022 12:00:00 AM","Sonoma County","California","West","Pacific","06097","38.525182","-122.92611 ","85454","484","63","0","3/22/2022 12:00:00 AM","2019","494336","NYTIMES-USCENSUS"
"3/23/2022 12:00:00 AM","San Joaquin County","California","West","Pacific","06077","37.934982","-121.272244 ","175111","2187","53","2","3/22/2022 12:00:00 AM","2019","762148","NYTIMES-USCENSUS"
"3/23/2022 12:00:00 AM","Andrew County","Missouri","Midwest","West North Central","29003","39.988863","-94.803551 ","4742","56","0","0","3/22/2022 12:00:00 AM","2019","17712","NYTIMES-USCENSUS"
"3/23/2022 12:00:00 AM","Dorchester County","Maryland","South","South Atlantic","24019","38.429196","-76.047433 ","7701","107","0","0","3/22/2022 12:00:00 AM","2019","31929","NYTIMES-USCENSUS"
"3/23/2022 12:00:00 AM","Coshocton County","Ohio","Midwest","East North Central","39031","40.29671","-81.930109 ","7933","155","0","0","3/22/2022 12:00:00 AM","2019","36600","NYTIMES-USCENSUS"
"3/23/2022 12:00:00 AM","Fisher County","Texas","South","West South Central","48151","32.740473","-100.40312 ","606","24","0","0","3/22/2022 12:00:00 AM","2019","3830","NYTIMES-USCENSUS"
"3/23/2022 12:00:00 AM","Scioto County","Ohio","Midwest","East North Central","39145","38.814889","-82.998675 ","20556","248","0","0","3/22/2022 12:00:00 AM","2019","75314","NYTIMES-USCENSUS"
"3/23/2022 12:00:00 AM","Laurens County","South Carolina","South","South Atlantic","45059","34.483676","-82.005498 ","18579","290","0","0","3/22/2022 12:00:00 AM","2019","67493","NYTIMES-USCENSUS"
"3/23/2022 12:00:00 AM","Geauga County","Ohio","Midwest","East North Central","39055","41.499322","-81.173505 ","15961","263","0","0","3/22/2022 12:00:00 AM","2019","93649","NYTIMES-USCENSUS"
"3/23/2022 12:00:00 AM","Dougherty County","Georgia","South","South Atlantic","13095","31.532588","-84.20904 ","19502","483","6","0","3/22/2022 12:00:00 AM","2019","87956","NYTIMES-USCENSUS"
"3/23/2022 12:00:00 AM","Randolph County","Indiana","Midwest","East North Central","18135","40.164079","-85.00579 ","5935","146","0","0","3/22/2022 12:00:00 AM","2019","24665","NYTIMES-USCENSUS"
"3/23/2022 12:00:00 AM","Sheridan County","Kansas","Midwest","West North Central","20179","39.350547","-100.441228 ","786","18","0","0","3/22/2022 12:00:00 AM","2019","2521","NYTIMES-USCENSUS"
"3/23/2022 12:00:00 AM","Carroll County","New Hampshire","Northeast","New England","33003","43.867774","-71.20156 ","9174","56","13","0","3/22/2022 12:00:00 AM","2019","48910","NYTIMES-USCENSUS"
"3/23/2022 12:00:00 AM","Hamilton County","Illinois","Midwest","East North Central","17065","38.085227","-88.539009 ","2166","34","1","0","3/22/2022 12:00:00 AM","2019","8116","NYTIMES-USCENSUS"
"3/23/2022 12:00:00 AM","Douglas County","Nebraska","Midwest","West North Central","31055","41.297091","-96.154066 ","150008","1100","-76","1","3/22/2022 12:00:00 AM","2019","571327","NYTIMES-USCENSUS"
"3/23/2022 12:00:00 AM","Teton County","Idaho","West","Mountain","16081","43.760994","-111.211765 ","2702","8","1","0","3/22/2022 12:00:00 AM","2019","12142","NYTIMES-USCENSUS"
"3/23/2022 12:00:00 AM","Clarendon County","South Carolina","South","South Atlantic","45027","33.664682","-80.217889 ","8701","157","0","0","3/22/2022 12:00:00 AM","2019","33745","NYTIMES-USCENSUS"
"3/23/2022 12:00:00 AM","Moody County","South Dakota","Midwest","West North Central","46101","44.012429","-96.676054 ","1374","28","0","0","3/22/2022 12:00:00 AM","2019","6576","NYTIMES-USCENSUS"
"3/23/2022 12:00:00 AM","Dunn County","North Dakota","Midwest","West North Central","38025","47.354557","-102.612322 ","1034","8","0","0","3/22/2022 12:00:00 AM","2019","4424","NYTIMES-USCENSUS"
