"monitor_date","county","state_name","region","subregion","fips","latitude","longitude","case_count_to_date","death_count_to_date","case_count","death_count","previous_monitor_date","population_year","population","source"
"4/29/2021 12:00:00 AM","Madison County","Georgia","South","South Atlantic","13195","34.128526","-83.203737 ","3225","56","7","0","4/28/2021 12:00:00 AM","2019","29880","NYTIMES-USCENSUS"
"4/29/2021 12:00:00 AM","McCracken County","Kentucky","South","East South Central","21145","37.054111","-88.712454 ","6470","120","14","0","4/28/2021 12:00:00 AM","2019","65418","NYTIMES-USCENSUS"
"4/29/2021 12:00:00 AM","Fillmore County","Nebraska","Midwest","West North Central","31059","40.52504","-97.596705 ","497","10","0","0","4/28/2021 12:00:00 AM","2019","5462","NYTIMES-USCENSUS"
"4/29/2021 12:00:00 AM","Madison County","Missouri","Midwest","West North Central","29123","37.474481","-90.343413 ","1632","16","3","0","4/28/2021 12:00:00 AM","2019","12088","NYTIMES-USCENSUS"
"4/29/2021 12:00:00 AM","Wood County","Ohio","Midwest","East North Central","39173","41.360183","-83.622682 ","12945","187","11","0","4/28/2021 12:00:00 AM","2019","130817","NYTIMES-USCENSUS"
"4/29/2021 12:00:00 AM","Union Parish","Louisiana","South","West South Central","22111","32.829349","-92.37565 ","2379","77","9","0","4/28/2021 12:00:00 AM","2019","22108","NYTIMES-USCENSUS"
"4/29/2021 12:00:00 AM","Barton County","Kansas","Midwest","West North Central","20009","38.481239","-98.767837 ","2604","47","0","0","4/28/2021 12:00:00 AM","2019","25779","NYTIMES-USCENSUS"
"4/29/2021 12:00:00 AM","Goochland County","Virginia","South","South Atlantic","51075","37.718814","-77.917626 ","1428","23","4","0","4/28/2021 12:00:00 AM","2019","23753","NYTIMES-USCENSUS"
"4/29/2021 12:00:00 AM","Garrard County","Kentucky","South","East South Central","21079","37.630162","-84.545856 ","1511","35","4","0","4/28/2021 12:00:00 AM","2019","17666","NYTIMES-USCENSUS"
"4/29/2021 12:00:00 AM","Yamhill County","Oregon","West","Pacific","41071","45.247827","-123.316399 ","4261","75","12","0","4/28/2021 12:00:00 AM","2019","107100","NYTIMES-USCENSUS"
"4/29/2021 12:00:00 AM","Chickasaw County","Mississippi","South","East South Central","28017","33.933277","-88.947558 ","2065","57","0","0","4/28/2021 12:00:00 AM","2019","17103","NYTIMES-USCENSUS"
"4/29/2021 12:00:00 AM","Montrose County","Colorado","West","Mountain","08085","38.407507","-108.266282 ","3415","57","10","0","4/28/2021 12:00:00 AM","2019","42758","NYTIMES-USCENSUS"
"4/29/2021 12:00:00 AM","Douglas County","Missouri","Midwest","West North Central","29067","36.946517","-92.515892 ","898","27","1","0","4/28/2021 12:00:00 AM","2019","13185","NYTIMES-USCENSUS"
"4/29/2021 12:00:00 AM","Kershaw County","South Carolina","South","South Atlantic","45055","34.338356","-80.590885 ","7393","138","1","1","4/28/2021 12:00:00 AM","2019","66551","NYTIMES-USCENSUS"
"4/29/2021 12:00:00 AM","Cooper County","Missouri","Midwest","West North Central","29053","38.847093","-92.810069 ","1907","27","5","0","4/28/2021 12:00:00 AM","2019","17709","NYTIMES-USCENSUS"
"4/29/2021 12:00:00 AM","Piscataquis County","Maine","Northeast","New England","23021","45.915639","-69.102231 ","442","6","1","0","4/28/2021 12:00:00 AM","2019","16785","NYTIMES-USCENSUS"
"4/29/2021 12:00:00 AM","Cumberland County","New Jersey","Northeast","Middle Atlantic","34011","39.328434","-75.121628 ","16388","420","31","0","4/28/2021 12:00:00 AM","2019","149527","NYTIMES-USCENSUS"
"4/29/2021 12:00:00 AM","Colusa County","California","West","Pacific","06011","39.177739","-122.237563 ","2216","16","3","0","4/28/2021 12:00:00 AM","2019","21547","NYTIMES-USCENSUS"
"4/29/2021 12:00:00 AM","Cumberland County","Kentucky","South","East South Central","21057","36.782372","-85.388484 ","698","12","0","0","4/28/2021 12:00:00 AM","2019","6614","NYTIMES-USCENSUS"
"4/29/2021 12:00:00 AM","Forsyth County","North Carolina","South","South Atlantic","37067","36.132466","-80.256961 ","35199","373","76","1","4/28/2021 12:00:00 AM","2019","382295","NYTIMES-USCENSUS"
"4/29/2021 12:00:00 AM","Cullman County","Alabama","South","East South Central","01043","34.131923","-86.869267 ","9586","192","8","1","4/28/2021 12:00:00 AM","2019","83768","NYTIMES-USCENSUS"
"4/29/2021 12:00:00 AM","Dooly County","Georgia","South","South Atlantic","13093","32.151995","-83.807167 ","1064","45","0","0","4/28/2021 12:00:00 AM","2019","13390","NYTIMES-USCENSUS"
"4/29/2021 12:00:00 AM","Big Stone County","Minnesota","Midwest","West North Central","27011","45.419925","-96.402226 ","588","4","0","0","4/28/2021 12:00:00 AM","2019","4991","NYTIMES-USCENSUS"
"4/29/2021 12:00:00 AM","Creek County","Oklahoma","South","West South Central","40037","35.907398","-96.380177 ","6891","154","0","0","4/28/2021 12:00:00 AM","2019","71522","NYTIMES-USCENSUS"
"4/29/2021 12:00:00 AM","Marion County","Georgia","South","South Atlantic","13197","32.359312","-84.528735 ","561","19","1","0","4/28/2021 12:00:00 AM","2019","8359","NYTIMES-USCENSUS"
"4/29/2021 12:00:00 AM","Dougherty County","Georgia","South","South Atlantic","13095","31.532588","-84.20904 ","7504","302","15","1","4/28/2021 12:00:00 AM","2019","87956","NYTIMES-USCENSUS"
"4/29/2021 12:00:00 AM","Coosa County","Alabama","South","East South Central","01037","32.931445","-86.243482 ","1063","28","3","0","4/28/2021 12:00:00 AM","2019","10663","NYTIMES-USCENSUS"
"4/29/2021 12:00:00 AM","Noble County","Oklahoma","South","West South Central","40103","36.384901","-97.236335 ","1377","19","0","0","4/28/2021 12:00:00 AM","2019","11131","NYTIMES-USCENSUS"
"4/29/2021 12:00:00 AM","Jefferson County","Nebraska","Midwest","West North Central","31095","40.175736","-97.143103 ","662","1","1","0","4/28/2021 12:00:00 AM","2019","7046","NYTIMES-USCENSUS"
"4/29/2021 12:00:00 AM","Dodge County","Nebraska","Midwest","West North Central","31053","41.577008","-96.645852 ","4916","60","2","0","4/28/2021 12:00:00 AM","2019","36565","NYTIMES-USCENSUS"
"4/29/2021 12:00:00 AM","Orange County","New York","Northeast","Middle Atlantic","36071","41.40241","-74.306252 ","47136","702","83","1","4/28/2021 12:00:00 AM","2019","384940","NYTIMES-USCENSUS"
"4/29/2021 12:00:00 AM","Summit County","Ohio","Midwest","East North Central","39153","41.121847","-81.534928 ","46438","926","99","0","4/28/2021 12:00:00 AM","2019","541013","NYTIMES-USCENSUS"
"4/29/2021 12:00:00 AM","Oscoda County","Michigan","Midwest","East North Central","26135","44.687257","-84.126905 ","585","24","4","0","4/28/2021 12:00:00 AM","2019","8241","NYTIMES-USCENSUS"
"4/29/2021 12:00:00 AM","Carroll County","New Hampshire","Northeast","New England","33003","43.867774","-71.20156 ","2312","9","15","0","4/28/2021 12:00:00 AM","2019","48910","NYTIMES-USCENSUS"
"4/29/2021 12:00:00 AM","Miller County","Georgia","South","South Atlantic","13201","31.162931","-84.730398 ","849","13","0","0","4/28/2021 12:00:00 AM","2019","5718","NYTIMES-USCENSUS"
"4/29/2021 12:00:00 AM","Sawyer County","Wisconsin","Midwest","East North Central","55113","45.864911","-91.147133 ","1706","26","5","1","4/28/2021 12:00:00 AM","2019","16558","NYTIMES-USCENSUS"
"4/29/2021 12:00:00 AM","Klamath County","Oregon","West","Pacific","41035","42.683761","-121.646168 ","3929","59","79","0","4/28/2021 12:00:00 AM","2019","68238","NYTIMES-USCENSUS"
"4/29/2021 12:00:00 AM","San Mateo County","California","West","Pacific","06081","37.414672","-122.371546 ","41498","564","24","0","4/28/2021 12:00:00 AM","2019","766573","NYTIMES-USCENSUS"
"4/29/2021 12:00:00 AM","Bexar County","Texas","South","West South Central","48029","29.448671","-98.520147 ","217231","3472","341","4","4/28/2021 12:00:00 AM","2019","2003554","NYTIMES-USCENSUS"
"4/29/2021 12:00:00 AM","Trimble County","Kentucky","South","East South Central","21223","38.62004","-85.351208 ","670","7","0","0","4/28/2021 12:00:00 AM","2019","8471","NYTIMES-USCENSUS"
"4/29/2021 12:00:00 AM","Bacon County","Georgia","South","South Atlantic","13005","31.55021","-82.451433 ","1651","36","0","0","4/28/2021 12:00:00 AM","2019","11164","NYTIMES-USCENSUS"
"4/29/2021 12:00:00 AM","Fremont County","Idaho","West","Mountain","16043","44.218091","-111.484429 ","1124","14","0","0","4/28/2021 12:00:00 AM","2019","13099","NYTIMES-USCENSUS"
"4/29/2021 12:00:00 AM","Josephine County","Oregon","West","Pacific","41033","42.386983","-123.57162 ","3210","66","45","1","4/28/2021 12:00:00 AM","2019","87487","NYTIMES-USCENSUS"
"4/29/2021 12:00:00 AM","Payne County","Oklahoma","South","West South Central","40119","36.079225","-96.975255 ","8653","71","0","0","4/28/2021 12:00:00 AM","2019","81784","NYTIMES-USCENSUS"
"4/29/2021 12:00:00 AM","Cook County","Illinois","Midwest","East North Central","17031","41.894294","-87.645455 ","533297","10497","1391","15","4/28/2021 12:00:00 AM","2019","5150233","NYTIMES-USCENSUS"
"4/29/2021 12:00:00 AM","Bottineau County","North Dakota","Midwest","West North Central","38009","48.794412","-100.831257 ","713","20","0","0","4/28/2021 12:00:00 AM","2019","6282","NYTIMES-USCENSUS"
"4/29/2021 12:00:00 AM","Dane County","Wisconsin","Midwest","East North Central","55025","43.067468","-89.417852 ","45620","322","78","2","4/28/2021 12:00:00 AM","2019","546695","NYTIMES-USCENSUS"
"4/29/2021 12:00:00 AM","Montgomery County","Indiana","Midwest","East North Central","18107","40.040296","-86.892715 ","4215","90","7","0","4/28/2021 12:00:00 AM","2019","38338","NYTIMES-USCENSUS"
"4/29/2021 12:00:00 AM","Phelps County","Missouri","Midwest","West North Central","29161","37.866326","-91.790349 ","3803","128","6","0","4/28/2021 12:00:00 AM","2019","44573","NYTIMES-USCENSUS"
"4/29/2021 12:00:00 AM","Modoc County","California","West","Pacific","06049","41.592918","-120.71837 ","360","3","0","0","4/28/2021 12:00:00 AM","2019","8841","NYTIMES-USCENSUS"
"4/29/2021 12:00:00 AM","Pike County","Arkansas","South","West South Central","05109","34.158191","-93.658659 ","1011","22","0","0","4/28/2021 12:00:00 AM","2019","10718","NYTIMES-USCENSUS"
"4/29/2021 12:00:00 AM","Stark County","Ohio","Midwest","East North Central","39151","40.814131","-81.365667 ","31914","906","48","0","4/28/2021 12:00:00 AM","2019","370606","NYTIMES-USCENSUS"
"4/29/2021 12:00:00 AM","Hamilton County","Nebraska","Midwest","West North Central","31081","40.872817","-98.022329 ","936","18","0","0","4/28/2021 12:00:00 AM","2019","9324","NYTIMES-USCENSUS"
"4/29/2021 12:00:00 AM","Baca County","Colorado","West","Mountain","08009","37.30978","-102.543741 ","287","4","1","0","4/28/2021 12:00:00 AM","2019","3581","NYTIMES-USCENSUS"
"4/29/2021 12:00:00 AM","Union County","Iowa","Midwest","West North Central","19175","41.02855","-94.245091 ","1250","32","11","0","4/28/2021 12:00:00 AM","2019","12241","NYTIMES-USCENSUS"
"4/29/2021 12:00:00 AM","Saline County","Nebraska","Midwest","West North Central","31151","40.516802","-97.131755 ","2021","3","0","0","4/28/2021 12:00:00 AM","2019","14224","NYTIMES-USCENSUS"
"4/29/2021 12:00:00 AM","Marengo County","Alabama","South","East South Central","01091","32.247591","-87.791091 ","2481","64","-1","0","4/28/2021 12:00:00 AM","2019","18863","NYTIMES-USCENSUS"
"4/29/2021 12:00:00 AM","Franklin County","Idaho","West","Mountain","16041","42.173609","-111.822965 ","1192","16","2","0","4/28/2021 12:00:00 AM","2019","13876","NYTIMES-USCENSUS"
"4/29/2021 12:00:00 AM","Waynesboro city","Virginia","South","South Atlantic","51820","38.067157","-78.90142 ","2343","37","0","0","4/28/2021 12:00:00 AM","2019","22630","NYTIMES-USCENSUS"
"4/29/2021 12:00:00 AM","Spotsylvania County","Virginia","South","South Atlantic","51177","38.182431","-77.657226 ","9675","114","36","1","4/28/2021 12:00:00 AM","2019","136215","NYTIMES-USCENSUS"
"4/29/2021 12:00:00 AM","Chester County","Tennessee","South","East South Central","47023","35.420253","-88.611353 ","2128","51","8","0","4/28/2021 12:00:00 AM","2019","17297","NYTIMES-USCENSUS"
"4/29/2021 12:00:00 AM","Flagler County","Florida","South","South Atlantic","12035","29.474891","-81.286253 ","7191","110","19","2","4/28/2021 12:00:00 AM","2019","115081","NYTIMES-USCENSUS"
"4/29/2021 12:00:00 AM","Van Buren County","Iowa","Midwest","West North Central","19177","40.754117","-91.952943 ","556","18","0","0","4/28/2021 12:00:00 AM","2019","7044","NYTIMES-USCENSUS"
"4/29/2021 12:00:00 AM","Audubon County","Iowa","Midwest","West North Central","19009","41.679178","-94.904312 ","499","9","1","0","4/28/2021 12:00:00 AM","2019","5496","NYTIMES-USCENSUS"
"4/29/2021 12:00:00 AM","Newport County","Rhode Island","Northeast","New England","44005","41.501045","-71.283063 ","6603","41","0","0","4/28/2021 12:00:00 AM","2019","82082","NYTIMES-USCENSUS"
"4/29/2021 12:00:00 AM","Rock Island County","Illinois","Midwest","East North Central","17161","41.468421","-90.572125 ","14573","348","62","0","4/28/2021 12:00:00 AM","2019","141879","NYTIMES-USCENSUS"
"4/29/2021 12:00:00 AM","Summit County","Utah","West","Mountain","49043","40.87206","-110.968486 ","5491","12","4","0","4/28/2021 12:00:00 AM","2019","42145","NYTIMES-USCENSUS"
"4/29/2021 12:00:00 AM","Prince George's County","Maryland","South","South Atlantic","24033","38.829278","-76.848188 ","82840","1450","147","8","4/28/2021 12:00:00 AM","2019","909327","NYTIMES-USCENSUS"
"4/29/2021 12:00:00 AM","Allen County","Indiana","Midwest","East North Central","18003","41.091909","-85.071791 ","39913","696","68","2","4/28/2021 12:00:00 AM","2019","379299","NYTIMES-USCENSUS"
"4/29/2021 12:00:00 AM","Matagorda County","Texas","South","West South Central","48321","28.77476","-96.001532 ","3930","106","50","2","4/28/2021 12:00:00 AM","2019","36643","NYTIMES-USCENSUS"
"4/29/2021 12:00:00 AM","Nash County","North Carolina","South","South Atlantic","37127","35.965945","-77.987555 ","11296","181","32","0","4/28/2021 12:00:00 AM","2019","94298","NYTIMES-USCENSUS"
"4/29/2021 12:00:00 AM","Calumet County","Wisconsin","Midwest","East North Central","55015","44.07841","-88.212132 ","6393","51","5","1","4/28/2021 12:00:00 AM","2019","50089","NYTIMES-USCENSUS"
"4/29/2021 12:00:00 AM","Iron County","Michigan","Midwest","East North Central","26071","46.170254","-88.540526 ","1004","51","7","0","4/28/2021 12:00:00 AM","2019","11066","NYTIMES-USCENSUS"
"4/29/2021 12:00:00 AM","Bannock County","Idaho","West","Mountain","16005","42.692921","-112.228982 ","8706","106","7","0","4/28/2021 12:00:00 AM","2019","87808","NYTIMES-USCENSUS"
"4/29/2021 12:00:00 AM","Sampson County","North Carolina","South","South Atlantic","37163","34.989298","-78.371261 ","7819","108","13","0","4/28/2021 12:00:00 AM","2019","63531","NYTIMES-USCENSUS"
"4/29/2021 12:00:00 AM","Halifax County","North Carolina","South","South Atlantic","37083","36.251438","-77.644842 ","5514","109","17","0","4/28/2021 12:00:00 AM","2019","50010","NYTIMES-USCENSUS"
"4/29/2021 12:00:00 AM","Sullivan County","Indiana","Midwest","East North Central","18153","39.089225","-87.415843 ","2100","42","3","0","4/28/2021 12:00:00 AM","2019","20669","NYTIMES-USCENSUS"
"4/29/2021 12:00:00 AM","Culpeper County","Virginia","South","South Atlantic","51047","38.48593","-77.956476 ","4530","61","12","0","4/28/2021 12:00:00 AM","2019","52605","NYTIMES-USCENSUS"
"4/29/2021 12:00:00 AM","Will County","Illinois","Midwest","East North Central","17197","41.448474","-87.978456 ","73647","1050","240","1","4/28/2021 12:00:00 AM","2019","690743","NYTIMES-USCENSUS"
"4/29/2021 12:00:00 AM","Haywood County","Tennessee","South","East South Central","47075","35.586678","-89.282691 ","2695","61","1","0","4/28/2021 12:00:00 AM","2019","17304","NYTIMES-USCENSUS"
"4/29/2021 12:00:00 AM","Casey County","Kentucky","South","East South Central","21045","37.321962","-84.92822 ","1415","37","3","0","4/28/2021 12:00:00 AM","2019","16159","NYTIMES-USCENSUS"
"4/29/2021 12:00:00 AM","Seneca County","New York","Northeast","Middle Atlantic","36099","42.782294","-76.827088 ","1929","56","8","0","4/28/2021 12:00:00 AM","2019","34016","NYTIMES-USCENSUS"
"4/29/2021 12:00:00 AM","St. Tammany Parish","Louisiana","South","West South Central","22103","30.410022","-89.951962 ","25541","520","15","0","4/28/2021 12:00:00 AM","2019","260419","NYTIMES-USCENSUS"
"4/29/2021 12:00:00 AM","Goodhue County","Minnesota","Midwest","West North Central","27049","44.406178","-92.716 ","4617","72","32","0","4/28/2021 12:00:00 AM","2019","46340","NYTIMES-USCENSUS"
"4/29/2021 12:00:00 AM","Grant County","West Virginia","South","South Atlantic","54023","39.105988","-79.195064 ","1255","27","4","0","4/28/2021 12:00:00 AM","2019","11568","NYTIMES-USCENSUS"
"4/29/2021 12:00:00 AM","Clinton County","Pennsylvania","Northeast","Middle Atlantic","42035","41.239508","-77.629009 ","3525","62","17","0","4/28/2021 12:00:00 AM","2019","38632","NYTIMES-USCENSUS"
"4/29/2021 12:00:00 AM","Summit County","Colorado","West","Mountain","08117","39.621023","-106.137555 ","3675","7","2","0","4/28/2021 12:00:00 AM","2019","31011","NYTIMES-USCENSUS"
"4/29/2021 12:00:00 AM","Kitsap County","Washington","West","Pacific","53035","47.639595","-122.649634 ","7534","105","38","1","4/28/2021 12:00:00 AM","2019","271473","NYTIMES-USCENSUS"
"4/29/2021 12:00:00 AM","Walthall County","Mississippi","South","East South Central","28147","31.164492","-90.103431 ","1332","44","3","0","4/28/2021 12:00:00 AM","2019","14286","NYTIMES-USCENSUS"
"4/29/2021 12:00:00 AM","Rolette County","North Dakota","Midwest","West North Central","38079","48.768271","-99.840463 ","2141","28","1","0","4/28/2021 12:00:00 AM","2019","14176","NYTIMES-USCENSUS"
"4/29/2021 12:00:00 AM","Jones County","North Carolina","South","South Atlantic","37103","35.032268","-77.356195 ","819","19","1","0","4/28/2021 12:00:00 AM","2019","9419","NYTIMES-USCENSUS"
"4/29/2021 12:00:00 AM","Saguache County","Colorado","West","Mountain","08109","38.031651","-106.234666 ","363","4","0","0","4/28/2021 12:00:00 AM","2019","6824","NYTIMES-USCENSUS"
"4/29/2021 12:00:00 AM","Cabarrus County","North Carolina","South","South Atlantic","37025","35.388346","-80.552728 ","21416","251","51","0","4/28/2021 12:00:00 AM","2019","216453","NYTIMES-USCENSUS"
"4/29/2021 12:00:00 AM","Clay County","Illinois","Midwest","East North Central","17025","38.746819","-88.482325 ","1479","48","0","0","4/28/2021 12:00:00 AM","2019","13184","NYTIMES-USCENSUS"
"4/29/2021 12:00:00 AM","Baker County","Georgia","South","South Atlantic","13007","31.31958","-84.454881 ","230","9","2","0","4/28/2021 12:00:00 AM","2019","3038","NYTIMES-USCENSUS"
"4/29/2021 12:00:00 AM","Jersey County","Illinois","Midwest","East North Central","17083","39.080195","-90.361385 ","2667","68","5","0","4/28/2021 12:00:00 AM","2019","21773","NYTIMES-USCENSUS"
"4/29/2021 12:00:00 AM","Morgan County","Indiana","Midwest","East North Central","18109","39.482646","-86.447457 ","6503","144","10","0","4/28/2021 12:00:00 AM","2019","70489","NYTIMES-USCENSUS"
"4/29/2021 12:00:00 AM","Colorado County","Texas","South","West South Central","48089","29.596296","-96.508935 ","1715","30","1","0","4/28/2021 12:00:00 AM","2019","21493","NYTIMES-USCENSUS"
"4/29/2021 12:00:00 AM","Stanly County","North Carolina","South","South Atlantic","37167","35.310449","-80.254374 ","7686","131","17","0","4/28/2021 12:00:00 AM","2019","62806","NYTIMES-USCENSUS"
"4/29/2021 12:00:00 AM","Daviess County","Indiana","Midwest","East North Central","18027","38.69609","-87.076943 ","2921","101","4","0","4/28/2021 12:00:00 AM","2019","33351","NYTIMES-USCENSUS"
"4/29/2021 12:00:00 AM","Emporia city","Virginia","South","South Atlantic","51595","36.696182","-77.535975 ","667","42","0","0","4/28/2021 12:00:00 AM","2019","5346","NYTIMES-USCENSUS"
"4/29/2021 12:00:00 AM","Benton County","Arkansas","South","West South Central","05007","36.337819","-94.256298 ","28758","414","30","0","4/28/2021 12:00:00 AM","2019","279141","NYTIMES-USCENSUS"
"4/29/2021 12:00:00 AM","Grand Traverse County","Michigan","Midwest","East North Central","26055","44.718688","-85.553848 ","6182","88","51","0","4/28/2021 12:00:00 AM","2019","93088","NYTIMES-USCENSUS"
"4/29/2021 12:00:00 AM","Jefferson County","Mississippi","South","East South Central","28063","31.733633","-91.043878 ","651","28","1","0","4/28/2021 12:00:00 AM","2019","6990","NYTIMES-USCENSUS"
"4/29/2021 12:00:00 AM","Dorchester County","Maryland","South","South Atlantic","24019","38.429196","-76.047433 ","2694","51","1","1","4/28/2021 12:00:00 AM","2019","31929","NYTIMES-USCENSUS"
"4/29/2021 12:00:00 AM","Richland County","Ohio","Midwest","East North Central","39139","40.774159","-82.542781 ","11214","198","20","0","4/28/2021 12:00:00 AM","2019","121154","NYTIMES-USCENSUS"
"4/29/2021 12:00:00 AM","Garfield County","Colorado","West","Mountain","08045","39.599352","-107.90978 ","5754","38","14","0","4/28/2021 12:00:00 AM","2019","60061","NYTIMES-USCENSUS"
"4/29/2021 12:00:00 AM","Burnet County","Texas","South","West South Central","48053","30.78963","-98.201187 ","4712","63","7","0","4/28/2021 12:00:00 AM","2019","48155","NYTIMES-USCENSUS"
"4/29/2021 12:00:00 AM","Randolph County","West Virginia","South","South Atlantic","54083","38.781095","-79.867788 ","2523","12","6","0","4/28/2021 12:00:00 AM","2019","28695","NYTIMES-USCENSUS"
"4/29/2021 12:00:00 AM","Atascosa County","Texas","South","West South Central","48013","28.891478","-98.535381 ","5743","150","5","0","4/28/2021 12:00:00 AM","2019","51153","NYTIMES-USCENSUS"
"4/29/2021 12:00:00 AM","Sullivan County","Tennessee","South","East South Central","47163","36.509681","-82.301336 ","16566","290","60","1","4/28/2021 12:00:00 AM","2019","158348","NYTIMES-USCENSUS"
"4/29/2021 12:00:00 AM","Orange County","Florida","South","South Atlantic","12095","28.514391","-81.323284 ","135931","1245","388","7","4/28/2021 12:00:00 AM","2019","1393452","NYTIMES-USCENSUS"
"4/29/2021 12:00:00 AM","Coos County","New Hampshire","Northeast","New England","33007","44.652548","-71.289431 ","1877","41","10","0","4/28/2021 12:00:00 AM","2019","31563","NYTIMES-USCENSUS"
"4/29/2021 12:00:00 AM","White County","Georgia","South","South Atlantic","13311","34.644182","-83.743 ","3191","80","2","0","4/28/2021 12:00:00 AM","2019","30798","NYTIMES-USCENSUS"
"4/29/2021 12:00:00 AM","Oglala Lakota County","South Dakota","Midwest","West North Central","46102","43.333393","-102.561486 ","2106","49","0","0","4/28/2021 12:00:00 AM","2019","14177","NYTIMES-USCENSUS"
"4/29/2021 12:00:00 AM","Ketchikan Gateway Borough","Alaska","West","Pacific","02130","55.449938","-131.106685 ","422","1","5","0","4/28/2021 12:00:00 AM","2019","13901","NYTIMES-USCENSUS"
"4/29/2021 12:00:00 AM","Knott County","Kentucky","South","East South Central","21119","37.354368","-82.952546 ","1132","23","3","0","4/28/2021 12:00:00 AM","2019","14806","NYTIMES-USCENSUS"
"4/29/2021 12:00:00 AM","Anne Arundel County","Maryland","South","South Atlantic","24003","38.991617","-76.560894 ","42435","592","96","2","4/28/2021 12:00:00 AM","2019","579234","NYTIMES-USCENSUS"
"4/29/2021 12:00:00 AM","Carroll County","Ohio","Midwest","East North Central","39019","40.579884","-81.090787 ","1905","47","0","0","4/28/2021 12:00:00 AM","2019","26914","NYTIMES-USCENSUS"
"4/29/2021 12:00:00 AM","Denton County","Texas","South","West South Central","48121","33.205132","-97.12114 ","74237","745","88","0","4/28/2021 12:00:00 AM","2019","887207","NYTIMES-USCENSUS"
"4/29/2021 12:00:00 AM","Lincoln County","Washington","West","Pacific","53043","47.582743","-118.417692 ","464","7","4","0","4/28/2021 12:00:00 AM","2019","10939","NYTIMES-USCENSUS"
"4/29/2021 12:00:00 AM","Moody County","South Dakota","Midwest","West North Central","46101","44.012429","-96.676054 ","648","17","1","0","4/28/2021 12:00:00 AM","2019","6576","NYTIMES-USCENSUS"
"4/29/2021 12:00:00 AM","Forsyth County","Georgia","South","South Atlantic","13117","34.225143","-84.127408 ","22602","187","40","1","4/28/2021 12:00:00 AM","2019","244252","NYTIMES-USCENSUS"
"4/29/2021 12:00:00 AM","Henderson County","Texas","South","West South Central","48213","32.211633","-95.853418 ","5818","184","0","0","4/28/2021 12:00:00 AM","2019","82737","NYTIMES-USCENSUS"
"4/29/2021 12:00:00 AM","Staunton city","Virginia","South","South Atlantic","51790","38.157978","-79.061876 ","2490","69","0","0","4/28/2021 12:00:00 AM","2019","24932","NYTIMES-USCENSUS"
"4/29/2021 12:00:00 AM","Umatilla County","Oregon","West","Pacific","41059","45.5912","-118.73388 ","8071","84","27","0","4/28/2021 12:00:00 AM","2019","77950","NYTIMES-USCENSUS"
"4/29/2021 12:00:00 AM","Nevada County","Arkansas","South","West South Central","05099","33.666699","-93.305072 ","820","24","0","0","4/28/2021 12:00:00 AM","2019","8252","NYTIMES-USCENSUS"
"4/29/2021 12:00:00 AM","Calaveras County","California","West","Pacific","06009","38.191068","-120.554107 ","2086","52","10","2","4/28/2021 12:00:00 AM","2019","45905","NYTIMES-USCENSUS"
"4/29/2021 12:00:00 AM","Jackson County","Michigan","Midwest","East North Central","26075","42.248474","-84.420868 ","19961","290","68","2","4/28/2021 12:00:00 AM","2019","158510","NYTIMES-USCENSUS"
"4/29/2021 12:00:00 AM","Clayton County","Georgia","South","South Atlantic","13063","33.542686","-84.355573 ","26270","468","79","1","4/28/2021 12:00:00 AM","2019","292256","NYTIMES-USCENSUS"
"4/29/2021 12:00:00 AM","Wyoming County","New York","Northeast","Middle Atlantic","36121","42.701363","-78.228567 ","3377","51","14","0","4/28/2021 12:00:00 AM","2019","39859","NYTIMES-USCENSUS"
"4/29/2021 12:00:00 AM","St. James Parish","Louisiana","South","West South Central","22093","30.024777","-90.793956 ","1946","50","3","0","4/28/2021 12:00:00 AM","2019","21096","NYTIMES-USCENSUS"
"4/29/2021 12:00:00 AM","Clarion County","Pennsylvania","Northeast","Middle Atlantic","42031","41.198159","-79.420369 ","3040","91","2","1","4/28/2021 12:00:00 AM","2019","38438","NYTIMES-USCENSUS"
"4/29/2021 12:00:00 AM","Miller County","Arkansas","South","West South Central","05091","33.305505","-93.901502 ","4279","37","6","1","4/28/2021 12:00:00 AM","2019","43257","NYTIMES-USCENSUS"
"4/29/2021 12:00:00 AM","Cherokee County","North Carolina","South","South Atlantic","37039","35.13715","-84.061449 ","2480","20","10","0","4/28/2021 12:00:00 AM","2019","28612","NYTIMES-USCENSUS"
"4/29/2021 12:00:00 AM","Candler County","Georgia","South","South Atlantic","13043","32.40395","-82.071266 ","944","65","0","0","4/28/2021 12:00:00 AM","2019","10803","NYTIMES-USCENSUS"
"4/29/2021 12:00:00 AM","Mitchell County","Iowa","Midwest","West North Central","19131","43.348564","-92.784466 ","1255","41","0","0","4/28/2021 12:00:00 AM","2019","10586","NYTIMES-USCENSUS"
"4/29/2021 12:00:00 AM","Douglas County","Georgia","South","South Atlantic","13097","33.701242","-84.767314 ","15030","215","16","1","4/28/2021 12:00:00 AM","2019","146343","NYTIMES-USCENSUS"
"4/29/2021 12:00:00 AM","Morgan County","Ohio","Midwest","East North Central","39115","39.624946","-81.861697 ","1081","23","0","0","4/28/2021 12:00:00 AM","2019","14508","NYTIMES-USCENSUS"
"4/29/2021 12:00:00 AM","Sussex County","Delaware","South","South Atlantic","10005","38.673227","-75.337024 ","25108","483","44","1","4/28/2021 12:00:00 AM","2019","234225","NYTIMES-USCENSUS"
"4/29/2021 12:00:00 AM","Tishomingo County","Mississippi","South","East South Central","28141","34.738835","-88.234827 ","2243","67","1","0","4/28/2021 12:00:00 AM","2019","19383","NYTIMES-USCENSUS"
"4/29/2021 12:00:00 AM","Gray County","Kansas","Midwest","West North Central","20069","37.744513","-100.451716 ","611","14","0","0","4/28/2021 12:00:00 AM","2019","5988","NYTIMES-USCENSUS"
"4/29/2021 12:00:00 AM","Bell County","Kentucky","South","East South Central","21013","36.728928","-83.680718 ","3079","53","0","0","4/28/2021 12:00:00 AM","2019","26032","NYTIMES-USCENSUS"
"4/29/2021 12:00:00 AM","Baltimore city","Maryland","South","South Atlantic","24510","39.300032","-76.610476 ","50795","1022","139","2","4/28/2021 12:00:00 AM","2019","593490","NYTIMES-USCENSUS"
"4/29/2021 12:00:00 AM","Randolph County","Indiana","Midwest","East North Central","18135","40.164079","-85.00579 ","2429","81","2","0","4/28/2021 12:00:00 AM","2019","24665","NYTIMES-USCENSUS"
"4/29/2021 12:00:00 AM","Mercer County","Pennsylvania","Northeast","Middle Atlantic","42085","41.300014","-80.252786 ","9115","254","15","1","4/28/2021 12:00:00 AM","2019","109424","NYTIMES-USCENSUS"
"4/29/2021 12:00:00 AM","Trego County","Kansas","Midwest","West North Central","20195","38.921302","-99.865423 ","407","8","0","0","4/28/2021 12:00:00 AM","2019","2803","NYTIMES-USCENSUS"
"4/29/2021 12:00:00 AM","Osceola County","Florida","South","South Atlantic","12097","28.059027","-81.139312 ","43924","499","152","1","4/28/2021 12:00:00 AM","2019","375751","NYTIMES-USCENSUS"
"4/29/2021 12:00:00 AM","Towns County","Georgia","South","South Atlantic","13281","34.902529","-83.732264 ","1217","55","7","1","4/28/2021 12:00:00 AM","2019","12037","NYTIMES-USCENSUS"
"4/29/2021 12:00:00 AM","Surry County","Virginia","South","South Atlantic","51181","37.119761","-76.880172 ","417","9","0","0","4/28/2021 12:00:00 AM","2019","6422","NYTIMES-USCENSUS"
"4/29/2021 12:00:00 AM","Jefferson County","Wisconsin","Midwest","East North Central","55055","43.013804","-88.773985 ","9482","132","6","0","4/28/2021 12:00:00 AM","2019","84769","NYTIMES-USCENSUS"
"4/29/2021 12:00:00 AM","Spartanburg County","South Carolina","South","South Atlantic","45083","34.932014","-81.991624 ","40742","798","63","3","4/28/2021 12:00:00 AM","2019","319785","NYTIMES-USCENSUS"
"4/29/2021 12:00:00 AM","Sumter County","Georgia","South","South Atlantic","13261","32.042266","-84.204294 ","2540","101","3","1","4/28/2021 12:00:00 AM","2019","29524","NYTIMES-USCENSUS"
"4/29/2021 12:00:00 AM","Wasatch County","Utah","West","Mountain","49051","40.334884","-111.161568 ","4603","21","3","0","4/28/2021 12:00:00 AM","2019","34091","NYTIMES-USCENSUS"
"4/29/2021 12:00:00 AM","Castro County","Texas","South","West South Central","48069","34.533621","-102.258786 ","983","32","0","0","4/28/2021 12:00:00 AM","2019","7530","NYTIMES-USCENSUS"
"4/29/2021 12:00:00 AM","Carter County","Oklahoma","South","West South Central","40019","34.251848","-97.287927 ","6091","108","0","0","4/28/2021 12:00:00 AM","2019","48111","NYTIMES-USCENSUS"
"4/29/2021 12:00:00 AM","Roosevelt County","Montana","West","Mountain","30085","48.282747","-104.99517 ","1625","54","0","0","4/28/2021 12:00:00 AM","2019","11004","NYTIMES-USCENSUS"
"4/29/2021 12:00:00 AM","Faribault County","Minnesota","Midwest","West North Central","27043","43.676522","-93.947234 ","1483","19","5","0","4/28/2021 12:00:00 AM","2019","13653","NYTIMES-USCENSUS"
"4/29/2021 12:00:00 AM","Wheeler County","Georgia","South","South Atlantic","13309","32.105258","-82.733849 ","626","24","0","0","4/28/2021 12:00:00 AM","2019","7855","NYTIMES-USCENSUS"
"4/29/2021 12:00:00 AM","Rowan County","Kentucky","South","East South Central","21205","38.204266","-83.428079 ","2201","20","3","0","4/28/2021 12:00:00 AM","2019","24460","NYTIMES-USCENSUS"
"4/29/2021 12:00:00 AM","Adams County","Indiana","Midwest","East North Central","18001","40.745733","-84.93613 ","3450","55","2","0","4/28/2021 12:00:00 AM","2019","35777","NYTIMES-USCENSUS"
"4/29/2021 12:00:00 AM","Hart County","Georgia","South","South Atlantic","13147","34.348733","-82.96329 ","2370","52","1","0","4/28/2021 12:00:00 AM","2019","26205","NYTIMES-USCENSUS"
"4/29/2021 12:00:00 AM","Talbot County","Georgia","South","South Atlantic","13263","32.704603","-84.530029 ","474","18","0","0","4/28/2021 12:00:00 AM","2019","6195","NYTIMES-USCENSUS"
"4/29/2021 12:00:00 AM","Jefferson County","Pennsylvania","Northeast","Middle Atlantic","42065","41.138028","-79.012419 ","3197","95","3","0","4/28/2021 12:00:00 AM","2019","43425","NYTIMES-USCENSUS"
"4/29/2021 12:00:00 AM","Jefferson County","Kansas","Midwest","West North Central","20087","39.239644","-95.375314 ","1705","34","0","0","4/28/2021 12:00:00 AM","2019","19043","NYTIMES-USCENSUS"
"4/29/2021 12:00:00 AM","Leelanau County","Michigan","Midwest","East North Central","26089","45.146182","-86.051574 ","1187","17","0","0","4/28/2021 12:00:00 AM","2019","21761","NYTIMES-USCENSUS"
"4/29/2021 12:00:00 AM","Polk County","Nebraska","Midwest","West North Central","31143","41.187925","-97.570663 ","583","18","1","0","4/28/2021 12:00:00 AM","2019","5213","NYTIMES-USCENSUS"
"4/29/2021 12:00:00 AM","Navajo County","Arizona","West","Mountain","04017","35.390785","-110.321025 ","16181","530","-1","3","4/28/2021 12:00:00 AM","2019","110924","NYTIMES-USCENSUS"
"4/29/2021 12:00:00 AM","Lee County","Florida","South","South Atlantic","12071","26.563273","-81.984182 ","69160","959","276","2","4/28/2021 12:00:00 AM","2019","770577","NYTIMES-USCENSUS"
"4/29/2021 12:00:00 AM","Greeley County","Nebraska","Midwest","West North Central","31077","41.567571","-98.530565 ","212","2","0","0","4/28/2021 12:00:00 AM","2019","2356","NYTIMES-USCENSUS"
"4/29/2021 12:00:00 AM","Cuming County","Nebraska","Midwest","West North Central","31039","41.915865","-96.788517 ","1037","11","0","0","4/28/2021 12:00:00 AM","2019","8846","NYTIMES-USCENSUS"
"4/29/2021 12:00:00 AM","Rockbridge County","Virginia","South","South Atlantic","51163","37.814517","-79.447754 ","1503","46","4","0","4/28/2021 12:00:00 AM","2019","22573","NYTIMES-USCENSUS"
"4/29/2021 12:00:00 AM","Riverside County","California","West","Pacific","06065","33.729828","-116.002239 ","298366","4568","104","4","4/28/2021 12:00:00 AM","2019","2470546","NYTIMES-USCENSUS"
"4/29/2021 12:00:00 AM","Wood County","West Virginia","South","South Atlantic","54107","39.211602","-81.516234 ","7662","165","9","0","4/28/2021 12:00:00 AM","2019","83518","NYTIMES-USCENSUS"
"4/29/2021 12:00:00 AM","Santa Clara County","California","West","Pacific","06085","37.221614","-121.68954 ","118181","2061","87","12","4/28/2021 12:00:00 AM","2019","1927852","NYTIMES-USCENSUS"
"4/29/2021 12:00:00 AM","Carter County","Missouri","Midwest","West North Central","29035","36.944858","-90.945705 ","540","10","0","0","4/28/2021 12:00:00 AM","2019","5982","NYTIMES-USCENSUS"
"4/29/2021 12:00:00 AM","Juneau City and Borough","Alaska","West","Pacific","02110","58.37291","-134.178445 ","1348","3","2","0","4/28/2021 12:00:00 AM","2019","31974","NYTIMES-USCENSUS"
"4/29/2021 12:00:00 AM","Huntington County","Indiana","Midwest","East North Central","18069","40.826394","-85.478597 ","3844","82","6","0","4/28/2021 12:00:00 AM","2019","36520","NYTIMES-USCENSUS"
"4/29/2021 12:00:00 AM","York County","South Carolina","South","South Atlantic","45091","34.970188","-81.183187 ","30497","377","52","1","4/28/2021 12:00:00 AM","2019","280979","NYTIMES-USCENSUS"
"4/29/2021 12:00:00 AM","Gonzales County","Texas","South","West South Central","48177","29.461912","-97.49192 ","2726","57","5","0","4/28/2021 12:00:00 AM","2019","20837","NYTIMES-USCENSUS"
"4/29/2021 12:00:00 AM","Tulsa County","Oklahoma","South","West South Central","40143","36.120318","-95.941813 ","74049","1033","0","0","4/28/2021 12:00:00 AM","2019","651552","NYTIMES-USCENSUS"
"4/29/2021 12:00:00 AM","Nevada County","California","West","Pacific","06057","39.297508","-120.771343 ","4570","75","13","0","4/28/2021 12:00:00 AM","2019","99755","NYTIMES-USCENSUS"
"4/29/2021 12:00:00 AM","Scott County","Virginia","South","South Atlantic","51169","36.712776","-82.613624 ","1803","52","4","0","4/28/2021 12:00:00 AM","2019","21566","NYTIMES-USCENSUS"
"4/29/2021 12:00:00 AM","Baker County","Oregon","West","Pacific","41001","44.703427","-117.691933 ","915","14","8","0","4/28/2021 12:00:00 AM","2019","16124","NYTIMES-USCENSUS"
"4/29/2021 12:00:00 AM","Hocking County","Ohio","Midwest","East North Central","39073","39.490342","-82.483447 ","2137","60","3","0","4/28/2021 12:00:00 AM","2019","28264","NYTIMES-USCENSUS"
"4/29/2021 12:00:00 AM","Hamilton County","Texas","South","West South Central","48193","31.707342","-98.111756 ","770","26","0","0","4/28/2021 12:00:00 AM","2019","8461","NYTIMES-USCENSUS"
"4/29/2021 12:00:00 AM","Eddy County","North Dakota","Midwest","West North Central","38027","47.723436","-98.900474 ","467","6","1","0","4/28/2021 12:00:00 AM","2019","2287","NYTIMES-USCENSUS"
"4/29/2021 12:00:00 AM","Norfolk County","Massachusetts","Northeast","New England","25021","42.171738","-71.18111 ","53603","1772","108","1","4/28/2021 12:00:00 AM","2019","706775","NYTIMES-USCENSUS"
"4/29/2021 12:00:00 AM","Clark County","Kentucky","South","East South Central","21049","37.970314","-84.145115 ","2824","29","10","1","4/28/2021 12:00:00 AM","2019","36263","NYTIMES-USCENSUS"
"4/29/2021 12:00:00 AM","Scott County","Indiana","Midwest","East North Central","18143","38.679431","-85.751898 ","2640","55","1","0","4/28/2021 12:00:00 AM","2019","23873","NYTIMES-USCENSUS"
"4/29/2021 12:00:00 AM","Christian County","Missouri","Midwest","West North Central","29043","36.969739","-93.187614 ","8861","91","0","0","4/28/2021 12:00:00 AM","2019","88595","NYTIMES-USCENSUS"
"4/29/2021 12:00:00 AM","Middlesex County","Virginia","South","South Atlantic","51119","37.606975","-76.528082 ","568","20","0","0","4/28/2021 12:00:00 AM","2019","10582","NYTIMES-USCENSUS"
"4/29/2021 12:00:00 AM","Lincoln County","Montana","West","Mountain","30053","48.552385","-115.463185 ","1611","17","0","0","4/28/2021 12:00:00 AM","2019","19980","NYTIMES-USCENSUS"
"4/29/2021 12:00:00 AM","Pepin County","Wisconsin","Midwest","East North Central","55091","44.627436","-91.83489 ","876","7","5","0","4/28/2021 12:00:00 AM","2019","7287","NYTIMES-USCENSUS"
"4/29/2021 12:00:00 AM","Hancock County","West Virginia","South","South Atlantic","54029","40.516958","-80.570164 ","2742","88","2","0","4/28/2021 12:00:00 AM","2019","28810","NYTIMES-USCENSUS"
"4/29/2021 12:00:00 AM","Walker County","Texas","South","West South Central","48471","30.743163","-95.569825 ","8789","125","11","0","4/28/2021 12:00:00 AM","2019","72971","NYTIMES-USCENSUS"
"4/29/2021 12:00:00 AM","Lawrence County","Mississippi","South","East South Central","28077","31.550009","-90.10753 ","1281","23","2","0","4/28/2021 12:00:00 AM","2019","12586","NYTIMES-USCENSUS"
"4/29/2021 12:00:00 AM","Greene County","Illinois","Midwest","East North Central","17061","39.355439","-90.387682 ","1429","46","1","0","4/28/2021 12:00:00 AM","2019","12969","NYTIMES-USCENSUS"
"4/29/2021 12:00:00 AM","Cass County","Nebraska","Midwest","West North Central","31025","40.909878","-96.140609 ","2637","16","4","0","4/28/2021 12:00:00 AM","2019","26248","NYTIMES-USCENSUS"
"4/29/2021 12:00:00 AM","Marion County","Illinois","Midwest","East North Central","17121","38.648236","-88.920362 ","4433","121","0","0","4/28/2021 12:00:00 AM","2019","37205","NYTIMES-USCENSUS"
"4/29/2021 12:00:00 AM","New Haven County","Connecticut","Northeast","New England","09009","41.349718","-72.900203 ","89291","2066","153","1","4/28/2021 12:00:00 AM","2019","854757","NYTIMES-USCENSUS"
"4/29/2021 12:00:00 AM","Florence County","Wisconsin","Midwest","East North Central","55037","45.871828","-88.406988 ","498","12","1","0","4/28/2021 12:00:00 AM","2019","4295","NYTIMES-USCENSUS"
"4/29/2021 12:00:00 AM","Duplin County","North Carolina","South","South Atlantic","37061","34.934403","-77.933543 ","6196","132","18","0","4/28/2021 12:00:00 AM","2019","58741","NYTIMES-USCENSUS"
"4/29/2021 12:00:00 AM","Marshall County","West Virginia","South","South Atlantic","54051","39.854426","-80.671794 ","3352","76","16","0","4/28/2021 12:00:00 AM","2019","30531","NYTIMES-USCENSUS"
"4/29/2021 12:00:00 AM","Gila County","Arizona","West","Mountain","04007","33.789618","-110.81187 ","6877","227","6","0","4/28/2021 12:00:00 AM","2019","54018","NYTIMES-USCENSUS"
"4/29/2021 12:00:00 AM","Jasper County","Iowa","Midwest","West North Central","19099","41.685551","-93.054147 ","4119","70","5","0","4/28/2021 12:00:00 AM","2019","37185","NYTIMES-USCENSUS"
"4/29/2021 12:00:00 AM","Worth County","Georgia","South","South Atlantic","13321","31.551773","-83.84996 ","1779","68","6","0","4/28/2021 12:00:00 AM","2019","20247","NYTIMES-USCENSUS"
"4/29/2021 12:00:00 AM","Kingsbury County","South Dakota","Midwest","West North Central","46077","44.362969","-97.499313 ","812","15","2","0","4/28/2021 12:00:00 AM","2019","4939","NYTIMES-USCENSUS"
"4/29/2021 12:00:00 AM","Lauderdale County","Tennessee","South","East South Central","47097","35.762951","-89.627732 ","3170","44","1","0","4/28/2021 12:00:00 AM","2019","25633","NYTIMES-USCENSUS"
"4/29/2021 12:00:00 AM","Tom Green County","Texas","South","West South Central","48451","31.398823","-100.463788 ","16754","269","7","0","4/28/2021 12:00:00 AM","2019","119200","NYTIMES-USCENSUS"
"4/29/2021 12:00:00 AM","Fisher County","Texas","South","West South Central","48151","32.740473","-100.40312 ","298","14","0","0","4/28/2021 12:00:00 AM","2019","3830","NYTIMES-USCENSUS"
"4/29/2021 12:00:00 AM","Rabun County","Georgia","South","South Atlantic","13241","34.883934","-83.40487 ","1716","49","2","0","4/28/2021 12:00:00 AM","2019","17137","NYTIMES-USCENSUS"
"4/29/2021 12:00:00 AM","Uintah County","Utah","West","Mountain","49047","40.125887","-109.517748 ","2626","22","6","0","4/28/2021 12:00:00 AM","2019","35734","NYTIMES-USCENSUS"
"4/29/2021 12:00:00 AM","Placer County","California","West","Pacific","06061","39.062032","-120.722718 ","22193","288","42","2","4/28/2021 12:00:00 AM","2019","398329","NYTIMES-USCENSUS"
"4/29/2021 12:00:00 AM","Callahan County","Texas","South","West South Central","48059","32.29315","-99.372249 ","1187","39","0","0","4/28/2021 12:00:00 AM","2019","13943","NYTIMES-USCENSUS"
"4/29/2021 12:00:00 AM","Logan County","Ohio","Midwest","East North Central","39091","40.387553","-83.766343 ","3784","76","7","0","4/28/2021 12:00:00 AM","2019","45672","NYTIMES-USCENSUS"
"4/29/2021 12:00:00 AM","Caddo County","Oklahoma","South","West South Central","40015","35.16792","-98.381045 ","3963","87","0","0","4/28/2021 12:00:00 AM","2019","28762","NYTIMES-USCENSUS"
"4/29/2021 12:00:00 AM","Grant Parish","Louisiana","South","West South Central","22043","31.597787","-92.561716 ","2135","55","2","0","4/28/2021 12:00:00 AM","2019","22389","NYTIMES-USCENSUS"
"4/29/2021 12:00:00 AM","Antelope County","Nebraska","Midwest","West North Central","31003","42.183225","-98.058037 ","525","6","1","0","4/28/2021 12:00:00 AM","2019","6298","NYTIMES-USCENSUS"
"4/29/2021 12:00:00 AM","Madison County","Iowa","Midwest","West North Central","19121","41.330622","-94.015184 ","1569","19","2","0","4/28/2021 12:00:00 AM","2019","16338","NYTIMES-USCENSUS"
"4/29/2021 12:00:00 AM","Howell County","Missouri","Midwest","West North Central","29091","36.774369","-91.887368 ","3471","43","2","0","4/28/2021 12:00:00 AM","2019","40117","NYTIMES-USCENSUS"
"4/29/2021 12:00:00 AM","Santa Cruz County","California","West","Pacific","06087","37.012347","-122.007789 ","15984","205","16","0","4/28/2021 12:00:00 AM","2019","273213","NYTIMES-USCENSUS"
"4/29/2021 12:00:00 AM","Toole County","Montana","West","Mountain","30101","48.645125","-111.733472 ","716","11","0","0","4/28/2021 12:00:00 AM","2019","4736","NYTIMES-USCENSUS"
"4/29/2021 12:00:00 AM","Adams County","Colorado","West","Mountain","08001","39.874325","-104.331872 ","56999","701","422","2","4/28/2021 12:00:00 AM","2019","517421","NYTIMES-USCENSUS"
"4/29/2021 12:00:00 AM","McDowell County","West Virginia","South","South Atlantic","54047","37.38276","-81.658204 ","1535","21","4","0","4/28/2021 12:00:00 AM","2019","17624","NYTIMES-USCENSUS"
"4/29/2021 12:00:00 AM","Lane County","Kansas","Midwest","West North Central","20101","38.481286","-100.466185 ","143","7","0","0","4/28/2021 12:00:00 AM","2019","1535","NYTIMES-USCENSUS"
"4/29/2021 12:00:00 AM","Love County","Oklahoma","South","West South Central","40085","33.957804","-97.245093 ","1492","20","0","0","4/28/2021 12:00:00 AM","2019","10253","NYTIMES-USCENSUS"
"4/29/2021 12:00:00 AM","Sunflower County","Mississippi","South","East South Central","28133","33.605529","-90.59509 ","3345","90","1","0","4/28/2021 12:00:00 AM","2019","25110","NYTIMES-USCENSUS"
"4/29/2021 12:00:00 AM","Walla Walla County","Washington","West","Pacific","53071","46.254606","-118.48037 ","5023","64","10","0","4/28/2021 12:00:00 AM","2019","60760","NYTIMES-USCENSUS"
"4/29/2021 12:00:00 AM","Ozaukee County","Wisconsin","Midwest","East North Central","55089","43.501845","-87.847567 ","9104","91","9","0","4/28/2021 12:00:00 AM","2019","89221","NYTIMES-USCENSUS"
"4/29/2021 12:00:00 AM","Hampshire County","Massachusetts","Northeast","New England","25015","42.339459","-72.663694 ","8937","290","20","0","4/28/2021 12:00:00 AM","2019","160830","NYTIMES-USCENSUS"
"4/29/2021 12:00:00 AM","La Crosse County","Wisconsin","Midwest","East North Central","55063","43.908222","-91.111758 ","13451","82","13","0","4/28/2021 12:00:00 AM","2019","118016","NYTIMES-USCENSUS"
"4/29/2021 12:00:00 AM","Marion County","Arkansas","South","West South Central","05089","36.266664","-92.678577 ","1051","30","0","0","4/28/2021 12:00:00 AM","2019","16694","NYTIMES-USCENSUS"
"4/29/2021 12:00:00 AM","Tuscaloosa County","Alabama","South","East South Central","01125","33.29022","-87.522783 ","25577","449","14","0","4/28/2021 12:00:00 AM","2019","209355","NYTIMES-USCENSUS"
"4/29/2021 12:00:00 AM","Darlington County","South Carolina","South","South Atlantic","45031","34.332185","-79.962115 ","8372","172","32","0","4/28/2021 12:00:00 AM","2019","66618","NYTIMES-USCENSUS"
"4/29/2021 12:00:00 AM","Jasper County","Georgia","South","South Atlantic","13159","33.316981","-83.689151 ","1398","38","5","0","4/28/2021 12:00:00 AM","2019","14219","NYTIMES-USCENSUS"
"4/29/2021 12:00:00 AM","Tyler County","West Virginia","South","South Atlantic","54095","39.465634","-80.877219 ","681","9","2","0","4/28/2021 12:00:00 AM","2019","8591","NYTIMES-USCENSUS"
"4/29/2021 12:00:00 AM","Red Willow County","Nebraska","Midwest","West North Central","31145","40.16942","-100.468576 ","1207","15","1","0","4/28/2021 12:00:00 AM","2019","10724","NYTIMES-USCENSUS"
"4/29/2021 12:00:00 AM","Austin County","Texas","South","West South Central","48015","29.891901","-96.27017 ","2134","34","4","0","4/28/2021 12:00:00 AM","2019","30032","NYTIMES-USCENSUS"
"4/29/2021 12:00:00 AM","Chester County","South Carolina","South","South Atlantic","45023","34.689342","-81.161249 ","4125","75","11","0","4/28/2021 12:00:00 AM","2019","32244","NYTIMES-USCENSUS"
"4/29/2021 12:00:00 AM","Solano County","California","West","Pacific","06095","38.267226","-121.939594 ","32417","248","46","0","4/28/2021 12:00:00 AM","2019","447643","NYTIMES-USCENSUS"
"4/29/2021 12:00:00 AM","Allendale County","South Carolina","South","South Atlantic","45005","32.979757","-81.363265 ","915","15","1","0","4/28/2021 12:00:00 AM","2019","8688","NYTIMES-USCENSUS"
"4/29/2021 12:00:00 AM","Macon County","North Carolina","South","South Atlantic","37113","35.152959","-83.421901 ","3047","35","25","0","4/28/2021 12:00:00 AM","2019","35858","NYTIMES-USCENSUS"
"4/29/2021 12:00:00 AM","Livingston County","New York","Northeast","Middle Atlantic","36051","42.729042","-77.778463 ","4154","58","23","0","4/28/2021 12:00:00 AM","2019","62914","NYTIMES-USCENSUS"
"4/29/2021 12:00:00 AM","Hamilton County","Florida","South","South Atlantic","12047","30.491187","-82.951071 ","1623","25","2","0","4/28/2021 12:00:00 AM","2019","14428","NYTIMES-USCENSUS"
"4/29/2021 12:00:00 AM","Outagamie County","Wisconsin","Midwest","East North Central","55087","44.418226","-88.464988 ","23429","218","17","0","4/28/2021 12:00:00 AM","2019","187885","NYTIMES-USCENSUS"
"4/29/2021 12:00:00 AM","Texas County","Oklahoma","South","West South Central","40139","36.746317","-101.483855 ","3506","32","0","0","4/28/2021 12:00:00 AM","2019","19983","NYTIMES-USCENSUS"
"4/29/2021 12:00:00 AM","Rowan County","North Carolina","South","South Atlantic","37159","35.641355","-80.521721 ","16550","300","29","0","4/28/2021 12:00:00 AM","2019","142088","NYTIMES-USCENSUS"
"4/29/2021 12:00:00 AM","Gallatin County","Kentucky","South","East South Central","21077","38.755663","-84.865143 ","691","28","0","0","4/28/2021 12:00:00 AM","2019","8869","NYTIMES-USCENSUS"
"4/29/2021 12:00:00 AM","Morton County","Kansas","Midwest","West North Central","20129","37.185249","-101.809516 ","255","9","0","0","4/28/2021 12:00:00 AM","2019","2587","NYTIMES-USCENSUS"
"4/29/2021 12:00:00 AM","Lyman County","South Dakota","Midwest","West North Central","46085","43.894812","-99.841925 ","647","11","4","0","4/28/2021 12:00:00 AM","2019","3781","NYTIMES-USCENSUS"
"4/29/2021 12:00:00 AM","Aroostook County","Maine","Northeast","New England","23003","46.709193","-68.612409 ","1664","45","11","0","4/28/2021 12:00:00 AM","2019","67055","NYTIMES-USCENSUS"
"4/29/2021 12:00:00 AM","Brown County","Minnesota","Midwest","West North Central","27015","44.246541","-94.733647 ","3010","39","12","0","4/28/2021 12:00:00 AM","2019","25008","NYTIMES-USCENSUS"
"4/29/2021 12:00:00 AM","Montour County","Pennsylvania","Northeast","Middle Atlantic","42093","41.029284","-76.665225 ","1957","63","7","0","4/28/2021 12:00:00 AM","2019","18230","NYTIMES-USCENSUS"
"4/29/2021 12:00:00 AM","Osage County","Missouri","Midwest","West North Central","29151","38.464253","-91.859504 ","1615","15","0","0","4/28/2021 12:00:00 AM","2019","13615","NYTIMES-USCENSUS"
"4/29/2021 12:00:00 AM","Trumbull County","Ohio","Midwest","East North Central","39155","41.306374","-80.7704 ","15877","462","25","0","4/28/2021 12:00:00 AM","2019","197974","NYTIMES-USCENSUS"
"4/29/2021 12:00:00 AM","Keya Paha County","Nebraska","Midwest","West North Central","31103","42.87548","-99.718351 ","53","0","0","0","4/28/2021 12:00:00 AM","2019","806","NYTIMES-USCENSUS"
"4/29/2021 12:00:00 AM","Colbert County","Alabama","South","East South Central","01033","34.703112","-87.801457 ","6274","134","3","0","4/28/2021 12:00:00 AM","2019","55241","NYTIMES-USCENSUS"
"4/29/2021 12:00:00 AM","Washington County","Virginia","South","South Atlantic","51191","36.747814","-81.950322 ","4818","106","13","0","4/28/2021 12:00:00 AM","2019","53740","NYTIMES-USCENSUS"
"4/29/2021 12:00:00 AM","Macon County","Alabama","South","East South Central","01087","32.387027","-85.692887 ","1585","49","2","0","4/28/2021 12:00:00 AM","2019","18068","NYTIMES-USCENSUS"
"4/29/2021 12:00:00 AM","Niagara County","New York","Northeast","Middle Atlantic","36063","43.272672","-78.812943 ","18995","338","69","1","4/28/2021 12:00:00 AM","2019","209281","NYTIMES-USCENSUS"
"4/29/2021 12:00:00 AM","Osage County","Oklahoma","South","West South Central","40113","36.624299","-96.408112 ","4681","73","0","0","4/28/2021 12:00:00 AM","2019","46963","NYTIMES-USCENSUS"
"4/29/2021 12:00:00 AM","Yolo County","California","West","Pacific","06113","38.679609","-121.90275 ","13721","205","24","0","4/28/2021 12:00:00 AM","2019","220500","NYTIMES-USCENSUS"
"4/29/2021 12:00:00 AM","Prince George County","Virginia","South","South Atlantic","51149","37.187325","-77.220993 ","3482","27","10","0","4/28/2021 12:00:00 AM","2019","38353","NYTIMES-USCENSUS"
"4/29/2021 12:00:00 AM","Mason County","West Virginia","South","South Atlantic","54053","38.770914","-82.029007 ","1972","36","4","0","4/28/2021 12:00:00 AM","2019","26516","NYTIMES-USCENSUS"
"4/29/2021 12:00:00 AM","Wagoner County","Oklahoma","South","West South Central","40145","35.963388","-95.514201 ","8027","113","0","0","4/28/2021 12:00:00 AM","2019","81289","NYTIMES-USCENSUS"
"4/29/2021 12:00:00 AM","Scott County","Arkansas","South","West South Central","05127","34.858869","-94.063641 ","933","14","-1","0","4/28/2021 12:00:00 AM","2019","10281","NYTIMES-USCENSUS"
"4/29/2021 12:00:00 AM","Charlton County","Georgia","South","South Atlantic","13049","30.779904","-82.139644 ","1369","33","1","0","4/28/2021 12:00:00 AM","2019","13392","NYTIMES-USCENSUS"
"4/29/2021 12:00:00 AM","Boone County","Iowa","Midwest","West North Central","19015","42.038642","-93.938603 ","2608","33","1","0","4/28/2021 12:00:00 AM","2019","26234","NYTIMES-USCENSUS"
"4/29/2021 12:00:00 AM","Gaines County","Texas","South","West South Central","48165","32.743942","-102.631561 ","1434","43","0","0","4/28/2021 12:00:00 AM","2019","21492","NYTIMES-USCENSUS"
"4/29/2021 12:00:00 AM","Montgomery County","Illinois","Midwest","East North Central","17135","39.228068","-89.478141 ","3674","79","1","0","4/28/2021 12:00:00 AM","2019","28414","NYTIMES-USCENSUS"
"4/29/2021 12:00:00 AM","Crenshaw County","Alabama","South","East South Central","01041","31.730311","-86.320038 ","1513","57","0","0","4/28/2021 12:00:00 AM","2019","13772","NYTIMES-USCENSUS"
"4/29/2021 12:00:00 AM","Vanderburgh County","Indiana","Midwest","East North Central","18163","38.02007","-87.586166 ","22187","400","8","0","4/28/2021 12:00:00 AM","2019","181451","NYTIMES-USCENSUS"
"4/29/2021 12:00:00 AM","Lincoln County","South Dakota","Midwest","West North Central","46083","43.27942","-96.722286 ","8618","77","11","0","4/28/2021 12:00:00 AM","2019","61128","NYTIMES-USCENSUS"
"4/29/2021 12:00:00 AM","Marathon County","Wisconsin","Midwest","East North Central","55073","44.898036","-89.757823 ","16001","220","31","0","4/28/2021 12:00:00 AM","2019","135692","NYTIMES-USCENSUS"
"4/29/2021 12:00:00 AM","Tazewell County","Virginia","South","South Atlantic","51185","37.125395","-81.562924 ","3579","66","10","0","4/28/2021 12:00:00 AM","2019","40595","NYTIMES-USCENSUS"
"4/29/2021 12:00:00 AM","Pulaski County","Kentucky","South","East South Central","21199","37.107452","-84.576969 ","6292","101","6","0","4/28/2021 12:00:00 AM","2019","64979","NYTIMES-USCENSUS"
"4/29/2021 12:00:00 AM","Centre County","Pennsylvania","Northeast","Middle Atlantic","42027","40.909128","-77.847877 ","16275","220","45","0","4/28/2021 12:00:00 AM","2019","162385","NYTIMES-USCENSUS"
"4/29/2021 12:00:00 AM","Adair County","Kentucky","South","East South Central","21001","37.105559","-85.28138 ","1842","53","5","0","4/28/2021 12:00:00 AM","2019","19202","NYTIMES-USCENSUS"
"4/29/2021 12:00:00 AM","Humphreys County","Tennessee","South","East South Central","47085","36.040822","-87.790453 ","1777","22","1","0","4/28/2021 12:00:00 AM","2019","18582","NYTIMES-USCENSUS"
"4/29/2021 12:00:00 AM","Montgomery County","Iowa","Midwest","West North Central","19137","41.021735","-95.15779 ","1023","37","2","0","4/28/2021 12:00:00 AM","2019","9917","NYTIMES-USCENSUS"
"4/29/2021 12:00:00 AM","Covington County","Alabama","South","East South Central","01039","31.243987","-86.448721 ","4104","116","0","0","4/28/2021 12:00:00 AM","2019","37049","NYTIMES-USCENSUS"
"4/29/2021 12:00:00 AM","Kent County","Rhode Island","Northeast","New England","44003","41.675118","-71.580282 ","18092","360","0","0","4/28/2021 12:00:00 AM","2019","164292","NYTIMES-USCENSUS"
"4/29/2021 12:00:00 AM","Hancock County","Ohio","Midwest","East North Central","39063","41.000217","-83.665947 ","6848","126","20","0","4/28/2021 12:00:00 AM","2019","75783","NYTIMES-USCENSUS"
"4/29/2021 12:00:00 AM","Cleveland County","North Carolina","South","South Atlantic","37045","35.33463","-81.557114 ","11297","224","14","0","4/28/2021 12:00:00 AM","2019","97947","NYTIMES-USCENSUS"
"4/29/2021 12:00:00 AM","Box Butte County","Nebraska","Midwest","West North Central","31013","42.21038","-103.081779 ","934","9","-4","0","4/28/2021 12:00:00 AM","2019","10783","NYTIMES-USCENSUS"
"4/29/2021 12:00:00 AM","Jackson County","Georgia","South","South Atlantic","13157","34.130905","-83.562557 ","9793","151","14","0","4/28/2021 12:00:00 AM","2019","72977","NYTIMES-USCENSUS"
"4/29/2021 12:00:00 AM","Stone County","Arkansas","South","West South Central","05137","35.857001","-92.140482 ","987","30","0","0","4/28/2021 12:00:00 AM","2019","12506","NYTIMES-USCENSUS"
"4/29/2021 12:00:00 AM","Ripley County","Indiana","Midwest","East North Central","18137","39.100226","-85.260494 ","3370","69","1","0","4/28/2021 12:00:00 AM","2019","28324","NYTIMES-USCENSUS"
"4/29/2021 12:00:00 AM","Blaine County","Oklahoma","South","West South Central","40011","35.877795","-98.429031 ","1040","18","0","0","4/28/2021 12:00:00 AM","2019","9429","NYTIMES-USCENSUS"
"4/29/2021 12:00:00 AM","Colleton County","South Carolina","South","South Atlantic","45029","32.835018","-80.655244 ","3574","126","14","0","4/28/2021 12:00:00 AM","2019","37677","NYTIMES-USCENSUS"
"4/29/2021 12:00:00 AM","Deschutes County","Oregon","West","Pacific","41017","43.915118","-121.225575 ","7949","73","193","0","4/28/2021 12:00:00 AM","2019","197692","NYTIMES-USCENSUS"
"4/29/2021 12:00:00 AM","Lenoir County","North Carolina","South","South Atlantic","37107","35.240066","-77.635514 ","5845","112","8","0","4/28/2021 12:00:00 AM","2019","55949","NYTIMES-USCENSUS"
"4/29/2021 12:00:00 AM","Ohio County","Kentucky","South","East South Central","21183","37.477859","-86.844871 ","2433","55","3","0","4/28/2021 12:00:00 AM","2019","23994","NYTIMES-USCENSUS"
"4/29/2021 12:00:00 AM","Stillwater County","Montana","West","Mountain","30095","45.658545","-109.381576 ","721","14","2","0","4/28/2021 12:00:00 AM","2019","9642","NYTIMES-USCENSUS"
"4/29/2021 12:00:00 AM","Grafton County","New Hampshire","Northeast","New England","33009","43.926439","-71.842424 ","3746","26","19","0","4/28/2021 12:00:00 AM","2019","89886","NYTIMES-USCENSUS"
"4/29/2021 12:00:00 AM","Ottawa County","Kansas","Midwest","West North Central","20143","39.137963","-97.654802 ","551","13","0","0","4/28/2021 12:00:00 AM","2019","5704","NYTIMES-USCENSUS"
"4/29/2021 12:00:00 AM","Warren County","New Jersey","Northeast","Middle Atlantic","34041","40.853491","-75.009498 ","9638","233","18","0","4/28/2021 12:00:00 AM","2019","105267","NYTIMES-USCENSUS"
"4/29/2021 12:00:00 AM","Livingston Parish","Louisiana","South","West South Central","22063","30.440419","-90.727474 ","13272","204","11","0","4/28/2021 12:00:00 AM","2019","140789","NYTIMES-USCENSUS"
"4/29/2021 12:00:00 AM","Tioga County","Pennsylvania","Northeast","Middle Atlantic","42117","41.766859","-77.257288 ","2853","104","6","0","4/28/2021 12:00:00 AM","2019","40591","NYTIMES-USCENSUS"
"4/29/2021 12:00:00 AM","Sequatchie County","Tennessee","South","East South Central","47153","35.372336","-85.410082 ","1686","29","2","0","4/28/2021 12:00:00 AM","2019","15026","NYTIMES-USCENSUS"
"4/29/2021 12:00:00 AM","Columbia County","Florida","South","South Atlantic","12023","30.221651","-82.623371 ","8081","168","10","0","4/28/2021 12:00:00 AM","2019","71686","NYTIMES-USCENSUS"
"4/29/2021 12:00:00 AM","Crosby County","Texas","South","West South Central","48107","33.609144","-101.29871 ","654","29","0","0","4/28/2021 12:00:00 AM","2019","5737","NYTIMES-USCENSUS"
"4/29/2021 12:00:00 AM","Henderson County","North Carolina","South","South Atlantic","37089","35.336415","-82.479741 ","10022","158","20","0","4/28/2021 12:00:00 AM","2019","117417","NYTIMES-USCENSUS"
"4/29/2021 12:00:00 AM","Otsego County","Michigan","Midwest","East North Central","26137","45.021787","-84.576603 ","2580","36","15","0","4/28/2021 12:00:00 AM","2019","24668","NYTIMES-USCENSUS"
"4/29/2021 12:00:00 AM","Marin County","California","West","Pacific","06041","38.051367","-122.746396 ","13866","227","11","0","4/28/2021 12:00:00 AM","2019","258826","NYTIMES-USCENSUS"
"4/29/2021 12:00:00 AM","Larimer County","Colorado","West","Mountain","08069","40.658093","-105.486764 ","25350","233","139","0","4/28/2021 12:00:00 AM","2019","356899","NYTIMES-USCENSUS"
"4/29/2021 12:00:00 AM","Calhoun County","Mississippi","South","East South Central","28013","33.936634","-89.337114 ","1685","32","5","0","4/28/2021 12:00:00 AM","2019","14361","NYTIMES-USCENSUS"
"4/29/2021 12:00:00 AM","Lucas County","Iowa","Midwest","West North Central","19117","41.033344","-93.331467 ","765","23","2","0","4/28/2021 12:00:00 AM","2019","8600","NYTIMES-USCENSUS"
"4/29/2021 12:00:00 AM","Peoria County","Illinois","Midwest","East North Central","17143","40.785972","-89.766993 ","22439","315","114","1","4/28/2021 12:00:00 AM","2019","179179","NYTIMES-USCENSUS"
"4/29/2021 12:00:00 AM","Mercer County","New Jersey","Northeast","Middle Atlantic","34021","40.282503","-74.703724 ","33214","931","72","1","4/28/2021 12:00:00 AM","2019","367430","NYTIMES-USCENSUS"
"4/29/2021 12:00:00 AM","Chattahoochee County","Georgia","South","South Atlantic","13053","32.347445","-84.788021 ","3943","15","41","0","4/28/2021 12:00:00 AM","2019","10907","NYTIMES-USCENSUS"
"4/29/2021 12:00:00 AM","Sioux County","Iowa","Midwest","West North Central","19167","43.082646","-96.17801 ","5099","73","4","0","4/28/2021 12:00:00 AM","2019","34855","NYTIMES-USCENSUS"
"4/29/2021 12:00:00 AM","Tuolumne County","California","West","Pacific","06109","38.021434","-119.964733 ","4104","65","1","0","4/28/2021 12:00:00 AM","2019","54478","NYTIMES-USCENSUS"
"4/29/2021 12:00:00 AM","Highlands County","Florida","South","South Atlantic","12055","27.34108","-81.342353 ","8419","349","21","4","4/28/2021 12:00:00 AM","2019","106221","NYTIMES-USCENSUS"
"4/29/2021 12:00:00 AM","Yuba County","California","West","Pacific","06115","39.27013","-121.344259 ","6172","44","7","0","4/28/2021 12:00:00 AM","2019","78668","NYTIMES-USCENSUS"
"4/29/2021 12:00:00 AM","Grady County","Oklahoma","South","West South Central","40051","35.021058","-97.88689 ","5919","121","0","0","4/28/2021 12:00:00 AM","2019","55834","NYTIMES-USCENSUS"
"4/29/2021 12:00:00 AM","Brooke County","West Virginia","South","South Atlantic","54009","40.272645","-80.578691 ","2156","59","4","0","4/28/2021 12:00:00 AM","2019","21939","NYTIMES-USCENSUS"
"4/29/2021 12:00:00 AM","Darke County","Ohio","Midwest","East North Central","39037","40.131467","-84.621191 ","5319","121","5","0","4/28/2021 12:00:00 AM","2019","51113","NYTIMES-USCENSUS"
"4/29/2021 12:00:00 AM","Stanton County","Kansas","Midwest","West North Central","20187","37.565932","-101.789383 ","184","6","0","0","4/28/2021 12:00:00 AM","2019","2006","NYTIMES-USCENSUS"
"4/29/2021 12:00:00 AM","Anoka County","Minnesota","Midwest","West North Central","27003","45.27411","-93.242723 ","40063","427","150","0","4/28/2021 12:00:00 AM","2019","356921","NYTIMES-USCENSUS"
"4/29/2021 12:00:00 AM","Tippecanoe County","Indiana","Midwest","East North Central","18157","40.389133","-86.893554 ","22178","219","37","2","4/28/2021 12:00:00 AM","2019","195732","NYTIMES-USCENSUS"
"4/29/2021 12:00:00 AM","Sierra County","California","West","Pacific","06091","39.576925","-120.521993 ","51","0","0","0","4/28/2021 12:00:00 AM","2019","3005","NYTIMES-USCENSUS"
"4/29/2021 12:00:00 AM","Lafayette County","Missouri","Midwest","West North Central","29107","39.068705","-93.802639 ","3030","56","4","0","4/28/2021 12:00:00 AM","2019","32708","NYTIMES-USCENSUS"
"4/29/2021 12:00:00 AM","Sevier County","Tennessee","South","East South Central","47155","35.787822","-83.5249 ","13295","175","7","0","4/28/2021 12:00:00 AM","2019","98250","NYTIMES-USCENSUS"
"4/29/2021 12:00:00 AM","York County","Pennsylvania","Northeast","Middle Atlantic","42133","39.921751","-76.728889 ","43963","781","142","3","4/28/2021 12:00:00 AM","2019","449058","NYTIMES-USCENSUS"
"4/29/2021 12:00:00 AM","Champaign County","Ohio","Midwest","East North Central","39021","40.132775","-83.767604 ","3257","58","5","0","4/28/2021 12:00:00 AM","2019","38885","NYTIMES-USCENSUS"
"4/29/2021 12:00:00 AM","Bradley County","Arkansas","South","West South Central","05011","33.466549","-92.169156 ","1380","32","6","0","4/28/2021 12:00:00 AM","2019","10763","NYTIMES-USCENSUS"
"4/29/2021 12:00:00 AM","Boone County","West Virginia","South","South Atlantic","54005","38.022814","-81.713538 ","1944","33","7","0","4/28/2021 12:00:00 AM","2019","21457","NYTIMES-USCENSUS"
"4/29/2021 12:00:00 AM","Caldwell Parish","Louisiana","South","West South Central","22021","32.101219","-92.114231 ","1106","29","3","0","4/28/2021 12:00:00 AM","2019","9918","NYTIMES-USCENSUS"
"4/29/2021 12:00:00 AM","Hamilton County","Ohio","Midwest","East North Central","39061","39.196927","-84.544187 ","79322","1183","123","0","4/28/2021 12:00:00 AM","2019","817473","NYTIMES-USCENSUS"
"4/29/2021 12:00:00 AM","Warrick County","Indiana","Midwest","East North Central","18173","38.097728","-87.272049 ","7747","158","6","0","4/28/2021 12:00:00 AM","2019","62998","NYTIMES-USCENSUS"
"4/29/2021 12:00:00 AM","Rogers County","Oklahoma","South","West South Central","40131","36.377794","-95.601383 ","10426","174","0","0","4/28/2021 12:00:00 AM","2019","92459","NYTIMES-USCENSUS"
"4/29/2021 12:00:00 AM","Scott County","Kentucky","South","East South Central","21209","38.28571","-84.57834 ","4871","32","6","0","4/28/2021 12:00:00 AM","2019","57004","NYTIMES-USCENSUS"
"4/29/2021 12:00:00 AM","Clackamas County","Oregon","West","Pacific","41005","45.160493","-122.195127 ","16294","209","105","0","4/28/2021 12:00:00 AM","2019","418187","NYTIMES-USCENSUS"
"4/29/2021 12:00:00 AM","Liberty County","Georgia","South","South Atlantic","13179","31.807458","-81.457871 ","3949","62","5","0","4/28/2021 12:00:00 AM","2019","61435","NYTIMES-USCENSUS"
"4/29/2021 12:00:00 AM","Menominee County","Michigan","Midwest","East North Central","26109","45.535568","-87.501457 ","2045","41","0","0","4/28/2021 12:00:00 AM","2019","22780","NYTIMES-USCENSUS"
"4/29/2021 12:00:00 AM","Davidson County","North Carolina","South","South Atlantic","37057","35.795131","-80.207107 ","16170","185","42","0","4/28/2021 12:00:00 AM","2019","167609","NYTIMES-USCENSUS"
"4/29/2021 12:00:00 AM","Escambia County","Alabama","South","East South Central","01053","31.122287","-87.16841 ","3921","75","1","0","4/28/2021 12:00:00 AM","2019","36633","NYTIMES-USCENSUS"
"4/29/2021 12:00:00 AM","Sabine Parish","Louisiana","South","West South Central","22085","31.560402","-93.559579 ","2930","60","16","0","4/28/2021 12:00:00 AM","2019","23884","NYTIMES-USCENSUS"
"4/29/2021 12:00:00 AM","Franklin County","Missouri","Midwest","West North Central","29071","38.413003","-91.072832 ","10512","180","10","0","4/28/2021 12:00:00 AM","2019","103967","NYTIMES-USCENSUS"
"4/29/2021 12:00:00 AM","Coahoma County","Mississippi","South","East South Central","28027","34.230316","-90.60401 ","2929","79","2","0","4/28/2021 12:00:00 AM","2019","22124","NYTIMES-USCENSUS"
"4/29/2021 12:00:00 AM","Hardy County","West Virginia","South","South Atlantic","54031","39.011361","-78.841729 ","1494","24","8","0","4/28/2021 12:00:00 AM","2019","13776","NYTIMES-USCENSUS"
"4/29/2021 12:00:00 AM","Wharton County","Texas","South","West South Central","48481","29.27848","-96.229674 ","4077","114","9","0","4/28/2021 12:00:00 AM","2019","41556","NYTIMES-USCENSUS"
"4/29/2021 12:00:00 AM","Marshall County","Kentucky","South","East South Central","21157","36.882017","-88.332752 ","2745","56","8","0","4/28/2021 12:00:00 AM","2019","31100","NYTIMES-USCENSUS"
"4/29/2021 12:00:00 AM","Tuscola County","Michigan","Midwest","East North Central","26157","43.487902","-83.436618 ","5355","159","22","-1","4/28/2021 12:00:00 AM","2019","52245","NYTIMES-USCENSUS"
"4/29/2021 12:00:00 AM","Murray County","Georgia","South","South Atlantic","13213","34.797097","-84.73799 ","4929","86","2","0","4/28/2021 12:00:00 AM","2019","40096","NYTIMES-USCENSUS"
"4/29/2021 12:00:00 AM","Cheshire County","New Hampshire","Northeast","New England","33005","42.92546","-72.248183 ","3509","33","19","0","4/28/2021 12:00:00 AM","2019","76085","NYTIMES-USCENSUS"
"4/29/2021 12:00:00 AM","Dubuque County","Iowa","Midwest","West North Central","19061","42.463481","-90.878771 ","13273","206","8","0","4/28/2021 12:00:00 AM","2019","97311","NYTIMES-USCENSUS"
"4/29/2021 12:00:00 AM","Haskell County","Oklahoma","South","West South Central","40061","35.232431","-95.109642 ","1250","16","0","0","4/28/2021 12:00:00 AM","2019","12627","NYTIMES-USCENSUS"
"4/29/2021 12:00:00 AM","Lafourche Parish","Louisiana","South","West South Central","22057","29.491992","-90.394849 ","9507","203","13","0","4/28/2021 12:00:00 AM","2019","97614","NYTIMES-USCENSUS"
"4/29/2021 12:00:00 AM","Clallam County","Washington","West","Pacific","53009","48.110903","-123.88986 ","1201","8","10","0","4/28/2021 12:00:00 AM","2019","77331","NYTIMES-USCENSUS"
"4/29/2021 12:00:00 AM","McIntosh County","North Dakota","Midwest","West North Central","38051","46.108682","-99.416487 ","339","7","0","0","4/28/2021 12:00:00 AM","2019","2497","NYTIMES-USCENSUS"
"4/29/2021 12:00:00 AM","Cameron Parish","Louisiana","South","West South Central","22023","29.871812","-93.164948 ","594","6","0","0","4/28/2021 12:00:00 AM","2019","6973","NYTIMES-USCENSUS"
"4/29/2021 12:00:00 AM","Pratt County","Kansas","Midwest","West North Central","20151","37.647594","-98.74012 ","816","25","0","0","4/28/2021 12:00:00 AM","2019","9164","NYTIMES-USCENSUS"
"4/29/2021 12:00:00 AM","Socorro County","New Mexico","West","Mountain","35053","33.991658","-106.939136 ","1310","56","2","0","4/28/2021 12:00:00 AM","2019","16637","NYTIMES-USCENSUS"
"4/29/2021 12:00:00 AM","Wasco County","Oregon","West","Pacific","41065","45.164536","-121.165069 ","1345","28","6","0","4/28/2021 12:00:00 AM","2019","26682","NYTIMES-USCENSUS"
"4/29/2021 12:00:00 AM","Blaine County","Idaho","West","Mountain","16013","43.394192","-113.955371 ","2364","18","2","0","4/28/2021 12:00:00 AM","2019","23021","NYTIMES-USCENSUS"
"4/29/2021 12:00:00 AM","Snyder County","Pennsylvania","Northeast","Middle Atlantic","42109","40.755407","-77.072929 ","3504","83","3","0","4/28/2021 12:00:00 AM","2019","40372","NYTIMES-USCENSUS"
"4/29/2021 12:00:00 AM","Wilkinson County","Mississippi","South","East South Central","28157","31.161091","-91.324617 ","664","30","0","0","4/28/2021 12:00:00 AM","2019","8630","NYTIMES-USCENSUS"
"4/29/2021 12:00:00 AM","Livingston County","Missouri","Midwest","West North Central","29117","39.778587","-93.548201 ","1653","40","2","0","4/28/2021 12:00:00 AM","2019","15227","NYTIMES-USCENSUS"
"4/29/2021 12:00:00 AM","Charles Mix County","South Dakota","Midwest","West North Central","46023","43.206185","-98.595143 ","1375","22","1","0","4/28/2021 12:00:00 AM","2019","9292","NYTIMES-USCENSUS"
"4/29/2021 12:00:00 AM","Van Zandt County","Texas","South","West South Central","48467","32.558787","-95.836906 ","4238","117","0","0","4/28/2021 12:00:00 AM","2019","56590","NYTIMES-USCENSUS"
"4/29/2021 12:00:00 AM","Emmet County","Iowa","Midwest","West North Central","19063","43.377984","-94.66937 ","1323","40","5","0","4/28/2021 12:00:00 AM","2019","9208","NYTIMES-USCENSUS"
"4/29/2021 12:00:00 AM","Valley County","Nebraska","Midwest","West North Central","31175","41.564094","-98.983484 ","326","3","0","0","4/28/2021 12:00:00 AM","2019","4158","NYTIMES-USCENSUS"
"4/29/2021 12:00:00 AM","Cochise County","Arizona","West","Mountain","04003","31.840129","-109.775163 ","11899","284","3","0","4/28/2021 12:00:00 AM","2019","125922","NYTIMES-USCENSUS"
"4/29/2021 12:00:00 AM","Guernsey County","Ohio","Midwest","East North Central","39059","40.056665","-81.497875 ","3124","50","8","0","4/28/2021 12:00:00 AM","2019","38875","NYTIMES-USCENSUS"
"4/29/2021 12:00:00 AM","Putnam County","Indiana","Midwest","East North Central","18133","39.665548","-86.853373 ","3564","60","2","0","4/28/2021 12:00:00 AM","2019","37576","NYTIMES-USCENSUS"
"4/29/2021 12:00:00 AM","Logan County","Colorado","West","Mountain","08075","40.728091","-103.090464 ","3929","67","2","0","4/28/2021 12:00:00 AM","2019","22409","NYTIMES-USCENSUS"
"4/29/2021 12:00:00 AM","Yalobusha County","Mississippi","South","East South Central","28161","34.030666","-89.703807 ","1616","36","2","0","4/28/2021 12:00:00 AM","2019","12108","NYTIMES-USCENSUS"
"4/29/2021 12:00:00 AM","Robertson County","Tennessee","South","East South Central","47147","36.527509","-86.869354 ","9714","131","2","1","4/28/2021 12:00:00 AM","2019","71813","NYTIMES-USCENSUS"
"4/29/2021 12:00:00 AM","Greenwood County","Kansas","Midwest","West North Central","20073","37.879347","-96.241732 ","589","11","0","0","4/28/2021 12:00:00 AM","2019","5982","NYTIMES-USCENSUS"
"4/29/2021 12:00:00 AM","Koochiching County","Minnesota","Midwest","West North Central","27071","48.245374","-93.782896 ","796","13","1","0","4/28/2021 12:00:00 AM","2019","12229","NYTIMES-USCENSUS"
"4/29/2021 12:00:00 AM","Monroe County","Florida","South","South Atlantic","12087","25.58612","-81.022603 ","6882","49","15","0","4/28/2021 12:00:00 AM","2019","74228","NYTIMES-USCENSUS"
"4/29/2021 12:00:00 AM","Dickinson County","Iowa","Midwest","West North Central","19059","43.389611","-95.196057 ","2462","43","4","0","4/28/2021 12:00:00 AM","2019","17258","NYTIMES-USCENSUS"
"4/29/2021 12:00:00 AM","Cass County","Minnesota","Midwest","West North Central","27021","46.951745","-94.333705 ","2609","26","13","0","4/28/2021 12:00:00 AM","2019","29779","NYTIMES-USCENSUS"
"4/29/2021 12:00:00 AM","Berkeley County","South Carolina","South","South Atlantic","45015","33.2077","-79.953655 ","17259","192","27","0","4/28/2021 12:00:00 AM","2019","227907","NYTIMES-USCENSUS"
"4/29/2021 12:00:00 AM","Kalamazoo County","Michigan","Midwest","East North Central","26077","42.246266","-85.532854 ","21445","355","72","2","4/28/2021 12:00:00 AM","2019","265066","NYTIMES-USCENSUS"
"4/29/2021 12:00:00 AM","Antrim County","Michigan","Midwest","East North Central","26009","45.005455","-85.175639 ","1836","27","9","0","4/28/2021 12:00:00 AM","2019","23324","NYTIMES-USCENSUS"
"4/29/2021 12:00:00 AM","Iberia Parish","Louisiana","South","West South Central","22045","29.606013","-91.842706 ","6964","153","25","0","4/28/2021 12:00:00 AM","2019","69830","NYTIMES-USCENSUS"
"4/29/2021 12:00:00 AM","Richland County","South Carolina","South","South Atlantic","45079","34.029095","-80.898037 ","45859","545","54","2","4/28/2021 12:00:00 AM","2019","415759","NYTIMES-USCENSUS"
"4/29/2021 12:00:00 AM","Murray County","Minnesota","Midwest","West North Central","27101","44.015594","-95.761581 ","1044","9","0","0","4/28/2021 12:00:00 AM","2019","8194","NYTIMES-USCENSUS"
"4/29/2021 12:00:00 AM","Chambers County","Texas","South","West South Central","48071","29.696374","-94.669445 ","4926","49","3","0","4/28/2021 12:00:00 AM","2019","43837","NYTIMES-USCENSUS"
"4/29/2021 12:00:00 AM","Ottawa County","Oklahoma","South","West South Central","40115","36.835764","-94.802681 ","3881","64","0","0","4/28/2021 12:00:00 AM","2019","31127","NYTIMES-USCENSUS"
"4/29/2021 12:00:00 AM","Perry County","Indiana","Midwest","East North Central","18123","38.081436","-86.62654 ","1832","38","3","0","4/28/2021 12:00:00 AM","2019","19169","NYTIMES-USCENSUS"
"4/29/2021 12:00:00 AM","Warren County","Georgia","South","South Atlantic","13301","33.419169","-82.688012 ","527","17","-1","0","4/28/2021 12:00:00 AM","2019","5254","NYTIMES-USCENSUS"
"4/29/2021 12:00:00 AM","Cross County","Arkansas","South","West South Central","05037","35.285692","-90.763984 ","1941","50","0","0","4/28/2021 12:00:00 AM","2019","16419","NYTIMES-USCENSUS"
"4/29/2021 12:00:00 AM","Mecklenburg County","Virginia","South","South Atlantic","51117","36.687256","-78.368959 ","2260","65","8","0","4/28/2021 12:00:00 AM","2019","30587","NYTIMES-USCENSUS"
"4/29/2021 12:00:00 AM","Tama County","Iowa","Midwest","West North Central","19171","42.074848","-92.529411 ","2083","71","1","0","4/28/2021 12:00:00 AM","2019","16854","NYTIMES-USCENSUS"
"4/29/2021 12:00:00 AM","Colquitt County","Georgia","South","South Atlantic","13071","31.189707","-83.769773 ","4680","117","4","1","4/28/2021 12:00:00 AM","2019","45600","NYTIMES-USCENSUS"
"4/29/2021 12:00:00 AM","Ritchie County","West Virginia","South","South Atlantic","54085","39.177112","-81.066317 ","678","11","3","0","4/28/2021 12:00:00 AM","2019","9554","NYTIMES-USCENSUS"
"4/29/2021 12:00:00 AM","Trigg County","Kentucky","South","East South Central","21221","36.807681","-87.858652 ","1270","14","0","0","4/28/2021 12:00:00 AM","2019","14651","NYTIMES-USCENSUS"
"4/29/2021 12:00:00 AM","Reynolds County","Missouri","Midwest","West North Central","29179","37.366464","-90.972282 ","473","4","0","0","4/28/2021 12:00:00 AM","2019","6270","NYTIMES-USCENSUS"
"4/29/2021 12:00:00 AM","Obion County","Tennessee","South","East South Central","47131","36.361892","-89.148078 ","4526","96","6","0","4/28/2021 12:00:00 AM","2019","30069","NYTIMES-USCENSUS"
"4/29/2021 12:00:00 AM","Glades County","Florida","South","South Atlantic","12043","26.95481","-81.19082 ","950","19","1","0","4/28/2021 12:00:00 AM","2019","13811","NYTIMES-USCENSUS"
"4/29/2021 12:00:00 AM","Manitowoc County","Wisconsin","Midwest","East North Central","55071","44.156137","-87.577352 ","8713","88","6","0","4/28/2021 12:00:00 AM","2019","78981","NYTIMES-USCENSUS"
"4/29/2021 12:00:00 AM","Shiawassee County","Michigan","Midwest","East North Central","26155","42.951545","-84.146352 ","5978","96","34","0","4/28/2021 12:00:00 AM","2019","68122","NYTIMES-USCENSUS"
"4/29/2021 12:00:00 AM","Franklin County","Indiana","Midwest","East North Central","18047","39.409762","-85.066964 ","1683","36","0","0","4/28/2021 12:00:00 AM","2019","22758","NYTIMES-USCENSUS"
"4/29/2021 12:00:00 AM","Crittenden County","Arkansas","South","West South Central","05035","35.197559","-90.30512 ","6013","96","6","0","4/28/2021 12:00:00 AM","2019","47955","NYTIMES-USCENSUS"
"4/29/2021 12:00:00 AM","Scotts Bluff County","Nebraska","Midwest","West North Central","31157","41.850331","-103.701549 ","4639","95","0","0","4/28/2021 12:00:00 AM","2019","35618","NYTIMES-USCENSUS"
"4/29/2021 12:00:00 AM","St. Francis County","Arkansas","South","West South Central","05123","35.022838","-90.751506 ","3577","42","4","0","4/28/2021 12:00:00 AM","2019","24994","NYTIMES-USCENSUS"
"4/29/2021 12:00:00 AM","Lincoln County","Tennessee","South","East South Central","47103","35.142784","-86.593403 ","4341","62","0","0","4/28/2021 12:00:00 AM","2019","34366","NYTIMES-USCENSUS"
"4/29/2021 12:00:00 AM","Butler County","Kansas","Midwest","West North Central","20015","37.773649","-96.83884 ","7476","86","0","0","4/28/2021 12:00:00 AM","2019","66911","NYTIMES-USCENSUS"
"4/29/2021 12:00:00 AM","Franklin County","Vermont","Northeast","New England","50011","44.858964","-72.909402 ","1923","38","2","0","4/28/2021 12:00:00 AM","2019","49402","NYTIMES-USCENSUS"
"4/29/2021 12:00:00 AM","Iosco County","Michigan","Midwest","East North Central","26069","44.386912","-83.380141 ","1844","69","5","0","4/28/2021 12:00:00 AM","2019","25127","NYTIMES-USCENSUS"
"4/29/2021 12:00:00 AM","Beaufort County","South Carolina","South","South Atlantic","45013","32.358112","-80.689422 ","16653","203","12","0","4/28/2021 12:00:00 AM","2019","192122","NYTIMES-USCENSUS"
"4/29/2021 12:00:00 AM","Heard County","Georgia","South","South Atlantic","13149","33.291347","-85.137886 ","861","19","1","0","4/28/2021 12:00:00 AM","2019","11923","NYTIMES-USCENSUS"
"4/29/2021 12:00:00 AM","Williamson County","Illinois","Midwest","East North Central","17199","37.730353","-88.930018 ","7307","138","12","0","4/28/2021 12:00:00 AM","2019","66597","NYTIMES-USCENSUS"
"4/29/2021 12:00:00 AM","Johnson County","Georgia","South","South Atlantic","13167","32.694584","-82.66397 ","1121","49","1","0","4/28/2021 12:00:00 AM","2019","9643","NYTIMES-USCENSUS"
"4/29/2021 12:00:00 AM","Ballard County","Kentucky","South","East South Central","21007","37.051323","-89.010367 ","393","8","1","0","4/28/2021 12:00:00 AM","2019","7888","NYTIMES-USCENSUS"
"4/29/2021 12:00:00 AM","Marshall County","Minnesota","Midwest","West North Central","27089","48.362728","-96.357761 ","871","17","3","0","4/28/2021 12:00:00 AM","2019","9336","NYTIMES-USCENSUS"
"4/29/2021 12:00:00 AM","Appanoose County","Iowa","Midwest","West North Central","19007","40.744249","-92.873065 ","1275","47","1","0","4/28/2021 12:00:00 AM","2019","12426","NYTIMES-USCENSUS"
"4/29/2021 12:00:00 AM","Johnson County","Illinois","Midwest","East North Central","17087","37.460709","-88.882131 ","1411","20","2","0","4/28/2021 12:00:00 AM","2019","12417","NYTIMES-USCENSUS"
"4/29/2021 12:00:00 AM","Rock County","Minnesota","Midwest","West North Central","27133","43.669587","-96.263238 ","1258","19","5","0","4/28/2021 12:00:00 AM","2019","9315","NYTIMES-USCENSUS"
"4/29/2021 12:00:00 AM","Jones County","Mississippi","South","East South Central","28067","31.616601","-89.168532 ","8350","163","2","0","4/28/2021 12:00:00 AM","2019","68098","NYTIMES-USCENSUS"
"4/29/2021 12:00:00 AM","San Jacinto County","Texas","South","West South Central","48407","30.574388","-95.163136 ","1263","36","5","0","4/28/2021 12:00:00 AM","2019","28859","NYTIMES-USCENSUS"
"4/29/2021 12:00:00 AM","Wilcox County","Alabama","South","East South Central","01131","31.990082","-87.304935 ","1262","27","0","0","4/28/2021 12:00:00 AM","2019","10373","NYTIMES-USCENSUS"
"4/29/2021 12:00:00 AM","Dent County","Missouri","Midwest","West North Central","29065","37.603072","-91.489717 ","950","17","0","0","4/28/2021 12:00:00 AM","2019","15573","NYTIMES-USCENSUS"
"4/29/2021 12:00:00 AM","Fillmore County","Minnesota","Midwest","West North Central","27045","43.679187","-92.093937 ","1530","9","1","0","4/28/2021 12:00:00 AM","2019","21067","NYTIMES-USCENSUS"
"4/29/2021 12:00:00 AM","Bossier Parish","Louisiana","South","West South Central","22015","32.698481","-93.626561 ","13723","297","9","1","4/28/2021 12:00:00 AM","2019","127039","NYTIMES-USCENSUS"
"4/29/2021 12:00:00 AM","Johnson County","Texas","South","West South Central","48251","32.379821","-97.364959 ","19690","366","19","0","4/28/2021 12:00:00 AM","2019","175817","NYTIMES-USCENSUS"
"4/29/2021 12:00:00 AM","McPherson County","Kansas","Midwest","West North Central","20113","38.395812","-97.647489 ","3305","88","2","0","4/28/2021 12:00:00 AM","2019","28542","NYTIMES-USCENSUS"
"4/29/2021 12:00:00 AM","La Paz County","Arizona","West","Mountain","04012","33.72761","-114.038806 ","2459","80","3","0","4/28/2021 12:00:00 AM","2019","21108","NYTIMES-USCENSUS"
"4/29/2021 12:00:00 AM","Fulton County","Illinois","Midwest","East North Central","17057","40.46524","-90.202269 ","3767","58","11","0","4/28/2021 12:00:00 AM","2019","34340","NYTIMES-USCENSUS"
"4/29/2021 12:00:00 AM","Patrick County","Virginia","South","South Atlantic","51141","36.667138","-80.286413 ","1337","43","4","0","4/28/2021 12:00:00 AM","2019","17608","NYTIMES-USCENSUS"
"4/29/2021 12:00:00 AM","Loudoun County","Virginia","South","South Atlantic","51107","39.0812","-77.638898 ","27259","274","57","0","4/28/2021 12:00:00 AM","2019","413538","NYTIMES-USCENSUS"
"4/29/2021 12:00:00 AM","Pushmataha County","Oklahoma","South","West South Central","40127","34.377899","-95.408082 ","1012","20","0","0","4/28/2021 12:00:00 AM","2019","11096","NYTIMES-USCENSUS"
"4/29/2021 12:00:00 AM","Jackson County","Tennessee","South","East South Central","47087","36.35425","-85.674128 ","1315","35","0","0","4/28/2021 12:00:00 AM","2019","11786","NYTIMES-USCENSUS"
"4/29/2021 12:00:00 AM","Fluvanna County","Virginia","South","South Atlantic","51065","37.830584","-78.283494 ","1784","17","106","0","4/28/2021 12:00:00 AM","2019","27270","NYTIMES-USCENSUS"
"4/29/2021 12:00:00 AM","Limestone County","Alabama","South","East South Central","01083","34.810239","-86.981399 ","9914","150","7","0","4/28/2021 12:00:00 AM","2019","98915","NYTIMES-USCENSUS"
"4/29/2021 12:00:00 AM","Vermillion County","Indiana","Midwest","East North Central","18165","39.854045","-87.462071 ","1674","43","0","0","4/28/2021 12:00:00 AM","2019","15498","NYTIMES-USCENSUS"
"4/29/2021 12:00:00 AM","Somerset County","Maine","Northeast","New England","23025","45.503646","-69.95611 ","1860","29","9","0","4/28/2021 12:00:00 AM","2019","50484","NYTIMES-USCENSUS"
"4/29/2021 12:00:00 AM","Chesterfield County","Virginia","South","South Atlantic","51041","37.378434","-77.585847 ","27138","419","58","3","4/28/2021 12:00:00 AM","2019","352802","NYTIMES-USCENSUS"
"4/29/2021 12:00:00 AM","Bolivar County","Mississippi","South","East South Central","28011","33.799139","-90.88412 ","4791","131","1","0","4/28/2021 12:00:00 AM","2019","30628","NYTIMES-USCENSUS"
"4/29/2021 12:00:00 AM","Phillips County","Colorado","West","Mountain","08095","40.594712","-102.345105 ","373","13","5","0","4/28/2021 12:00:00 AM","2019","4265","NYTIMES-USCENSUS"
"4/29/2021 12:00:00 AM","Potter County","Texas","South","West South Central","48375","35.398675","-101.893804 ","17305","445","8","1","4/28/2021 12:00:00 AM","2019","117415","NYTIMES-USCENSUS"
"4/29/2021 12:00:00 AM","Zavala County","Texas","South","West South Central","48507","28.864652","-99.75983 ","1883","43","0","0","4/28/2021 12:00:00 AM","2019","11840","NYTIMES-USCENSUS"
"4/29/2021 12:00:00 AM","Jefferson County","Kentucky","South","East South Central","21111","38.189532","-85.657624 ","80733","1177","207","0","4/28/2021 12:00:00 AM","2019","766757","NYTIMES-USCENSUS"
"4/29/2021 12:00:00 AM","Grand Isle County","Vermont","Northeast","New England","50013","44.795742","-73.295082 ","206","2","1","0","4/28/2021 12:00:00 AM","2019","7235","NYTIMES-USCENSUS"
"4/29/2021 12:00:00 AM","Lamoille County","Vermont","Northeast","New England","50015","44.611192","-72.632659 ","839","3","4","0","4/28/2021 12:00:00 AM","2019","25362","NYTIMES-USCENSUS"
"4/29/2021 12:00:00 AM","Jeff Davis County","Georgia","South","South Atlantic","13161","31.811615","-82.636825 ","1886","44","2","1","4/28/2021 12:00:00 AM","2019","15115","NYTIMES-USCENSUS"
"4/29/2021 12:00:00 AM","Union County","Tennessee","South","East South Central","47173","36.28414","-83.836088 ","1889","34","4","0","4/28/2021 12:00:00 AM","2019","19972","NYTIMES-USCENSUS"
"4/29/2021 12:00:00 AM","Kent County","Delaware","South","South Atlantic","10001","39.097088","-75.502982 ","17270","333","65","0","4/28/2021 12:00:00 AM","2019","180786","NYTIMES-USCENSUS"
"4/29/2021 12:00:00 AM","Park County","Montana","West","Mountain","30067","45.463081","-110.53493 ","1281","19","5","0","4/28/2021 12:00:00 AM","2019","16606","NYTIMES-USCENSUS"
"4/29/2021 12:00:00 AM","Gates County","North Carolina","South","South Atlantic","37073","36.442135","-76.702355 ","729","13","2","0","4/28/2021 12:00:00 AM","2019","11562","NYTIMES-USCENSUS"
"4/29/2021 12:00:00 AM","Sumter County","Florida","South","South Atlantic","12119","28.715444","-82.069952 ","9249","275","15","0","4/28/2021 12:00:00 AM","2019","132420","NYTIMES-USCENSUS"
"4/29/2021 12:00:00 AM","Sarpy County","Nebraska","Midwest","West North Central","31153","41.115064","-96.109125 ","22454","129","29","0","4/28/2021 12:00:00 AM","2019","187196","NYTIMES-USCENSUS"
"4/29/2021 12:00:00 AM","Preston County","West Virginia","South","South Atlantic","54077","39.46903","-79.668865 ","2842","46","5","0","4/28/2021 12:00:00 AM","2019","33432","NYTIMES-USCENSUS"
"4/29/2021 12:00:00 AM","Jackson County","Wisconsin","Midwest","East North Central","55053","44.32459","-90.79951 ","2679","28","3","0","4/28/2021 12:00:00 AM","2019","20643","NYTIMES-USCENSUS"
"4/29/2021 12:00:00 AM","Calloway County","Kentucky","South","East South Central","21035","36.620978","-88.274086 ","3501","51","3","0","4/28/2021 12:00:00 AM","2019","39001","NYTIMES-USCENSUS"
"4/29/2021 12:00:00 AM","Sequoyah County","Oklahoma","South","West South Central","40135","35.502435","-94.750757 ","4098","50","0","0","4/28/2021 12:00:00 AM","2019","41569","NYTIMES-USCENSUS"
"4/29/2021 12:00:00 AM","Morgan County","Alabama","South","East South Central","01103","34.454484","-86.846402 ","14218","277","9","0","4/28/2021 12:00:00 AM","2019","119679","NYTIMES-USCENSUS"
"4/29/2021 12:00:00 AM","Wirt County","West Virginia","South","South Atlantic","54105","39.020034","-81.382975 ","389","3","1","0","4/28/2021 12:00:00 AM","2019","5821","NYTIMES-USCENSUS"
"4/29/2021 12:00:00 AM","Lee County","Iowa","Midwest","West North Central","19111","40.647588","-91.477157 ","3709","55","5","0","4/28/2021 12:00:00 AM","2019","33657","NYTIMES-USCENSUS"
"4/29/2021 12:00:00 AM","Crisp County","Georgia","South","South Atlantic","13081","31.920268","-83.75653 ","2076","79","1","1","4/28/2021 12:00:00 AM","2019","22372","NYTIMES-USCENSUS"
"4/29/2021 12:00:00 AM","Madison County","Virginia","South","South Atlantic","51113","38.412059","-78.276961 ","604","16","1","0","4/28/2021 12:00:00 AM","2019","13261","NYTIMES-USCENSUS"
"4/29/2021 12:00:00 AM","Turner County","Georgia","South","South Atlantic","13287","31.7248","-83.620319 ","1015","39","1","0","4/28/2021 12:00:00 AM","2019","7985","NYTIMES-USCENSUS"
"4/29/2021 12:00:00 AM","Jackson Parish","Louisiana","South","West South Central","22049","32.30429","-92.5617 ","1900","50","0","0","4/28/2021 12:00:00 AM","2019","15744","NYTIMES-USCENSUS"
"4/29/2021 12:00:00 AM","Accomack County","Virginia","South","South Atlantic","51001","37.765944","-75.757807 ","2803","40","5","0","4/28/2021 12:00:00 AM","2019","32316","NYTIMES-USCENSUS"
"4/29/2021 12:00:00 AM","Russell County","Virginia","South","South Atlantic","51167","36.93342","-82.095934 ","2237","36","0","0","4/28/2021 12:00:00 AM","2019","26586","NYTIMES-USCENSUS"
"4/29/2021 12:00:00 AM","Lake County","South Dakota","Midwest","West North Central","46079","44.02845","-97.123223 ","1362","18","0","0","4/28/2021 12:00:00 AM","2019","12797","NYTIMES-USCENSUS"
"4/29/2021 12:00:00 AM","Laurens County","Georgia","South","South Atlantic","13175","32.39322","-82.926317 ","5577","167","3","0","4/28/2021 12:00:00 AM","2019","47546","NYTIMES-USCENSUS"
"4/29/2021 12:00:00 AM","Yazoo County","Mississippi","South","East South Central","28163","32.765675","-90.387928 ","3088","69","3","0","4/28/2021 12:00:00 AM","2019","29690","NYTIMES-USCENSUS"
"4/29/2021 12:00:00 AM","Northwest Arctic Borough","Alaska","West","Pacific","02188","67.005066","-160.021086 ","612","2","0","0","4/28/2021 12:00:00 AM","2019","7621","NYTIMES-USCENSUS"
"4/29/2021 12:00:00 AM","Dunn County","Wisconsin","Midwest","East North Central","55033","44.947751","-91.897645 ","5008","32","2","0","4/28/2021 12:00:00 AM","2019","45368","NYTIMES-USCENSUS"
"4/29/2021 12:00:00 AM","Van Wert County","Ohio","Midwest","East North Central","39161","40.85552","-84.585775 ","2415","63","3","0","4/28/2021 12:00:00 AM","2019","28275","NYTIMES-USCENSUS"
"4/29/2021 12:00:00 AM","Jo Daviess County","Illinois","Midwest","East North Central","17085","42.362391","-90.21147 ","1791","27","2","0","4/28/2021 12:00:00 AM","2019","21235","NYTIMES-USCENSUS"
"4/29/2021 12:00:00 AM","Madison County","Montana","West","Mountain","30057","45.32529","-111.913791 ","779","8","1","0","4/28/2021 12:00:00 AM","2019","8600","NYTIMES-USCENSUS"
"4/29/2021 12:00:00 AM","Cecil County","Maryland","South","South Atlantic","24015","39.562354","-75.941585 ","6007","129","14","0","4/28/2021 12:00:00 AM","2019","102855","NYTIMES-USCENSUS"
"4/29/2021 12:00:00 AM","Jefferson County","Georgia","South","South Atlantic","13163","33.058176","-82.420004 ","1944","66","1","0","4/28/2021 12:00:00 AM","2019","15362","NYTIMES-USCENSUS"
"4/29/2021 12:00:00 AM","Lafayette County","Arkansas","South","West South Central","05073","33.240629","-93.611514 ","546","9","0","0","4/28/2021 12:00:00 AM","2019","6624","NYTIMES-USCENSUS"
"4/29/2021 12:00:00 AM","Garfield County","Nebraska","Midwest","West North Central","31071","41.906868","-98.951231 ","148","3","1","0","4/28/2021 12:00:00 AM","2019","1969","NYTIMES-USCENSUS"
"4/29/2021 12:00:00 AM","Dickson County","Tennessee","South","East South Central","47043","36.145533","-87.364155 ","6811","109","12","0","4/28/2021 12:00:00 AM","2019","53948","NYTIMES-USCENSUS"
"4/29/2021 12:00:00 AM","Maui County","Hawaii","West","Pacific","15009","20.855931","-156.60155 ","4276","51","26","0","4/28/2021 12:00:00 AM","2019","167417","NYTIMES-USCENSUS"
"4/29/2021 12:00:00 AM","Oconee County","South Carolina","South","South Atlantic","45073","34.748766","-83.06154 ","9432","133","36","0","4/28/2021 12:00:00 AM","2019","79546","NYTIMES-USCENSUS"
"4/29/2021 12:00:00 AM","Davidson County","Tennessee","South","East South Central","47037","36.169129","-86.78479 ","98121","931","199","2","4/28/2021 12:00:00 AM","2019","694144","NYTIMES-USCENSUS"
"4/29/2021 12:00:00 AM","Lumpkin County","Georgia","South","South Atlantic","13187","34.56814","-83.998925 ","2962","70","4","0","4/28/2021 12:00:00 AM","2019","33610","NYTIMES-USCENSUS"
"4/29/2021 12:00:00 AM","Franklin County","Alabama","South","East South Central","01059","34.441989","-87.842814 ","4230","82","2","0","4/28/2021 12:00:00 AM","2019","31362","NYTIMES-USCENSUS"
"4/29/2021 12:00:00 AM","Hot Springs County","Wyoming","West","Mountain","56017","43.720209","-108.435076 ","368","3","1","0","4/28/2021 12:00:00 AM","2019","4413","NYTIMES-USCENSUS"
"4/29/2021 12:00:00 AM","Fulton County","Arkansas","South","West South Central","05049","36.381322","-91.819285 ","1121","47","2","0","4/28/2021 12:00:00 AM","2019","12477","NYTIMES-USCENSUS"
"4/29/2021 12:00:00 AM","Anderson County","Texas","South","West South Central","48001","31.841261","-95.661727 ","6074","118","-3","0","4/28/2021 12:00:00 AM","2019","57735","NYTIMES-USCENSUS"
"4/29/2021 12:00:00 AM","Calhoun County","West Virginia","South","South Atlantic","54013","38.844159","-81.115478 ","283","0","2","0","4/28/2021 12:00:00 AM","2019","7109","NYTIMES-USCENSUS"
"4/29/2021 12:00:00 AM","Bartow County","Georgia","South","South Atlantic","13015","34.240917","-84.838188 ","14658","223","16","0","4/28/2021 12:00:00 AM","2019","107738","NYTIMES-USCENSUS"
"4/29/2021 12:00:00 AM","Plymouth County","Massachusetts","Northeast","New England","25023","41.987196","-70.741942 ","47699","1409","107","2","4/28/2021 12:00:00 AM","2019","521202","NYTIMES-USCENSUS"
"4/29/2021 12:00:00 AM","Dickinson County","Michigan","Midwest","East North Central","26043","46.012833","-87.866139 ","2665","74","7","1","4/28/2021 12:00:00 AM","2019","25239","NYTIMES-USCENSUS"
"4/29/2021 12:00:00 AM","Furnas County","Nebraska","Midwest","West North Central","31065","40.191865","-99.909663 ","503","5","0","0","4/28/2021 12:00:00 AM","2019","4676","NYTIMES-USCENSUS"
"4/29/2021 12:00:00 AM","Coleman County","Texas","South","West South Central","48083","31.914205","-99.346622 ","748","32","1","0","4/28/2021 12:00:00 AM","2019","8175","NYTIMES-USCENSUS"
"4/29/2021 12:00:00 AM","Lincoln County","Nevada","West","Mountain","32017","37.634605","-114.863037 ","361","3","0","0","4/28/2021 12:00:00 AM","2019","5183","NYTIMES-USCENSUS"
"4/29/2021 12:00:00 AM","Harrison County","Mississippi","South","East South Central","28047","30.416536","-89.083376 ","17719","306","9","0","4/28/2021 12:00:00 AM","2019","208080","NYTIMES-USCENSUS"
"4/29/2021 12:00:00 AM","Panola County","Mississippi","South","East South Central","28107","34.365205","-89.963065 ","4527","103","7","0","4/28/2021 12:00:00 AM","2019","34192","NYTIMES-USCENSUS"
"4/29/2021 12:00:00 AM","Johnson County","Arkansas","South","West South Central","05071","35.573359","-93.466322 ","2905","37","1","0","4/28/2021 12:00:00 AM","2019","26578","NYTIMES-USCENSUS"
"4/29/2021 12:00:00 AM","Grand Forks County","North Dakota","Midwest","West North Central","38035","47.926003","-97.450851 ","10498","77","7","0","4/28/2021 12:00:00 AM","2019","69451","NYTIMES-USCENSUS"
"4/29/2021 12:00:00 AM","Lake County","Michigan","Midwest","East North Central","26085","43.995187","-85.8114 ","578","14","5","0","4/28/2021 12:00:00 AM","2019","11853","NYTIMES-USCENSUS"
"4/29/2021 12:00:00 AM","Transylvania County","North Carolina","South","South Atlantic","37175","35.210103","-82.816666 ","2306","32","11","0","4/28/2021 12:00:00 AM","2019","34385","NYTIMES-USCENSUS"
"4/29/2021 12:00:00 AM","Washington County","Wisconsin","Midwest","East North Central","55131","43.391156","-88.232917 ","16561","160","18","0","4/28/2021 12:00:00 AM","2019","136034","NYTIMES-USCENSUS"
"4/29/2021 12:00:00 AM","Finney County","Kansas","Midwest","West North Central","20055","38.049808","-100.739967 ","6048","71","3","0","4/28/2021 12:00:00 AM","2019","36467","NYTIMES-USCENSUS"
"4/29/2021 12:00:00 AM","Spencer County","Indiana","Midwest","East North Central","18147","38.009697","-87.010375 ","2295","31","2","0","4/28/2021 12:00:00 AM","2019","20277","NYTIMES-USCENSUS"
"4/29/2021 12:00:00 AM","Columbia County","Oregon","West","Pacific","41009","45.941932","-123.081079 ","1638","26","21","0","4/28/2021 12:00:00 AM","2019","52354","NYTIMES-USCENSUS"
"4/29/2021 12:00:00 AM","Morgan County","Missouri","Midwest","West North Central","29141","38.420806","-92.874835 ","1707","43","2","0","4/28/2021 12:00:00 AM","2019","20627","NYTIMES-USCENSUS"
"4/29/2021 12:00:00 AM","Shelby County","Iowa","Midwest","West North Central","19165","41.679014","-95.308917 ","1296","37","1","0","4/28/2021 12:00:00 AM","2019","11454","NYTIMES-USCENSUS"
"4/29/2021 12:00:00 AM","Oneida County","Wisconsin","Midwest","East North Central","55085","45.716176","-89.534533 ","3774","75","6","0","4/28/2021 12:00:00 AM","2019","35595","NYTIMES-USCENSUS"
"4/29/2021 12:00:00 AM","Winkler County","Texas","South","West South Central","48495","31.832862","-103.054925 ","767","21","0","0","4/28/2021 12:00:00 AM","2019","8010","NYTIMES-USCENSUS"
"4/29/2021 12:00:00 AM","Bradford County","Florida","South","South Atlantic","12007","29.952386","-82.166698 ","2994","56","4","0","4/28/2021 12:00:00 AM","2019","28201","NYTIMES-USCENSUS"
"4/29/2021 12:00:00 AM","Catawba County","North Carolina","South","South Atlantic","37035","35.661883","-81.214906 ","18889","298","16","0","4/28/2021 12:00:00 AM","2019","159551","NYTIMES-USCENSUS"
"4/29/2021 12:00:00 AM","Kossuth County","Iowa","Midwest","West North Central","19109","43.212356","-94.213965 ","2144","64","1","0","4/28/2021 12:00:00 AM","2019","14813","NYTIMES-USCENSUS"
"4/29/2021 12:00:00 AM","Perry County","Alabama","South","East South Central","01105","32.639005","-87.293827 ","1075","26","-1","0","4/28/2021 12:00:00 AM","2019","8923","NYTIMES-USCENSUS"
"4/29/2021 12:00:00 AM","Marion County","Missouri","Midwest","West North Central","29127","39.807538","-91.635379 ","3603","45","6","0","4/28/2021 12:00:00 AM","2019","28530","NYTIMES-USCENSUS"
"4/29/2021 12:00:00 AM","Union County","Kentucky","South","East South Central","21225","37.658029","-87.95165 ","1331","15","0","0","4/28/2021 12:00:00 AM","2019","14381","NYTIMES-USCENSUS"
"4/29/2021 12:00:00 AM","Washington County","Maine","Northeast","New England","23029","44.967009","-67.609354 ","830","15","4","0","4/28/2021 12:00:00 AM","2019","31379","NYTIMES-USCENSUS"
"4/29/2021 12:00:00 AM","Tuscarawas County","Ohio","Midwest","East North Central","39157","40.44749","-81.471105 ","8429","241","2","0","4/28/2021 12:00:00 AM","2019","91987","NYTIMES-USCENSUS"
"4/29/2021 12:00:00 AM","Monroe County","Georgia","South","South Atlantic","13207","33.017404","-83.922837 ","2630","100","3","0","4/28/2021 12:00:00 AM","2019","27578","NYTIMES-USCENSUS"
"4/29/2021 12:00:00 AM","De Soto Parish","Louisiana","South","West South Central","22031","32.059248","-93.740797 ","2762","78","8","0","4/28/2021 12:00:00 AM","2019","27463","NYTIMES-USCENSUS"
"4/29/2021 12:00:00 AM","Seminole County","Georgia","South","South Atlantic","13253","30.93396","-84.867685 ","954","18","0","0","4/28/2021 12:00:00 AM","2019","8090","NYTIMES-USCENSUS"
"4/29/2021 12:00:00 AM","Marshall County","Alabama","South","East South Central","01095","34.309564","-86.321668 ","12129","221","17","0","4/28/2021 12:00:00 AM","2019","96774","NYTIMES-USCENSUS"
"4/29/2021 12:00:00 AM","Jasper County","Illinois","Midwest","East North Central","17079","39.004886","-88.150725 ","1148","19","5","0","4/28/2021 12:00:00 AM","2019","9610","NYTIMES-USCENSUS"
"4/29/2021 12:00:00 AM","Berkeley County","West Virginia","South","South Atlantic","54003","39.447938","-78.037754 ","12016","120","38","0","4/28/2021 12:00:00 AM","2019","119171","NYTIMES-USCENSUS"
