"monitor_date","county","state_name","region","subregion","fips","latitude","longitude","case_count_to_date","death_count_to_date","case_count","death_count","previous_monitor_date","population_year","population","source"
"12/30/2021 12:00:00 AM","Pacific County","Washington","West","Pacific","53049","46.556587","-123.782419 ","2042","39","17","0","12/29/2021 12:00:00 AM","2019","22471","NYTIMES-USCENSUS"
"12/30/2021 12:00:00 AM","Lipscomb County","Texas","South","West South Central","48295","36.2802","-100.272683 ","496","12","5","0","12/29/2021 12:00:00 AM","2019","3233","NYTIMES-USCENSUS"
"12/30/2021 12:00:00 AM","Lafayette County","Wisconsin","Midwest","East North Central","55065","42.655578","-90.130292 ","2686","18","11","0","12/29/2021 12:00:00 AM","2019","16665","NYTIMES-USCENSUS"
"12/30/2021 12:00:00 AM","Little River County","Arkansas","South","West South Central","05081","33.701941","-94.236287 ","2183","84","10","0","12/29/2021 12:00:00 AM","2019","12259","NYTIMES-USCENSUS"
"12/30/2021 12:00:00 AM","Kenai Peninsula Borough","Alaska","West","Pacific","02122","60.360766","-152.05264 ","12176","78","0","0","12/29/2021 12:00:00 AM","2019","58708","NYTIMES-USCENSUS"
"12/30/2021 12:00:00 AM","Millard County","Utah","West","Mountain","49027","38.956744","-113.133092 ","2448","31","0","0","12/29/2021 12:00:00 AM","2019","13188","NYTIMES-USCENSUS"
"12/30/2021 12:00:00 AM","Cedar County","Missouri","Midwest","West North Central","29039","37.733655","-93.850014 ","2106","42","8","0","12/29/2021 12:00:00 AM","2019","14349","NYTIMES-USCENSUS"
"12/30/2021 12:00:00 AM","Shelby County","Indiana","Midwest","East North Central","18145","39.524135","-85.792174 ","10620","156","98","0","12/29/2021 12:00:00 AM","2019","44729","NYTIMES-USCENSUS"
"12/30/2021 12:00:00 AM","Scioto County","Ohio","Midwest","East North Central","39145","38.814889","-82.998675 ","13827","194","86","0","12/29/2021 12:00:00 AM","2019","75314","NYTIMES-USCENSUS"
"12/30/2021 12:00:00 AM","Hawaii County","Hawaii","West","Pacific","15001","19.597764","-155.502443 ","12861","152","242","0","12/29/2021 12:00:00 AM","2019","201513","NYTIMES-USCENSUS"
"12/30/2021 12:00:00 AM","Stevens County","Minnesota","Midwest","West North Central","27149","45.593461","-95.992315 ","1885","11","5","0","12/29/2021 12:00:00 AM","2019","9805","NYTIMES-USCENSUS"
"12/30/2021 12:00:00 AM","Donley County","Texas","South","West South Central","48129","34.955036","-100.815846 ","729","18","2","0","12/29/2021 12:00:00 AM","2019","3278","NYTIMES-USCENSUS"
"12/30/2021 12:00:00 AM","Jackson County","South Dakota","Midwest","West North Central","46071","43.677506","-101.626323 ","437","19","1","0","12/29/2021 12:00:00 AM","2019","3344","NYTIMES-USCENSUS"
"12/30/2021 12:00:00 AM","Randolph County","North Carolina","South","South Atlantic","37151","35.709915","-79.806215 ","24478","342","195","1","12/29/2021 12:00:00 AM","2019","143667","NYTIMES-USCENSUS"
"12/30/2021 12:00:00 AM","Lincoln County","Wyoming","West","Mountain","56023","42.229993","-110.682961 ","3087","27","12","0","12/29/2021 12:00:00 AM","2019","19830","NYTIMES-USCENSUS"
"12/30/2021 12:00:00 AM","Long County","Georgia","South","South Atlantic","13183","31.749563","-81.74287 ","1826","29","8","0","12/29/2021 12:00:00 AM","2019","19559","NYTIMES-USCENSUS"
"12/30/2021 12:00:00 AM","Childress County","Texas","South","West South Central","48075","34.524624","-100.208166 ","1869","23","9","0","12/29/2021 12:00:00 AM","2019","7306","NYTIMES-USCENSUS"
"12/30/2021 12:00:00 AM","Cache County","Utah","West","Mountain","49005","41.734117","-111.745399 ","25077","84","0","0","12/29/2021 12:00:00 AM","2019","128289","NYTIMES-USCENSUS"
"12/30/2021 12:00:00 AM","Lonoke County","Arkansas","South","West South Central","05085","34.755114","-91.894132 ","13266","181","109","0","12/29/2021 12:00:00 AM","2019","73309","NYTIMES-USCENSUS"
"12/30/2021 12:00:00 AM","Franklin County","Mississippi","South","East South Central","28037","31.477773","-90.895457 ","1313","32","7","0","12/29/2021 12:00:00 AM","2019","7713","NYTIMES-USCENSUS"
"12/30/2021 12:00:00 AM","Dallas County","Texas","South","West South Central","48113","32.766987","-96.778424 ","436400","5765","1831","6","12/29/2021 12:00:00 AM","2019","2635516","NYTIMES-USCENSUS"
"12/30/2021 12:00:00 AM","Stanley County","South Dakota","Midwest","West North Central","46117","44.413984","-100.747822 ","521","3","0","0","12/29/2021 12:00:00 AM","2019","3098","NYTIMES-USCENSUS"
"12/30/2021 12:00:00 AM","Duval County","Florida","South","South Atlantic","12031","30.335245","-81.648113 ","168518","2889","0","0","12/29/2021 12:00:00 AM","2019","957755","NYTIMES-USCENSUS"
"12/30/2021 12:00:00 AM","Fluvanna County","Virginia","South","South Atlantic","51065","37.830584","-78.283494 ","3291","32","47","0","12/29/2021 12:00:00 AM","2019","27270","NYTIMES-USCENSUS"
"12/30/2021 12:00:00 AM","Dodge County","Georgia","South","South Atlantic","13091","32.164369","-83.167866 ","3786","136","26","0","12/29/2021 12:00:00 AM","2019","20605","NYTIMES-USCENSUS"
"12/30/2021 12:00:00 AM","Canadian County","Oklahoma","South","West South Central","40017","35.543354","-97.979889 ","25428","312","0","0","12/29/2021 12:00:00 AM","2019","148306","NYTIMES-USCENSUS"
"12/30/2021 12:00:00 AM","York County","Pennsylvania","Northeast","Middle Atlantic","42133","39.921751","-76.728889 ","84916","1195","795","7","12/29/2021 12:00:00 AM","2019","449058","NYTIMES-USCENSUS"
"12/30/2021 12:00:00 AM","Pasquotank County","North Carolina","South","South Atlantic","37139","36.265199","-76.260691 ","5830","110","45","0","12/29/2021 12:00:00 AM","2019","39824","NYTIMES-USCENSUS"
"12/30/2021 12:00:00 AM","Crawford County","Michigan","Midwest","East North Central","26039","44.680175","-84.611343 ","1932","21","0","0","12/29/2021 12:00:00 AM","2019","14029","NYTIMES-USCENSUS"
"12/30/2021 12:00:00 AM","Kandiyohi County","Minnesota","Midwest","West North Central","27067","45.152714","-95.004981 ","10530","118","16","1","12/29/2021 12:00:00 AM","2019","43199","NYTIMES-USCENSUS"
"12/30/2021 12:00:00 AM","Grayson County","Kentucky","South","East South Central","21085","37.458577","-86.344011 ","5379","106","0","0","12/29/2021 12:00:00 AM","2019","26427","NYTIMES-USCENSUS"
"12/30/2021 12:00:00 AM","Van Wert County","Ohio","Midwest","East North Central","39161","40.85552","-84.585775 ","5077","109","14","0","12/29/2021 12:00:00 AM","2019","28275","NYTIMES-USCENSUS"
"12/30/2021 12:00:00 AM","Ozaukee County","Wisconsin","Midwest","East North Central","55089","43.501845","-87.847567 ","15771","131","186","0","12/29/2021 12:00:00 AM","2019","89221","NYTIMES-USCENSUS"
"12/30/2021 12:00:00 AM","Nantucket County","Massachusetts","Northeast","New England","25019","41.293392","-70.102164 ","2307","0","38","0","12/29/2021 12:00:00 AM","2019","11399","NYTIMES-USCENSUS"
"12/30/2021 12:00:00 AM","Strafford County","New Hampshire","Northeast","New England","33017","43.293272","-71.035589 ","19217","165","170","1","12/29/2021 12:00:00 AM","2019","130633","NYTIMES-USCENSUS"
"12/30/2021 12:00:00 AM","Jackson County","Michigan","Midwest","East North Central","26075","42.248474","-84.420868 ","34079","467","0","0","12/29/2021 12:00:00 AM","2019","158510","NYTIMES-USCENSUS"
"12/30/2021 12:00:00 AM","Lee County","Alabama","South","East South Central","01081","32.604064","-85.353048 ","26789","269","194","0","12/29/2021 12:00:00 AM","2019","164542","NYTIMES-USCENSUS"
"12/30/2021 12:00:00 AM","Doniphan County","Kansas","Midwest","West North Central","20043","39.788502","-95.147225 ","1775","29","0","0","12/29/2021 12:00:00 AM","2019","7600","NYTIMES-USCENSUS"
"12/30/2021 12:00:00 AM","Jessamine County","Kentucky","South","East South Central","21113","37.873291","-84.58396 ","9428","112","0","0","12/29/2021 12:00:00 AM","2019","54115","NYTIMES-USCENSUS"
"12/30/2021 12:00:00 AM","Polk County","Nebraska","Midwest","West North Central","31143","41.187925","-97.570663 ","900","18","3","0","12/29/2021 12:00:00 AM","2019","5213","NYTIMES-USCENSUS"
"12/30/2021 12:00:00 AM","Oceana County","Michigan","Midwest","East North Central","26127","43.603954","-86.467177 ","4925","84","0","0","12/29/2021 12:00:00 AM","2019","26467","NYTIMES-USCENSUS"
"12/30/2021 12:00:00 AM","New Castle County","Delaware","South","South Atlantic","10003","39.575915","-75.644132 ","100020","1112","1201","1","12/29/2021 12:00:00 AM","2019","558753","NYTIMES-USCENSUS"
"12/30/2021 12:00:00 AM","Langlade County","Wisconsin","Midwest","East North Central","55067","45.254863","-89.06707 ","3855","66","17","0","12/29/2021 12:00:00 AM","2019","19189","NYTIMES-USCENSUS"
"12/30/2021 12:00:00 AM","West Baton Rouge Parish","Louisiana","South","West South Central","22121","30.464052","-91.309808 ","4731","79","86","0","12/29/2021 12:00:00 AM","2019","26465","NYTIMES-USCENSUS"
"12/30/2021 12:00:00 AM","Franklin County","Illinois","Midwest","East North Central","17055","37.991852","-88.926321 ","8545","142","61","1","12/29/2021 12:00:00 AM","2019","38469","NYTIMES-USCENSUS"
"12/30/2021 12:00:00 AM","Miami County","Kansas","Midwest","West North Central","20121","38.566772","-94.832963 ","5360","74","0","0","12/29/2021 12:00:00 AM","2019","34237","NYTIMES-USCENSUS"
"12/30/2021 12:00:00 AM","Dallam County","Texas","South","West South Central","48111","36.28637","-102.59402 ","1425","32","11","0","12/29/2021 12:00:00 AM","2019","7287","NYTIMES-USCENSUS"
"12/30/2021 12:00:00 AM","Caldwell County","Texas","South","West South Central","48055","29.832399","-97.628141 ","8919","158","21","0","12/29/2021 12:00:00 AM","2019","43664","NYTIMES-USCENSUS"
"12/30/2021 12:00:00 AM","Hartley County","Texas","South","West South Central","48205","35.840244","-102.610047 ","1000","2","5","0","12/29/2021 12:00:00 AM","2019","5576","NYTIMES-USCENSUS"
"12/30/2021 12:00:00 AM","Lincoln County","Idaho","West","Mountain","16063","42.990782","-114.153089 ","780","14","1","0","12/29/2021 12:00:00 AM","2019","5366","NYTIMES-USCENSUS"
"12/30/2021 12:00:00 AM","Runnels County","Texas","South","West South Central","48399","31.845119","-99.982715 ","1786","56","2","0","12/29/2021 12:00:00 AM","2019","10264","NYTIMES-USCENSUS"
"12/30/2021 12:00:00 AM","Lafayette County","Mississippi","South","East South Central","28071","34.353078","-89.485385 ","9524","143","128","0","12/29/2021 12:00:00 AM","2019","54019","NYTIMES-USCENSUS"
"12/30/2021 12:00:00 AM","Bremer County","Iowa","Midwest","West North Central","19017","42.780895","-92.327356 ","4373","74","0","0","12/29/2021 12:00:00 AM","2019","25062","NYTIMES-USCENSUS"
"12/30/2021 12:00:00 AM","McNairy County","Tennessee","South","East South Central","47109","35.175375","-88.56374 ","5010","86","42","0","12/29/2021 12:00:00 AM","2019","25694","NYTIMES-USCENSUS"
"12/30/2021 12:00:00 AM","Crawford County","Arkansas","South","West South Central","05033","35.583011","-94.236219 ","11500","193","53","1","12/29/2021 12:00:00 AM","2019","63257","NYTIMES-USCENSUS"
"12/30/2021 12:00:00 AM","Collin County","Texas","South","West South Central","48085","33.194494","-96.579428 ","141074","1217","713","1","12/29/2021 12:00:00 AM","2019","1034730","NYTIMES-USCENSUS"
"12/30/2021 12:00:00 AM","Powell County","Kentucky","South","East South Central","21197","37.809907","-83.831354 ","3131","28","0","0","12/29/2021 12:00:00 AM","2019","12359","NYTIMES-USCENSUS"
"12/30/2021 12:00:00 AM","Crawford County","Georgia","South","South Atlantic","13079","32.709428","-83.979187 ","1205","47","9","0","12/29/2021 12:00:00 AM","2019","12404","NYTIMES-USCENSUS"
"12/30/2021 12:00:00 AM","Carroll County","Kentucky","South","East South Central","21041","38.668394","-85.124024 ","2348","34","0","0","12/29/2021 12:00:00 AM","2019","10631","NYTIMES-USCENSUS"
"12/30/2021 12:00:00 AM","Atascosa County","Texas","South","West South Central","48013","28.891478","-98.535381 ","8960","211","13","0","12/29/2021 12:00:00 AM","2019","51153","NYTIMES-USCENSUS"
"12/30/2021 12:00:00 AM","Teton County","Idaho","West","Mountain","16081","43.760994","-111.211765 ","1867","8","18","0","12/29/2021 12:00:00 AM","2019","12142","NYTIMES-USCENSUS"
"12/30/2021 12:00:00 AM","Henry County","Ohio","Midwest","East North Central","39069","41.331584","-84.0689 ","4776","85","16","0","12/29/2021 12:00:00 AM","2019","27006","NYTIMES-USCENSUS"
"12/30/2021 12:00:00 AM","Rock County","Minnesota","Midwest","West North Central","27133","43.669587","-96.263238 ","1860","32","8","0","12/29/2021 12:00:00 AM","2019","9315","NYTIMES-USCENSUS"
"12/30/2021 12:00:00 AM","Conejos County","Colorado","West","Mountain","08021","37.213406","-106.176447 ","1192","46","3","0","12/29/2021 12:00:00 AM","2019","8205","NYTIMES-USCENSUS"
"12/30/2021 12:00:00 AM","Austin County","Texas","South","West South Central","48015","29.891901","-96.27017 ","3927","57","10","0","12/29/2021 12:00:00 AM","2019","30032","NYTIMES-USCENSUS"
"12/30/2021 12:00:00 AM","Sanilac County","Michigan","Midwest","East North Central","26151","43.449155","-82.642815 ","6819","167","0","0","12/29/2021 12:00:00 AM","2019","41170","NYTIMES-USCENSUS"
"12/30/2021 12:00:00 AM","Martin County","Texas","South","West South Central","48317","32.30983","-101.961836 ","913","24","3","0","12/29/2021 12:00:00 AM","2019","5771","NYTIMES-USCENSUS"
"12/30/2021 12:00:00 AM","Kittitas County","Washington","West","Pacific","53037","47.124441","-120.676709 ","5543","56","20","0","12/29/2021 12:00:00 AM","2019","47935","NYTIMES-USCENSUS"
"12/30/2021 12:00:00 AM","Pottawattamie County","Iowa","Midwest","West North Central","19155","41.340184","-95.544905 ","17680","249","0","0","12/29/2021 12:00:00 AM","2019","93206","NYTIMES-USCENSUS"
"12/30/2021 12:00:00 AM","Graham County","Arizona","West","Mountain","04009","32.931828","-109.87831 ","8955","157","12","0","12/29/2021 12:00:00 AM","2019","38837","NYTIMES-USCENSUS"
"12/30/2021 12:00:00 AM","Limestone County","Texas","South","West South Central","48293","31.547543","-96.593623 ","3761","111","3","0","12/29/2021 12:00:00 AM","2019","23437","NYTIMES-USCENSUS"
"12/30/2021 12:00:00 AM","Bourbon County","Kansas","Midwest","West North Central","20011","37.8561","-94.850928 ","2947","44","0","0","12/29/2021 12:00:00 AM","2019","14534","NYTIMES-USCENSUS"
"12/30/2021 12:00:00 AM","Holt County","Missouri","Midwest","West North Central","29087","40.095724","-95.219072 ","809","24","3","0","12/29/2021 12:00:00 AM","2019","4403","NYTIMES-USCENSUS"
"12/30/2021 12:00:00 AM","Waupaca County","Wisconsin","Midwest","East North Central","55135","44.478004","-88.967005 ","10369","216","61","0","12/29/2021 12:00:00 AM","2019","50990","NYTIMES-USCENSUS"
"12/30/2021 12:00:00 AM","Cannon County","Tennessee","South","East South Central","47015","35.808394","-86.062404 ","2991","50","14","0","12/29/2021 12:00:00 AM","2019","14678","NYTIMES-USCENSUS"
"12/30/2021 12:00:00 AM","San Francisco County","California","West","Pacific","06075","37.727239","-123.032229 ","66545","684","1712","2","12/29/2021 12:00:00 AM","2019","881549","NYTIMES-USCENSUS"
"12/30/2021 12:00:00 AM","Armstrong County","Texas","South","West South Central","48011","34.964179","-101.356636 ","343","8","0","0","12/29/2021 12:00:00 AM","2019","1887","NYTIMES-USCENSUS"
"12/30/2021 12:00:00 AM","Clinton County","Ohio","Midwest","East North Central","39027","39.416681","-83.804583 ","7302","114","54","0","12/29/2021 12:00:00 AM","2019","41968","NYTIMES-USCENSUS"
"12/30/2021 12:00:00 AM","Saratoga County","New York","Northeast","Middle Atlantic","36091","43.106135","-73.855387 ","30360","267","387","1","12/29/2021 12:00:00 AM","2019","229863","NYTIMES-USCENSUS"
"12/30/2021 12:00:00 AM","Oglethorpe County","Georgia","South","South Atlantic","13221","33.866806","-83.074081 ","2381","44","20","1","12/29/2021 12:00:00 AM","2019","15259","NYTIMES-USCENSUS"
"12/30/2021 12:00:00 AM","LaSalle Parish","Louisiana","South","West South Central","22059","31.680083","-92.161596 ","2863","46","18","0","12/29/2021 12:00:00 AM","2019","14892","NYTIMES-USCENSUS"
"12/30/2021 12:00:00 AM","Tillman County","Oklahoma","South","West South Central","40141","34.371085","-98.931701 ","1081","26","0","0","12/29/2021 12:00:00 AM","2019","7250","NYTIMES-USCENSUS"
"12/30/2021 12:00:00 AM","Bayfield County","Wisconsin","Midwest","East North Central","55007","46.634199","-91.177282 ","2253","32","12","0","12/29/2021 12:00:00 AM","2019","15036","NYTIMES-USCENSUS"
"12/30/2021 12:00:00 AM","Gaines County","Texas","South","West South Central","48165","32.743942","-102.631561 ","2212","68","0","0","12/29/2021 12:00:00 AM","2019","21492","NYTIMES-USCENSUS"
"12/30/2021 12:00:00 AM","Franklin County","Kansas","Midwest","West North Central","20059","38.558019","-95.278962 ","4773","67","0","0","12/29/2021 12:00:00 AM","2019","25544","NYTIMES-USCENSUS"
"12/30/2021 12:00:00 AM","Alexander County","North Carolina","South","South Atlantic","37003","35.920951","-81.177467 ","7257","119","40","0","12/29/2021 12:00:00 AM","2019","37497","NYTIMES-USCENSUS"
"12/30/2021 12:00:00 AM","Delta County","Colorado","West","Mountain","08029","38.861595","-107.864892 ","4788","122","10","0","12/29/2021 12:00:00 AM","2019","31162","NYTIMES-USCENSUS"
"12/30/2021 12:00:00 AM","Cheatham County","Tennessee","South","East South Central","47021","36.255169","-87.100808 ","7700","90","86","0","12/29/2021 12:00:00 AM","2019","40667","NYTIMES-USCENSUS"
"12/30/2021 12:00:00 AM","Lander County","Nevada","West","Mountain","32015","39.90021","-117.04724 ","882","16","6","0","12/29/2021 12:00:00 AM","2019","5532","NYTIMES-USCENSUS"
"12/30/2021 12:00:00 AM","Fayette County","Iowa","Midwest","West North Central","19065","42.864122","-91.840376 ","3152","57","0","0","12/29/2021 12:00:00 AM","2019","19650","NYTIMES-USCENSUS"
"12/30/2021 12:00:00 AM","Alamance County","North Carolina","South","South Atlantic","37001","36.043954","-79.400573 ","30060","376","370","0","12/29/2021 12:00:00 AM","2019","169509","NYTIMES-USCENSUS"
"12/30/2021 12:00:00 AM","Montgomery County","Maryland","South","South Atlantic","24031","39.137381","-77.203063 ","102727","1762","3051","3","12/29/2021 12:00:00 AM","2019","1050688","NYTIMES-USCENSUS"
"12/30/2021 12:00:00 AM","Solano County","California","West","Pacific","06095","38.267226","-121.939594 ","50010","379","326","1","12/29/2021 12:00:00 AM","2019","447643","NYTIMES-USCENSUS"
"12/30/2021 12:00:00 AM","Nye County","Nevada","West","Mountain","32023","37.965864","-116.459011 ","5338","200","13","0","12/29/2021 12:00:00 AM","2019","46523","NYTIMES-USCENSUS"
"12/30/2021 12:00:00 AM","Mason County","Illinois","Midwest","East North Central","17125","40.236993","-89.913575 ","2704","54","12","0","12/29/2021 12:00:00 AM","2019","13359","NYTIMES-USCENSUS"
"12/30/2021 12:00:00 AM","Slope County","North Dakota","Midwest","West North Central","38087","46.445834","-103.462462 ","55","0","0","0","12/29/2021 12:00:00 AM","2019","750","NYTIMES-USCENSUS"
"12/30/2021 12:00:00 AM","Magoffin County","Kentucky","South","East South Central","21153","37.698983","-83.069721 ","2632","35","0","0","12/29/2021 12:00:00 AM","2019","12161","NYTIMES-USCENSUS"
"12/30/2021 12:00:00 AM","Cayuga County","New York","Northeast","Middle Atlantic","36011","43.008546","-76.574587 ","11314","120","114","0","12/29/2021 12:00:00 AM","2019","76576","NYTIMES-USCENSUS"
"12/30/2021 12:00:00 AM","Redwood County","Minnesota","Midwest","West North Central","27127","44.403536","-95.254241 ","3034","49","9","0","12/29/2021 12:00:00 AM","2019","15170","NYTIMES-USCENSUS"
"12/30/2021 12:00:00 AM","Carroll County","Indiana","Midwest","East North Central","18015","40.58498","-86.565141 ","3279","47","16","0","12/29/2021 12:00:00 AM","2019","20257","NYTIMES-USCENSUS"
"12/30/2021 12:00:00 AM","Shawnee County","Kansas","Midwest","West North Central","20177","39.041805","-95.755664 ","31041","491","0","0","12/29/2021 12:00:00 AM","2019","176875","NYTIMES-USCENSUS"
"12/30/2021 12:00:00 AM","Hamilton County","Florida","South","South Atlantic","12047","30.491187","-82.951071 ","2768","49","0","0","12/29/2021 12:00:00 AM","2019","14428","NYTIMES-USCENSUS"
"12/30/2021 12:00:00 AM","Fulton County","Indiana","Midwest","East North Central","18049","41.050384","-86.265006 ","3943","85","6","1","12/29/2021 12:00:00 AM","2019","19974","NYTIMES-USCENSUS"
"12/30/2021 12:00:00 AM","Coos County","New Hampshire","Northeast","New England","33007","44.652548","-71.289431 ","4694","84","29","0","12/29/2021 12:00:00 AM","2019","31563","NYTIMES-USCENSUS"
"12/30/2021 12:00:00 AM","Clay County","Iowa","Midwest","West North Central","19041","43.081224","-95.149875 ","3124","38","0","0","12/29/2021 12:00:00 AM","2019","16016","NYTIMES-USCENSUS"
"12/30/2021 12:00:00 AM","Warren County","Iowa","Midwest","West North Central","19181","41.332446","-93.568751 ","9377","112","0","0","12/29/2021 12:00:00 AM","2019","51466","NYTIMES-USCENSUS"
"12/30/2021 12:00:00 AM","Vernon County","Wisconsin","Midwest","East North Central","55123","43.599366","-90.821983 ","4085","74","8","0","12/29/2021 12:00:00 AM","2019","30822","NYTIMES-USCENSUS"
"12/30/2021 12:00:00 AM","Randolph County","West Virginia","South","South Atlantic","54083","38.781095","-79.867788 ","5933","64","33","0","12/29/2021 12:00:00 AM","2019","28695","NYTIMES-USCENSUS"
"12/30/2021 12:00:00 AM","Todd County","Kentucky","South","East South Central","21219","36.840338","-87.183642 ","2024","38","0","0","12/29/2021 12:00:00 AM","2019","12294","NYTIMES-USCENSUS"
"12/30/2021 12:00:00 AM","Trego County","Kansas","Midwest","West North Central","20195","38.921302","-99.865423 ","560","9","0","0","12/29/2021 12:00:00 AM","2019","2803","NYTIMES-USCENSUS"
"12/30/2021 12:00:00 AM","Baltimore city","Maryland","South","South Atlantic","24510","39.300032","-76.610476 ","79808","1426","1664","4","12/29/2021 12:00:00 AM","2019","593490","NYTIMES-USCENSUS"
"12/30/2021 12:00:00 AM","Kerr County","Texas","South","West South Central","48265","30.059953","-99.353339 ","7358","142","9","0","12/29/2021 12:00:00 AM","2019","52600","NYTIMES-USCENSUS"
"12/30/2021 12:00:00 AM","DeKalb County","Illinois","Midwest","East North Central","17037","41.894612","-88.768991 ","16011","161","0","1","12/29/2021 12:00:00 AM","2019","104897","NYTIMES-USCENSUS"
"12/30/2021 12:00:00 AM","Rio Arriba County","New Mexico","West","Mountain","35039","36.509669","-106.693983 ","6329","95","41","1","12/29/2021 12:00:00 AM","2019","38921","NYTIMES-USCENSUS"
"12/30/2021 12:00:00 AM","Benton County","Indiana","Midwest","East North Central","18007","40.600939","-87.314786 ","1871","20","21","0","12/29/2021 12:00:00 AM","2019","8748","NYTIMES-USCENSUS"
"12/30/2021 12:00:00 AM","Monongalia County","West Virginia","South","South Atlantic","54061","39.633645","-80.059074 ","15710","158","176","0","12/29/2021 12:00:00 AM","2019","105612","NYTIMES-USCENSUS"
"12/30/2021 12:00:00 AM","Menominee County","Michigan","Midwest","East North Central","26109","45.535568","-87.501457 ","4216","60","0","0","12/29/2021 12:00:00 AM","2019","22780","NYTIMES-USCENSUS"
"12/30/2021 12:00:00 AM","Calhoun County","Mississippi","South","East South Central","28013","33.936634","-89.337114 ","3018","51","20","0","12/29/2021 12:00:00 AM","2019","14361","NYTIMES-USCENSUS"
"12/30/2021 12:00:00 AM","Garfield County","Nebraska","Midwest","West North Central","31071","41.906868","-98.951231 ","312","1","0","0","12/29/2021 12:00:00 AM","2019","1969","NYTIMES-USCENSUS"
"12/30/2021 12:00:00 AM","Washington County","Maryland","South","South Atlantic","24043","39.603621","-77.814671 ","25443","462","359","7","12/29/2021 12:00:00 AM","2019","151049","NYTIMES-USCENSUS"
"12/30/2021 12:00:00 AM","Arenac County","Michigan","Midwest","East North Central","26011","44.036833","-83.740675 ","2358","51","0","0","12/29/2021 12:00:00 AM","2019","14883","NYTIMES-USCENSUS"
"12/30/2021 12:00:00 AM","Lincoln County","Maine","Northeast","New England","23015","43.994781","-69.513624 ","2837","12","54","1","12/29/2021 12:00:00 AM","2019","34634","NYTIMES-USCENSUS"
"12/30/2021 12:00:00 AM","Perry County","Ohio","Midwest","East North Central","39127","39.743187","-82.237952 ","6222","90","18","0","12/29/2021 12:00:00 AM","2019","36134","NYTIMES-USCENSUS"
"12/30/2021 12:00:00 AM","Goliad County","Texas","South","West South Central","48175","28.6607","-97.430415 ","681","28","1","0","12/29/2021 12:00:00 AM","2019","7658","NYTIMES-USCENSUS"
"12/30/2021 12:00:00 AM","Terrell County","Georgia","South","South Atlantic","13273","31.777191","-84.439446 ","1320","58","8","0","12/29/2021 12:00:00 AM","2019","8531","NYTIMES-USCENSUS"
"12/30/2021 12:00:00 AM","Unicoi County","Tennessee","South","East South Central","47171","36.100129","-82.418218 ","3426","79","28","0","12/29/2021 12:00:00 AM","2019","17883","NYTIMES-USCENSUS"
"12/30/2021 12:00:00 AM","Ionia County","Michigan","Midwest","East North Central","26067","42.94465","-85.073766 ","15189","148","0","0","12/29/2021 12:00:00 AM","2019","64697","NYTIMES-USCENSUS"
"12/30/2021 12:00:00 AM","Perry County","Pennsylvania","Northeast","Middle Atlantic","42099","40.39778","-77.266328 ","6788","150","31","0","12/29/2021 12:00:00 AM","2019","46272","NYTIMES-USCENSUS"
"12/30/2021 12:00:00 AM","Harney County","Oregon","West","Pacific","41025","43.064449","-118.987169 ","1254","34","2","0","12/29/2021 12:00:00 AM","2019","7393","NYTIMES-USCENSUS"
"12/30/2021 12:00:00 AM","Howard County","Maryland","South","South Atlantic","24027","39.252264","-76.924406 ","29183","295","1112","0","12/29/2021 12:00:00 AM","2019","325690","NYTIMES-USCENSUS"
"12/30/2021 12:00:00 AM","Aransas County","Texas","South","West South Central","48007","28.122621","-96.967501 ","2697","67","1","0","12/29/2021 12:00:00 AM","2019","23510","NYTIMES-USCENSUS"
"12/30/2021 12:00:00 AM","Brantley County","Georgia","South","South Atlantic","13025","31.197334","-81.982978 ","3180","89","7","0","12/29/2021 12:00:00 AM","2019","19109","NYTIMES-USCENSUS"
"12/30/2021 12:00:00 AM","Prentiss County","Mississippi","South","East South Central","28117","34.620566","-88.522184 ","5435","87","34","0","12/29/2021 12:00:00 AM","2019","25126","NYTIMES-USCENSUS"
"12/30/2021 12:00:00 AM","Harper County","Oklahoma","South","West South Central","40059","36.80035","-99.662805 ","551","10","0","0","12/29/2021 12:00:00 AM","2019","3688","NYTIMES-USCENSUS"
"12/30/2021 12:00:00 AM","Guadalupe County","New Mexico","West","Mountain","35019","34.869782","-104.784968 ","964","15","4","0","12/29/2021 12:00:00 AM","2019","4300","NYTIMES-USCENSUS"
"12/30/2021 12:00:00 AM","Essex County","Massachusetts","Northeast","New England","25009","42.642708","-70.864909 ","146881","2717","3063","5","12/29/2021 12:00:00 AM","2019","789034","NYTIMES-USCENSUS"
"12/30/2021 12:00:00 AM","Perry County","Missouri","Midwest","West North Central","29157","37.71113","-89.802125 ","3696","41","17","0","12/29/2021 12:00:00 AM","2019","19136","NYTIMES-USCENSUS"
"12/30/2021 12:00:00 AM","Wise County","Virginia","South","South Atlantic","51195","36.974561","-82.62156 ","6548","145","27","0","12/29/2021 12:00:00 AM","2019","37383","NYTIMES-USCENSUS"
"12/30/2021 12:00:00 AM","Platte County","Missouri","Midwest","West North Central","29165","39.37869","-94.761477 ","7293","74","48","0","12/29/2021 12:00:00 AM","2019","104418","NYTIMES-USCENSUS"
"12/30/2021 12:00:00 AM","Wright County","Iowa","Midwest","West North Central","19197","42.733007","-93.734735 ","2924","54","0","0","12/29/2021 12:00:00 AM","2019","12562","NYTIMES-USCENSUS"
"12/30/2021 12:00:00 AM","Bonneville County","Idaho","West","Mountain","16019","43.395171","-111.621878 ","22500","246","72","0","12/29/2021 12:00:00 AM","2019","119062","NYTIMES-USCENSUS"
"12/30/2021 12:00:00 AM","Blount County","Tennessee","South","East South Central","47009","35.688185","-83.922973 ","25852","325","133","1","12/29/2021 12:00:00 AM","2019","133088","NYTIMES-USCENSUS"
"12/30/2021 12:00:00 AM","Jackson County","Tennessee","South","East South Central","47087","36.35425","-85.674128 ","2230","49","14","1","12/29/2021 12:00:00 AM","2019","11786","NYTIMES-USCENSUS"
"12/30/2021 12:00:00 AM","Osage County","Kansas","Midwest","West North Central","20139","38.650215","-95.708255 ","2630","40","0","0","12/29/2021 12:00:00 AM","2019","15949","NYTIMES-USCENSUS"
"12/30/2021 12:00:00 AM","Anoka County","Minnesota","Midwest","West North Central","27003","45.27411","-93.242723 ","71618","676","411","6","12/29/2021 12:00:00 AM","2019","356921","NYTIMES-USCENSUS"
"12/30/2021 12:00:00 AM","Elk County","Pennsylvania","Northeast","Middle Atlantic","42047","41.427332","-78.653937 ","5322","74","20","0","12/29/2021 12:00:00 AM","2019","29910","NYTIMES-USCENSUS"
"12/30/2021 12:00:00 AM","Greene County","Georgia","South","South Atlantic","13133","33.576704","-83.166625 ","3008","74","39","0","12/29/2021 12:00:00 AM","2019","18324","NYTIMES-USCENSUS"
"12/30/2021 12:00:00 AM","Dodge County","Nebraska","Midwest","West North Central","31053","41.577008","-96.645852 ","7381","83","55","0","12/29/2021 12:00:00 AM","2019","36565","NYTIMES-USCENSUS"
"12/30/2021 12:00:00 AM","Lincoln County","Colorado","West","Mountain","08073","38.99374","-103.507555 ","1435","8","0","0","12/29/2021 12:00:00 AM","2019","5701","NYTIMES-USCENSUS"
"12/30/2021 12:00:00 AM","Gibson County","Tennessee","South","East South Central","47053","35.991632","-88.933812 ","11335","214","90","1","12/29/2021 12:00:00 AM","2019","49133","NYTIMES-USCENSUS"
"12/30/2021 12:00:00 AM","Vanderburgh County","Indiana","Midwest","East North Central","18163","38.02007","-87.586166 ","37846","527","281","2","12/29/2021 12:00:00 AM","2019","181451","NYTIMES-USCENSUS"
"12/30/2021 12:00:00 AM","Golden Valley County","Montana","West","Mountain","30037","46.380624","-109.174586 ","122","5","0","0","12/29/2021 12:00:00 AM","2019","821","NYTIMES-USCENSUS"
"12/30/2021 12:00:00 AM","Cuming County","Nebraska","Midwest","West North Central","31039","41.915865","-96.788517 ","1444","15","4","0","12/29/2021 12:00:00 AM","2019","8846","NYTIMES-USCENSUS"
"12/30/2021 12:00:00 AM","Camas County","Idaho","West","Mountain","16025","43.502552","-114.772135 ","109","1","0","0","12/29/2021 12:00:00 AM","2019","1106","NYTIMES-USCENSUS"
"12/30/2021 12:00:00 AM","Clare County","Michigan","Midwest","East North Central","26035","43.991137","-84.838325 ","5127","131","0","0","12/29/2021 12:00:00 AM","2019","30950","NYTIMES-USCENSUS"
"12/30/2021 12:00:00 AM","Becker County","Minnesota","Midwest","West North Central","27005","46.937629","-95.741757 ","6618","81","4","0","12/29/2021 12:00:00 AM","2019","34423","NYTIMES-USCENSUS"
"12/30/2021 12:00:00 AM","Franklin County","Washington","West","Pacific","53021","46.537502","-118.903891 ","21189","184","74","0","12/29/2021 12:00:00 AM","2019","95222","NYTIMES-USCENSUS"
"12/30/2021 12:00:00 AM","Tuolumne County","California","West","Pacific","06109","38.021434","-119.964733 ","8292","148","31","0","12/29/2021 12:00:00 AM","2019","54478","NYTIMES-USCENSUS"
"12/30/2021 12:00:00 AM","Linn County","Kansas","Midwest","West North Central","20107","38.216549","-94.844932 ","1938","22","0","0","12/29/2021 12:00:00 AM","2019","9703","NYTIMES-USCENSUS"
"12/30/2021 12:00:00 AM","Sangamon County","Illinois","Midwest","East North Central","17167","39.756886","-89.662435 ","33475","351","759","1","12/29/2021 12:00:00 AM","2019","194672","NYTIMES-USCENSUS"
"12/30/2021 12:00:00 AM","Lane County","Oregon","West","Pacific","41039","43.928334","-122.897581 ","32273","383","242","1","12/29/2021 12:00:00 AM","2019","382067","NYTIMES-USCENSUS"
"12/30/2021 12:00:00 AM","Lee County","Illinois","Midwest","East North Central","17103","41.747447","-89.299362 ","5935","108","50","0","12/29/2021 12:00:00 AM","2019","34096","NYTIMES-USCENSUS"
"12/30/2021 12:00:00 AM","Rogers County","Oklahoma","South","West South Central","40131","36.377794","-95.601383 ","17331","312","0","0","12/29/2021 12:00:00 AM","2019","92459","NYTIMES-USCENSUS"
"12/30/2021 12:00:00 AM","Jones County","North Carolina","South","South Atlantic","37103","35.032268","-77.356195 ","1438","38","12","1","12/29/2021 12:00:00 AM","2019","9419","NYTIMES-USCENSUS"
"12/30/2021 12:00:00 AM","Loudon County","Tennessee","South","East South Central","47105","35.735085","-84.314085 ","9928","146","67","2","12/29/2021 12:00:00 AM","2019","54068","NYTIMES-USCENSUS"
"12/30/2021 12:00:00 AM","Montgomery County","Tennessee","South","East South Central","47125","36.500354","-87.380887 ","36010","471","399","5","12/29/2021 12:00:00 AM","2019","208993","NYTIMES-USCENSUS"
"12/30/2021 12:00:00 AM","Ellis County","Texas","South","West South Central","48139","32.346878","-96.79694 ","35546","491","138","0","12/29/2021 12:00:00 AM","2019","184826","NYTIMES-USCENSUS"
"12/30/2021 12:00:00 AM","Pend Oreille County","Washington","West","Pacific","53051","48.543825","-117.232191 ","1734","26","2","0","12/29/2021 12:00:00 AM","2019","13724","NYTIMES-USCENSUS"
"12/30/2021 12:00:00 AM","Sullivan County","Indiana","Midwest","East North Central","18153","39.089225","-87.415843 ","3776","60","20","0","12/29/2021 12:00:00 AM","2019","20669","NYTIMES-USCENSUS"
"12/30/2021 12:00:00 AM","Johnson County","Kansas","Midwest","West North Central","20091","38.883907","-94.82233 ","92698","1005","0","0","12/29/2021 12:00:00 AM","2019","602401","NYTIMES-USCENSUS"
"12/30/2021 12:00:00 AM","Weston County","Wyoming","West","Mountain","56045","43.846213","-104.57002 ","1254","14","2","0","12/29/2021 12:00:00 AM","2019","6927","NYTIMES-USCENSUS"
"12/30/2021 12:00:00 AM","Sumner County","Tennessee","South","East South Central","47165","36.472423","-86.458405 ","38033","584","448","0","12/29/2021 12:00:00 AM","2019","191283","NYTIMES-USCENSUS"
"12/30/2021 12:00:00 AM","Boyd County","Nebraska","Midwest","West North Central","31015","42.894448","-98.773022 ","308","3","0","0","12/29/2021 12:00:00 AM","2019","1919","NYTIMES-USCENSUS"
"12/30/2021 12:00:00 AM","McCormick County","South Carolina","South","South Atlantic","45065","33.897599","-82.316196 ","1476","30","3","0","12/29/2021 12:00:00 AM","2019","9463","NYTIMES-USCENSUS"
"12/30/2021 12:00:00 AM","Grant County","Arkansas","South","West South Central","05053","34.285568","-92.422979 ","3047","52","21","0","12/29/2021 12:00:00 AM","2019","18265","NYTIMES-USCENSUS"
"12/30/2021 12:00:00 AM","Gage County","Nebraska","Midwest","West North Central","31067","40.255234","-96.683453 ","2844","20","7","0","12/29/2021 12:00:00 AM","2019","21513","NYTIMES-USCENSUS"
"12/30/2021 12:00:00 AM","Kay County","Oklahoma","South","West South Central","40071","36.814885","-97.143862 ","8465","172","0","0","12/29/2021 12:00:00 AM","2019","43538","NYTIMES-USCENSUS"
"12/30/2021 12:00:00 AM","Parmer County","Texas","South","West South Central","48369","34.532163","-102.784853 ","1681","44","11","0","12/29/2021 12:00:00 AM","2019","9605","NYTIMES-USCENSUS"
"12/30/2021 12:00:00 AM","Fannin County","Texas","South","West South Central","48147","33.591161","-96.104988 ","5233","154","10","0","12/29/2021 12:00:00 AM","2019","35514","NYTIMES-USCENSUS"
"12/30/2021 12:00:00 AM","Lake County","Colorado","West","Mountain","08065","39.205341","-106.350079 ","1271","2","11","0","12/29/2021 12:00:00 AM","2019","8127","NYTIMES-USCENSUS"
"12/30/2021 12:00:00 AM","Kleberg County","Texas","South","West South Central","48273","27.438735","-97.66062 ","4446","133","3","0","12/29/2021 12:00:00 AM","2019","30680","NYTIMES-USCENSUS"
"12/30/2021 12:00:00 AM","Gallatin County","Montana","West","Mountain","30031","45.518054","-111.163921 ","23574","104","0","0","12/29/2021 12:00:00 AM","2019","114434","NYTIMES-USCENSUS"
"12/30/2021 12:00:00 AM","Wharton County","Texas","South","West South Central","48481","29.27848","-96.229674 ","6502","193","10","0","12/29/2021 12:00:00 AM","2019","41556","NYTIMES-USCENSUS"
"12/30/2021 12:00:00 AM","Jefferson Davis County","Mississippi","South","East South Central","28065","31.564808","-89.827086 ","1893","43","47","0","12/29/2021 12:00:00 AM","2019","11128","NYTIMES-USCENSUS"
"12/30/2021 12:00:00 AM","Iowa County","Wisconsin","Midwest","East North Central","55049","43.001021","-90.133691 ","3546","23","29","0","12/29/2021 12:00:00 AM","2019","23678","NYTIMES-USCENSUS"
"12/30/2021 12:00:00 AM","New Hanover County","North Carolina","South","South Atlantic","37129","34.183445","-77.864204 ","31348","300","410","0","12/29/2021 12:00:00 AM","2019","234473","NYTIMES-USCENSUS"
"12/30/2021 12:00:00 AM","Pine County","Minnesota","Midwest","West North Central","27115","46.10094","-92.763094 ","5677","48","13","0","12/29/2021 12:00:00 AM","2019","29579","NYTIMES-USCENSUS"
"12/30/2021 12:00:00 AM","Wythe County","Virginia","South","South Atlantic","51197","36.899867","-81.083001 ","5151","118","24","0","12/29/2021 12:00:00 AM","2019","28684","NYTIMES-USCENSUS"
"12/30/2021 12:00:00 AM","Windsor County","Vermont","Northeast","New England","50027","43.572448","-72.598813 ","5021","44","54","0","12/29/2021 12:00:00 AM","2019","55062","NYTIMES-USCENSUS"
"12/30/2021 12:00:00 AM","Wabaunsee County","Kansas","Midwest","West North Central","20197","38.955154","-96.201262 ","1228","19","0","0","12/29/2021 12:00:00 AM","2019","6931","NYTIMES-USCENSUS"
"12/30/2021 12:00:00 AM","Duval County","Texas","South","West South Central","48131","27.681123","-98.497393 ","2034","61","6","0","12/29/2021 12:00:00 AM","2019","11157","NYTIMES-USCENSUS"
"12/30/2021 12:00:00 AM","McLean County","North Dakota","Midwest","West North Central","38055","47.653206","-101.421914 ","2202","47","7","0","12/29/2021 12:00:00 AM","2019","9450","NYTIMES-USCENSUS"
"12/30/2021 12:00:00 AM","Marion County","West Virginia","South","South Atlantic","54049","39.505839","-80.243402 ","9876","140","64","0","12/29/2021 12:00:00 AM","2019","56072","NYTIMES-USCENSUS"
"12/30/2021 12:00:00 AM","Alexander County","Illinois","Midwest","East North Central","17003","37.183658","-89.349516 ","890","13","7","0","12/29/2021 12:00:00 AM","2019","5761","NYTIMES-USCENSUS"
"12/30/2021 12:00:00 AM","Gordon County","Georgia","South","South Atlantic","13129","34.509667","-84.873862 ","12204","208","90","0","12/29/2021 12:00:00 AM","2019","57963","NYTIMES-USCENSUS"
"12/30/2021 12:00:00 AM","Lake County","Indiana","Midwest","East North Central","18089","41.472247","-87.374337 ","84637","1406","1472","7","12/29/2021 12:00:00 AM","2019","485493","NYTIMES-USCENSUS"
"12/30/2021 12:00:00 AM","Grant County","New Mexico","West","Mountain","35017","32.732087","-108.381504 ","4366","64","64","2","12/29/2021 12:00:00 AM","2019","26998","NYTIMES-USCENSUS"
"12/30/2021 12:00:00 AM","Shelby County","Illinois","Midwest","East North Central","17173","39.384926","-88.798862 ","4420","59","32","2","12/29/2021 12:00:00 AM","2019","21634","NYTIMES-USCENSUS"
"12/30/2021 12:00:00 AM","Missoula County","Montana","West","Mountain","30063","47.027263","-113.892691 ","18124","192","112","0","12/29/2021 12:00:00 AM","2019","119600","NYTIMES-USCENSUS"
"12/30/2021 12:00:00 AM","Gilmer County","Georgia","South","South Atlantic","13123","34.690506","-84.454624 ","5053","142","30","0","12/29/2021 12:00:00 AM","2019","31369","NYTIMES-USCENSUS"
"12/30/2021 12:00:00 AM","Upshur County","West Virginia","South","South Atlantic","54097","38.90253","-80.231606 ","4804","74","34","0","12/29/2021 12:00:00 AM","2019","24176","NYTIMES-USCENSUS"
"12/30/2021 12:00:00 AM","Kit Carson County","Colorado","West","Mountain","08063","39.30534","-102.603023 ","1272","25","5","0","12/29/2021 12:00:00 AM","2019","7097","NYTIMES-USCENSUS"
"12/30/2021 12:00:00 AM","Columbia County","Wisconsin","Midwest","East North Central","55021","43.471882","-89.330472 ","10219","103","115","0","12/29/2021 12:00:00 AM","2019","57532","NYTIMES-USCENSUS"
"12/30/2021 12:00:00 AM","DeKalb County","Indiana","Midwest","East North Central","18033","41.39676","-85.002697 ","8840","125","54","0","12/29/2021 12:00:00 AM","2019","43475","NYTIMES-USCENSUS"
"12/30/2021 12:00:00 AM","Gladwin County","Michigan","Midwest","East North Central","26051","43.98975","-84.389816 ","4148","95","0","0","12/29/2021 12:00:00 AM","2019","25449","NYTIMES-USCENSUS"
"12/30/2021 12:00:00 AM","Covington County","Alabama","South","East South Central","01039","31.243987","-86.448721 ","7122","200","33","0","12/29/2021 12:00:00 AM","2019","37049","NYTIMES-USCENSUS"
"12/30/2021 12:00:00 AM","Quitman County","Georgia","South","South Atlantic","13239","31.862938","-85.004798 ","265","4","2","0","12/29/2021 12:00:00 AM","2019","2299","NYTIMES-USCENSUS"
"12/30/2021 12:00:00 AM","Kiowa County","Kansas","Midwest","West North Central","20097","37.561231","-99.286539 ","467","7","0","0","12/29/2021 12:00:00 AM","2019","2475","NYTIMES-USCENSUS"
"12/30/2021 12:00:00 AM","Hampshire County","Massachusetts","Northeast","New England","25015","42.339459","-72.663694 ","15701","344","249","1","12/29/2021 12:00:00 AM","2019","160830","NYTIMES-USCENSUS"
"12/30/2021 12:00:00 AM","Huron County","Michigan","Midwest","East North Central","26063","43.907616","-82.857045 ","6322","122","0","0","12/29/2021 12:00:00 AM","2019","30981","NYTIMES-USCENSUS"
"12/30/2021 12:00:00 AM","Cherry County","Nebraska","Midwest","West North Central","31031","42.571323","-101.047653 ","465","8","2","0","12/29/2021 12:00:00 AM","2019","5689","NYTIMES-USCENSUS"
"12/30/2021 12:00:00 AM","Shelby County","Missouri","Midwest","West North Central","29205","39.797531","-92.088719 ","1136","13","5","0","12/29/2021 12:00:00 AM","2019","5930","NYTIMES-USCENSUS"
"12/30/2021 12:00:00 AM","Dickinson County","Kansas","Midwest","West North Central","20041","38.867735","-97.157943 ","3527","63","0","0","12/29/2021 12:00:00 AM","2019","18466","NYTIMES-USCENSUS"
"12/30/2021 12:00:00 AM","Ward County","Texas","South","West South Central","48475","31.513069","-103.105113 ","2092","35","20","0","12/29/2021 12:00:00 AM","2019","11998","NYTIMES-USCENSUS"
"12/30/2021 12:00:00 AM","Kennebec County","Maine","Northeast","New England","23011","44.417012","-69.765764 ","14384","146","141","0","12/29/2021 12:00:00 AM","2019","122302","NYTIMES-USCENSUS"
"12/30/2021 12:00:00 AM","Northampton County","Virginia","South","South Atlantic","51131","37.302775","-75.924018 ","1260","49","21","0","12/29/2021 12:00:00 AM","2019","11710","NYTIMES-USCENSUS"
"12/30/2021 12:00:00 AM","Bingham County","Idaho","West","Mountain","16011","43.216357","-112.399206 ","7419","136","9","1","12/29/2021 12:00:00 AM","2019","46811","NYTIMES-USCENSUS"
"12/30/2021 12:00:00 AM","Brunswick County","Virginia","South","South Atlantic","51025","36.764204","-77.861483 ","1915","36","9","0","12/29/2021 12:00:00 AM","2019","16231","NYTIMES-USCENSUS"
"12/30/2021 12:00:00 AM","Worth County","Missouri","Midwest","West North Central","29227","40.480499","-94.419198 ","318","3","0","0","12/29/2021 12:00:00 AM","2019","2013","NYTIMES-USCENSUS"
"12/30/2021 12:00:00 AM","Stark County","North Dakota","Midwest","West North Central","38089","46.817031","-102.662026 ","9093","79","16","0","12/29/2021 12:00:00 AM","2019","31489","NYTIMES-USCENSUS"
"12/30/2021 12:00:00 AM","Roane County","West Virginia","South","South Atlantic","54087","38.74295","-81.354494 ","2038","28","8","0","12/29/2021 12:00:00 AM","2019","13688","NYTIMES-USCENSUS"
"12/30/2021 12:00:00 AM","Lee County","North Carolina","South","South Atlantic","37105","35.476336","-79.172117 ","10242","119","85","0","12/29/2021 12:00:00 AM","2019","61779","NYTIMES-USCENSUS"
"12/30/2021 12:00:00 AM","Cass County","Missouri","Midwest","West North Central","29037","38.646474","-94.354547 ","17537","225","152","0","12/29/2021 12:00:00 AM","2019","105780","NYTIMES-USCENSUS"
"12/30/2021 12:00:00 AM","Delaware County","New York","Northeast","Middle Atlantic","36025","42.193986","-74.966728 ","5454","58","61","0","12/29/2021 12:00:00 AM","2019","44135","NYTIMES-USCENSUS"
"12/30/2021 12:00:00 AM","Nez Perce County","Idaho","West","Mountain","16069","46.333791","-116.760909 ","6612","113","6","0","12/29/2021 12:00:00 AM","2019","40408","NYTIMES-USCENSUS"
"12/30/2021 12:00:00 AM","Moore County","North Carolina","South","South Atlantic","37125","35.308272","-79.492725 ","15090","258","113","0","12/29/2021 12:00:00 AM","2019","100880","NYTIMES-USCENSUS"
"12/30/2021 12:00:00 AM","Union County","Georgia","South","South Atlantic","13291","34.833333","-83.989257 ","3784","132","15","0","12/29/2021 12:00:00 AM","2019","24511","NYTIMES-USCENSUS"
"12/30/2021 12:00:00 AM","St. Clair County","Missouri","Midwest","West North Central","29185","38.04223","-93.77656 ","1442","29","6","1","12/29/2021 12:00:00 AM","2019","9397","NYTIMES-USCENSUS"
"12/30/2021 12:00:00 AM","Tooele County","Utah","West","Mountain","49045","40.467753","-113.123979 ","14270","83","45","-1","12/29/2021 12:00:00 AM","2019","72259","NYTIMES-USCENSUS"
"12/30/2021 12:00:00 AM","Crook County","Oregon","West","Pacific","41013","44.163054","-120.371585 ","3650","60","26","0","12/29/2021 12:00:00 AM","2019","24404","NYTIMES-USCENSUS"
"12/30/2021 12:00:00 AM","Harrison County","Mississippi","South","East South Central","28047","30.416536","-89.083376 ","35987","567","162","0","12/29/2021 12:00:00 AM","2019","208080","NYTIMES-USCENSUS"
"12/30/2021 12:00:00 AM","Tyler County","Texas","South","West South Central","48457","30.769295","-94.375656 ","2586","73","16","0","12/29/2021 12:00:00 AM","2019","21672","NYTIMES-USCENSUS"
"12/30/2021 12:00:00 AM","Northumberland County","Pennsylvania","Northeast","Middle Atlantic","42097","40.851524","-76.709877 ","16961","470","102","2","12/29/2021 12:00:00 AM","2019","90843","NYTIMES-USCENSUS"
"12/30/2021 12:00:00 AM","Martin County","Florida","South","South Atlantic","12085","27.083604","-80.398201 ","21044","523","0","0","12/29/2021 12:00:00 AM","2019","161000","NYTIMES-USCENSUS"
"12/30/2021 12:00:00 AM","Walthall County","Mississippi","South","East South Central","28147","31.164492","-90.103431 ","2298","66","19","0","12/29/2021 12:00:00 AM","2019","14286","NYTIMES-USCENSUS"
"12/30/2021 12:00:00 AM","Tarrant County","Texas","South","West South Central","48439","32.772119","-97.291224 ","387921","5023","5456","12","12/29/2021 12:00:00 AM","2019","2102515","NYTIMES-USCENSUS"
"12/30/2021 12:00:00 AM","Clinton County","Pennsylvania","Northeast","Middle Atlantic","42035","41.239508","-77.629009 ","6747","104","54","2","12/29/2021 12:00:00 AM","2019","38632","NYTIMES-USCENSUS"
"12/30/2021 12:00:00 AM","Marinette County","Wisconsin","Midwest","East North Central","55075","45.346899","-87.991198 ","8897","95","46","0","12/29/2021 12:00:00 AM","2019","40350","NYTIMES-USCENSUS"
"12/30/2021 12:00:00 AM","Gosper County","Nebraska","Midwest","West North Central","31073","40.509095","-99.823206 ","294","5","0","0","12/29/2021 12:00:00 AM","2019","1990","NYTIMES-USCENSUS"
"12/30/2021 12:00:00 AM","Livingston County","Michigan","Midwest","East North Central","26093","42.602532","-83.911718 ","33150","357","0","0","12/29/2021 12:00:00 AM","2019","191995","NYTIMES-USCENSUS"
"12/30/2021 12:00:00 AM","Knott County","Kentucky","South","East South Central","21119","37.354368","-82.952546 ","2679","47","0","0","12/29/2021 12:00:00 AM","2019","14806","NYTIMES-USCENSUS"
"12/30/2021 12:00:00 AM","Edwards County","Kansas","Midwest","West North Central","20047","37.883595","-99.304746 ","480","13","0","0","12/29/2021 12:00:00 AM","2019","2798","NYTIMES-USCENSUS"
"12/30/2021 12:00:00 AM","Val Verde County","Texas","South","West South Central","48465","29.875285","-101.143324 ","10866","258","1","0","12/29/2021 12:00:00 AM","2019","49025","NYTIMES-USCENSUS"
"12/30/2021 12:00:00 AM","Madison County","Florida","South","South Atlantic","12079","30.447233","-83.470416 ","3685","68","0","0","12/29/2021 12:00:00 AM","2019","18493","NYTIMES-USCENSUS"
"12/30/2021 12:00:00 AM","Delaware County","Indiana","Midwest","East North Central","18035","40.227543","-85.399262 ","18594","348","134","2","12/29/2021 12:00:00 AM","2019","114135","NYTIMES-USCENSUS"
"12/30/2021 12:00:00 AM","Crawford County","Ohio","Midwest","East North Central","39033","40.848524","-82.924783 ","8393","162","91","0","12/29/2021 12:00:00 AM","2019","41494","NYTIMES-USCENSUS"
"12/30/2021 12:00:00 AM","Johnston County","Oklahoma","South","West South Central","40069","34.313455","-96.654254 ","2044","49","0","0","12/29/2021 12:00:00 AM","2019","11085","NYTIMES-USCENSUS"
"12/30/2021 12:00:00 AM","Stillwater County","Montana","West","Mountain","30095","45.658545","-109.381576 ","1248","29","3","0","12/29/2021 12:00:00 AM","2019","9642","NYTIMES-USCENSUS"
"12/30/2021 12:00:00 AM","Warren County","Ohio","Midwest","East North Central","39165","39.425663","-84.16994 ","40358","444","423","0","12/29/2021 12:00:00 AM","2019","234602","NYTIMES-USCENSUS"
"12/30/2021 12:00:00 AM","Milam County","Texas","South","West South Central","48331","30.791242","-96.984395 ","3892","91","3","0","12/29/2021 12:00:00 AM","2019","24823","NYTIMES-USCENSUS"
"12/30/2021 12:00:00 AM","San Luis Obispo County","California","West","Pacific","06079","35.388189","-120.448897 ","33451","367","250","0","12/29/2021 12:00:00 AM","2019","283111","NYTIMES-USCENSUS"
"12/30/2021 12:00:00 AM","Juniata County","Pennsylvania","Northeast","Middle Atlantic","42067","40.530673","-77.400438 ","3797","146","29","1","12/29/2021 12:00:00 AM","2019","24763","NYTIMES-USCENSUS"
"12/30/2021 12:00:00 AM","Cascade County","Montana","West","Mountain","30013","47.316575","-111.350262 ","17154","283","28","0","12/29/2021 12:00:00 AM","2019","81366","NYTIMES-USCENSUS"
"12/30/2021 12:00:00 AM","Frederick County","Virginia","South","South Atlantic","51069","39.20366","-78.263829 ","14352","182","115","0","12/29/2021 12:00:00 AM","2019","89313","NYTIMES-USCENSUS"
"12/30/2021 12:00:00 AM","Sherburne County","Minnesota","Midwest","West North Central","27141","45.453176","-93.76913 ","20962","153","81","2","12/29/2021 12:00:00 AM","2019","97238","NYTIMES-USCENSUS"
"12/30/2021 12:00:00 AM","Lanier County","Georgia","South","South Atlantic","13173","31.038197","-83.063164 ","1547","17","13","0","12/29/2021 12:00:00 AM","2019","10423","NYTIMES-USCENSUS"
"12/30/2021 12:00:00 AM","Hood River County","Oregon","West","Pacific","41027","45.511775","-121.655976 ","2304","38","18","0","12/29/2021 12:00:00 AM","2019","23382","NYTIMES-USCENSUS"
"12/30/2021 12:00:00 AM","Phillips County","Arkansas","South","West South Central","05107","34.423687","-90.855593 ","3450","81","29","0","12/29/2021 12:00:00 AM","2019","17782","NYTIMES-USCENSUS"
"12/30/2021 12:00:00 AM","Chowan County","North Carolina","South","South Atlantic","37041","36.128979","-76.602752 ","2513","44","26","0","12/29/2021 12:00:00 AM","2019","13943","NYTIMES-USCENSUS"
"12/30/2021 12:00:00 AM","Gallatin County","Illinois","Midwest","East North Central","17059","37.768677","-88.227964 ","917","11","9","0","12/29/2021 12:00:00 AM","2019","4828","NYTIMES-USCENSUS"
"12/30/2021 12:00:00 AM","Gloucester County","New Jersey","Northeast","Middle Atlantic","34015","39.722875","-75.145679 ","48637","784","814","3","12/29/2021 12:00:00 AM","2019","291636","NYTIMES-USCENSUS"
"12/30/2021 12:00:00 AM","Broome County","New York","Northeast","Middle Atlantic","36007","42.161977","-75.830283 ","33130","462","293","1","12/29/2021 12:00:00 AM","2019","190488","NYTIMES-USCENSUS"
"12/30/2021 12:00:00 AM","Lea County","New Mexico","West","Mountain","35025","32.795687","-103.413271 ","15625","289","78","0","12/29/2021 12:00:00 AM","2019","71070","NYTIMES-USCENSUS"
"12/30/2021 12:00:00 AM","Bryan County","Oklahoma","South","West South Central","40013","33.964004","-96.265135 ","9385","118","0","0","12/29/2021 12:00:00 AM","2019","47995","NYTIMES-USCENSUS"
"12/30/2021 12:00:00 AM","Orange County","New York","Northeast","Middle Atlantic","36071","41.40241","-74.306252 ","74512","830","1598","0","12/29/2021 12:00:00 AM","2019","384940","NYTIMES-USCENSUS"
"12/30/2021 12:00:00 AM","Shelby County","Tennessee","South","East South Central","47157","35.184553","-89.894612 ","165757","2708","3168","3","12/29/2021 12:00:00 AM","2019","937166","NYTIMES-USCENSUS"
"12/30/2021 12:00:00 AM","Marshall County","West Virginia","South","South Atlantic","54051","39.854426","-80.671794 ","6120","133","26","0","12/29/2021 12:00:00 AM","2019","30531","NYTIMES-USCENSUS"
"12/30/2021 12:00:00 AM","Fairfax County","Virginia","South","South Atlantic","51059","38.82952","-77.273252 ","113641","1209","2062","1","12/29/2021 12:00:00 AM","2019","1147532","NYTIMES-USCENSUS"
"12/30/2021 12:00:00 AM","Otero County","New Mexico","West","Mountain","35035","32.615599","-105.751308 ","10918","145","23","0","12/29/2021 12:00:00 AM","2019","67490","NYTIMES-USCENSUS"
"12/30/2021 12:00:00 AM","Telfair County","Georgia","South","South Atlantic","13271","31.913641","-82.931063 ","2352","75","8","0","12/29/2021 12:00:00 AM","2019","15860","NYTIMES-USCENSUS"
"12/30/2021 12:00:00 AM","Chautauqua County","Kansas","Midwest","West North Central","20019","37.154259","-96.245396 ","643","15","0","0","12/29/2021 12:00:00 AM","2019","3250","NYTIMES-USCENSUS"
"12/30/2021 12:00:00 AM","Isanti County","Minnesota","Midwest","West North Central","27059","45.562431","-93.296339 ","7849","97","19","2","12/29/2021 12:00:00 AM","2019","40596","NYTIMES-USCENSUS"
"12/30/2021 12:00:00 AM","Grant County","South Dakota","Midwest","West North Central","46051","45.172637","-96.772261 ","1554","47","14","0","12/29/2021 12:00:00 AM","2019","7052","NYTIMES-USCENSUS"
"12/30/2021 12:00:00 AM","St. Croix County","Wisconsin","Midwest","East North Central","55109","45.028959","-92.447284 ","18010","113","87","1","12/29/2021 12:00:00 AM","2019","90687","NYTIMES-USCENSUS"
"12/30/2021 12:00:00 AM","Washington County","Indiana","Midwest","East North Central","18175","38.600613","-86.104751 ","4254","61","31","1","12/29/2021 12:00:00 AM","2019","28036","NYTIMES-USCENSUS"
"12/30/2021 12:00:00 AM","Burnett County","Wisconsin","Midwest","East North Central","55013","45.866897","-92.37573 ","3014","36","9","0","12/29/2021 12:00:00 AM","2019","15414","NYTIMES-USCENSUS"
"12/30/2021 12:00:00 AM","Lamar County","Georgia","South","South Atlantic","13171","33.07444","-84.146689 ","3710","101","54","0","12/29/2021 12:00:00 AM","2019","19077","NYTIMES-USCENSUS"
"12/30/2021 12:00:00 AM","Boone County","Kentucky","South","East South Central","21015","38.9589","-84.736371 ","25460","231","0","0","12/29/2021 12:00:00 AM","2019","133581","NYTIMES-USCENSUS"
"12/30/2021 12:00:00 AM","Mineral County","Nevada","West","Mountain","32021","38.516647","-118.416279 ","648","14","0","0","12/29/2021 12:00:00 AM","2019","4505","NYTIMES-USCENSUS"
"12/30/2021 12:00:00 AM","Ouray County","Colorado","West","Mountain","08091","38.154731","-107.78848 ","596","6","16","0","12/29/2021 12:00:00 AM","2019","4952","NYTIMES-USCENSUS"
"12/30/2021 12:00:00 AM","Chickasaw County","Mississippi","South","East South Central","28017","33.933277","-88.947558 ","3483","74","29","1","12/29/2021 12:00:00 AM","2019","17103","NYTIMES-USCENSUS"
"12/30/2021 12:00:00 AM","Dukes County","Massachusetts","Northeast","New England","25007","41.38097","-70.701499 ","2340","0","12","0","12/29/2021 12:00:00 AM","2019","17332","NYTIMES-USCENSUS"
"12/30/2021 12:00:00 AM","Campbell County","Wyoming","West","Mountain","56005","44.191999","-105.517014 ","9585","130","17","0","12/29/2021 12:00:00 AM","2019","46341","NYTIMES-USCENSUS"
"12/30/2021 12:00:00 AM","Jefferson County","Texas","South","West South Central","48245","29.854","-94.149331 ","33485","736","163","0","12/29/2021 12:00:00 AM","2019","251565","NYTIMES-USCENSUS"
"12/30/2021 12:00:00 AM","Bent County","Colorado","West","Mountain","08011","37.931891","-103.077584 ","1954","42","4","0","12/29/2021 12:00:00 AM","2019","5577","NYTIMES-USCENSUS"
"12/30/2021 12:00:00 AM","Gulf County","Florida","South","South Atlantic","12045","29.859238","-85.272013 ","2998","65","0","0","12/29/2021 12:00:00 AM","2019","13639","NYTIMES-USCENSUS"
"12/30/2021 12:00:00 AM","Phillips County","Kansas","Midwest","West North Central","20147","39.784506","-99.34215 ","1079","28","0","0","12/29/2021 12:00:00 AM","2019","5234","NYTIMES-USCENSUS"
"12/30/2021 12:00:00 AM","Cumberland County","Pennsylvania","Northeast","Middle Atlantic","42041","40.164805","-77.263442 ","36561","721","288","2","12/29/2021 12:00:00 AM","2019","253370","NYTIMES-USCENSUS"
"12/30/2021 12:00:00 AM","Hardin County","Tennessee","South","East South Central","47071","35.201893","-88.185696 ","5949","110","29","0","12/29/2021 12:00:00 AM","2019","25652","NYTIMES-USCENSUS"
"12/30/2021 12:00:00 AM","Glenn County","California","West","Pacific","06021","39.602546","-122.4017 ","4715","54","31","0","12/29/2021 12:00:00 AM","2019","28393","NYTIMES-USCENSUS"
"12/30/2021 12:00:00 AM","Baraga County","Michigan","Midwest","East North Central","26013","46.695859","-88.36181 ","1665","49","0","0","12/29/2021 12:00:00 AM","2019","8209","NYTIMES-USCENSUS"
"12/30/2021 12:00:00 AM","Ocean County","New Jersey","Northeast","Middle Atlantic","34029","39.865669","-74.258864 ","118821","2475","1708","1","12/29/2021 12:00:00 AM","2019","607186","NYTIMES-USCENSUS"
"12/30/2021 12:00:00 AM","Lowndes County","Mississippi","South","East South Central","28087","33.471424","-88.439723 ","11804","199","84","0","12/29/2021 12:00:00 AM","2019","58595","NYTIMES-USCENSUS"
"12/30/2021 12:00:00 AM","Boone County","Iowa","Midwest","West North Central","19015","42.038642","-93.938603 ","4322","44","0","0","12/29/2021 12:00:00 AM","2019","26234","NYTIMES-USCENSUS"
"12/30/2021 12:00:00 AM","Campbell County","Virginia","South","South Atlantic","51031","37.210152","-79.095428 ","8275","157","61","0","12/29/2021 12:00:00 AM","2019","54885","NYTIMES-USCENSUS"
"12/30/2021 12:00:00 AM","Wayne County","Kentucky","South","East South Central","21231","36.800772","-84.82659 ","3992","73","20","0","12/29/2021 12:00:00 AM","2019","20333","NYTIMES-USCENSUS"
"12/30/2021 12:00:00 AM","Bossier Parish","Louisiana","South","West South Central","22015","32.698481","-93.626561 ","23722","413","370","0","12/29/2021 12:00:00 AM","2019","127039","NYTIMES-USCENSUS"
"12/30/2021 12:00:00 AM","Hart County","Kentucky","South","East South Central","21099","37.305827","-85.878443 ","4016","78","0","0","12/29/2021 12:00:00 AM","2019","19035","NYTIMES-USCENSUS"
"12/30/2021 12:00:00 AM","Cherokee County","Iowa","Midwest","West North Central","19035","42.742737","-95.633262 ","2324","50","0","0","12/29/2021 12:00:00 AM","2019","11235","NYTIMES-USCENSUS"
"12/30/2021 12:00:00 AM","San Bernardino County","California","West","Pacific","06071","34.856661","-116.181571 ","395615","6049","1792","2","12/29/2021 12:00:00 AM","2019","2180085","NYTIMES-USCENSUS"
"12/30/2021 12:00:00 AM","Carroll County","Arkansas","South","West South Central","05015","36.33737","-93.540972 ","4590","81","17","0","12/29/2021 12:00:00 AM","2019","28380","NYTIMES-USCENSUS"
"12/30/2021 12:00:00 AM","Warren County","Kentucky","South","East South Central","21227","36.995634","-86.423579 ","28853","303","0","0","12/29/2021 12:00:00 AM","2019","132896","NYTIMES-USCENSUS"
"12/30/2021 12:00:00 AM","Choctaw County","Mississippi","South","East South Central","28019","33.345964","-89.251332 ","1413","27","6","0","12/29/2021 12:00:00 AM","2019","8210","NYTIMES-USCENSUS"
"12/30/2021 12:00:00 AM","Roosevelt County","New Mexico","West","Mountain","35041","34.021207","-103.483004 ","3509","81","3","0","12/29/2021 12:00:00 AM","2019","18500","NYTIMES-USCENSUS"
"12/30/2021 12:00:00 AM","Schley County","Georgia","South","South Atlantic","13249","32.263444","-84.322708 ","747","8","2","0","12/29/2021 12:00:00 AM","2019","5257","NYTIMES-USCENSUS"
"12/30/2021 12:00:00 AM","Kingfisher County","Oklahoma","South","West South Central","40073","35.949436","-97.934557 ","2763","56","0","0","12/29/2021 12:00:00 AM","2019","15765","NYTIMES-USCENSUS"
"12/30/2021 12:00:00 AM","Bosque County","Texas","South","West South Central","48035","31.900819","-97.637641 ","2591","59","2","0","12/29/2021 12:00:00 AM","2019","18685","NYTIMES-USCENSUS"
"12/30/2021 12:00:00 AM","Webster County","Kentucky","South","East South Central","21233","37.51946","-87.68479 ","2676","45","0","0","12/29/2021 12:00:00 AM","2019","12942","NYTIMES-USCENSUS"
"12/30/2021 12:00:00 AM","Jefferson County","Oklahoma","South","West South Central","40067","34.105082","-97.83889 ","976","20","0","0","12/29/2021 12:00:00 AM","2019","6002","NYTIMES-USCENSUS"
"12/30/2021 12:00:00 AM","Pocahontas County","West Virginia","South","South Atlantic","54075","38.332606","-80.010121 ","1364","22","9","0","12/29/2021 12:00:00 AM","2019","8247","NYTIMES-USCENSUS"
"12/30/2021 12:00:00 AM","Miami-Dade County","Florida","South","South Atlantic","12086","25.616009","-80.50375 ","747820","9260","0","0","12/29/2021 12:00:00 AM","2019","2716940","NYTIMES-USCENSUS"
"12/30/2021 12:00:00 AM","Tift County","Georgia","South","South Atlantic","13277","31.457003","-83.525931 ","8677","188","74","0","12/29/2021 12:00:00 AM","2019","40644","NYTIMES-USCENSUS"
"12/30/2021 12:00:00 AM","Presidio County","Texas","South","West South Central","48377","30.005891","-104.261619 ","933","30","0","0","12/29/2021 12:00:00 AM","2019","6704","NYTIMES-USCENSUS"
"12/30/2021 12:00:00 AM","Valley County","Idaho","West","Mountain","16085","44.85596","-115.618061 ","1640","13","6","0","12/29/2021 12:00:00 AM","2019","11392","NYTIMES-USCENSUS"
"12/30/2021 12:00:00 AM","Pulaski County","Arkansas","South","West South Central","05119","34.770311","-92.312996 ","64984","966","1158","0","12/29/2021 12:00:00 AM","2019","391911","NYTIMES-USCENSUS"
"12/30/2021 12:00:00 AM","Clay County","Alabama","South","East South Central","01027","33.2704","-85.863525 ","2633","69","23","0","12/29/2021 12:00:00 AM","2019","13235","NYTIMES-USCENSUS"
"12/30/2021 12:00:00 AM","Garland County","Arkansas","South","West South Central","05051","34.578852","-93.146932 ","16720","421","46","0","12/29/2021 12:00:00 AM","2019","99386","NYTIMES-USCENSUS"
"12/30/2021 12:00:00 AM","Yoakum County","Texas","South","West South Central","48501","33.162339","-102.832241 ","1381","35","0","0","12/29/2021 12:00:00 AM","2019","8713","NYTIMES-USCENSUS"
"12/30/2021 12:00:00 AM","Burke County","North Carolina","South","South Atlantic","37023","35.746182","-81.70618 ","17033","253","166","3","12/29/2021 12:00:00 AM","2019","90485","NYTIMES-USCENSUS"
"12/30/2021 12:00:00 AM","Miner County","South Dakota","Midwest","West North Central","46097","44.021541","-97.608122 ","384","12","3","0","12/29/2021 12:00:00 AM","2019","2216","NYTIMES-USCENSUS"
"12/30/2021 12:00:00 AM","Mitchell County","Iowa","Midwest","West North Central","19131","43.348564","-92.784466 ","1986","47","0","0","12/29/2021 12:00:00 AM","2019","10586","NYTIMES-USCENSUS"
"12/30/2021 12:00:00 AM","Nevada County","California","West","Pacific","06057","39.297508","-120.771343 ","10645","110","26","0","12/29/2021 12:00:00 AM","2019","99755","NYTIMES-USCENSUS"
"12/30/2021 12:00:00 AM","Clay County","Indiana","Midwest","East North Central","18021","39.393928","-87.115858 ","5082","68","31","0","12/29/2021 12:00:00 AM","2019","26225","NYTIMES-USCENSUS"
"12/30/2021 12:00:00 AM","Dawson County","Nebraska","Midwest","West North Central","31047","40.86784","-99.815583 ","4311","31","19","0","12/29/2021 12:00:00 AM","2019","23595","NYTIMES-USCENSUS"
"12/30/2021 12:00:00 AM","Pamlico County","North Carolina","South","South Atlantic","37137","35.147575","-76.665268 ","1823","26","9","0","12/29/2021 12:00:00 AM","2019","12726","NYTIMES-USCENSUS"
"12/30/2021 12:00:00 AM","Calhoun County","West Virginia","South","South Atlantic","54013","38.844159","-81.115478 ","1219","9","5","0","12/29/2021 12:00:00 AM","2019","7109","NYTIMES-USCENSUS"
"12/30/2021 12:00:00 AM","Bates County","Missouri","Midwest","West North Central","29013","38.257217","-94.339246 ","2764","63","33","0","12/29/2021 12:00:00 AM","2019","16172","NYTIMES-USCENSUS"
"12/30/2021 12:00:00 AM","Brown County","Minnesota","Midwest","West North Central","27015","44.246541","-94.733647 ","5031","66","17","0","12/29/2021 12:00:00 AM","2019","25008","NYTIMES-USCENSUS"
"12/30/2021 12:00:00 AM","Blue Earth County","Minnesota","Midwest","West North Central","27013","44.03371","-94.064012 ","12732","82","55","3","12/29/2021 12:00:00 AM","2019","67653","NYTIMES-USCENSUS"
"12/30/2021 12:00:00 AM","Hernando County","Florida","South","South Atlantic","12053","28.555995","-82.525969 ","29215","934","0","0","12/29/2021 12:00:00 AM","2019","193920","NYTIMES-USCENSUS"
"12/30/2021 12:00:00 AM","Lehigh County","Pennsylvania","Northeast","Middle Atlantic","42077","40.614241","-75.590627 ","62899","1047","539","2","12/29/2021 12:00:00 AM","2019","369318","NYTIMES-USCENSUS"
"12/30/2021 12:00:00 AM","Buffalo County","Nebraska","Midwest","West North Central","31019","40.855265","-99.074984 ","9069","57","28","0","12/29/2021 12:00:00 AM","2019","49659","NYTIMES-USCENSUS"
"12/30/2021 12:00:00 AM","Madison County","Nebraska","Midwest","West North Central","31119","41.909929","-97.606856 ","7068","44","25","0","12/29/2021 12:00:00 AM","2019","35099","NYTIMES-USCENSUS"
"12/30/2021 12:00:00 AM","Newport News city","Virginia","South","South Atlantic","51700","37.076136","-76.52198 ","23273","320","376","0","12/29/2021 12:00:00 AM","2019","179225","NYTIMES-USCENSUS"
"12/30/2021 12:00:00 AM","Sheridan County","Kansas","Midwest","West North Central","20179","39.350547","-100.441228 ","619","16","0","0","12/29/2021 12:00:00 AM","2019","2521","NYTIMES-USCENSUS"
"12/30/2021 12:00:00 AM","Washington County","Ohio","Midwest","East North Central","39167","39.450676","-81.490636 ","9256","163","75","0","12/29/2021 12:00:00 AM","2019","59911","NYTIMES-USCENSUS"
"12/30/2021 12:00:00 AM","Harris County","Georgia","South","South Atlantic","13145","32.731549","-84.912432 ","4086","96","50","0","12/29/2021 12:00:00 AM","2019","35236","NYTIMES-USCENSUS"
"12/30/2021 12:00:00 AM","Lowndes County","Georgia","South","South Atlantic","13185","30.833145","-83.268995 ","22315","329","155","1","12/29/2021 12:00:00 AM","2019","117406","NYTIMES-USCENSUS"
"12/30/2021 12:00:00 AM","Deaf Smith County","Texas","South","West South Central","48117","34.940766","-102.607564 ","3732","100","8","2","12/29/2021 12:00:00 AM","2019","18546","NYTIMES-USCENSUS"
"12/30/2021 12:00:00 AM","Cheshire County","New Hampshire","Northeast","New England","33005","42.92546","-72.248183 ","9338","72","69","1","12/29/2021 12:00:00 AM","2019","76085","NYTIMES-USCENSUS"
"12/30/2021 12:00:00 AM","Ascension Parish","Louisiana","South","West South Central","22005","30.206444","-90.912502 ","23642","250","450","0","12/29/2021 12:00:00 AM","2019","126604","NYTIMES-USCENSUS"
"12/30/2021 12:00:00 AM","Hamilton County","Tennessee","South","East South Central","47065","35.163472","-85.201843 ","70797","901","727","1","12/29/2021 12:00:00 AM","2019","367804","NYTIMES-USCENSUS"
"12/30/2021 12:00:00 AM","Knox County","Texas","South","West South Central","48275","33.61189","-99.730356 ","390","22","0","0","12/29/2021 12:00:00 AM","2019","3664","NYTIMES-USCENSUS"
"12/30/2021 12:00:00 AM","Loudoun County","Virginia","South","South Atlantic","51107","39.0812","-77.638898 ","43392","314","641","2","12/29/2021 12:00:00 AM","2019","413538","NYTIMES-USCENSUS"
"12/30/2021 12:00:00 AM","Weld County","Colorado","West","Mountain","08123","40.555961","-104.383666 ","57648","587","419","2","12/29/2021 12:00:00 AM","2019","324492","NYTIMES-USCENSUS"
"12/30/2021 12:00:00 AM","Stewart County","Georgia","South","South Atlantic","13259","32.073225","-84.834912 ","1639","30","11","0","12/29/2021 12:00:00 AM","2019","6621","NYTIMES-USCENSUS"
"12/30/2021 12:00:00 AM","Lauderdale County","Alabama","South","East South Central","01077","34.904122","-87.650997 ","15768","318","131","0","12/29/2021 12:00:00 AM","2019","92729","NYTIMES-USCENSUS"
"12/30/2021 12:00:00 AM","Cooper County","Missouri","Midwest","West North Central","29053","38.847093","-92.810069 ","3252","58","24","0","12/29/2021 12:00:00 AM","2019","17709","NYTIMES-USCENSUS"
"12/30/2021 12:00:00 AM","Ogemaw County","Michigan","Midwest","East North Central","26129","44.33328","-84.128073 ","3327","81","0","0","12/29/2021 12:00:00 AM","2019","20997","NYTIMES-USCENSUS"
"12/30/2021 12:00:00 AM","Moniteau County","Missouri","Midwest","West North Central","29135","38.633037","-92.583642 ","2979","46","13","0","12/29/2021 12:00:00 AM","2019","16132","NYTIMES-USCENSUS"
"12/30/2021 12:00:00 AM","Allegany County","Maryland","South","South Atlantic","24001","39.612313","-78.703104 ","11737","294","74","1","12/29/2021 12:00:00 AM","2019","70416","NYTIMES-USCENSUS"
"12/30/2021 12:00:00 AM","Jefferson County","Florida","South","South Atlantic","12065","30.396898","-83.921761 ","2523","36","0","0","12/29/2021 12:00:00 AM","2019","14246","NYTIMES-USCENSUS"
"12/30/2021 12:00:00 AM","Zapata County","Texas","South","West South Central","48505","26.996981","-99.182603 ","2289","46","4","0","12/29/2021 12:00:00 AM","2019","14179","NYTIMES-USCENSUS"
"12/30/2021 12:00:00 AM","Toole County","Montana","West","Mountain","30101","48.645125","-111.733472 ","1015","21","3","0","12/29/2021 12:00:00 AM","2019","4736","NYTIMES-USCENSUS"
"12/30/2021 12:00:00 AM","Jerauld County","South Dakota","Midwest","West North Central","46073","44.06341","-98.62317 ","337","19","2","0","12/29/2021 12:00:00 AM","2019","2013","NYTIMES-USCENSUS"
"12/30/2021 12:00:00 AM","Bradford County","Pennsylvania","Northeast","Middle Atlantic","42015","41.791504","-76.502123 ","10691","154","73","1","12/29/2021 12:00:00 AM","2019","60323","NYTIMES-USCENSUS"
"12/30/2021 12:00:00 AM","Torrance County","New Mexico","West","Mountain","35057","34.554978","-105.890557 ","2259","35","10","0","12/29/2021 12:00:00 AM","2019","15461","NYTIMES-USCENSUS"
"12/30/2021 12:00:00 AM","Hampton County","South Carolina","South","South Atlantic","45049","32.778334","-81.143822 ","3242","75","15","0","12/29/2021 12:00:00 AM","2019","19222","NYTIMES-USCENSUS"
"12/30/2021 12:00:00 AM","Anderson County","South Carolina","South","South Atlantic","45007","34.521235","-82.638603 ","39779","817","179","0","12/29/2021 12:00:00 AM","2019","202558","NYTIMES-USCENSUS"
"12/30/2021 12:00:00 AM","Lewis County","Tennessee","South","East South Central","47101","35.523244","-87.496983 ","2628","48","15","0","12/29/2021 12:00:00 AM","2019","12268","NYTIMES-USCENSUS"
"12/30/2021 12:00:00 AM","Dinwiddie County","Virginia","South","South Atlantic","51053","37.073498","-77.635492 ","3721","62","28","0","12/29/2021 12:00:00 AM","2019","28544","NYTIMES-USCENSUS"
"12/30/2021 12:00:00 AM","Muskegon County","Michigan","Midwest","East North Central","26121","43.428739","-86.420908 ","31612","528","0","0","12/29/2021 12:00:00 AM","2019","173566","NYTIMES-USCENSUS"
"12/30/2021 12:00:00 AM","Catron County","New Mexico","West","Mountain","35003","33.901621","-108.391928 ","289","11","1","0","12/29/2021 12:00:00 AM","2019","3527","NYTIMES-USCENSUS"
"12/30/2021 12:00:00 AM","Kern County","California","West","Pacific","06029","35.346629","-118.729506 ","162767","1918","0","0","12/29/2021 12:00:00 AM","2019","900202","NYTIMES-USCENSUS"
"12/30/2021 12:00:00 AM","Santa Rosa County","Florida","South","South Atlantic","12113","30.675348","-87.018919 ","33130","527","0","0","12/29/2021 12:00:00 AM","2019","184313","NYTIMES-USCENSUS"
"12/30/2021 12:00:00 AM","Carteret County","North Carolina","South","South Atlantic","37031","34.858343","-76.53586 ","9180","83","67","0","12/29/2021 12:00:00 AM","2019","69473","NYTIMES-USCENSUS"
"12/30/2021 12:00:00 AM","Oconee County","South Carolina","South","South Atlantic","45073","34.748766","-83.06154 ","16863","261","59","2","12/29/2021 12:00:00 AM","2019","79546","NYTIMES-USCENSUS"
"12/30/2021 12:00:00 AM","Elmore County","Alabama","South","East South Central","01051","32.597229","-86.142735 ","16638","297","68","0","12/29/2021 12:00:00 AM","2019","81209","NYTIMES-USCENSUS"
"12/30/2021 12:00:00 AM","Kimball County","Nebraska","Midwest","West North Central","31105","41.199274","-103.703153 ","617","9","0","0","12/29/2021 12:00:00 AM","2019","3632","NYTIMES-USCENSUS"
"12/30/2021 12:00:00 AM","Summers County","West Virginia","South","South Atlantic","54089","37.655999","-80.856325 ","1727","38","17","1","12/29/2021 12:00:00 AM","2019","12573","NYTIMES-USCENSUS"
"12/30/2021 12:00:00 AM","Okmulgee County","Oklahoma","South","West South Central","40111","35.6435","-95.965947 ","6606","153","0","0","12/29/2021 12:00:00 AM","2019","38465","NYTIMES-USCENSUS"
"12/30/2021 12:00:00 AM","Cheyenne County","Kansas","Midwest","West North Central","20023","39.789917","-101.727325 ","513","14","0","0","12/29/2021 12:00:00 AM","2019","2657","NYTIMES-USCENSUS"
"12/30/2021 12:00:00 AM","Martin County","North Carolina","South","South Atlantic","37117","35.847301","-77.119602 ","3886","75","17","0","12/29/2021 12:00:00 AM","2019","22440","NYTIMES-USCENSUS"
"12/30/2021 12:00:00 AM","Prince William County","Virginia","South","South Atlantic","51153","38.701119","-77.479579 ","66310","616","950","0","12/29/2021 12:00:00 AM","2019","470335","NYTIMES-USCENSUS"
"12/30/2021 12:00:00 AM","Perry County","Illinois","Midwest","East North Central","17145","38.084381","-89.368525 ","4871","91","29","1","12/29/2021 12:00:00 AM","2019","20916","NYTIMES-USCENSUS"
"12/30/2021 12:00:00 AM","Campbell County","Tennessee","South","East South Central","47013","36.401592","-84.159249 ","8026","128","37","0","12/29/2021 12:00:00 AM","2019","39842","NYTIMES-USCENSUS"
"12/30/2021 12:00:00 AM","Jasper County","Iowa","Midwest","West North Central","19099","41.685551","-93.054147 ","6855","91","0","0","12/29/2021 12:00:00 AM","2019","37185","NYTIMES-USCENSUS"
"12/30/2021 12:00:00 AM","Pickaway County","Ohio","Midwest","East North Central","39129","39.648947","-83.052827 ","13338","163","103","0","12/29/2021 12:00:00 AM","2019","58457","NYTIMES-USCENSUS"
"12/30/2021 12:00:00 AM","Guthrie County","Iowa","Midwest","West North Central","19077","41.683573","-94.501272 ","1835","40","0","0","12/29/2021 12:00:00 AM","2019","10689","NYTIMES-USCENSUS"
"12/30/2021 12:00:00 AM","Crawford County","Kansas","Midwest","West North Central","20037","37.505821","-94.853897 ","7876","117","0","0","12/29/2021 12:00:00 AM","2019","38818","NYTIMES-USCENSUS"
"12/30/2021 12:00:00 AM","Mobile County","Alabama","South","East South Central","01097","30.684572","-88.196568 ","77995","1394","1171","1","12/29/2021 12:00:00 AM","2019","413210","NYTIMES-USCENSUS"
"12/30/2021 12:00:00 AM","Franklin County","Ohio","Midwest","East North Central","39049","39.969875","-83.009086 ","206135","1929","2616","0","12/29/2021 12:00:00 AM","2019","1316756","NYTIMES-USCENSUS"
"12/30/2021 12:00:00 AM","Bracken County","Kentucky","South","East South Central","21023","38.680365","-84.115235 ","1451","20","0","0","12/29/2021 12:00:00 AM","2019","8303","NYTIMES-USCENSUS"
"12/30/2021 12:00:00 AM","Union Parish","Louisiana","South","West South Central","22111","32.829349","-92.37565 ","4536","113","38","0","12/29/2021 12:00:00 AM","2019","22108","NYTIMES-USCENSUS"
"12/30/2021 12:00:00 AM","Barber County","Kansas","Midwest","West North Central","20007","37.222906","-98.685052 ","691","7","0","0","12/29/2021 12:00:00 AM","2019","4427","NYTIMES-USCENSUS"
"12/30/2021 12:00:00 AM","Dillingham Census Area","Alaska","West","Pacific","02070","59.543326","-158.267123 ","996","10","0","0","12/29/2021 12:00:00 AM","2019","4916","NYTIMES-USCENSUS"
"12/30/2021 12:00:00 AM","Dewey County","Oklahoma","South","West South Central","40043","35.97796","-99.014385 ","769","24","0","0","12/29/2021 12:00:00 AM","2019","4891","NYTIMES-USCENSUS"
"12/30/2021 12:00:00 AM","Jefferson County","Tennessee","South","East South Central","47089","36.048338","-83.441143 ","10836","215","60","2","12/29/2021 12:00:00 AM","2019","54495","NYTIMES-USCENSUS"
"12/30/2021 12:00:00 AM","Herkimer County","New York","Northeast","Middle Atlantic","36043","43.571009","-74.841097 ","10031","159","103","1","12/29/2021 12:00:00 AM","2019","61319","NYTIMES-USCENSUS"
"12/30/2021 12:00:00 AM","Cook County","Illinois","Midwest","East North Central","17031","41.894294","-87.645455 ","821472","12541","12931","26","12/29/2021 12:00:00 AM","2019","5150233","NYTIMES-USCENSUS"
"12/30/2021 12:00:00 AM","Lewis County","West Virginia","South","South Atlantic","54041","38.988877","-80.495477 ","3646","65","11","0","12/29/2021 12:00:00 AM","2019","15907","NYTIMES-USCENSUS"
"12/30/2021 12:00:00 AM","Andrew County","Missouri","Midwest","West North Central","29003","39.988863","-94.803551 ","3506","41","24","-1","12/29/2021 12:00:00 AM","2019","17712","NYTIMES-USCENSUS"
"12/30/2021 12:00:00 AM","Wapello County","Iowa","Midwest","West North Central","19179","41.031275","-92.409466 ","7106","157","0","0","12/29/2021 12:00:00 AM","2019","34969","NYTIMES-USCENSUS"
"12/30/2021 12:00:00 AM","Platte County","Wyoming","West","Mountain","56031","42.131593","-104.953963 ","1579","35","1","0","12/29/2021 12:00:00 AM","2019","8393","NYTIMES-USCENSUS"
"12/30/2021 12:00:00 AM","Goodhue County","Minnesota","Midwest","West North Central","27049","44.406178","-92.716 ","9243","109","49","2","12/29/2021 12:00:00 AM","2019","46340","NYTIMES-USCENSUS"
"12/30/2021 12:00:00 AM","Starr County","Texas","South","West South Central","48427","26.530903","-98.740235 ","12092","337","40","0","12/29/2021 12:00:00 AM","2019","64633","NYTIMES-USCENSUS"
"12/30/2021 12:00:00 AM","Union County","Tennessee","South","East South Central","47173","36.28414","-83.836088 ","3694","64","22","0","12/29/2021 12:00:00 AM","2019","19972","NYTIMES-USCENSUS"
"12/30/2021 12:00:00 AM","Kankakee County","Illinois","Midwest","East North Central","17091","41.13951","-87.861117 ","22538","300","288","3","12/29/2021 12:00:00 AM","2019","109862","NYTIMES-USCENSUS"
"12/30/2021 12:00:00 AM","Monroe County","Illinois","Midwest","East North Central","17133","38.277983","-90.179078 ","6365","108","107","0","12/29/2021 12:00:00 AM","2019","34637","NYTIMES-USCENSUS"
"12/30/2021 12:00:00 AM","Cass County","Iowa","Midwest","West North Central","19029","41.333824","-94.933302 ","2484","72","0","0","12/29/2021 12:00:00 AM","2019","12836","NYTIMES-USCENSUS"
"12/30/2021 12:00:00 AM","Cassia County","Idaho","West","Mountain","16031","42.282313","-113.626328 ","4066","45","2","0","12/29/2021 12:00:00 AM","2019","24030","NYTIMES-USCENSUS"
"12/30/2021 12:00:00 AM","Cass County","Illinois","Midwest","East North Central","17017","39.969202","-90.245704 ","3127","40","47","0","12/29/2021 12:00:00 AM","2019","12147","NYTIMES-USCENSUS"
"12/30/2021 12:00:00 AM","Allegan County","Michigan","Midwest","East North Central","26005","42.421251","-86.261403 ","20295","279","0","0","12/29/2021 12:00:00 AM","2019","118081","NYTIMES-USCENSUS"
"12/30/2021 12:00:00 AM","Oxford County","Maine","Northeast","New England","23017","44.4945","-70.734421 ","7644","102","69","3","12/29/2021 12:00:00 AM","2019","57975","NYTIMES-USCENSUS"
"12/30/2021 12:00:00 AM","Sublette County","Wyoming","West","Mountain","56035","42.767928","-109.91617 ","1527","23","2","0","12/29/2021 12:00:00 AM","2019","9831","NYTIMES-USCENSUS"
"12/30/2021 12:00:00 AM","Iron County","Wisconsin","Midwest","East North Central","55051","46.32655","-90.261298 ","1051","44","4","0","12/29/2021 12:00:00 AM","2019","5687","NYTIMES-USCENSUS"
"12/30/2021 12:00:00 AM","Madison County","Iowa","Midwest","West North Central","19121","41.330622","-94.015184 ","2558","25","0","0","12/29/2021 12:00:00 AM","2019","16338","NYTIMES-USCENSUS"
"12/30/2021 12:00:00 AM","Gwinnett County","Georgia","South","South Atlantic","13135","33.958756","-84.025735 ","150347","1579","2281","0","12/29/2021 12:00:00 AM","2019","936250","NYTIMES-USCENSUS"
"12/30/2021 12:00:00 AM","Randolph County","Missouri","Midwest","West North Central","29175","39.439249","-92.492959 ","4298","85","32","0","12/29/2021 12:00:00 AM","2019","24748","NYTIMES-USCENSUS"
"12/30/2021 12:00:00 AM","Webster County","Nebraska","Midwest","West North Central","31181","40.180646","-98.49859 ","568","8","2","0","12/29/2021 12:00:00 AM","2019","3487","NYTIMES-USCENSUS"
"12/30/2021 12:00:00 AM","Worcester County","Massachusetts","Northeast","New England","25027","42.311693","-71.940282 ","126892","2571","2488","7","12/29/2021 12:00:00 AM","2019","830622","NYTIMES-USCENSUS"
"12/30/2021 12:00:00 AM","Mercer County","Ohio","Midwest","East North Central","39107","40.535333","-84.632059 ","7439","106","11","0","12/29/2021 12:00:00 AM","2019","41172","NYTIMES-USCENSUS"
"12/30/2021 12:00:00 AM","Jackson County","Kentucky","South","East South Central","21109","37.403458","-84.020576 ","3084","58","0","0","12/29/2021 12:00:00 AM","2019","13329","NYTIMES-USCENSUS"
"12/30/2021 12:00:00 AM","Marshall County","Oklahoma","South","West South Central","40095","34.027007","-96.770533 ","2959","31","0","0","12/29/2021 12:00:00 AM","2019","16931","NYTIMES-USCENSUS"
"12/30/2021 12:00:00 AM","San Diego County","California","West","Pacific","06073","33.023604","-116.776117 ","445040","4461","4234","11","12/29/2021 12:00:00 AM","2019","3338330","NYTIMES-USCENSUS"
"12/30/2021 12:00:00 AM","Churchill County","Nevada","West","Mountain","32001","39.53771","-118.264166 ","4463","92","19","2","12/29/2021 12:00:00 AM","2019","24909","NYTIMES-USCENSUS"
"12/30/2021 12:00:00 AM","Wise County","Texas","South","West South Central","48497","33.219095","-97.653997 ","12060","213","12","1","12/29/2021 12:00:00 AM","2019","69984","NYTIMES-USCENSUS"
"12/30/2021 12:00:00 AM","Monroe County","Iowa","Midwest","West North Central","19135","41.028847","-92.869642 ","1541","43","0","0","12/29/2021 12:00:00 AM","2019","7707","NYTIMES-USCENSUS"
"12/30/2021 12:00:00 AM","Appling County","Georgia","South","South Atlantic","13001","31.739712","-82.290103 ","3598","108","15","0","12/29/2021 12:00:00 AM","2019","18386","NYTIMES-USCENSUS"
"12/30/2021 12:00:00 AM","Love County","Oklahoma","South","West South Central","40085","33.957804","-97.245093 ","2075","30","0","0","12/29/2021 12:00:00 AM","2019","10253","NYTIMES-USCENSUS"
"12/30/2021 12:00:00 AM","Richmond County","Georgia","South","South Atlantic","13245","33.361486","-82.074998 ","37547","763","363","4","12/29/2021 12:00:00 AM","2019","202518","NYTIMES-USCENSUS"
"12/30/2021 12:00:00 AM","Howard County","Arkansas","South","West South Central","05061","34.083064","-93.990931 ","2688","39","20","0","12/29/2021 12:00:00 AM","2019","13202","NYTIMES-USCENSUS"
"12/30/2021 12:00:00 AM","Taylor County","Iowa","Midwest","West North Central","19173","40.737949","-94.697108 ","1072","20","0","0","12/29/2021 12:00:00 AM","2019","6121","NYTIMES-USCENSUS"
"12/30/2021 12:00:00 AM","Richland County","Montana","West","Mountain","30083","47.785633","-104.563408 ","2038","30","5","0","12/29/2021 12:00:00 AM","2019","10803","NYTIMES-USCENSUS"
"12/30/2021 12:00:00 AM","Cabarrus County","North Carolina","South","South Atlantic","37025","35.388346","-80.552728 ","37565","376","432","1","12/29/2021 12:00:00 AM","2019","216453","NYTIMES-USCENSUS"
"12/30/2021 12:00:00 AM","Klamath County","Oregon","West","Pacific","41035","42.683761","-121.646168 ","9396","169","35","2","12/29/2021 12:00:00 AM","2019","68238","NYTIMES-USCENSUS"
"12/30/2021 12:00:00 AM","Matagorda County","Texas","South","West South Central","48321","28.77476","-96.001532 ","6310","162","12","0","12/29/2021 12:00:00 AM","2019","36643","NYTIMES-USCENSUS"
"12/30/2021 12:00:00 AM","Baldwin County","Alabama","South","East South Central","01003","30.659218","-87.746067 ","39583","593","285","0","12/29/2021 12:00:00 AM","2019","223234","NYTIMES-USCENSUS"
"12/30/2021 12:00:00 AM","Louisa County","Iowa","Midwest","West North Central","19115","41.218211","-91.256994 ","1991","54","0","0","12/29/2021 12:00:00 AM","2019","11035","NYTIMES-USCENSUS"
"12/30/2021 12:00:00 AM","Yuba County","California","West","Pacific","06115","39.27013","-121.344259 ","11691","99","0","0","12/29/2021 12:00:00 AM","2019","78668","NYTIMES-USCENSUS"
"12/30/2021 12:00:00 AM","Red Lake County","Minnesota","Midwest","West North Central","27125","47.865487","-96.08718 ","736","11","0","0","12/29/2021 12:00:00 AM","2019","4055","NYTIMES-USCENSUS"
"12/30/2021 12:00:00 AM","Cumberland County","Virginia","South","South Atlantic","51049","37.520189","-78.252836 ","838","19","6","0","12/29/2021 12:00:00 AM","2019","9932","NYTIMES-USCENSUS"
"12/30/2021 12:00:00 AM","Grayson County","Virginia","South","South Atlantic","51077","36.652229","-81.215324 ","2601","62","13","0","12/29/2021 12:00:00 AM","2019","15550","NYTIMES-USCENSUS"
"12/30/2021 12:00:00 AM","Mecosta County","Michigan","Midwest","East North Central","26107","43.635295","-85.332751 ","6390","85","0","0","12/29/2021 12:00:00 AM","2019","43453","NYTIMES-USCENSUS"
"12/30/2021 12:00:00 AM","Obion County","Tennessee","South","East South Central","47131","36.361892","-89.148078 ","7383","147","51","0","12/29/2021 12:00:00 AM","2019","30069","NYTIMES-USCENSUS"
"12/30/2021 12:00:00 AM","Madison County","Idaho","West","Mountain","16065","43.788614","-111.656993 ","9362","42","18","0","12/29/2021 12:00:00 AM","2019","39907","NYTIMES-USCENSUS"
"12/30/2021 12:00:00 AM","St. Louis County","Minnesota","Midwest","West North Central","27137","47.578635","-92.514593 ","32941","449","132","2","12/29/2021 12:00:00 AM","2019","199070","NYTIMES-USCENSUS"
"12/30/2021 12:00:00 AM","Audubon County","Iowa","Midwest","West North Central","19009","41.679178","-94.904312 ","846","18","0","0","12/29/2021 12:00:00 AM","2019","5496","NYTIMES-USCENSUS"
"12/30/2021 12:00:00 AM","Pleasants County","West Virginia","South","South Atlantic","54073","39.368133","-81.161172 ","1578","31","3","0","12/29/2021 12:00:00 AM","2019","7460","NYTIMES-USCENSUS"
"12/30/2021 12:00:00 AM","Washington County","Kentucky","South","East South Central","21229","37.754209","-85.175416 ","2709","51","0","0","12/29/2021 12:00:00 AM","2019","12095","NYTIMES-USCENSUS"
"12/30/2021 12:00:00 AM","Aitkin County","Minnesota","Midwest","West North Central","27001","46.602446","-93.41976 ","2424","54","0","0","12/29/2021 12:00:00 AM","2019","15886","NYTIMES-USCENSUS"
"12/30/2021 12:00:00 AM","Mason County","Kentucky","South","East South Central","21161","38.594137","-83.828125 ","3045","81","0","0","12/29/2021 12:00:00 AM","2019","17070","NYTIMES-USCENSUS"
"12/30/2021 12:00:00 AM","Jackson County","Oklahoma","South","West South Central","40065","34.594006","-99.412235 ","4410","89","0","0","12/29/2021 12:00:00 AM","2019","24530","NYTIMES-USCENSUS"
"12/30/2021 12:00:00 AM","Sullivan County","Tennessee","South","East South Central","47163","36.509681","-82.301336 ","30945","545","254","6","12/29/2021 12:00:00 AM","2019","158348","NYTIMES-USCENSUS"
"12/30/2021 12:00:00 AM","Perry County","Indiana","Midwest","East North Central","18123","38.081436","-86.62654 ","3226","59","18","0","12/29/2021 12:00:00 AM","2019","19169","NYTIMES-USCENSUS"
"12/30/2021 12:00:00 AM","Barton County","Kansas","Midwest","West North Central","20009","38.481239","-98.767837 ","4732","71","0","0","12/29/2021 12:00:00 AM","2019","25779","NYTIMES-USCENSUS"
"12/30/2021 12:00:00 AM","Mercer County","New Jersey","Northeast","Middle Atlantic","34021","40.282503","-74.703724 ","50027","1069","1176","2","12/29/2021 12:00:00 AM","2019","367430","NYTIMES-USCENSUS"
"12/30/2021 12:00:00 AM","Montague County","Texas","South","West South Central","48337","33.678356","-97.725014 ","3288","99","4","0","12/29/2021 12:00:00 AM","2019","19818","NYTIMES-USCENSUS"
"12/30/2021 12:00:00 AM","Winkler County","Texas","South","West South Central","48495","31.832862","-103.054925 ","1395","32","4","0","12/29/2021 12:00:00 AM","2019","8010","NYTIMES-USCENSUS"
"12/30/2021 12:00:00 AM","Yavapai County","Arizona","West","Mountain","04025","34.631071","-112.577225 ","36284","951","203","3","12/29/2021 12:00:00 AM","2019","235099","NYTIMES-USCENSUS"
"12/30/2021 12:00:00 AM","Decatur County","Indiana","Midwest","East North Central","18031","39.30598","-85.499831 ","5216","118","31","0","12/29/2021 12:00:00 AM","2019","26559","NYTIMES-USCENSUS"
"12/30/2021 12:00:00 AM","Delaware County","Iowa","Midwest","West North Central","19055","42.472937","-91.366767 ","3303","61","0","0","12/29/2021 12:00:00 AM","2019","17011","NYTIMES-USCENSUS"
"12/30/2021 12:00:00 AM","Yuma County","Arizona","West","Mountain","04027","32.773942","-113.910905 ","44260","982","84","0","12/29/2021 12:00:00 AM","2019","213787","NYTIMES-USCENSUS"
"12/30/2021 12:00:00 AM","Lee County","Kentucky","South","East South Central","21129","37.608116","-83.719248 ","1900","42","0","0","12/29/2021 12:00:00 AM","2019","7403","NYTIMES-USCENSUS"
"12/30/2021 12:00:00 AM","St. James Parish","Louisiana","South","West South Central","22093","30.024777","-90.793956 ","3844","70","94","0","12/29/2021 12:00:00 AM","2019","21096","NYTIMES-USCENSUS"
"12/30/2021 12:00:00 AM","Grand Isle County","Vermont","Northeast","New England","50013","44.795742","-73.295082 ","553","3","10","0","12/29/2021 12:00:00 AM","2019","7235","NYTIMES-USCENSUS"
"12/30/2021 12:00:00 AM","Massac County","Illinois","Midwest","East North Central","17127","37.216119","-88.705658 ","2631","61","17","0","12/29/2021 12:00:00 AM","2019","13772","NYTIMES-USCENSUS"
"12/30/2021 12:00:00 AM","Waseca County","Minnesota","Midwest","West North Central","27161","44.01846","-93.589844 ","4280","35","18","0","12/29/2021 12:00:00 AM","2019","18612","NYTIMES-USCENSUS"
"12/30/2021 12:00:00 AM","Falls Church city","Virginia","South","South Atlantic","51610","38.884722","-77.175603 ","945","14","25","0","12/29/2021 12:00:00 AM","2019","14617","NYTIMES-USCENSUS"
"12/30/2021 12:00:00 AM","McCulloch County","Texas","South","West South Central","48307","31.205477","-99.359856 ","980","40","1","0","12/29/2021 12:00:00 AM","2019","7984","NYTIMES-USCENSUS"
"12/30/2021 12:00:00 AM","Powhatan County","Virginia","South","South Atlantic","51145","37.549404","-77.912855 ","3347","31","27","0","12/29/2021 12:00:00 AM","2019","29652","NYTIMES-USCENSUS"
"12/30/2021 12:00:00 AM","Polk County","Florida","South","South Atlantic","12105","27.953649","-81.693534 ","132809","2531","0","0","12/29/2021 12:00:00 AM","2019","724777","NYTIMES-USCENSUS"
"12/30/2021 12:00:00 AM","Maries County","Missouri","Midwest","West North Central","29125","38.162615","-91.923601 ","1178","22","7","0","12/29/2021 12:00:00 AM","2019","8697","NYTIMES-USCENSUS"
"12/30/2021 12:00:00 AM","Will County","Illinois","Midwest","East North Central","17197","41.448474","-87.978456 ","119193","1314","1776","4","12/29/2021 12:00:00 AM","2019","690743","NYTIMES-USCENSUS"
"12/30/2021 12:00:00 AM","Carroll County","Tennessee","South","East South Central","47017","35.965748","-88.452379 ","6129","127","20","0","12/29/2021 12:00:00 AM","2019","27767","NYTIMES-USCENSUS"
"12/30/2021 12:00:00 AM","Marion County","Iowa","Midwest","West North Central","19125","41.331433","-93.093868 ","6090","103","0","0","12/29/2021 12:00:00 AM","2019","33253","NYTIMES-USCENSUS"
"12/30/2021 12:00:00 AM","Keya Paha County","Nebraska","Midwest","West North Central","31103","42.87548","-99.718351 ","100","0","0","0","12/29/2021 12:00:00 AM","2019","806","NYTIMES-USCENSUS"
"12/30/2021 12:00:00 AM","Delaware County","Ohio","Midwest","East North Central","39041","40.278941","-83.007462 ","31075","197","402","0","12/29/2021 12:00:00 AM","2019","209177","NYTIMES-USCENSUS"
"12/30/2021 12:00:00 AM","Southeast Fairbanks Census Area","Alaska","West","Pacific","02240","63.864997","-143.218628 ","1407","14","0","0","12/29/2021 12:00:00 AM","2019","6893","NYTIMES-USCENSUS"
"12/30/2021 12:00:00 AM","Grafton County","New Hampshire","Northeast","New England","33009","43.926439","-71.842424 ","9454","47","70","1","12/29/2021 12:00:00 AM","2019","89886","NYTIMES-USCENSUS"
"12/30/2021 12:00:00 AM","Etowah County","Alabama","South","East South Central","01055","34.047641","-86.034263 ","20584","527","102","0","12/29/2021 12:00:00 AM","2019","102268","NYTIMES-USCENSUS"
"12/30/2021 12:00:00 AM","Jackson County","Arkansas","South","West South Central","05067","35.596467","-91.223205 ","4741","47","14","0","12/29/2021 12:00:00 AM","2019","16719","NYTIMES-USCENSUS"
"12/30/2021 12:00:00 AM","Miami County","Indiana","Midwest","East North Central","18103","40.772883","-86.044258 ","7196","126","22","1","12/29/2021 12:00:00 AM","2019","35516","NYTIMES-USCENSUS"
"12/30/2021 12:00:00 AM","Hinds County","Mississippi","South","East South Central","28049","32.267788","-90.466017 ","36307","654","692","0","12/29/2021 12:00:00 AM","2019","231840","NYTIMES-USCENSUS"
"12/30/2021 12:00:00 AM","Anne Arundel County","Maryland","South","South Atlantic","24003","38.991617","-76.560894 ","64714","833","1201","5","12/29/2021 12:00:00 AM","2019","579234","NYTIMES-USCENSUS"
"12/30/2021 12:00:00 AM","Northumberland County","Virginia","South","South Atlantic","51133","37.856974","-76.379687 ","1365","39","21","0","12/29/2021 12:00:00 AM","2019","12095","NYTIMES-USCENSUS"
"12/30/2021 12:00:00 AM","Victoria County","Texas","South","West South Central","48469","28.79637","-96.971198 ","13266","357","6","0","12/29/2021 12:00:00 AM","2019","92084","NYTIMES-USCENSUS"
"12/30/2021 12:00:00 AM","Thayer County","Nebraska","Midwest","West North Central","31169","40.173845","-97.596263 ","818","7","1","0","12/29/2021 12:00:00 AM","2019","5003","NYTIMES-USCENSUS"
"12/30/2021 12:00:00 AM","Jasper County","Missouri","Midwest","West North Central","29097","37.205197","-94.337259 ","15229","263","59","2","12/29/2021 12:00:00 AM","2019","121328","NYTIMES-USCENSUS"
"12/30/2021 12:00:00 AM","Clinton County","New York","Northeast","Middle Atlantic","36019","44.752712","-73.705643 ","9744","57","129","1","12/29/2021 12:00:00 AM","2019","80485","NYTIMES-USCENSUS"
"12/30/2021 12:00:00 AM","Livingston County","Missouri","Midwest","West North Central","29117","39.778587","-93.548201 ","2856","81","24","0","12/29/2021 12:00:00 AM","2019","15227","NYTIMES-USCENSUS"
"12/30/2021 12:00:00 AM","Park County","Montana","West","Mountain","30067","45.463081","-110.53493 ","2822","31","1","0","12/29/2021 12:00:00 AM","2019","16606","NYTIMES-USCENSUS"
"12/30/2021 12:00:00 AM","Windham County","Connecticut","Northeast","New England","09015","41.824999","-71.990702 ","17794","247","154","-1","12/29/2021 12:00:00 AM","2019","116782","NYTIMES-USCENSUS"
"12/30/2021 12:00:00 AM","St. Francois County","Missouri","Midwest","West North Central","29187","37.810707","-90.473868 ","13760","228","37","0","12/29/2021 12:00:00 AM","2019","67215","NYTIMES-USCENSUS"
"12/30/2021 12:00:00 AM","Sharkey County","Mississippi","South","East South Central","28125","32.892395","-90.827613 ","666","21","1","0","12/29/2021 12:00:00 AM","2019","4321","NYTIMES-USCENSUS"
"12/30/2021 12:00:00 AM","Washington County","Maine","Northeast","New England","23029","44.967009","-67.609354 ","2785","39","4","0","12/29/2021 12:00:00 AM","2019","31379","NYTIMES-USCENSUS"
"12/30/2021 12:00:00 AM","Lexington city","Virginia","South","South Atlantic","51678","37.782332","-79.44432 ","1718","38","11","0","12/29/2021 12:00:00 AM","2019","7446","NYTIMES-USCENSUS"
"12/30/2021 12:00:00 AM","Fairfield County","Ohio","Midwest","East North Central","39045","39.747694","-82.626685 ","27793","311","246","0","12/29/2021 12:00:00 AM","2019","157574","NYTIMES-USCENSUS"
"12/30/2021 12:00:00 AM","Pike County","Mississippi","South","East South Central","28113","31.177516","-90.397725 ","6146","158","36","0","12/29/2021 12:00:00 AM","2019","39288","NYTIMES-USCENSUS"
"12/30/2021 12:00:00 AM","Rosebud County","Montana","West","Mountain","30087","46.173206","-106.666792 ","1781","58","0","0","12/29/2021 12:00:00 AM","2019","8937","NYTIMES-USCENSUS"
"12/30/2021 12:00:00 AM","Essex County","Virginia","South","South Atlantic","51057","37.936389","-76.933747 ","1470","21","29","0","12/29/2021 12:00:00 AM","2019","10953","NYTIMES-USCENSUS"
"12/30/2021 12:00:00 AM","Custer County","Nebraska","Midwest","West North Central","31041","41.393893","-99.726866 ","1645","19","0","0","12/29/2021 12:00:00 AM","2019","10777","NYTIMES-USCENSUS"
"12/30/2021 12:00:00 AM","Coconino County","Arizona","West","Mountain","04005","35.829692","-111.773728 ","27717","416","149","0","12/29/2021 12:00:00 AM","2019","143476","NYTIMES-USCENSUS"
"12/30/2021 12:00:00 AM","Hopkins County","Kentucky","South","East South Central","21107","37.31107","-87.542196 ","9507","220","0","0","12/29/2021 12:00:00 AM","2019","44686","NYTIMES-USCENSUS"
"12/30/2021 12:00:00 AM","Dutchess County","New York","Northeast","Middle Atlantic","36027","41.75477","-73.740041 ","44904","534","669","1","12/29/2021 12:00:00 AM","2019","294218","NYTIMES-USCENSUS"
"12/30/2021 12:00:00 AM","Butler County","Ohio","Midwest","East North Central","39017","39.439747","-84.565734 ","63801","879","563","0","12/29/2021 12:00:00 AM","2019","383134","NYTIMES-USCENSUS"
"12/30/2021 12:00:00 AM","Caledonia County","Vermont","Northeast","New England","50005","44.468791","-72.112168 ","3221","21","61","0","12/29/2021 12:00:00 AM","2019","29993","NYTIMES-USCENSUS"
"12/30/2021 12:00:00 AM","Trimble County","Kentucky","South","East South Central","21223","38.62004","-85.351208 ","1521","28","0","0","12/29/2021 12:00:00 AM","2019","8471","NYTIMES-USCENSUS"
"12/30/2021 12:00:00 AM","Mercer County","Pennsylvania","Northeast","Middle Atlantic","42085","41.300014","-80.252786 ","18058","427","100","2","12/29/2021 12:00:00 AM","2019","109424","NYTIMES-USCENSUS"
"12/30/2021 12:00:00 AM","Cibola County","New Mexico","West","Mountain","35006","34.928272","-107.99268 ","5118","158","17","0","12/29/2021 12:00:00 AM","2019","26675","NYTIMES-USCENSUS"
"12/30/2021 12:00:00 AM","Howell County","Missouri","Midwest","West North Central","29091","36.774369","-91.887368 ","6551","175","8","0","12/29/2021 12:00:00 AM","2019","40117","NYTIMES-USCENSUS"
"12/30/2021 12:00:00 AM","Orange County","North Carolina","South","South Atlantic","37135","36.062526","-79.120034 ","13679","112","194","0","12/29/2021 12:00:00 AM","2019","148476","NYTIMES-USCENSUS"
"12/30/2021 12:00:00 AM","Ingham County","Michigan","Midwest","East North Central","26065","42.603534","-84.373811 ","42204","581","0","0","12/29/2021 12:00:00 AM","2019","292406","NYTIMES-USCENSUS"
"12/30/2021 12:00:00 AM","Clatsop County","Oregon","West","Pacific","41007","46.024509","-123.705037 ","2830","36","12","1","12/29/2021 12:00:00 AM","2019","40224","NYTIMES-USCENSUS"
"12/30/2021 12:00:00 AM","Tishomingo County","Mississippi","South","East South Central","28141","34.738835","-88.234827 ","4113","98","18","0","12/29/2021 12:00:00 AM","2019","19383","NYTIMES-USCENSUS"
"12/30/2021 12:00:00 AM","Jay County","Indiana","Midwest","East North Central","18075","40.434956","-85.002331 ","3702","62","19","0","12/29/2021 12:00:00 AM","2019","20436","NYTIMES-USCENSUS"
"12/30/2021 12:00:00 AM","Clark County","Arkansas","South","West South Central","05019","34.053316","-93.176208 ","3622","66","41","0","12/29/2021 12:00:00 AM","2019","22320","NYTIMES-USCENSUS"
"12/30/2021 12:00:00 AM","Union County","North Carolina","South","South Atlantic","37179","34.99182","-80.530426 ","41365","388","385","0","12/29/2021 12:00:00 AM","2019","239859","NYTIMES-USCENSUS"
"12/30/2021 12:00:00 AM","Hennepin County","Minnesota","Midwest","West North Central","27053","45.006121","-93.475228 ","203703","2179","2283","6","12/29/2021 12:00:00 AM","2019","1265843","NYTIMES-USCENSUS"
