"monitor_date","county","state_name","region","subregion","fips","latitude","longitude","case_count_to_date","death_count_to_date","case_count","death_count","previous_monitor_date","population_year","population","source"
"11/21/2021 12:00:00 AM","Pepin County","Wisconsin","Midwest","East North Central","55091","44.627436","-91.83489 ","1254","10","0","0","11/20/2021 12:00:00 AM","2019","7287","NYTIMES-USCENSUS"
"11/21/2021 12:00:00 AM","Franklin County","Mississippi","South","East South Central","28037","31.477773","-90.895457 ","1238","29","0","0","11/20/2021 12:00:00 AM","2019","7713","NYTIMES-USCENSUS"
"11/21/2021 12:00:00 AM","Jefferson County","Florida","South","South Atlantic","12065","30.396898","-83.921761 ","2492","36","0","0","11/20/2021 12:00:00 AM","2019","14246","NYTIMES-USCENSUS"
"11/21/2021 12:00:00 AM","Stanley County","South Dakota","Midwest","West North Central","46117","44.413984","-100.747822 ","467","3","0","0","11/20/2021 12:00:00 AM","2019","3098","NYTIMES-USCENSUS"
"11/21/2021 12:00:00 AM","Hancock County","Maine","Northeast","New England","23009","44.564906","-68.370703 ","3440","53","0","0","11/20/2021 12:00:00 AM","2019","54987","NYTIMES-USCENSUS"
"11/21/2021 12:00:00 AM","Jefferson County","Nebraska","Midwest","West North Central","31095","40.175736","-97.143103 ","891","3","0","0","11/20/2021 12:00:00 AM","2019","7046","NYTIMES-USCENSUS"
"11/21/2021 12:00:00 AM","Cameron Parish","Louisiana","South","West South Central","22023","29.871812","-93.164948 ","863","9","0","0","11/20/2021 12:00:00 AM","2019","6973","NYTIMES-USCENSUS"
"11/21/2021 12:00:00 AM","Mathews County","Virginia","South","South Atlantic","51115","37.425348","-76.268808 ","904","24","0","0","11/20/2021 12:00:00 AM","2019","8834","NYTIMES-USCENSUS"
"11/21/2021 12:00:00 AM","Scott County","Minnesota","Midwest","West North Central","27139","44.651805","-93.533731 ","24533","175","0","0","11/20/2021 12:00:00 AM","2019","149013","NYTIMES-USCENSUS"
"11/21/2021 12:00:00 AM","Coffee County","Alabama","South","East South Central","01031","31.402258","-85.989602 ","9401","192","5","0","11/20/2021 12:00:00 AM","2019","52342","NYTIMES-USCENSUS"
"11/21/2021 12:00:00 AM","Nelson County","North Dakota","Midwest","West North Central","38063","47.918667","-98.204428 ","566","16","1","0","11/20/2021 12:00:00 AM","2019","2879","NYTIMES-USCENSUS"
"11/21/2021 12:00:00 AM","Itasca County","Minnesota","Midwest","West North Central","27061","47.490817","-93.611102 ","7315","93","0","0","11/20/2021 12:00:00 AM","2019","45130","NYTIMES-USCENSUS"
"11/21/2021 12:00:00 AM","Hart County","Georgia","South","South Atlantic","13147","34.348733","-82.96329 ","3588","73","0","0","11/20/2021 12:00:00 AM","2019","26205","NYTIMES-USCENSUS"
"11/21/2021 12:00:00 AM","Lake County","South Dakota","Midwest","West North Central","46079","44.02845","-97.123223 ","1625","20","0","0","11/20/2021 12:00:00 AM","2019","12797","NYTIMES-USCENSUS"
"11/21/2021 12:00:00 AM","Cooke County","Texas","South","West South Central","48097","33.639196","-97.210343 ","5177","105","0","0","11/20/2021 12:00:00 AM","2019","41257","NYTIMES-USCENSUS"
"11/21/2021 12:00:00 AM","Warren County","Ohio","Midwest","East North Central","39165","39.425663","-84.16994 ","34747","408","51","0","11/20/2021 12:00:00 AM","2019","234602","NYTIMES-USCENSUS"
"11/21/2021 12:00:00 AM","Oglala Lakota County","South Dakota","Midwest","West North Central","46102","43.333393","-102.561486 ","2493","54","0","0","11/20/2021 12:00:00 AM","2019","14177","NYTIMES-USCENSUS"
"11/21/2021 12:00:00 AM","Phillips County","Kansas","Midwest","West North Central","20147","39.784506","-99.34215 ","972","28","0","0","11/20/2021 12:00:00 AM","2019","5234","NYTIMES-USCENSUS"
"11/21/2021 12:00:00 AM","Kane County","Utah","West","Mountain","49025","37.275089","-111.815329 ","978","12","0","0","11/20/2021 12:00:00 AM","2019","7886","NYTIMES-USCENSUS"
"11/21/2021 12:00:00 AM","Livingston County","New York","Northeast","Middle Atlantic","36051","42.729042","-77.778463 ","6870","74","51","0","11/20/2021 12:00:00 AM","2019","62914","NYTIMES-USCENSUS"
"11/21/2021 12:00:00 AM","Delta County","Colorado","West","Mountain","08029","38.861595","-107.864892 ","4467","95","0","0","11/20/2021 12:00:00 AM","2019","31162","NYTIMES-USCENSUS"
"11/21/2021 12:00:00 AM","Fond du Lac County","Wisconsin","Midwest","East North Central","55039","43.754722","-88.493284 ","19492","168","0","0","11/20/2021 12:00:00 AM","2019","103403","NYTIMES-USCENSUS"
"11/21/2021 12:00:00 AM","Elmore County","Alabama","South","East South Central","01051","32.597229","-86.142735 ","15892","294","6","0","11/20/2021 12:00:00 AM","2019","81209","NYTIMES-USCENSUS"
"11/21/2021 12:00:00 AM","Gordon County","Georgia","South","South Atlantic","13129","34.509667","-84.873862 ","11538","202","0","0","11/20/2021 12:00:00 AM","2019","57963","NYTIMES-USCENSUS"
"11/21/2021 12:00:00 AM","Fremont County","Wyoming","West","Mountain","56013","43.054831","-108.608935 ","9379","138","0","0","11/20/2021 12:00:00 AM","2019","39261","NYTIMES-USCENSUS"
"11/21/2021 12:00:00 AM","Tarrant County","Texas","South","West South Central","48439","32.772119","-97.291224 ","368632","4866","0","0","11/20/2021 12:00:00 AM","2019","2102515","NYTIMES-USCENSUS"
"11/21/2021 12:00:00 AM","Marquette County","Michigan","Midwest","East North Central","26103","46.656596","-87.584028 ","8777","88","0","0","11/20/2021 12:00:00 AM","2019","66699","NYTIMES-USCENSUS"
"11/21/2021 12:00:00 AM","Nye County","Nevada","West","Mountain","32023","37.965864","-116.459011 ","4873","166","0","0","11/20/2021 12:00:00 AM","2019","46523","NYTIMES-USCENSUS"
"11/21/2021 12:00:00 AM","Thurston County","Washington","West","Pacific","53067","46.935822","-122.830152 ","22304","250","0","0","11/20/2021 12:00:00 AM","2019","290536","NYTIMES-USCENSUS"
"11/21/2021 12:00:00 AM","Kiowa County","Kansas","Midwest","West North Central","20097","37.561231","-99.286539 ","412","5","0","0","11/20/2021 12:00:00 AM","2019","2475","NYTIMES-USCENSUS"
"11/21/2021 12:00:00 AM","Bethel Census Area","Alaska","West","Pacific","02050","60.929141","-160.152625 ","6598","27","0","0","11/20/2021 12:00:00 AM","2019","18386","NYTIMES-USCENSUS"
"11/21/2021 12:00:00 AM","Pottawatomie County","Oklahoma","South","West South Central","40125","35.211391","-96.957004 ","12539","195","0","0","11/20/2021 12:00:00 AM","2019","72592","NYTIMES-USCENSUS"
"11/21/2021 12:00:00 AM","Power County","Idaho","West","Mountain","16077","42.694126","-112.844407 ","1100","16","0","0","11/20/2021 12:00:00 AM","2019","7681","NYTIMES-USCENSUS"
"11/21/2021 12:00:00 AM","Tulare County","California","West","Pacific","06107","36.228834","-118.781055 ","85311","1054","0","0","11/20/2021 12:00:00 AM","2019","466195","NYTIMES-USCENSUS"
"11/21/2021 12:00:00 AM","Tallahatchie County","Mississippi","South","East South Central","28135","33.954529","-90.172243 ","2310","52","0","0","11/20/2021 12:00:00 AM","2019","13809","NYTIMES-USCENSUS"
"11/21/2021 12:00:00 AM","Brown County","South Dakota","Midwest","West North Central","46013","45.589254","-98.352175 ","7081","101","0","0","11/20/2021 12:00:00 AM","2019","38839","NYTIMES-USCENSUS"
"11/21/2021 12:00:00 AM","Montgomery County","Illinois","Midwest","East North Central","17135","39.228068","-89.478141 ","5214","89","0","0","11/20/2021 12:00:00 AM","2019","28414","NYTIMES-USCENSUS"
"11/21/2021 12:00:00 AM","Garfield County","Colorado","West","Mountain","08045","39.599352","-107.90978 ","8511","68","0","0","11/20/2021 12:00:00 AM","2019","60061","NYTIMES-USCENSUS"
"11/21/2021 12:00:00 AM","Hamilton County","Florida","South","South Atlantic","12047","30.491187","-82.951071 ","2752","49","0","0","11/20/2021 12:00:00 AM","2019","14428","NYTIMES-USCENSUS"
"11/21/2021 12:00:00 AM","Kauai County","Hawaii","West","Pacific","15007","22.012038","-159.705965 ","2985","13","11","0","11/20/2021 12:00:00 AM","2019","72293","NYTIMES-USCENSUS"
"11/21/2021 12:00:00 AM","Hancock County","Iowa","Midwest","West North Central","19081","43.075411","-93.743697 ","2101","39","0","0","11/20/2021 12:00:00 AM","2019","10630","NYTIMES-USCENSUS"
"11/21/2021 12:00:00 AM","Chicot County","Arkansas","South","West South Central","05017","33.267139","-91.297158 ","2033","47","1","0","11/20/2021 12:00:00 AM","2019","10118","NYTIMES-USCENSUS"
"11/21/2021 12:00:00 AM","Chelan County","Washington","West","Pacific","53007","47.860974","-120.619041 ","12222","116","0","0","11/20/2021 12:00:00 AM","2019","77200","NYTIMES-USCENSUS"
"11/21/2021 12:00:00 AM","White Pine County","Nevada","West","Mountain","32033","39.418176","-114.900565 ","1417","13","0","0","11/20/2021 12:00:00 AM","2019","9580","NYTIMES-USCENSUS"
"11/21/2021 12:00:00 AM","Wilson County","North Carolina","South","South Atlantic","37195","35.700357","-77.921598 ","13475","240","0","0","11/20/2021 12:00:00 AM","2019","81801","NYTIMES-USCENSUS"
"11/21/2021 12:00:00 AM","Lafayette County","Mississippi","South","East South Central","28071","34.353078","-89.485385 ","8762","142","0","0","11/20/2021 12:00:00 AM","2019","54019","NYTIMES-USCENSUS"
"11/21/2021 12:00:00 AM","Douglas County","Colorado","West","Mountain","08035","39.325414","-104.925987 ","45208","338","443","0","11/20/2021 12:00:00 AM","2019","351154","NYTIMES-USCENSUS"
"11/21/2021 12:00:00 AM","McDonald County","Missouri","Midwest","West North Central","29119","36.627955","-94.343716 ","4059","63","0","0","11/20/2021 12:00:00 AM","2019","22837","NYTIMES-USCENSUS"
"11/21/2021 12:00:00 AM","Finney County","Kansas","Midwest","West North Central","20055","38.049808","-100.739967 ","7970","93","0","0","11/20/2021 12:00:00 AM","2019","36467","NYTIMES-USCENSUS"
"11/21/2021 12:00:00 AM","Cabarrus County","North Carolina","South","South Atlantic","37025","35.388346","-80.552728 ","33763","345","0","0","11/20/2021 12:00:00 AM","2019","216453","NYTIMES-USCENSUS"
"11/21/2021 12:00:00 AM","Lumpkin County","Georgia","South","South Atlantic","13187","34.56814","-83.998925 ","4897","109","0","0","11/20/2021 12:00:00 AM","2019","33610","NYTIMES-USCENSUS"
"11/21/2021 12:00:00 AM","Scott County","Iowa","Midwest","West North Central","19163","41.642079","-90.622289 ","26226","288","0","0","11/20/2021 12:00:00 AM","2019","172943","NYTIMES-USCENSUS"
"11/21/2021 12:00:00 AM","Umatilla County","Oregon","West","Pacific","41059","45.5912","-118.73388 ","15042","176","0","0","11/20/2021 12:00:00 AM","2019","77950","NYTIMES-USCENSUS"
"11/21/2021 12:00:00 AM","Taylor County","Texas","South","West South Central","48441","32.297126","-99.89043 ","23410","583","0","0","11/20/2021 12:00:00 AM","2019","138034","NYTIMES-USCENSUS"
"11/21/2021 12:00:00 AM","Vermilion County","Illinois","Midwest","East North Central","17183","40.186754","-87.726778 ","15606","225","0","0","11/20/2021 12:00:00 AM","2019","75758","NYTIMES-USCENSUS"
"11/21/2021 12:00:00 AM","Orleans Parish","Louisiana","South","West South Central","22071","30.05342","-89.934502 ","47348","1000","0","0","11/20/2021 12:00:00 AM","2019","390144","NYTIMES-USCENSUS"
"11/21/2021 12:00:00 AM","Tillman County","Oklahoma","South","West South Central","40141","34.371085","-98.931701 ","1022","24","0","0","11/20/2021 12:00:00 AM","2019","7250","NYTIMES-USCENSUS"
"11/21/2021 12:00:00 AM","Wilcox County","Georgia","South","South Atlantic","13315","31.96272","-83.438259 ","1292","60","0","0","11/20/2021 12:00:00 AM","2019","8635","NYTIMES-USCENSUS"
"11/21/2021 12:00:00 AM","Dunklin County","Missouri","Midwest","West North Central","29069","36.153025","-90.062254 ","4592","63","1","0","11/20/2021 12:00:00 AM","2019","29131","NYTIMES-USCENSUS"
"11/21/2021 12:00:00 AM","Lewis County","New York","Northeast","Middle Atlantic","36049","43.782681","-75.44414 ","4039","39","11","0","11/20/2021 12:00:00 AM","2019","26296","NYTIMES-USCENSUS"
"11/21/2021 12:00:00 AM","Montgomery County","Mississippi","South","East South Central","28097","33.500714","-89.639625 ","1810","57","0","0","11/20/2021 12:00:00 AM","2019","9775","NYTIMES-USCENSUS"
"11/21/2021 12:00:00 AM","Washington County","Maine","Northeast","New England","23029","44.967009","-67.609354 ","2293","28","0","0","11/20/2021 12:00:00 AM","2019","31379","NYTIMES-USCENSUS"
"11/21/2021 12:00:00 AM","Union County","South Carolina","South","South Atlantic","45087","34.690397","-81.615896 ","4812","106","0","0","11/20/2021 12:00:00 AM","2019","27316","NYTIMES-USCENSUS"
"11/21/2021 12:00:00 AM","Worcester County","Maryland","South","South Atlantic","24047","38.222133","-75.309931 ","5168","125","7","0","11/20/2021 12:00:00 AM","2019","52276","NYTIMES-USCENSUS"
"11/21/2021 12:00:00 AM","Dickens County","Texas","South","West South Central","48125","33.615363","-100.787617 ","257","13","0","0","11/20/2021 12:00:00 AM","2019","2211","NYTIMES-USCENSUS"
"11/21/2021 12:00:00 AM","Newton County","Texas","South","West South Central","48351","30.786718","-93.73925 ","948","54","0","0","11/20/2021 12:00:00 AM","2019","13595","NYTIMES-USCENSUS"
"11/21/2021 12:00:00 AM","La Paz County","Arizona","West","Mountain","04012","33.72761","-114.038806 ","3346","102","10","0","11/20/2021 12:00:00 AM","2019","21108","NYTIMES-USCENSUS"
"11/21/2021 12:00:00 AM","Dawson County","Texas","South","West South Central","48115","32.742528","-101.948771 ","2200","80","0","0","11/20/2021 12:00:00 AM","2019","12728","NYTIMES-USCENSUS"
"11/21/2021 12:00:00 AM","Pinellas County","Florida","South","South Atlantic","12103","27.905342","-82.798066 ","135395","2737","0","0","11/20/2021 12:00:00 AM","2019","974996","NYTIMES-USCENSUS"
"11/21/2021 12:00:00 AM","Limestone County","Texas","South","West South Central","48293","31.547543","-96.593623 ","3666","111","0","0","11/20/2021 12:00:00 AM","2019","23437","NYTIMES-USCENSUS"
"11/21/2021 12:00:00 AM","Clear Creek County","Colorado","West","Mountain","08019","39.689403","-105.670783 ","862","6","0","0","11/20/2021 12:00:00 AM","2019","9700","NYTIMES-USCENSUS"
"11/21/2021 12:00:00 AM","Rooks County","Kansas","Midwest","West North Central","20163","39.346006","-99.324492 ","830","13","0","0","11/20/2021 12:00:00 AM","2019","4920","NYTIMES-USCENSUS"
"11/21/2021 12:00:00 AM","Bamberg County","South Carolina","South","South Atlantic","45009","33.203021","-81.053161 ","2177","63","0","0","11/20/2021 12:00:00 AM","2019","14066","NYTIMES-USCENSUS"
"11/21/2021 12:00:00 AM","Dauphin County","Pennsylvania","Northeast","Middle Atlantic","42043","40.412565","-76.792634 ","37274","684","99","2","11/20/2021 12:00:00 AM","2019","278299","NYTIMES-USCENSUS"
"11/21/2021 12:00:00 AM","Randolph County","Arkansas","South","West South Central","05121","36.341298","-91.028441 ","3416","63","3","0","11/20/2021 12:00:00 AM","2019","17958","NYTIMES-USCENSUS"
"11/21/2021 12:00:00 AM","Walker County","Georgia","South","South Atlantic","13295","34.735802","-85.305456 ","11627","157","0","0","11/20/2021 12:00:00 AM","2019","69761","NYTIMES-USCENSUS"
"11/21/2021 12:00:00 AM","Clay County","West Virginia","South","South Atlantic","54015","38.459826","-81.081866 ","1359","21","1","0","11/20/2021 12:00:00 AM","2019","8508","NYTIMES-USCENSUS"
"11/21/2021 12:00:00 AM","Wayne County","Mississippi","South","East South Central","28153","31.642503","-88.678214 ","4427","72","0","0","11/20/2021 12:00:00 AM","2019","20183","NYTIMES-USCENSUS"
"11/21/2021 12:00:00 AM","Kanawha County","West Virginia","South","South Atlantic","54039","38.328068","-81.523516 ","26209","522","59","0","11/20/2021 12:00:00 AM","2019","178124","NYTIMES-USCENSUS"
"11/21/2021 12:00:00 AM","Wagoner County","Oklahoma","South","West South Central","40145","35.963388","-95.514201 ","13033","207","0","0","11/20/2021 12:00:00 AM","2019","81289","NYTIMES-USCENSUS"
"11/21/2021 12:00:00 AM","Taos County","New Mexico","West","Mountain","35055","36.577183","-105.638878 ","2741","69","0","0","11/20/2021 12:00:00 AM","2019","32723","NYTIMES-USCENSUS"
"11/21/2021 12:00:00 AM","Clinton County","Kentucky","South","East South Central","21053","36.727258","-85.136098 ","2354","35","0","0","11/20/2021 12:00:00 AM","2019","10218","NYTIMES-USCENSUS"
"11/21/2021 12:00:00 AM","Cross County","Arkansas","South","West South Central","05037","35.285692","-90.763984 ","3028","66","0","1","11/20/2021 12:00:00 AM","2019","16419","NYTIMES-USCENSUS"
"11/21/2021 12:00:00 AM","Carter County","Missouri","Midwest","West North Central","29035","36.944858","-90.945705 ","1098","14","1","0","11/20/2021 12:00:00 AM","2019","5982","NYTIMES-USCENSUS"
"11/21/2021 12:00:00 AM","Winkler County","Texas","South","West South Central","48495","31.832862","-103.054925 ","1316","31","0","0","11/20/2021 12:00:00 AM","2019","8010","NYTIMES-USCENSUS"
"11/21/2021 12:00:00 AM","Cayuga County","New York","Northeast","Middle Atlantic","36011","43.008546","-76.574587 ","9471","111","27","0","11/20/2021 12:00:00 AM","2019","76576","NYTIMES-USCENSUS"
"11/21/2021 12:00:00 AM","Riverside County","California","West","Pacific","06065","33.729828","-116.002239 ","383153","5372","0","0","11/20/2021 12:00:00 AM","2019","2470546","NYTIMES-USCENSUS"
"11/21/2021 12:00:00 AM","Grundy County","Missouri","Midwest","West North Central","29079","40.112541","-93.565054 ","1708","50","2","0","11/20/2021 12:00:00 AM","2019","9850","NYTIMES-USCENSUS"
"11/21/2021 12:00:00 AM","Sierra County","California","West","Pacific","06091","39.576925","-120.521993 ","214","0","0","0","11/20/2021 12:00:00 AM","2019","3005","NYTIMES-USCENSUS"
"11/21/2021 12:00:00 AM","Clarendon County","South Carolina","South","South Atlantic","45027","33.664682","-80.217889 ","5150","136","0","0","11/20/2021 12:00:00 AM","2019","33745","NYTIMES-USCENSUS"
"11/21/2021 12:00:00 AM","Jones County","Mississippi","South","East South Central","28067","31.616601","-89.168532 ","14054","246","0","0","11/20/2021 12:00:00 AM","2019","68098","NYTIMES-USCENSUS"
"11/21/2021 12:00:00 AM","Thomas County","Georgia","South","South Atlantic","13275","30.864619","-83.919815 ","7887","182","0","0","11/20/2021 12:00:00 AM","2019","44451","NYTIMES-USCENSUS"
"11/21/2021 12:00:00 AM","Radford city","Virginia","South","South Atlantic","51750","37.120119","-80.559147 ","3003","35","0","0","11/20/2021 12:00:00 AM","2019","18249","NYTIMES-USCENSUS"
"11/21/2021 12:00:00 AM","Forrest County","Mississippi","South","East South Central","28035","31.18858","-89.259447 ","13695","258","0","0","11/20/2021 12:00:00 AM","2019","74897","NYTIMES-USCENSUS"
"11/21/2021 12:00:00 AM","Clarke County","Georgia","South","South Atlantic","13059","33.952185","-83.367152 ","20295","186","0","0","11/20/2021 12:00:00 AM","2019","128331","NYTIMES-USCENSUS"
"11/21/2021 12:00:00 AM","Bristol County","Massachusetts","Northeast","New England","25005","41.748588","-71.088894 ","84779","1911","0","0","11/20/2021 12:00:00 AM","2019","565217","NYTIMES-USCENSUS"
"11/21/2021 12:00:00 AM","Monroe County","Wisconsin","Midwest","East North Central","55081","43.945175","-90.619969 ","7196","56","0","0","11/20/2021 12:00:00 AM","2019","46253","NYTIMES-USCENSUS"
"11/21/2021 12:00:00 AM","Shelby County","Missouri","Midwest","West North Central","29205","39.797531","-92.088719 ","1002","9","0","0","11/20/2021 12:00:00 AM","2019","5930","NYTIMES-USCENSUS"
"11/21/2021 12:00:00 AM","Washita County","Oklahoma","South","West South Central","40149","35.289497","-98.991436 ","1586","31","0","0","11/20/2021 12:00:00 AM","2019","10916","NYTIMES-USCENSUS"
"11/21/2021 12:00:00 AM","Okmulgee County","Oklahoma","South","West South Central","40111","35.6435","-95.965947 ","6155","141","0","0","11/20/2021 12:00:00 AM","2019","38465","NYTIMES-USCENSUS"
"11/21/2021 12:00:00 AM","Columbia County","Georgia","South","South Atlantic","13073","33.552075","-82.249608 ","25142","311","0","0","11/20/2021 12:00:00 AM","2019","156714","NYTIMES-USCENSUS"
"11/21/2021 12:00:00 AM","Hancock County","Tennessee","South","East South Central","47067","36.521353","-83.227493 ","1243","20","0","0","11/20/2021 12:00:00 AM","2019","6620","NYTIMES-USCENSUS"
"11/21/2021 12:00:00 AM","Jasper County","Iowa","Midwest","West North Central","19099","41.685551","-93.054147 ","6103","90","0","0","11/20/2021 12:00:00 AM","2019","37185","NYTIMES-USCENSUS"
"11/21/2021 12:00:00 AM","Bee County","Texas","South","West South Central","48025","28.416077","-97.742586 ","5344","132","4","0","11/20/2021 12:00:00 AM","2019","32565","NYTIMES-USCENSUS"
"11/21/2021 12:00:00 AM","Carroll County","Maryland","South","South Atlantic","24013","39.563328","-77.01533 ","12494","295","46","0","11/20/2021 12:00:00 AM","2019","168447","NYTIMES-USCENSUS"
"11/21/2021 12:00:00 AM","Chatham County","North Carolina","South","South Atlantic","37037","35.704994","-79.251454 ","6914","98","0","0","11/20/2021 12:00:00 AM","2019","74470","NYTIMES-USCENSUS"
"11/21/2021 12:00:00 AM","Greer County","Oklahoma","South","West South Central","40055","34.933853","-99.552968 ","766","25","0","0","11/20/2021 12:00:00 AM","2019","5712","NYTIMES-USCENSUS"
"11/21/2021 12:00:00 AM","Montague County","Texas","South","West South Central","48337","33.678356","-97.725014 ","3136","96","0","0","11/20/2021 12:00:00 AM","2019","19818","NYTIMES-USCENSUS"
"11/21/2021 12:00:00 AM","Hinds County","Mississippi","South","East South Central","28049","32.267788","-90.466017 ","32489","639","0","0","11/20/2021 12:00:00 AM","2019","231840","NYTIMES-USCENSUS"
"11/21/2021 12:00:00 AM","Le Flore County","Oklahoma","South","West South Central","40079","34.897356","-94.695074 ","8245","89","0","0","11/20/2021 12:00:00 AM","2019","49853","NYTIMES-USCENSUS"
"11/21/2021 12:00:00 AM","Porter County","Indiana","Midwest","East North Central","18127","41.509914","-87.071313 ","24341","388","0","0","11/20/2021 12:00:00 AM","2019","170389","NYTIMES-USCENSUS"
"11/21/2021 12:00:00 AM","Fleming County","Kentucky","South","East South Central","21069","38.367848","-83.699205 ","2220","37","0","0","11/20/2021 12:00:00 AM","2019","14581","NYTIMES-USCENSUS"
"11/21/2021 12:00:00 AM","Apache County","Arizona","West","Mountain","04001","35.385084","-109.490172 ","15035","502","48","0","11/20/2021 12:00:00 AM","2019","71887","NYTIMES-USCENSUS"
"11/21/2021 12:00:00 AM","Fort Bend County","Texas","South","West South Central","48157","29.526602","-95.771015 ","101482","992","0","0","11/20/2021 12:00:00 AM","2019","811688","NYTIMES-USCENSUS"
"11/21/2021 12:00:00 AM","Carteret County","North Carolina","South","South Atlantic","37031","34.858343","-76.53586 ","8627","83","0","0","11/20/2021 12:00:00 AM","2019","69473","NYTIMES-USCENSUS"
"11/21/2021 12:00:00 AM","Jones County","Texas","South","West South Central","48253","32.743709","-99.87443 ","3250","76","0","0","11/20/2021 12:00:00 AM","2019","20083","NYTIMES-USCENSUS"
"11/21/2021 12:00:00 AM","Shelby County","Indiana","Midwest","East North Central","18145","39.524135","-85.792174 ","8869","138","0","0","11/20/2021 12:00:00 AM","2019","44729","NYTIMES-USCENSUS"
"11/21/2021 12:00:00 AM","Niobrara County","Wyoming","West","Mountain","56027","43.062159","-104.468373 ","472","7","0","0","11/20/2021 12:00:00 AM","2019","2356","NYTIMES-USCENSUS"
"11/21/2021 12:00:00 AM","Bell County","Kentucky","South","East South Central","21013","36.728928","-83.680718 ","5910","102","0","0","11/20/2021 12:00:00 AM","2019","26032","NYTIMES-USCENSUS"
"11/21/2021 12:00:00 AM","Warren County","Georgia","South","South Atlantic","13301","33.419169","-82.688012 ","771","26","0","0","11/20/2021 12:00:00 AM","2019","5254","NYTIMES-USCENSUS"
"11/21/2021 12:00:00 AM","Reynolds County","Missouri","Midwest","West North Central","29179","37.366464","-90.972282 ","809","9","0","0","11/20/2021 12:00:00 AM","2019","6270","NYTIMES-USCENSUS"
"11/21/2021 12:00:00 AM","Scioto County","Ohio","Midwest","East North Central","39145","38.814889","-82.998675 ","11966","180","3","0","11/20/2021 12:00:00 AM","2019","75314","NYTIMES-USCENSUS"
"11/21/2021 12:00:00 AM","Lafayette County","Arkansas","South","West South Central","05073","33.240629","-93.611514 ","861","28","0","0","11/20/2021 12:00:00 AM","2019","6624","NYTIMES-USCENSUS"
"11/21/2021 12:00:00 AM","Hidalgo County","Texas","South","West South Central","48215","26.396384","-98.18099 ","115880","3489","0","0","11/20/2021 12:00:00 AM","2019","868707","NYTIMES-USCENSUS"
"11/21/2021 12:00:00 AM","Anson County","North Carolina","South","South Atlantic","37007","34.974972","-80.109763 ","3990","82","0","0","11/20/2021 12:00:00 AM","2019","24446","NYTIMES-USCENSUS"
"11/21/2021 12:00:00 AM","Alamance County","North Carolina","South","South Atlantic","37001","36.043954","-79.400573 ","27064","348","0","0","11/20/2021 12:00:00 AM","2019","169509","NYTIMES-USCENSUS"
"11/21/2021 12:00:00 AM","Ottawa County","Kansas","Midwest","West North Central","20143","39.137963","-97.654802 ","800","14","0","0","11/20/2021 12:00:00 AM","2019","5704","NYTIMES-USCENSUS"
"11/21/2021 12:00:00 AM","Mineral County","Colorado","West","Mountain","08079","37.549067","-107.003236 ","148","1","0","0","11/20/2021 12:00:00 AM","2019","769","NYTIMES-USCENSUS"
"11/21/2021 12:00:00 AM","Mahaska County","Iowa","Midwest","West North Central","19123","41.330797","-92.636366 ","3574","64","0","0","11/20/2021 12:00:00 AM","2019","22095","NYTIMES-USCENSUS"
"11/21/2021 12:00:00 AM","Wilcox County","Alabama","South","East South Central","01131","31.990082","-87.304935 ","1765","38","0","0","11/20/2021 12:00:00 AM","2019","10373","NYTIMES-USCENSUS"
"11/21/2021 12:00:00 AM","Davison County","South Dakota","Midwest","West North Central","46035","43.680439","-98.155868 ","3947","71","0","0","11/20/2021 12:00:00 AM","2019","19775","NYTIMES-USCENSUS"
"11/21/2021 12:00:00 AM","Broome County","New York","Northeast","Middle Atlantic","36007","42.161977","-75.830283 ","27463","430","125","0","11/20/2021 12:00:00 AM","2019","190488","NYTIMES-USCENSUS"
"11/21/2021 12:00:00 AM","Meigs County","Tennessee","South","East South Central","47121","35.512203","-84.816102 ","2215","30","0","0","11/20/2021 12:00:00 AM","2019","12422","NYTIMES-USCENSUS"
"11/21/2021 12:00:00 AM","Castro County","Texas","South","West South Central","48069","34.533621","-102.258786 ","1364","38","0","0","11/20/2021 12:00:00 AM","2019","7530","NYTIMES-USCENSUS"
"11/21/2021 12:00:00 AM","DuPage County","Illinois","Midwest","East North Central","17043","41.852058","-88.086039 ","114540","1486","0","0","11/20/2021 12:00:00 AM","2019","922921","NYTIMES-USCENSUS"
"11/21/2021 12:00:00 AM","Charlton County","Georgia","South","South Atlantic","13049","30.779904","-82.139644 ","2312","56","0","0","11/20/2021 12:00:00 AM","2019","13392","NYTIMES-USCENSUS"
"11/21/2021 12:00:00 AM","Wyoming County","Pennsylvania","Northeast","Middle Atlantic","42131","41.525173","-76.008731 ","3067","68","19","0","11/20/2021 12:00:00 AM","2019","26794","NYTIMES-USCENSUS"
"11/21/2021 12:00:00 AM","St. Joseph County","Michigan","Midwest","East North Central","26149","41.911488","-85.52287 ","9422","128","0","0","11/20/2021 12:00:00 AM","2019","60964","NYTIMES-USCENSUS"
"11/21/2021 12:00:00 AM","Fairfield County","Connecticut","Northeast","New England","09001","41.227413","-73.367061 ","114474","2319","0","0","11/20/2021 12:00:00 AM","2019","943332","NYTIMES-USCENSUS"
"11/21/2021 12:00:00 AM","Spalding County","Georgia","South","South Atlantic","13255","33.262348","-84.284905 ","10503","322","0","0","11/20/2021 12:00:00 AM","2019","66703","NYTIMES-USCENSUS"
"11/21/2021 12:00:00 AM","Archuleta County","Colorado","West","Mountain","08007","37.202395","-107.050863 ","1760","7","0","0","11/20/2021 12:00:00 AM","2019","14029","NYTIMES-USCENSUS"
"11/21/2021 12:00:00 AM","Reagan County","Texas","South","West South Central","48383","31.375191","-101.514395 ","605","10","0","0","11/20/2021 12:00:00 AM","2019","3849","NYTIMES-USCENSUS"
"11/21/2021 12:00:00 AM","Pratt County","Kansas","Midwest","West North Central","20151","37.647594","-98.74012 ","1344","27","0","0","11/20/2021 12:00:00 AM","2019","9164","NYTIMES-USCENSUS"
"11/21/2021 12:00:00 AM","Sarasota County","Florida","South","South Atlantic","12115","27.225327","-82.423714 ","55720","1326","0","0","11/20/2021 12:00:00 AM","2019","433742","NYTIMES-USCENSUS"
"11/21/2021 12:00:00 AM","Hancock County","Kentucky","South","East South Central","21091","37.843325","-86.792761 ","1444","18","0","0","11/20/2021 12:00:00 AM","2019","8722","NYTIMES-USCENSUS"
"11/21/2021 12:00:00 AM","Pickens County","Alabama","South","East South Central","01107","33.2968","-88.096864 ","3321","88","1","0","11/20/2021 12:00:00 AM","2019","19930","NYTIMES-USCENSUS"
"11/21/2021 12:00:00 AM","Prince Edward County","Virginia","South","South Atlantic","51147","37.224881","-78.432957 ","2989","52","0","0","11/20/2021 12:00:00 AM","2019","22802","NYTIMES-USCENSUS"
"11/21/2021 12:00:00 AM","Hudspeth County","Texas","South","West South Central","48229","31.450868","-105.377549 ","597","14","0","0","11/20/2021 12:00:00 AM","2019","4886","NYTIMES-USCENSUS"
"11/21/2021 12:00:00 AM","Webster County","Mississippi","South","East South Central","28155","33.612061","-89.283961 ","2046","48","0","0","11/20/2021 12:00:00 AM","2019","9689","NYTIMES-USCENSUS"
"11/21/2021 12:00:00 AM","Belknap County","New Hampshire","Northeast","New England","33001","43.519109","-71.425366 ","7222","132","0","0","11/20/2021 12:00:00 AM","2019","61303","NYTIMES-USCENSUS"
"11/21/2021 12:00:00 AM","Hamilton County","New York","Northeast","Middle Atlantic","36041","43.657879","-74.502456 ","506","3","2","0","11/20/2021 12:00:00 AM","2019","4416","NYTIMES-USCENSUS"
"11/21/2021 12:00:00 AM","Nobles County","Minnesota","Midwest","West North Central","27105","43.677686","-95.763132 ","5179","54","0","0","11/20/2021 12:00:00 AM","2019","21629","NYTIMES-USCENSUS"
"11/21/2021 12:00:00 AM","San Diego County","California","West","Pacific","06073","33.023604","-116.776117 ","402284","4311","0","0","11/20/2021 12:00:00 AM","2019","3338330","NYTIMES-USCENSUS"
"11/21/2021 12:00:00 AM","Providence County","Rhode Island","Northeast","New England","44007","41.869768","-71.578625 ","118832","2108","0","0","11/20/2021 12:00:00 AM","2019","638931","NYTIMES-USCENSUS"
"11/21/2021 12:00:00 AM","Gallatin County","Kentucky","South","East South Central","21077","38.755663","-84.865143 ","1300","41","0","0","11/20/2021 12:00:00 AM","2019","8869","NYTIMES-USCENSUS"
"11/21/2021 12:00:00 AM","Yellow Medicine County","Minnesota","Midwest","West North Central","27173","44.715736","-95.862756 ","1804","21","0","0","11/20/2021 12:00:00 AM","2019","9709","NYTIMES-USCENSUS"
"11/21/2021 12:00:00 AM","Treutlen County","Georgia","South","South Atlantic","13283","32.409586","-82.570882 ","1246","53","0","0","11/20/2021 12:00:00 AM","2019","6901","NYTIMES-USCENSUS"
"11/21/2021 12:00:00 AM","Lyman County","South Dakota","Midwest","West North Central","46085","43.894812","-99.841925 ","789","11","0","0","11/20/2021 12:00:00 AM","2019","3781","NYTIMES-USCENSUS"
"11/21/2021 12:00:00 AM","Van Buren County","Arkansas","South","West South Central","05141","35.582953","-92.515976 ","2269","44","1","0","11/20/2021 12:00:00 AM","2019","16545","NYTIMES-USCENSUS"
"11/21/2021 12:00:00 AM","Lamar County","Mississippi","South","East South Central","28073","31.197586","-89.506369 ","10620","140","0","0","11/20/2021 12:00:00 AM","2019","63343","NYTIMES-USCENSUS"
"11/21/2021 12:00:00 AM","Osborne County","Kansas","Midwest","West North Central","20141","39.348261","-98.767942 ","483","15","0","0","11/20/2021 12:00:00 AM","2019","3421","NYTIMES-USCENSUS"
"11/21/2021 12:00:00 AM","Panola County","Mississippi","South","East South Central","28107","34.365205","-89.963065 ","6715","133","0","0","11/20/2021 12:00:00 AM","2019","34192","NYTIMES-USCENSUS"
"11/21/2021 12:00:00 AM","Llano County","Texas","South","West South Central","48299","30.707584","-98.68469 ","2657","76","0","0","11/20/2021 12:00:00 AM","2019","21795","NYTIMES-USCENSUS"
"11/21/2021 12:00:00 AM","Duchesne County","Utah","West","Mountain","49013","40.289393","-110.429584 ","3086","19","0","0","11/20/2021 12:00:00 AM","2019","19938","NYTIMES-USCENSUS"
"11/21/2021 12:00:00 AM","Perry County","Indiana","Midwest","East North Central","18123","38.081436","-86.62654 ","2780","56","0","0","11/20/2021 12:00:00 AM","2019","19169","NYTIMES-USCENSUS"
"11/21/2021 12:00:00 AM","Steele County","North Dakota","Midwest","West North Central","38091","47.451062","-97.71892 ","276","2","0","0","11/20/2021 12:00:00 AM","2019","1890","NYTIMES-USCENSUS"
"11/21/2021 12:00:00 AM","Sumter County","South Carolina","South","South Atlantic","45085","33.91614","-80.382376 ","16549","302","0","0","11/20/2021 12:00:00 AM","2019","106721","NYTIMES-USCENSUS"
"11/21/2021 12:00:00 AM","Louisa County","Iowa","Midwest","West North Central","19115","41.218211","-91.256994 ","1754","52","0","0","11/20/2021 12:00:00 AM","2019","11035","NYTIMES-USCENSUS"
"11/21/2021 12:00:00 AM","Scott County","Arkansas","South","West South Central","05127","34.858869","-94.063641 ","1749","30","1","0","11/20/2021 12:00:00 AM","2019","10281","NYTIMES-USCENSUS"
"11/21/2021 12:00:00 AM","Jasper County","South Carolina","South","South Atlantic","45053","32.43059","-81.021627 ","3966","82","0","0","11/20/2021 12:00:00 AM","2019","30073","NYTIMES-USCENSUS"
"11/21/2021 12:00:00 AM","Fulton County","Kentucky","South","East South Central","21075","36.552511","-89.187659 ","801","20","0","0","11/20/2021 12:00:00 AM","2019","5969","NYTIMES-USCENSUS"
"11/21/2021 12:00:00 AM","Bexar County","Texas","South","West South Central","48029","29.448671","-98.520147 ","325502","5254","0","1","11/20/2021 12:00:00 AM","2019","2003554","NYTIMES-USCENSUS"
"11/21/2021 12:00:00 AM","Montgomery County","Arkansas","South","West South Central","05097","34.545656","-93.664153 ","1156","46","0","0","11/20/2021 12:00:00 AM","2019","8986","NYTIMES-USCENSUS"
"11/21/2021 12:00:00 AM","Coffey County","Kansas","Midwest","West North Central","20031","38.23645","-95.729137 ","1319","28","0","0","11/20/2021 12:00:00 AM","2019","8179","NYTIMES-USCENSUS"
"11/21/2021 12:00:00 AM","Nemaha County","Kansas","Midwest","West North Central","20131","39.791043","-96.005381 ","2117","56","0","0","11/20/2021 12:00:00 AM","2019","10231","NYTIMES-USCENSUS"
"11/21/2021 12:00:00 AM","Fairfax city","Virginia","South","South Atlantic","51600","38.853183","-77.299025 ","1088","35","0","0","11/20/2021 12:00:00 AM","2019","24019","NYTIMES-USCENSUS"
"11/21/2021 12:00:00 AM","Lincoln County","Wyoming","West","Mountain","56023","42.229993","-110.682961 ","2933","24","0","0","11/20/2021 12:00:00 AM","2019","19830","NYTIMES-USCENSUS"
"11/21/2021 12:00:00 AM","Whitley County","Indiana","Midwest","East North Central","18183","41.136426","-85.501892 ","6184","60","0","0","11/20/2021 12:00:00 AM","2019","33964","NYTIMES-USCENSUS"
"11/21/2021 12:00:00 AM","Washington County","Illinois","Midwest","East North Central","17189","38.35314","-89.417187 ","2196","36","0","0","11/20/2021 12:00:00 AM","2019","13887","NYTIMES-USCENSUS"
"11/21/2021 12:00:00 AM","Adams County","Indiana","Midwest","East North Central","18001","40.745733","-84.93613 ","5290","81","0","0","11/20/2021 12:00:00 AM","2019","35777","NYTIMES-USCENSUS"
"11/21/2021 12:00:00 AM","Boone County","Nebraska","Midwest","West North Central","31011","41.703934","-98.070476 ","787","4","0","0","11/20/2021 12:00:00 AM","2019","5192","NYTIMES-USCENSUS"
"11/21/2021 12:00:00 AM","Baltimore County","Maryland","South","South Atlantic","24005","39.443167","-76.616569 ","79170","1887","126","1","11/20/2021 12:00:00 AM","2019","827370","NYTIMES-USCENSUS"
"11/21/2021 12:00:00 AM","Gentry County","Missouri","Midwest","West North Central","29075","40.208127","-94.405321 ","1380","28","1","0","11/20/2021 12:00:00 AM","2019","6571","NYTIMES-USCENSUS"
"11/21/2021 12:00:00 AM","Roanoke city","Virginia","South","South Atlantic","51770","37.278458","-79.958174 ","12614","251","0","0","11/20/2021 12:00:00 AM","2019","99143","NYTIMES-USCENSUS"
"11/21/2021 12:00:00 AM","Limestone County","Alabama","South","East South Central","01083","34.810239","-86.981399 ","16090","218","3","0","11/20/2021 12:00:00 AM","2019","98915","NYTIMES-USCENSUS"
"11/21/2021 12:00:00 AM","Richmond County","North Carolina","South","South Atlantic","37153","35.004636","-79.755695 ","7267","144","0","0","11/20/2021 12:00:00 AM","2019","44829","NYTIMES-USCENSUS"
"11/21/2021 12:00:00 AM","Grundy County","Illinois","Midwest","East North Central","17063","41.29241","-88.401054 ","7874","94","0","0","11/20/2021 12:00:00 AM","2019","51054","NYTIMES-USCENSUS"
"11/21/2021 12:00:00 AM","Sunflower County","Mississippi","South","East South Central","28133","33.605529","-90.59509 ","4283","106","0","0","11/20/2021 12:00:00 AM","2019","25110","NYTIMES-USCENSUS"
"11/21/2021 12:00:00 AM","Mower County","Minnesota","Midwest","West North Central","27099","43.666249","-92.759514 ","7110","46","0","0","11/20/2021 12:00:00 AM","2019","40062","NYTIMES-USCENSUS"
"11/21/2021 12:00:00 AM","Jenkins County","Georgia","South","South Atlantic","13165","32.794563","-81.971524 ","1194","58","0","0","11/20/2021 12:00:00 AM","2019","8676","NYTIMES-USCENSUS"
"11/21/2021 12:00:00 AM","Morrow County","Ohio","Midwest","East North Central","39117","40.525266","-82.797729 ","4957","63","8","0","11/20/2021 12:00:00 AM","2019","35328","NYTIMES-USCENSUS"
"11/21/2021 12:00:00 AM","Gillespie County","Texas","South","West South Central","48171","30.325093","-98.94185 ","3603","82","0","1","11/20/2021 12:00:00 AM","2019","26988","NYTIMES-USCENSUS"
"11/21/2021 12:00:00 AM","Greene County","Tennessee","South","East South Central","47059","36.179487","-82.847523 ","14092","247","0","0","11/20/2021 12:00:00 AM","2019","69069","NYTIMES-USCENSUS"
"11/21/2021 12:00:00 AM","Kiowa County","Oklahoma","South","West South Central","40075","34.921489","-98.981617 ","1166","41","0","0","11/20/2021 12:00:00 AM","2019","8708","NYTIMES-USCENSUS"
"11/21/2021 12:00:00 AM","Calcasieu Parish","Louisiana","South","West South Central","22019","30.229559","-93.358015 ","34803","623","0","0","11/20/2021 12:00:00 AM","2019","203436","NYTIMES-USCENSUS"
"11/21/2021 12:00:00 AM","Henry County","Tennessee","South","East South Central","47079","36.325295","-88.300288 ","5553","88","0","0","11/20/2021 12:00:00 AM","2019","32345","NYTIMES-USCENSUS"
"11/21/2021 12:00:00 AM","Chariton County","Missouri","Midwest","West North Central","29041","39.517968","-92.96162 ","1109","8","2","0","11/20/2021 12:00:00 AM","2019","7426","NYTIMES-USCENSUS"
"11/21/2021 12:00:00 AM","Muscogee County","Georgia","South","South Atlantic","13215","32.510197","-84.874946 ","24488","657","0","0","11/20/2021 12:00:00 AM","2019","195769","NYTIMES-USCENSUS"
"11/21/2021 12:00:00 AM","Montrose County","Colorado","West","Mountain","08085","38.407507","-108.266282 ","6416","104","0","0","11/20/2021 12:00:00 AM","2019","42758","NYTIMES-USCENSUS"
"11/21/2021 12:00:00 AM","Pitkin County","Colorado","West","Mountain","08097","39.217541","-106.916162 ","3272","6","0","0","11/20/2021 12:00:00 AM","2019","17767","NYTIMES-USCENSUS"
"11/21/2021 12:00:00 AM","Miami County","Kansas","Midwest","West North Central","20121","38.566772","-94.832963 ","4529","68","0","0","11/20/2021 12:00:00 AM","2019","34237","NYTIMES-USCENSUS"
"11/21/2021 12:00:00 AM","Cherokee County","Oklahoma","South","West South Central","40021","35.904367","-94.996796 ","9109","118","0","0","11/20/2021 12:00:00 AM","2019","48657","NYTIMES-USCENSUS"
"11/21/2021 12:00:00 AM","Dooly County","Georgia","South","South Atlantic","13093","32.151995","-83.807167 ","1665","60","0","0","11/20/2021 12:00:00 AM","2019","13390","NYTIMES-USCENSUS"
"11/21/2021 12:00:00 AM","Dodge County","Georgia","South","South Atlantic","13091","32.164369","-83.167866 ","3648","128","0","0","11/20/2021 12:00:00 AM","2019","20605","NYTIMES-USCENSUS"
"11/21/2021 12:00:00 AM","Williamson County","Tennessee","South","East South Central","47187","35.894807","-86.898068 ","40479","276","0","0","11/20/2021 12:00:00 AM","2019","238412","NYTIMES-USCENSUS"
"11/21/2021 12:00:00 AM","Jefferson County","Montana","West","Mountain","30043","46.124232","-112.059428 ","1821","14","0","0","11/20/2021 12:00:00 AM","2019","12221","NYTIMES-USCENSUS"
"11/21/2021 12:00:00 AM","Jackson County","Missouri","Midwest","West North Central","29095","39.005364","-94.343211 ","58390","728","51","0","11/20/2021 12:00:00 AM","2019","703011","NYTIMES-USCENSUS"
"11/21/2021 12:00:00 AM","Lee County","Texas","South","West South Central","48287","30.321498","-96.976823 ","2977","54","0","0","11/20/2021 12:00:00 AM","2019","17239","NYTIMES-USCENSUS"
"11/21/2021 12:00:00 AM","Onslow County","North Carolina","South","South Atlantic","37133","34.763109","-77.499469 ","30391","272","0","0","11/20/2021 12:00:00 AM","2019","197938","NYTIMES-USCENSUS"
"11/21/2021 12:00:00 AM","Coal County","Oklahoma","South","West South Central","40029","34.582861","-96.288039 ","1075","20","0","0","11/20/2021 12:00:00 AM","2019","5495","NYTIMES-USCENSUS"
"11/21/2021 12:00:00 AM","Sheboygan County","Wisconsin","Midwest","East North Central","55117","43.741232","-87.731516 ","20009","196","0","0","11/20/2021 12:00:00 AM","2019","115340","NYTIMES-USCENSUS"
"11/21/2021 12:00:00 AM","Wasatch County","Utah","West","Mountain","49051","40.334884","-111.161568 ","6513","29","0","0","11/20/2021 12:00:00 AM","2019","34091","NYTIMES-USCENSUS"
"11/21/2021 12:00:00 AM","Warren County","Indiana","Midwest","East North Central","18171","40.352498","-87.375163 ","1297","18","0","0","11/20/2021 12:00:00 AM","2019","8265","NYTIMES-USCENSUS"
"11/21/2021 12:00:00 AM","Putnam County","Tennessee","South","East South Central","47141","36.14094","-85.49618 ","16957","223","0","0","11/20/2021 12:00:00 AM","2019","80245","NYTIMES-USCENSUS"
"11/21/2021 12:00:00 AM","Imperial County","California","West","Pacific","06025","33.040814","-115.3554 ","37829","765","0","0","11/20/2021 12:00:00 AM","2019","181215","NYTIMES-USCENSUS"
"11/21/2021 12:00:00 AM","Somerset County","Pennsylvania","Northeast","Middle Atlantic","42111","39.981297","-79.028486 ","11750","271","43","0","11/20/2021 12:00:00 AM","2019","73447","NYTIMES-USCENSUS"
"11/21/2021 12:00:00 AM","Woodson County","Kansas","Midwest","West North Central","20207","37.888193","-95.758469 ","434","10","0","0","11/20/2021 12:00:00 AM","2019","3138","NYTIMES-USCENSUS"
"11/21/2021 12:00:00 AM","McCormick County","South Carolina","South","South Atlantic","45065","33.897599","-82.316196 ","1401","30","0","0","11/20/2021 12:00:00 AM","2019","9463","NYTIMES-USCENSUS"
"11/21/2021 12:00:00 AM","Vance County","North Carolina","South","South Atlantic","37181","36.365481","-78.405434 ","7000","104","0","0","11/20/2021 12:00:00 AM","2019","44535","NYTIMES-USCENSUS"
"11/21/2021 12:00:00 AM","Davidson County","North Carolina","South","South Atlantic","37057","35.795131","-80.207107 ","26438","314","0","0","11/20/2021 12:00:00 AM","2019","167609","NYTIMES-USCENSUS"
"11/21/2021 12:00:00 AM","York County","Maine","Northeast","New England","23031","43.426019","-70.668425 ","19365","169","-1","1","11/20/2021 12:00:00 AM","2019","207641","NYTIMES-USCENSUS"
"11/21/2021 12:00:00 AM","San Juan County","Colorado","West","Mountain","08111","37.781049","-107.670257 ","104","0","0","0","11/20/2021 12:00:00 AM","2019","728","NYTIMES-USCENSUS"
"11/21/2021 12:00:00 AM","Eagle County","Colorado","West","Mountain","08037","39.626992","-106.695169 ","9045","32","0","0","11/20/2021 12:00:00 AM","2019","55127","NYTIMES-USCENSUS"
"11/21/2021 12:00:00 AM","Gwinnett County","Georgia","South","South Atlantic","13135","33.958756","-84.025735 ","135361","1511","0","0","11/20/2021 12:00:00 AM","2019","936250","NYTIMES-USCENSUS"
"11/21/2021 12:00:00 AM","Monmouth County","New Jersey","Northeast","Middle Atlantic","34025","40.287048","-74.152446 ","96127","1771","188","0","11/20/2021 12:00:00 AM","2019","618795","NYTIMES-USCENSUS"
"11/21/2021 12:00:00 AM","Okaloosa County","Florida","South","South Atlantic","12091","30.614325","-86.59108 ","34708","566","0","0","11/20/2021 12:00:00 AM","2019","210738","NYTIMES-USCENSUS"
"11/21/2021 12:00:00 AM","Tuscaloosa County","Alabama","South","East South Central","01125","33.29022","-87.522783 ","35875","638","5","0","11/20/2021 12:00:00 AM","2019","209355","NYTIMES-USCENSUS"
"11/21/2021 12:00:00 AM","Cass County","Texas","South","West South Central","48067","33.083698","-94.357579 ","4513","154","0","0","11/20/2021 12:00:00 AM","2019","30026","NYTIMES-USCENSUS"
"11/21/2021 12:00:00 AM","Hamilton County","Ohio","Midwest","East North Central","39061","39.196927","-84.544187 ","110637","1504","140","0","11/20/2021 12:00:00 AM","2019","817473","NYTIMES-USCENSUS"
"11/21/2021 12:00:00 AM","Drew County","Arkansas","South","West South Central","05043","33.587242","-91.722778 ","2942","55","1","0","11/20/2021 12:00:00 AM","2019","18219","NYTIMES-USCENSUS"
"11/21/2021 12:00:00 AM","Lee County","Arkansas","South","West South Central","05077","34.779505","-90.779717 ","2159","52","0","0","11/20/2021 12:00:00 AM","2019","8857","NYTIMES-USCENSUS"
"11/21/2021 12:00:00 AM","Clinton County","Michigan","Midwest","East North Central","26037","42.950455","-84.591695 ","11641","126","0","0","11/20/2021 12:00:00 AM","2019","79595","NYTIMES-USCENSUS"
"11/21/2021 12:00:00 AM","Gaines County","Texas","South","West South Central","48165","32.743942","-102.631561 ","2184","65","0","0","11/20/2021 12:00:00 AM","2019","21492","NYTIMES-USCENSUS"
"11/21/2021 12:00:00 AM","Pike County","Illinois","Midwest","East North Central","17149","39.625106","-90.889034 ","2786","61","0","0","11/20/2021 12:00:00 AM","2019","15561","NYTIMES-USCENSUS"
"11/21/2021 12:00:00 AM","Jefferson County","Oregon","West","Pacific","41031","44.645151","-121.178632 ","4146","64","0","0","11/20/2021 12:00:00 AM","2019","24658","NYTIMES-USCENSUS"
"11/21/2021 12:00:00 AM","Summit County","Colorado","West","Mountain","08117","39.621023","-106.137555 ","5196","11","0","0","11/20/2021 12:00:00 AM","2019","31011","NYTIMES-USCENSUS"
"11/21/2021 12:00:00 AM","Creek County","Oklahoma","South","West South Central","40037","35.907398","-96.380177 ","11452","263","0","0","11/20/2021 12:00:00 AM","2019","71522","NYTIMES-USCENSUS"
"11/21/2021 12:00:00 AM","Horry County","South Carolina","South","South Atlantic","45051","33.909269","-78.976675 ","63180","900","0","0","11/20/2021 12:00:00 AM","2019","354081","NYTIMES-USCENSUS"
"11/21/2021 12:00:00 AM","Jefferson County","Washington","West","Pacific","53031","47.805708","-123.527057 ","1190","17","0","0","11/20/2021 12:00:00 AM","2019","32221","NYTIMES-USCENSUS"
"11/21/2021 12:00:00 AM","Gage County","Nebraska","Midwest","West North Central","31067","40.255234","-96.683453 ","2614","20","0","0","11/20/2021 12:00:00 AM","2019","21513","NYTIMES-USCENSUS"
"11/21/2021 12:00:00 AM","Preble County","Ohio","Midwest","East North Central","39135","39.73881","-84.644758 ","6075","137","4","0","11/20/2021 12:00:00 AM","2019","40882","NYTIMES-USCENSUS"
"11/21/2021 12:00:00 AM","Greene County","Virginia","South","South Atlantic","51079","38.297981","-78.470163 ","2293","45","0","0","11/20/2021 12:00:00 AM","2019","19819","NYTIMES-USCENSUS"
"11/21/2021 12:00:00 AM","Hocking County","Ohio","Midwest","East North Central","39073","39.490342","-82.483447 ","3895","90","6","0","11/20/2021 12:00:00 AM","2019","28264","NYTIMES-USCENSUS"
"11/21/2021 12:00:00 AM","Pike County","Indiana","Midwest","East North Central","18125","38.397961","-87.232547 ","2392","45","0","0","11/20/2021 12:00:00 AM","2019","12389","NYTIMES-USCENSUS"
"11/21/2021 12:00:00 AM","Erie County","Ohio","Midwest","East North Central","39043","41.394143","-82.586835 ","12124","193","19","0","11/20/2021 12:00:00 AM","2019","74266","NYTIMES-USCENSUS"
"11/21/2021 12:00:00 AM","Eaton County","Michigan","Midwest","East North Central","26045","42.58953","-84.84645 ","15227","264","0","0","11/20/2021 12:00:00 AM","2019","110268","NYTIMES-USCENSUS"
"11/21/2021 12:00:00 AM","Clark County","Arkansas","South","West South Central","05019","34.053316","-93.176208 ","3341","60","6","0","11/20/2021 12:00:00 AM","2019","22320","NYTIMES-USCENSUS"
"11/21/2021 12:00:00 AM","Rutherford County","Tennessee","South","East South Central","47149","35.843369","-86.417213 ","63136","574","0","0","11/20/2021 12:00:00 AM","2019","332285","NYTIMES-USCENSUS"
"11/21/2021 12:00:00 AM","Hot Spring County","Arkansas","South","West South Central","05059","34.315177","-92.944147 ","7741","107","2","0","11/20/2021 12:00:00 AM","2019","33771","NYTIMES-USCENSUS"
"11/21/2021 12:00:00 AM","Oglethorpe County","Georgia","South","South Atlantic","13221","33.866806","-83.074081 ","2241","43","0","0","11/20/2021 12:00:00 AM","2019","15259","NYTIMES-USCENSUS"
"11/21/2021 12:00:00 AM","Grant County","Oklahoma","South","West South Central","40053","36.788254","-97.788151 ","709","8","0","0","11/20/2021 12:00:00 AM","2019","4333","NYTIMES-USCENSUS"
"11/21/2021 12:00:00 AM","Halifax County","North Carolina","South","South Atlantic","37083","36.251438","-77.644842 ","8029","144","0","0","11/20/2021 12:00:00 AM","2019","50010","NYTIMES-USCENSUS"
"11/21/2021 12:00:00 AM","Sioux County","Iowa","Midwest","West North Central","19167","43.082646","-96.17801 ","5999","77","0","0","11/20/2021 12:00:00 AM","2019","34855","NYTIMES-USCENSUS"
"11/21/2021 12:00:00 AM","Warren County","Illinois","Midwest","East North Central","17187","40.850441","-90.620223 ","2565","71","0","0","11/20/2021 12:00:00 AM","2019","16844","NYTIMES-USCENSUS"
"11/21/2021 12:00:00 AM","Pope County","Minnesota","Midwest","West North Central","27121","45.589623","-95.446705 ","1962","10","0","0","11/20/2021 12:00:00 AM","2019","11249","NYTIMES-USCENSUS"
"11/21/2021 12:00:00 AM","Cass County","Iowa","Midwest","West North Central","19029","41.333824","-94.933302 ","2300","66","0","0","11/20/2021 12:00:00 AM","2019","12836","NYTIMES-USCENSUS"
"11/21/2021 12:00:00 AM","Madison Parish","Louisiana","South","West South Central","22065","32.346878","-91.231932 ","2263","53","0","0","11/20/2021 12:00:00 AM","2019","10951","NYTIMES-USCENSUS"
"11/21/2021 12:00:00 AM","Kanabec County","Minnesota","Midwest","West North Central","27065","45.94776","-93.297788 ","2326","34","0","0","11/20/2021 12:00:00 AM","2019","16337","NYTIMES-USCENSUS"
"11/21/2021 12:00:00 AM","Miami County","Indiana","Midwest","East North Central","18103","40.772883","-86.044258 ","6300","107","0","0","11/20/2021 12:00:00 AM","2019","35516","NYTIMES-USCENSUS"
"11/21/2021 12:00:00 AM","Floyd County","Texas","South","West South Central","48153","34.07373","-101.303274 ","1207","40","0","0","11/20/2021 12:00:00 AM","2019","5712","NYTIMES-USCENSUS"
"11/21/2021 12:00:00 AM","Ochiltree County","Texas","South","West South Central","48357","36.278744","-100.815864 ","1579","38","0","0","11/20/2021 12:00:00 AM","2019","9836","NYTIMES-USCENSUS"
"11/21/2021 12:00:00 AM","Jackson County","Texas","South","West South Central","48239","28.959802","-96.58908 ","2786","52","0","0","11/20/2021 12:00:00 AM","2019","14760","NYTIMES-USCENSUS"
"11/21/2021 12:00:00 AM","Scott County","Kansas","Midwest","West North Central","20171","38.481877","-100.90636 ","868","30","0","0","11/20/2021 12:00:00 AM","2019","4823","NYTIMES-USCENSUS"
"11/21/2021 12:00:00 AM","Steuben County","Indiana","Midwest","East North Central","18151","41.643467","-85.002405 ","6280","86","0","0","11/20/2021 12:00:00 AM","2019","34594","NYTIMES-USCENSUS"
"11/21/2021 12:00:00 AM","Otter Tail County","Minnesota","Midwest","West North Central","27111","46.405727","-95.714581 ","9403","119","0","0","11/20/2021 12:00:00 AM","2019","58746","NYTIMES-USCENSUS"
"11/21/2021 12:00:00 AM","Douglas County","Minnesota","Midwest","West North Central","27041","45.936835","-95.462155 ","7430","99","0","0","11/20/2021 12:00:00 AM","2019","38141","NYTIMES-USCENSUS"
"11/21/2021 12:00:00 AM","Roseau County","Minnesota","Midwest","West North Central","27135","48.761068","-95.821504 ","3035","31","0","0","11/20/2021 12:00:00 AM","2019","15165","NYTIMES-USCENSUS"
"11/21/2021 12:00:00 AM","Iosco County","Michigan","Midwest","East North Central","26069","44.386912","-83.380141 ","3385","103","0","0","11/20/2021 12:00:00 AM","2019","25127","NYTIMES-USCENSUS"
"11/21/2021 12:00:00 AM","Hardy County","West Virginia","South","South Atlantic","54031","39.011361","-78.841729 ","2639","31","9","0","11/20/2021 12:00:00 AM","2019","13776","NYTIMES-USCENSUS"
"11/21/2021 12:00:00 AM","Washington County","North Carolina","South","South Atlantic","37187","35.844713","-76.572291 ","1629","37","0","0","11/20/2021 12:00:00 AM","2019","11580","NYTIMES-USCENSUS"
"11/21/2021 12:00:00 AM","Surry County","Virginia","South","South Atlantic","51181","37.119761","-76.880172 ","624","11","0","0","11/20/2021 12:00:00 AM","2019","6422","NYTIMES-USCENSUS"
"11/21/2021 12:00:00 AM","Lee County","Kentucky","South","East South Central","21129","37.608116","-83.719248 ","1790","35","0","0","11/20/2021 12:00:00 AM","2019","7403","NYTIMES-USCENSUS"
"11/21/2021 12:00:00 AM","Macon County","Illinois","Midwest","East North Central","17115","39.860237","-88.961529 ","16142","265","0","0","11/20/2021 12:00:00 AM","2019","104009","NYTIMES-USCENSUS"
"11/21/2021 12:00:00 AM","Saline County","Kansas","Midwest","West North Central","20169","38.791804","-97.651478 ","8964","187","0","0","11/20/2021 12:00:00 AM","2019","54224","NYTIMES-USCENSUS"
"11/21/2021 12:00:00 AM","Hunterdon County","New Jersey","Northeast","Middle Atlantic","34019","40.565283","-74.911969 ","12625","193","23","0","11/20/2021 12:00:00 AM","2019","124371","NYTIMES-USCENSUS"
"11/21/2021 12:00:00 AM","Conway County","Arkansas","South","West South Central","05029","35.265702","-92.689248 ","3216","46","2","0","11/20/2021 12:00:00 AM","2019","20846","NYTIMES-USCENSUS"
"11/21/2021 12:00:00 AM","Sevier County","Utah","West","Mountain","49041","38.746824","-111.81193 ","3890","18","0","0","11/20/2021 12:00:00 AM","2019","21620","NYTIMES-USCENSUS"
"11/21/2021 12:00:00 AM","Barrow County","Georgia","South","South Atlantic","13013","33.992009","-83.712303 ","14947","200","0","0","11/20/2021 12:00:00 AM","2019","83240","NYTIMES-USCENSUS"
"11/21/2021 12:00:00 AM","Franklin County","Nebraska","Midwest","West North Central","31061","40.183203","-98.96208 ","330","4","0","0","11/20/2021 12:00:00 AM","2019","2979","NYTIMES-USCENSUS"
"11/21/2021 12:00:00 AM","Curry County","Oregon","West","Pacific","41015","42.466439","-124.210929 ","1884","35","0","0","11/20/2021 12:00:00 AM","2019","22925","NYTIMES-USCENSUS"
"11/21/2021 12:00:00 AM","Texas County","Oklahoma","South","West South Central","40139","36.746317","-101.483855 ","4222","39","0","0","11/20/2021 12:00:00 AM","2019","19983","NYTIMES-USCENSUS"
"11/21/2021 12:00:00 AM","El Dorado County","California","West","Pacific","06017","38.785612","-120.534225 ","18075","161","0","0","11/20/2021 12:00:00 AM","2019","192843","NYTIMES-USCENSUS"
"11/21/2021 12:00:00 AM","Ellsworth County","Kansas","Midwest","West North Central","20053","38.700845","-98.205355 ","1451","31","0","0","11/20/2021 12:00:00 AM","2019","6102","NYTIMES-USCENSUS"
"11/21/2021 12:00:00 AM","Macon County","Missouri","Midwest","West North Central","29121","39.829795","-92.56434 ","2282","20","0","0","11/20/2021 12:00:00 AM","2019","15117","NYTIMES-USCENSUS"
"11/21/2021 12:00:00 AM","Robertson County","Tennessee","South","East South Central","47147","36.527509","-86.869354 ","14282","196","0","0","11/20/2021 12:00:00 AM","2019","71813","NYTIMES-USCENSUS"
"11/21/2021 12:00:00 AM","Hampshire County","Massachusetts","Northeast","New England","25015","42.339459","-72.663694 ","12204","324","0","0","11/20/2021 12:00:00 AM","2019","160830","NYTIMES-USCENSUS"
"11/21/2021 12:00:00 AM","Lewis County","Missouri","Midwest","West North Central","29111","40.084559","-91.728803 ","1817","23","1","0","11/20/2021 12:00:00 AM","2019","9776","NYTIMES-USCENSUS"
"11/21/2021 12:00:00 AM","Benton County","Mississippi","South","East South Central","28009","34.809593","-89.200213 ","1519","39","0","0","11/20/2021 12:00:00 AM","2019","8259","NYTIMES-USCENSUS"
"11/21/2021 12:00:00 AM","Marlboro County","South Carolina","South","South Atlantic","45069","34.60167","-79.679435 ","4888","83","0","0","11/20/2021 12:00:00 AM","2019","26118","NYTIMES-USCENSUS"
"11/21/2021 12:00:00 AM","Lake County","Montana","West","Mountain","30047","47.642901","-114.083687 ","4549","73","0","0","11/20/2021 12:00:00 AM","2019","30458","NYTIMES-USCENSUS"
"11/21/2021 12:00:00 AM","Mackinac County","Michigan","Midwest","East North Central","26097","46.167868","-85.303762 ","1426","14","0","0","11/20/2021 12:00:00 AM","2019","10799","NYTIMES-USCENSUS"
"11/21/2021 12:00:00 AM","Richardson County","Nebraska","Midwest","West North Central","31147","40.123743","-95.718603 ","997","24","0","0","11/20/2021 12:00:00 AM","2019","7865","NYTIMES-USCENSUS"
"11/21/2021 12:00:00 AM","Grand County","Utah","West","Mountain","49019","38.974326","-109.57345 ","1520","5","0","0","11/20/2021 12:00:00 AM","2019","9754","NYTIMES-USCENSUS"
"11/21/2021 12:00:00 AM","Tuscola County","Michigan","Midwest","East North Central","26157","43.487902","-83.436618 ","8352","213","0","0","11/20/2021 12:00:00 AM","2019","52245","NYTIMES-USCENSUS"
"11/21/2021 12:00:00 AM","Orangeburg County","South Carolina","South","South Atlantic","45075","33.436135","-80.802913 ","14761","337","0","0","11/20/2021 12:00:00 AM","2019","86175","NYTIMES-USCENSUS"
"11/21/2021 12:00:00 AM","Des Moines County","Iowa","Midwest","West North Central","19057","40.915339","-91.186925 ","7040","101","0","0","11/20/2021 12:00:00 AM","2019","38967","NYTIMES-USCENSUS"
"11/21/2021 12:00:00 AM","Hidalgo County","New Mexico","West","Mountain","35023","31.898052","-108.751929 ","625","11","0","0","11/20/2021 12:00:00 AM","2019","4198","NYTIMES-USCENSUS"
"11/21/2021 12:00:00 AM","Dawes County","Nebraska","Midwest","West North Central","31045","42.713038","-103.135436 ","1113","21","0","0","11/20/2021 12:00:00 AM","2019","8589","NYTIMES-USCENSUS"
"11/21/2021 12:00:00 AM","Carlisle County","Kentucky","South","East South Central","21039","36.85718","-88.976614 ","668","12","0","0","11/20/2021 12:00:00 AM","2019","4760","NYTIMES-USCENSUS"
"11/21/2021 12:00:00 AM","Sabine County","Texas","South","West South Central","48403","31.3433","-93.851913 ","961","75","0","0","11/20/2021 12:00:00 AM","2019","10542","NYTIMES-USCENSUS"
"11/21/2021 12:00:00 AM","Clackamas County","Oregon","West","Pacific","41005","45.160493","-122.195127 ","32082","352","0","0","11/20/2021 12:00:00 AM","2019","418187","NYTIMES-USCENSUS"
"11/21/2021 12:00:00 AM","Ness County","Kansas","Midwest","West North Central","20135","38.480437","-99.908745 ","519","17","0","0","11/20/2021 12:00:00 AM","2019","2750","NYTIMES-USCENSUS"
"11/21/2021 12:00:00 AM","Lawrence County","Mississippi","South","East South Central","28077","31.550009","-90.10753 ","2169","40","0","0","11/20/2021 12:00:00 AM","2019","12586","NYTIMES-USCENSUS"
"11/21/2021 12:00:00 AM","Rutland County","Vermont","Northeast","New England","50021","43.580858","-73.038202 ","5039","30","70","0","11/20/2021 12:00:00 AM","2019","58191","NYTIMES-USCENSUS"
"11/21/2021 12:00:00 AM","Henrico County","Virginia","South","South Atlantic","51087","37.43752","-77.300333 ","35263","730","0","0","11/20/2021 12:00:00 AM","2019","330818","NYTIMES-USCENSUS"
"11/21/2021 12:00:00 AM","Ingham County","Michigan","Midwest","East North Central","26065","42.603534","-84.373811 ","34852","487","0","0","11/20/2021 12:00:00 AM","2019","292406","NYTIMES-USCENSUS"
"11/21/2021 12:00:00 AM","Lincoln County","West Virginia","South","South Atlantic","54043","38.17177","-82.077623 ","3174","49","4","0","11/20/2021 12:00:00 AM","2019","20409","NYTIMES-USCENSUS"
"11/21/2021 12:00:00 AM","Franklin County","Florida","South","South Atlantic","12037","29.677794","-84.815213 ","2229","45","0","0","11/20/2021 12:00:00 AM","2019","12125","NYTIMES-USCENSUS"
"11/21/2021 12:00:00 AM","Stearns County","Minnesota","Midwest","West North Central","27145","45.555235","-94.610482 ","31982","270","0","0","11/20/2021 12:00:00 AM","2019","161075","NYTIMES-USCENSUS"
"11/21/2021 12:00:00 AM","Franklin Parish","Louisiana","South","West South Central","22041","32.139076","-91.672371 ","4750","140","0","0","11/20/2021 12:00:00 AM","2019","20015","NYTIMES-USCENSUS"
"11/21/2021 12:00:00 AM","Russell County","Virginia","South","South Atlantic","51167","36.93342","-82.095934 ","4020","68","0","0","11/20/2021 12:00:00 AM","2019","26586","NYTIMES-USCENSUS"
"11/21/2021 12:00:00 AM","Leslie County","Kentucky","South","East South Central","21131","37.087846","-83.388617 ","2246","30","0","0","11/20/2021 12:00:00 AM","2019","9877","NYTIMES-USCENSUS"
"11/21/2021 12:00:00 AM","Martin County","Kentucky","South","East South Central","21159","37.796774","-82.506623 ","2006","36","0","0","11/20/2021 12:00:00 AM","2019","11195","NYTIMES-USCENSUS"
"11/21/2021 12:00:00 AM","Webster County","Iowa","Midwest","West North Central","19187","42.433579","-94.175831 ","7261","121","0","0","11/20/2021 12:00:00 AM","2019","35904","NYTIMES-USCENSUS"
"11/21/2021 12:00:00 AM","Kosciusko County","Indiana","Midwest","East North Central","18085","41.244293","-85.861575 ","13539","161","0","0","11/20/2021 12:00:00 AM","2019","79456","NYTIMES-USCENSUS"
"11/21/2021 12:00:00 AM","Douglas County","Illinois","Midwest","East North Central","17041","39.766078","-88.222866 ","3446","44","0","0","11/20/2021 12:00:00 AM","2019","19465","NYTIMES-USCENSUS"
"11/21/2021 12:00:00 AM","Payette County","Idaho","West","Mountain","16075","44.00243","-116.750238 ","4232","69","0","0","11/20/2021 12:00:00 AM","2019","23951","NYTIMES-USCENSUS"
"11/21/2021 12:00:00 AM","Calumet County","Wisconsin","Midwest","East North Central","55015","44.07841","-88.212132 ","9209","68","0","0","11/20/2021 12:00:00 AM","2019","50089","NYTIMES-USCENSUS"
"11/21/2021 12:00:00 AM","Allen County","Ohio","Midwest","East North Central","39003","40.771627","-84.106103 ","17975","313","66","0","11/20/2021 12:00:00 AM","2019","102351","NYTIMES-USCENSUS"
"11/21/2021 12:00:00 AM","Elk County","Kansas","Midwest","West North Central","20049","37.456026","-96.244642 ","341","6","0","0","11/20/2021 12:00:00 AM","2019","2530","NYTIMES-USCENSUS"
"11/21/2021 12:00:00 AM","Marathon County","Wisconsin","Midwest","East North Central","55073","44.898036","-89.757823 ","23725","309","0","0","11/20/2021 12:00:00 AM","2019","135692","NYTIMES-USCENSUS"
"11/21/2021 12:00:00 AM","Washington County","Kansas","Midwest","West North Central","20201","39.776714","-97.095611 ","875","17","0","0","11/20/2021 12:00:00 AM","2019","5406","NYTIMES-USCENSUS"
"11/21/2021 12:00:00 AM","Coconino County","Arizona","West","Mountain","04005","35.829692","-111.773728 ","24901","379","61","1","11/20/2021 12:00:00 AM","2019","143476","NYTIMES-USCENSUS"
"11/21/2021 12:00:00 AM","Allen County","Indiana","Midwest","East North Central","18003","41.091909","-85.071791 ","63093","881","0","0","11/20/2021 12:00:00 AM","2019","379299","NYTIMES-USCENSUS"
"11/21/2021 12:00:00 AM","Virginia Beach city","Virginia","South","South Atlantic","51810","36.779525","-76.029142 ","50806","568","0","0","11/20/2021 12:00:00 AM","2019","449974","NYTIMES-USCENSUS"
"11/21/2021 12:00:00 AM","Middlesex County","New Jersey","Northeast","Middle Atlantic","34023","40.439621","-74.40743 ","108871","2485","141","0","11/20/2021 12:00:00 AM","2019","825062","NYTIMES-USCENSUS"
"11/21/2021 12:00:00 AM","Turner County","South Dakota","Midwest","West North Central","46125","43.30867","-97.150185 ","1391","61","0","0","11/20/2021 12:00:00 AM","2019","8384","NYTIMES-USCENSUS"
"11/21/2021 12:00:00 AM","Columbia County","Oregon","West","Pacific","41009","45.941932","-123.081079 ","4180","51","0","0","11/20/2021 12:00:00 AM","2019","52354","NYTIMES-USCENSUS"
"11/21/2021 12:00:00 AM","Ogle County","Illinois","Midwest","East North Central","17141","42.041884","-89.320176 ","8211","102","0","0","11/20/2021 12:00:00 AM","2019","50643","NYTIMES-USCENSUS"
"11/21/2021 12:00:00 AM","Clay County","Minnesota","Midwest","West North Central","27027","46.898377","-96.494901 ","11602","101","0","0","11/20/2021 12:00:00 AM","2019","64222","NYTIMES-USCENSUS"
"11/21/2021 12:00:00 AM","Nicholas County","West Virginia","South","South Atlantic","54067","38.291432","-80.797515 ","4126","57","11","0","11/20/2021 12:00:00 AM","2019","24496","NYTIMES-USCENSUS"
"11/21/2021 12:00:00 AM","Brazoria County","Texas","South","West South Central","48039","29.167817","-95.434647 ","60623","850","0","0","11/20/2021 12:00:00 AM","2019","374264","NYTIMES-USCENSUS"
"11/21/2021 12:00:00 AM","Logan County","Arkansas","South","West South Central","05083","35.218654","-93.72091 ","3715","50","1","0","11/20/2021 12:00:00 AM","2019","21466","NYTIMES-USCENSUS"
"11/21/2021 12:00:00 AM","Emmet County","Iowa","Midwest","West North Central","19063","43.377984","-94.66937 ","1764","46","0","0","11/20/2021 12:00:00 AM","2019","9208","NYTIMES-USCENSUS"
"11/21/2021 12:00:00 AM","Montgomery County","Ohio","Midwest","East North Central","39113","39.753736","-84.290591 ","78284","1367","96","0","11/20/2021 12:00:00 AM","2019","531687","NYTIMES-USCENSUS"
"11/21/2021 12:00:00 AM","Westmoreland County","Pennsylvania","Northeast","Middle Atlantic","42129","40.311068","-79.466688 ","49730","958","154","0","11/20/2021 12:00:00 AM","2019","348899","NYTIMES-USCENSUS"
"11/21/2021 12:00:00 AM","Monroe County","West Virginia","South","South Atlantic","54063","37.554062","-80.550329 ","2207","26","6","0","11/20/2021 12:00:00 AM","2019","13275","NYTIMES-USCENSUS"
"11/21/2021 12:00:00 AM","Guilford County","North Carolina","South","South Atlantic","37081","36.079065","-79.788665 ","69744","913","0","0","11/20/2021 12:00:00 AM","2019","537174","NYTIMES-USCENSUS"
"11/21/2021 12:00:00 AM","Washington County","Missouri","Midwest","West North Central","29221","37.942611","-90.897018 ","4103","70","1","0","11/20/2021 12:00:00 AM","2019","24730","NYTIMES-USCENSUS"
"11/21/2021 12:00:00 AM","Jackson County","Minnesota","Midwest","West North Central","27063","43.671111","-95.149731 ","1575","16","0","0","11/20/2021 12:00:00 AM","2019","9846","NYTIMES-USCENSUS"
"11/21/2021 12:00:00 AM","Williamsburg city","Virginia","South","South Atlantic","51830","37.269481","-76.708193 ","1194","13","0","0","11/20/2021 12:00:00 AM","2019","14954","NYTIMES-USCENSUS"
"11/21/2021 12:00:00 AM","York County","Virginia","South","South Atlantic","51199","37.220914","-76.395533 ","5631","83","0","0","11/20/2021 12:00:00 AM","2019","68280","NYTIMES-USCENSUS"
"11/21/2021 12:00:00 AM","Rock County","Wisconsin","Midwest","East North Central","55105","42.66988","-89.075284 ","23827","256","0","0","11/20/2021 12:00:00 AM","2019","163354","NYTIMES-USCENSUS"
"11/21/2021 12:00:00 AM","Wabaunsee County","Kansas","Midwest","West North Central","20197","38.955154","-96.201262 ","965","18","0","0","11/20/2021 12:00:00 AM","2019","6931","NYTIMES-USCENSUS"
"11/21/2021 12:00:00 AM","Richland Parish","Louisiana","South","West South Central","22083","32.413158","-91.748353 ","4361","79","0","0","11/20/2021 12:00:00 AM","2019","20122","NYTIMES-USCENSUS"
"11/21/2021 12:00:00 AM","Menard County","Illinois","Midwest","East North Central","17129","40.022569","-89.794133 ","1861","18","0","0","11/20/2021 12:00:00 AM","2019","12196","NYTIMES-USCENSUS"
"11/21/2021 12:00:00 AM","Schuyler County","New York","Northeast","Middle Atlantic","36097","42.419776","-76.938603 ","1834","20","18","0","11/20/2021 12:00:00 AM","2019","17807","NYTIMES-USCENSUS"
"11/21/2021 12:00:00 AM","Tangipahoa Parish","Louisiana","South","West South Central","22105","30.621348","-90.40649 ","22952","520","0","0","11/20/2021 12:00:00 AM","2019","134758","NYTIMES-USCENSUS"
"11/21/2021 12:00:00 AM","East Baton Rouge Parish","Louisiana","South","West South Central","22033","30.54393","-91.093131 ","64394","1168","0","0","11/20/2021 12:00:00 AM","2019","440059","NYTIMES-USCENSUS"
"11/21/2021 12:00:00 AM","Smith County","Tennessee","South","East South Central","47159","36.256645","-85.941915 ","4230","53","0","0","11/20/2021 12:00:00 AM","2019","20157","NYTIMES-USCENSUS"
"11/21/2021 12:00:00 AM","Johnson County","Illinois","Midwest","East North Central","17087","37.460709","-88.882131 ","2412","38","0","0","11/20/2021 12:00:00 AM","2019","12417","NYTIMES-USCENSUS"
"11/21/2021 12:00:00 AM","Jackson County","Arkansas","South","West South Central","05067","35.596467","-91.223205 ","4501","46","6","0","11/20/2021 12:00:00 AM","2019","16719","NYTIMES-USCENSUS"
"11/21/2021 12:00:00 AM","Dyer County","Tennessee","South","East South Central","47045","36.054196","-89.398306 ","8156","150","0","0","11/20/2021 12:00:00 AM","2019","37159","NYTIMES-USCENSUS"
"11/21/2021 12:00:00 AM","DeKalb County","Alabama","South","East South Central","01049","34.460915","-85.804021 ","12878","269","2","0","11/20/2021 12:00:00 AM","2019","71513","NYTIMES-USCENSUS"
"11/21/2021 12:00:00 AM","Brown County","Minnesota","Midwest","West North Central","27015","44.246541","-94.733647 ","4549","57","0","0","11/20/2021 12:00:00 AM","2019","25008","NYTIMES-USCENSUS"
"11/21/2021 12:00:00 AM","Olmsted County","Minnesota","Midwest","West North Central","27109","43.999499","-92.410098 ","21013","126","0","0","11/20/2021 12:00:00 AM","2019","158293","NYTIMES-USCENSUS"
"11/21/2021 12:00:00 AM","Washington County","Kentucky","South","East South Central","21229","37.754209","-85.175416 ","2425","48","0","0","11/20/2021 12:00:00 AM","2019","12095","NYTIMES-USCENSUS"
"11/21/2021 12:00:00 AM","Lawrence County","Ohio","Midwest","East North Central","39087","38.603866","-82.517186 ","10318","168","9","0","11/20/2021 12:00:00 AM","2019","59463","NYTIMES-USCENSUS"
"11/21/2021 12:00:00 AM","Midland County","Texas","South","West South Central","48329","31.814269","-102.002454 ","29185","380","0","1","11/20/2021 12:00:00 AM","2019","176832","NYTIMES-USCENSUS"
"11/21/2021 12:00:00 AM","Cook County","Illinois","Midwest","East North Central","17031","41.894294","-87.645455 ","663016","11984","0","0","11/20/2021 12:00:00 AM","2019","5150233","NYTIMES-USCENSUS"
"11/21/2021 12:00:00 AM","Bath County","Kentucky","South","East South Central","21011","38.152249","-83.737641 ","1708","32","0","0","11/20/2021 12:00:00 AM","2019","12500","NYTIMES-USCENSUS"
"11/21/2021 12:00:00 AM","Greenville County","South Carolina","South","South Atlantic","45045","34.892645","-82.372077 ","106890","1501","0","0","11/20/2021 12:00:00 AM","2019","523542","NYTIMES-USCENSUS"
"11/21/2021 12:00:00 AM","Wayne County","Michigan","Midwest","East North Central","26163","42.284664","-83.261953 ","218136","5774","0","0","11/20/2021 12:00:00 AM","2019","1749343","NYTIMES-USCENSUS"
"11/21/2021 12:00:00 AM","Carroll County","Missouri","Midwest","West North Central","29033","39.427375","-93.500227 ","1449","27","3","0","11/20/2021 12:00:00 AM","2019","8679","NYTIMES-USCENSUS"
"11/21/2021 12:00:00 AM","Bandera County","Texas","South","West South Central","48019","29.756389","-99.248285 ","2411","61","0","0","11/20/2021 12:00:00 AM","2019","23112","NYTIMES-USCENSUS"
"11/21/2021 12:00:00 AM","Aroostook County","Maine","Northeast","New England","23003","46.709193","-68.612409 ","4869","85","0","0","11/20/2021 12:00:00 AM","2019","67055","NYTIMES-USCENSUS"
"11/21/2021 12:00:00 AM","Irwin County","Georgia","South","South Atlantic","13155","31.604306","-83.277037 ","1458","40","0","0","11/20/2021 12:00:00 AM","2019","9416","NYTIMES-USCENSUS"
"11/21/2021 12:00:00 AM","Lee County","Iowa","Midwest","West North Central","19111","40.647588","-91.477157 ","5843","104","0","0","11/20/2021 12:00:00 AM","2019","33657","NYTIMES-USCENSUS"
"11/21/2021 12:00:00 AM","Cimarron County","Oklahoma","South","West South Central","40025","36.74839","-102.517698 ","337","2","0","0","11/20/2021 12:00:00 AM","2019","2137","NYTIMES-USCENSUS"
"11/21/2021 12:00:00 AM","DeSoto County","Mississippi","South","East South Central","28033","34.874922","-89.991211 ","33009","425","0","0","11/20/2021 12:00:00 AM","2019","184945","NYTIMES-USCENSUS"
"11/21/2021 12:00:00 AM","Utah County","Utah","West","Mountain","49049","40.120425","-111.668508 ","132830","583","0","0","11/20/2021 12:00:00 AM","2019","636235","NYTIMES-USCENSUS"
"11/21/2021 12:00:00 AM","Perry County","Pennsylvania","Northeast","Middle Atlantic","42099","40.39778","-77.266328 ","5721","131","23","0","11/20/2021 12:00:00 AM","2019","46272","NYTIMES-USCENSUS"
"11/21/2021 12:00:00 AM","Sherman County","Nebraska","Midwest","West North Central","31163","41.218743","-98.972849 ","399","4","0","0","11/20/2021 12:00:00 AM","2019","3001","NYTIMES-USCENSUS"
"11/21/2021 12:00:00 AM","Washington County","Utah","West","Mountain","49053","37.262531","-113.4878 ","30278","313","0","0","11/20/2021 12:00:00 AM","2019","177556","NYTIMES-USCENSUS"
"11/21/2021 12:00:00 AM","Keokuk County","Iowa","Midwest","West North Central","19107","41.331182","-92.167721 ","1494","39","0","0","11/20/2021 12:00:00 AM","2019","10246","NYTIMES-USCENSUS"
"11/21/2021 12:00:00 AM","Polk County","Georgia","South","South Atlantic","13233","33.996015","-85.188338 ","8622","162","0","0","11/20/2021 12:00:00 AM","2019","42613","NYTIMES-USCENSUS"
"11/21/2021 12:00:00 AM","Goodhue County","Minnesota","Midwest","West North Central","27049","44.406178","-92.716 ","7535","93","0","0","11/20/2021 12:00:00 AM","2019","46340","NYTIMES-USCENSUS"
"11/21/2021 12:00:00 AM","Red River Parish","Louisiana","South","West South Central","22081","32.101213","-93.34905 ","1413","49","0","0","11/20/2021 12:00:00 AM","2019","8442","NYTIMES-USCENSUS"
"11/21/2021 12:00:00 AM","Claiborne County","Tennessee","South","East South Central","47025","36.501572","-83.660698 ","5811","115","0","0","11/20/2021 12:00:00 AM","2019","31959","NYTIMES-USCENSUS"
"11/21/2021 12:00:00 AM","Clinton County","Indiana","Midwest","East North Central","18023","40.305944","-86.477567 ","6089","81","0","0","11/20/2021 12:00:00 AM","2019","32399","NYTIMES-USCENSUS"
"11/21/2021 12:00:00 AM","Lane County","Kansas","Midwest","West North Central","20101","38.481286","-100.466185 ","188","8","0","0","11/20/2021 12:00:00 AM","2019","1535","NYTIMES-USCENSUS"
"11/21/2021 12:00:00 AM","Washington County","Nebraska","Midwest","West North Central","31177","41.533973","-96.224577 ","2966","29","0","0","11/20/2021 12:00:00 AM","2019","20729","NYTIMES-USCENSUS"
"11/21/2021 12:00:00 AM","Angelina County","Texas","South","West South Central","48005","31.251896","-94.611134 ","13852","418","0","0","11/20/2021 12:00:00 AM","2019","86715","NYTIMES-USCENSUS"
"11/21/2021 12:00:00 AM","Niagara County","New York","Northeast","Middle Atlantic","36063","43.272672","-78.812943 ","27372","413","193","0","11/20/2021 12:00:00 AM","2019","209281","NYTIMES-USCENSUS"
"11/21/2021 12:00:00 AM","Ada County","Idaho","West","Mountain","16001","43.451477","-116.244376 ","84478","819","0","0","11/20/2021 12:00:00 AM","2019","481587","NYTIMES-USCENSUS"
"11/21/2021 12:00:00 AM","Halifax County","Virginia","South","South Atlantic","51083","36.766461","-78.939614 ","4062","112","0","0","11/20/2021 12:00:00 AM","2019","33911","NYTIMES-USCENSUS"
"11/21/2021 12:00:00 AM","Rice County","Kansas","Midwest","West North Central","20159","38.347178","-98.201415 ","1531","15","0","0","11/20/2021 12:00:00 AM","2019","9537","NYTIMES-USCENSUS"
"11/21/2021 12:00:00 AM","Trigg County","Kentucky","South","East South Central","21221","36.807681","-87.858652 ","2266","25","0","0","11/20/2021 12:00:00 AM","2019","14651","NYTIMES-USCENSUS"
"11/21/2021 12:00:00 AM","Chesapeake city","Virginia","South","South Atlantic","51550","36.679376","-76.301788 ","29390","368","0","0","11/20/2021 12:00:00 AM","2019","244835","NYTIMES-USCENSUS"
"11/21/2021 12:00:00 AM","Harper County","Kansas","Midwest","West North Central","20077","37.188184","-98.06659 ","969","24","0","0","11/20/2021 12:00:00 AM","2019","5436","NYTIMES-USCENSUS"
"11/21/2021 12:00:00 AM","Bastrop County","Texas","South","West South Central","48021","30.100772","-97.310639 ","14379","183","0","0","11/20/2021 12:00:00 AM","2019","88723","NYTIMES-USCENSUS"
"11/21/2021 12:00:00 AM","Madison County","Indiana","Midwest","East North Central","18095","40.166203","-85.722454 ","20132","460","0","0","11/20/2021 12:00:00 AM","2019","129569","NYTIMES-USCENSUS"
"11/21/2021 12:00:00 AM","Lee County","Florida","South","South Atlantic","12071","26.563273","-81.984182 ","125907","1840","0","0","11/20/2021 12:00:00 AM","2019","770577","NYTIMES-USCENSUS"
"11/21/2021 12:00:00 AM","Monona County","Iowa","Midwest","West North Central","19133","42.049432","-95.956566 ","1207","39","0","0","11/20/2021 12:00:00 AM","2019","8615","NYTIMES-USCENSUS"
"11/21/2021 12:00:00 AM","Nance County","Nebraska","Midwest","West North Central","31125","41.402385","-97.991408 ","574","10","0","0","11/20/2021 12:00:00 AM","2019","3519","NYTIMES-USCENSUS"
"11/21/2021 12:00:00 AM","Dane County","Wisconsin","Midwest","East North Central","55025","43.067468","-89.417852 ","60863","382","0","0","11/20/2021 12:00:00 AM","2019","546695","NYTIMES-USCENSUS"
"11/21/2021 12:00:00 AM","Berkeley County","West Virginia","South","South Atlantic","54003","39.447938","-78.037754 ","19815","190","68","0","11/20/2021 12:00:00 AM","2019","119171","NYTIMES-USCENSUS"
"11/21/2021 12:00:00 AM","Lowndes County","Alabama","South","East South Central","01085","32.147888","-86.650586 ","1780","68","0","0","11/20/2021 12:00:00 AM","2019","9726","NYTIMES-USCENSUS"
"11/21/2021 12:00:00 AM","Wilkes County","North Carolina","South","South Atlantic","37193","36.208883","-81.166095 ","10914","188","0","0","11/20/2021 12:00:00 AM","2019","68412","NYTIMES-USCENSUS"
"11/21/2021 12:00:00 AM","Sevier County","Tennessee","South","East South Central","47155","35.787822","-83.5249 ","20463","280","0","0","11/20/2021 12:00:00 AM","2019","98250","NYTIMES-USCENSUS"
"11/21/2021 12:00:00 AM","Ida County","Iowa","Midwest","West North Central","19093","42.39186","-95.507421 ","1264","41","0","0","11/20/2021 12:00:00 AM","2019","6860","NYTIMES-USCENSUS"
"11/21/2021 12:00:00 AM","Sheridan County","Kansas","Midwest","West North Central","20179","39.350547","-100.441228 ","543","16","0","0","11/20/2021 12:00:00 AM","2019","2521","NYTIMES-USCENSUS"
"11/21/2021 12:00:00 AM","Butler County","Ohio","Midwest","East North Central","39017","39.439747","-84.565734 ","54776","794","83","0","11/20/2021 12:00:00 AM","2019","383134","NYTIMES-USCENSUS"
"11/21/2021 12:00:00 AM","Sublette County","Wyoming","West","Mountain","56035","42.767928","-109.91617 ","1466","22","0","0","11/20/2021 12:00:00 AM","2019","9831","NYTIMES-USCENSUS"
"11/21/2021 12:00:00 AM","Lee County","Alabama","South","East South Central","01081","32.604064","-85.353048 ","25486","261","4","0","11/20/2021 12:00:00 AM","2019","164542","NYTIMES-USCENSUS"
"11/21/2021 12:00:00 AM","Grays Harbor County","Washington","West","Pacific","53027","47.113732","-123.826735 ","9210","144","0","0","11/20/2021 12:00:00 AM","2019","75061","NYTIMES-USCENSUS"
"11/21/2021 12:00:00 AM","Hill County","Montana","West","Mountain","30041","48.631959","-110.106321 ","3365","65","0","0","11/20/2021 12:00:00 AM","2019","16484","NYTIMES-USCENSUS"
"11/21/2021 12:00:00 AM","Grundy County","Iowa","Midwest","West North Central","19075","42.403339","-92.790244 ","1802","37","0","0","11/20/2021 12:00:00 AM","2019","12232","NYTIMES-USCENSUS"
"11/21/2021 12:00:00 AM","Valley County","Idaho","West","Mountain","16085","44.85596","-115.618061 ","1545","13","0","0","11/20/2021 12:00:00 AM","2019","11392","NYTIMES-USCENSUS"
"11/21/2021 12:00:00 AM","Crawford County","Georgia","South","South Atlantic","13079","32.709428","-83.979187 ","1157","45","0","0","11/20/2021 12:00:00 AM","2019","12404","NYTIMES-USCENSUS"
"11/21/2021 12:00:00 AM","Edwards County","Illinois","Midwest","East North Central","17047","38.417095","-88.047941 ","1101","20","0","0","11/20/2021 12:00:00 AM","2019","6395","NYTIMES-USCENSUS"
"11/21/2021 12:00:00 AM","Wayne County","Ohio","Midwest","East North Central","39169","40.829661","-81.887194 ","15026","304","51","0","11/20/2021 12:00:00 AM","2019","115710","NYTIMES-USCENSUS"
"11/21/2021 12:00:00 AM","Robeson County","North Carolina","South","South Atlantic","37155","34.63921","-79.100881 ","25328","437","0","0","11/20/2021 12:00:00 AM","2019","130625","NYTIMES-USCENSUS"
"11/21/2021 12:00:00 AM","Jackson County","Kentucky","South","East South Central","21109","37.403458","-84.020576 ","2788","51","0","0","11/20/2021 12:00:00 AM","2019","13329","NYTIMES-USCENSUS"
"11/21/2021 12:00:00 AM","Smyth County","Virginia","South","South Atlantic","51173","36.842318","-81.539786 ","5089","122","0","0","11/20/2021 12:00:00 AM","2019","30104","NYTIMES-USCENSUS"
"11/21/2021 12:00:00 AM","Winn Parish","Louisiana","South","West South Central","22127","31.941187","-92.641269 ","2647","58","0","0","11/20/2021 12:00:00 AM","2019","13904","NYTIMES-USCENSUS"
"11/21/2021 12:00:00 AM","Bollinger County","Missouri","Midwest","West North Central","29017","37.318427","-90.024645 ","1907","23","2","0","11/20/2021 12:00:00 AM","2019","12133","NYTIMES-USCENSUS"
"11/21/2021 12:00:00 AM","Blanco County","Texas","South","West South Central","48031","30.266456","-98.399217 ","1270","28","0","0","11/20/2021 12:00:00 AM","2019","11931","NYTIMES-USCENSUS"
"11/21/2021 12:00:00 AM","Rockland County","New York","Northeast","Middle Atlantic","36087","41.154628","-74.024662 ","54877","782","53","0","11/20/2021 12:00:00 AM","2019","325789","NYTIMES-USCENSUS"
"11/21/2021 12:00:00 AM","Coffee County","Tennessee","South","East South Central","47031","35.488765","-86.078202 ","10769","163","0","0","11/20/2021 12:00:00 AM","2019","56520","NYTIMES-USCENSUS"
"11/21/2021 12:00:00 AM","St. John the Baptist Parish","Louisiana","South","West South Central","22095","30.144068","-90.49096 ","6360","173","0","0","11/20/2021 12:00:00 AM","2019","42837","NYTIMES-USCENSUS"
"11/21/2021 12:00:00 AM","Morgan County","Illinois","Midwest","East North Central","17137","39.717668","-90.205005 ","5401","123","0","0","11/20/2021 12:00:00 AM","2019","33658","NYTIMES-USCENSUS"
"11/21/2021 12:00:00 AM","Defiance County","Ohio","Midwest","East North Central","39039","41.321679","-84.486433 ","7031","114","25","0","11/20/2021 12:00:00 AM","2019","38087","NYTIMES-USCENSUS"
"11/21/2021 12:00:00 AM","Richmond County","Georgia","South","South Atlantic","13245","33.361486","-82.074998 ","35442","726","0","0","11/20/2021 12:00:00 AM","2019","202518","NYTIMES-USCENSUS"
"11/21/2021 12:00:00 AM","Union Parish","Louisiana","South","West South Central","22111","32.829349","-92.37565 ","4107","107","0","0","11/20/2021 12:00:00 AM","2019","22108","NYTIMES-USCENSUS"
"11/21/2021 12:00:00 AM","McIntosh County","Oklahoma","South","West South Central","40091","35.369108","-95.671787 ","2938","94","0","0","11/20/2021 12:00:00 AM","2019","19596","NYTIMES-USCENSUS"
"11/21/2021 12:00:00 AM","Poweshiek County","Iowa","Midwest","West North Central","19157","41.684642","-92.522934 ","2333","43","0","0","11/20/2021 12:00:00 AM","2019","18504","NYTIMES-USCENSUS"
"11/21/2021 12:00:00 AM","Solano County","California","West","Pacific","06095","38.267226","-121.939594 ","47270","356","0","0","11/20/2021 12:00:00 AM","2019","447643","NYTIMES-USCENSUS"
"11/21/2021 12:00:00 AM","Williamson County","Illinois","Midwest","East North Central","17199","37.730353","-88.930018 ","12451","194","0","0","11/20/2021 12:00:00 AM","2019","66597","NYTIMES-USCENSUS"
"11/21/2021 12:00:00 AM","Herkimer County","New York","Northeast","Middle Atlantic","36043","43.571009","-74.841097 ","7967","139","53","0","11/20/2021 12:00:00 AM","2019","61319","NYTIMES-USCENSUS"
"11/21/2021 12:00:00 AM","Clinton County","Missouri","Midwest","West North Central","29049","39.608723","-94.395803 ","3076","78","4","0","11/20/2021 12:00:00 AM","2019","20387","NYTIMES-USCENSUS"
"11/21/2021 12:00:00 AM","Rice County","Minnesota","Midwest","West North Central","27131","44.350775","-93.298513 ","10943","137","0","0","11/20/2021 12:00:00 AM","2019","66972","NYTIMES-USCENSUS"
"11/21/2021 12:00:00 AM","Siskiyou County","California","West","Pacific","06093","41.587986","-122.533287 ","4837","69","0","0","11/20/2021 12:00:00 AM","2019","43539","NYTIMES-USCENSUS"
"11/21/2021 12:00:00 AM","Fall River County","South Dakota","Midwest","West North Central","46047","43.221619","-103.512609 ","1113","24","0","0","11/20/2021 12:00:00 AM","2019","6713","NYTIMES-USCENSUS"
"11/21/2021 12:00:00 AM","Dickson County","Tennessee","South","East South Central","47043","36.145533","-87.364155 ","10659","169","0","0","11/20/2021 12:00:00 AM","2019","53948","NYTIMES-USCENSUS"
"11/21/2021 12:00:00 AM","McDonough County","Illinois","Midwest","East North Central","17109","40.455808","-90.678954 ","3926","78","0","0","11/20/2021 12:00:00 AM","2019","29682","NYTIMES-USCENSUS"
"11/21/2021 12:00:00 AM","Claiborne Parish","Louisiana","South","West South Central","22027","32.82716","-92.989728 ","2025","66","0","0","11/20/2021 12:00:00 AM","2019","15670","NYTIMES-USCENSUS"
"11/21/2021 12:00:00 AM","Renville County","Minnesota","Midwest","West North Central","27129","44.723697","-94.955617 ","2595","51","0","0","11/20/2021 12:00:00 AM","2019","14548","NYTIMES-USCENSUS"
"11/21/2021 12:00:00 AM","Lucas County","Ohio","Midwest","East North Central","39095","41.682321","-83.468903 ","60525","1005","143","0","11/20/2021 12:00:00 AM","2019","428348","NYTIMES-USCENSUS"
"11/21/2021 12:00:00 AM","Whiteside County","Illinois","Midwest","East North Central","17195","41.750673","-89.911005 ","8913","230","0","0","11/20/2021 12:00:00 AM","2019","55175","NYTIMES-USCENSUS"
"11/21/2021 12:00:00 AM","Rockingham County","Virginia","South","South Atlantic","51165","38.507585","-78.885321 ","9666","165","0","0","11/20/2021 12:00:00 AM","2019","81948","NYTIMES-USCENSUS"
"11/21/2021 12:00:00 AM","Sullivan County","New York","Northeast","Middle Atlantic","36105","41.719993","-74.771577 ","9239","88","31","0","11/20/2021 12:00:00 AM","2019","75432","NYTIMES-USCENSUS"
"11/21/2021 12:00:00 AM","Early County","Georgia","South","South Atlantic","13099","31.324191","-84.906723 ","1906","57","0","0","11/20/2021 12:00:00 AM","2019","10190","NYTIMES-USCENSUS"
"11/21/2021 12:00:00 AM","Indian River County","Florida","South","South Atlantic","12061","27.700528","-80.574789 ","22234","564","0","0","11/20/2021 12:00:00 AM","2019","159923","NYTIMES-USCENSUS"
"11/21/2021 12:00:00 AM","Canadian County","Oklahoma","South","West South Central","40017","35.543354","-97.979889 ","23744","295","0","0","11/20/2021 12:00:00 AM","2019","148306","NYTIMES-USCENSUS"
"11/21/2021 12:00:00 AM","Marinette County","Wisconsin","Midwest","East North Central","55075","45.346899","-87.991198 ","7771","81","0","0","11/20/2021 12:00:00 AM","2019","40350","NYTIMES-USCENSUS"
"11/21/2021 12:00:00 AM","Sampson County","North Carolina","South","South Atlantic","37163","34.989298","-78.371261 ","11479","140","0","0","11/20/2021 12:00:00 AM","2019","63531","NYTIMES-USCENSUS"
"11/21/2021 12:00:00 AM","Jones County","Iowa","Midwest","West North Central","19105","42.125118","-91.116914 ","3966","61","0","0","11/20/2021 12:00:00 AM","2019","20681","NYTIMES-USCENSUS"
"11/21/2021 12:00:00 AM","Lassen County","California","West","Pacific","06035","40.715287","-120.621223 ","7894","54","0","0","11/20/2021 12:00:00 AM","2019","30573","NYTIMES-USCENSUS"
"11/21/2021 12:00:00 AM","Flagler County","Florida","South","South Atlantic","12035","29.474891","-81.286253 ","14505","276","0","0","11/20/2021 12:00:00 AM","2019","115081","NYTIMES-USCENSUS"
"11/21/2021 12:00:00 AM","Kittson County","Minnesota","Midwest","West North Central","27069","48.77604","-96.780349 ","692","22","0","0","11/20/2021 12:00:00 AM","2019","4298","NYTIMES-USCENSUS"
"11/21/2021 12:00:00 AM","Trousdale County","Tennessee","South","East South Central","47169","36.39303","-86.156691 ","3219","26","0","0","11/20/2021 12:00:00 AM","2019","11284","NYTIMES-USCENSUS"
"11/21/2021 12:00:00 AM","Craven County","North Carolina","South","South Atlantic","37049","35.116829","-77.08132 ","14490","159","0","0","11/20/2021 12:00:00 AM","2019","102139","NYTIMES-USCENSUS"
"11/21/2021 12:00:00 AM","Woodward County","Oklahoma","South","West South Central","40153","36.425619","-99.273661 ","3983","51","0","0","11/20/2021 12:00:00 AM","2019","20211","NYTIMES-USCENSUS"
"11/21/2021 12:00:00 AM","Barren County","Kentucky","South","East South Central","21009","36.962805","-85.932108 ","8306","157","0","0","11/20/2021 12:00:00 AM","2019","44249","NYTIMES-USCENSUS"
"11/21/2021 12:00:00 AM","Mineral County","West Virginia","South","South Atlantic","54057","39.404781","-78.95669 ","4893","118","3","0","11/20/2021 12:00:00 AM","2019","26868","NYTIMES-USCENSUS"
"11/21/2021 12:00:00 AM","Abbeville County","South Carolina","South","South Atlantic","45001","34.229041","-82.454058 ","3906","50","0","0","11/20/2021 12:00:00 AM","2019","24527","NYTIMES-USCENSUS"
"11/21/2021 12:00:00 AM","Lincoln County","Maine","Northeast","New England","23015","43.994781","-69.513624 ","2071","8","0","0","11/20/2021 12:00:00 AM","2019","34634","NYTIMES-USCENSUS"
"11/21/2021 12:00:00 AM","Henderson County","Tennessee","South","East South Central","47077","35.653994","-88.387674 ","5857","105","0","0","11/20/2021 12:00:00 AM","2019","28117","NYTIMES-USCENSUS"
"11/21/2021 12:00:00 AM","Wasco County","Oregon","West","Pacific","41065","45.164536","-121.165069 ","3137","44","0","0","11/20/2021 12:00:00 AM","2019","26682","NYTIMES-USCENSUS"
"11/21/2021 12:00:00 AM","Los Angeles County","California","West","Pacific","06037","34.196398","-118.261862 ","1520485","27010","1049","11","11/20/2021 12:00:00 AM","2019","10039107","NYTIMES-USCENSUS"
"11/21/2021 12:00:00 AM","Woodruff County","Arkansas","South","West South Central","05147","35.192777","-91.244535 ","1132","24","0","0","11/20/2021 12:00:00 AM","2019","6320","NYTIMES-USCENSUS"
"11/21/2021 12:00:00 AM","Reno County","Kansas","Midwest","West North Central","20155","37.948185","-98.078346 ","12168","172","0","0","11/20/2021 12:00:00 AM","2019","61998","NYTIMES-USCENSUS"
"11/21/2021 12:00:00 AM","Nelson County","Kentucky","South","East South Central","21179","37.80312","-85.465931 ","8635","99","0","0","11/20/2021 12:00:00 AM","2019","46233","NYTIMES-USCENSUS"
"11/21/2021 12:00:00 AM","McPherson County","Kansas","Midwest","West North Central","20113","38.395812","-97.647489 ","4867","98","0","0","11/20/2021 12:00:00 AM","2019","28542","NYTIMES-USCENSUS"
"11/21/2021 12:00:00 AM","Scurry County","Texas","South","West South Central","48415","32.744353","-100.913346 ","3474","84","0","0","11/20/2021 12:00:00 AM","2019","16703","NYTIMES-USCENSUS"
"11/21/2021 12:00:00 AM","Lincoln Parish","Louisiana","South","West South Central","22061","32.601823","-92.662303 ","7187","116","0","0","11/20/2021 12:00:00 AM","2019","46742","NYTIMES-USCENSUS"
"11/21/2021 12:00:00 AM","Taney County","Missouri","Midwest","West North Central","29213","36.649827","-93.042819 ","9243","155","6","0","11/20/2021 12:00:00 AM","2019","55928","NYTIMES-USCENSUS"
"11/21/2021 12:00:00 AM","Cumberland County","Tennessee","South","East South Central","47035","35.952398","-84.994761 ","11372","227","0","0","11/20/2021 12:00:00 AM","2019","60520","NYTIMES-USCENSUS"
"11/21/2021 12:00:00 AM","Campbell County","Tennessee","South","East South Central","47013","36.401592","-84.159249 ","7468","88","0","0","11/20/2021 12:00:00 AM","2019","39842","NYTIMES-USCENSUS"
"11/21/2021 12:00:00 AM","Cerro Gordo County","Iowa","Midwest","West North Central","19033","43.074975","-93.250965 ","7795","121","0","0","11/20/2021 12:00:00 AM","2019","42450","NYTIMES-USCENSUS"
"11/21/2021 12:00:00 AM","Sussex County","New Jersey","Northeast","Middle Atlantic","34037","41.137461","-74.691914 ","18360","349","37","0","11/20/2021 12:00:00 AM","2019","140488","NYTIMES-USCENSUS"
"11/21/2021 12:00:00 AM","Haskell County","Kansas","Midwest","West North Central","20081","37.554979","-100.879952 ","619","9","0","0","11/20/2021 12:00:00 AM","2019","3968","NYTIMES-USCENSUS"
"11/21/2021 12:00:00 AM","Walworth County","South Dakota","Midwest","West North Central","46129","45.427605","-100.027856 ","950","19","0","0","11/20/2021 12:00:00 AM","2019","5435","NYTIMES-USCENSUS"
"11/21/2021 12:00:00 AM","Rapides Parish","Louisiana","South","West South Central","22079","31.193204","-92.535953 ","21446","472","0","0","11/20/2021 12:00:00 AM","2019","129648","NYTIMES-USCENSUS"
"11/21/2021 12:00:00 AM","Huntingdon County","Pennsylvania","Northeast","Middle Atlantic","42061","40.422311","-77.968595 ","7391","175","27","0","11/20/2021 12:00:00 AM","2019","45144","NYTIMES-USCENSUS"
"11/21/2021 12:00:00 AM","Marion County","Kentucky","South","East South Central","21155","37.552604","-85.268959 ","4049","51","0","0","11/20/2021 12:00:00 AM","2019","19273","NYTIMES-USCENSUS"
"11/21/2021 12:00:00 AM","Jackson County","Alabama","South","East South Central","01071","34.764114","-85.980056 ","10148","195","2","0","11/20/2021 12:00:00 AM","2019","51626","NYTIMES-USCENSUS"
"11/21/2021 12:00:00 AM","Tipton County","Indiana","Midwest","East North Central","18159","40.310229","-86.056207 ","2420","66","0","0","11/20/2021 12:00:00 AM","2019","15148","NYTIMES-USCENSUS"
"11/21/2021 12:00:00 AM","Audrain County","Missouri","Midwest","West North Central","29007","39.214481","-91.843418 ","3981","66","6","0","11/20/2021 12:00:00 AM","2019","25388","NYTIMES-USCENSUS"
"11/21/2021 12:00:00 AM","Harrison County","West Virginia","South","South Atlantic","54033","39.279182","-80.386498 ","11964","173","21","0","11/20/2021 12:00:00 AM","2019","67256","NYTIMES-USCENSUS"
"11/21/2021 12:00:00 AM","Meagher County","Montana","West","Mountain","30059","46.5857","-110.92174 ","268","9","0","0","11/20/2021 12:00:00 AM","2019","1862","NYTIMES-USCENSUS"
"11/21/2021 12:00:00 AM","Montour County","Pennsylvania","Northeast","Middle Atlantic","42093","41.029284","-76.665225 ","2774","75","11","0","11/20/2021 12:00:00 AM","2019","18230","NYTIMES-USCENSUS"
"11/21/2021 12:00:00 AM","Avery County","North Carolina","South","South Atlantic","37011","36.07209","-81.920285 ","2840","39","0","0","11/20/2021 12:00:00 AM","2019","17557","NYTIMES-USCENSUS"
"11/21/2021 12:00:00 AM","Lincoln County","Montana","West","Mountain","30053","48.552385","-115.463185 ","3489","60","0","0","11/20/2021 12:00:00 AM","2019","19980","NYTIMES-USCENSUS"
"11/21/2021 12:00:00 AM","Atlantic County","New Jersey","Northeast","Middle Atlantic","34001","39.469355","-74.633759 ","40718","790","48","0","11/20/2021 12:00:00 AM","2019","263670","NYTIMES-USCENSUS"
"11/21/2021 12:00:00 AM","Lincoln County","Wisconsin","Midwest","East North Central","55069","45.333148","-89.73224 ","4765","113","0","0","11/20/2021 12:00:00 AM","2019","27593","NYTIMES-USCENSUS"
"11/21/2021 12:00:00 AM","Moody County","South Dakota","Midwest","West North Central","46101","44.012429","-96.676054 ","833","21","0","0","11/20/2021 12:00:00 AM","2019","6576","NYTIMES-USCENSUS"
"11/21/2021 12:00:00 AM","Clearfield County","Pennsylvania","Northeast","Middle Atlantic","42033","41.006862","-78.477724 ","12349","222","37","1","11/20/2021 12:00:00 AM","2019","79255","NYTIMES-USCENSUS"
"11/21/2021 12:00:00 AM","Ketchikan Gateway Borough","Alaska","West","Pacific","02130","55.449938","-131.106685 ","1926","11","0","0","11/20/2021 12:00:00 AM","2019","13901","NYTIMES-USCENSUS"
"11/21/2021 12:00:00 AM","Piscataquis County","Maine","Northeast","New England","23021","45.915639","-69.102231 ","1496","13","0","0","11/20/2021 12:00:00 AM","2019","16785","NYTIMES-USCENSUS"
"11/21/2021 12:00:00 AM","Berkshire County","Massachusetts","Northeast","New England","25003","42.371493","-73.217928 ","9974","330","0","0","11/20/2021 12:00:00 AM","2019","124944","NYTIMES-USCENSUS"
"11/21/2021 12:00:00 AM","Gilpin County","Colorado","West","Mountain","08047","39.861156","-105.528878 ","520","3","0","0","11/20/2021 12:00:00 AM","2019","6243","NYTIMES-USCENSUS"
"11/21/2021 12:00:00 AM","Shelby County","Alabama","South","East South Central","01117","33.263043","-86.678089 ","38255","368","13","0","11/20/2021 12:00:00 AM","2019","217702","NYTIMES-USCENSUS"
"11/21/2021 12:00:00 AM","Indiana County","Pennsylvania","Northeast","Middle Atlantic","42063","40.651432","-79.087545 ","10303","257","64","0","11/20/2021 12:00:00 AM","2019","84073","NYTIMES-USCENSUS"
"11/21/2021 12:00:00 AM","Camp County","Texas","South","West South Central","48063","32.974581","-94.979085 ","2038","67","0","0","11/20/2021 12:00:00 AM","2019","13094","NYTIMES-USCENSUS"
"11/21/2021 12:00:00 AM","Kandiyohi County","Minnesota","Midwest","West North Central","27067","45.152714","-95.004981 ","9482","104","0","0","11/20/2021 12:00:00 AM","2019","43199","NYTIMES-USCENSUS"
"11/21/2021 12:00:00 AM","Labette County","Kansas","Midwest","West North Central","20099","37.191468","-95.297473 ","3870","62","0","0","11/20/2021 12:00:00 AM","2019","19618","NYTIMES-USCENSUS"
"11/21/2021 12:00:00 AM","Glynn County","Georgia","South","South Atlantic","13127","31.21271","-81.49645 ","15431","339","0","0","11/20/2021 12:00:00 AM","2019","85292","NYTIMES-USCENSUS"
"11/21/2021 12:00:00 AM","Clay County","Indiana","Midwest","East North Central","18021","39.393928","-87.115858 ","4470","61","0","0","11/20/2021 12:00:00 AM","2019","26225","NYTIMES-USCENSUS"
"11/21/2021 12:00:00 AM","Bernalillo County","New Mexico","West","Mountain","35001","35.053628","-106.66908 ","83500","1161","0","0","11/20/2021 12:00:00 AM","2019","679121","NYTIMES-USCENSUS"
"11/21/2021 12:00:00 AM","Clay County","North Carolina","South","South Atlantic","37043","35.052997","-83.752264 ","1695","38","0","0","11/20/2021 12:00:00 AM","2019","11231","NYTIMES-USCENSUS"
"11/21/2021 12:00:00 AM","Divide County","North Dakota","Midwest","West North Central","38023","48.814754","-103.509326 ","308","3","2","0","11/20/2021 12:00:00 AM","2019","2264","NYTIMES-USCENSUS"
"11/21/2021 12:00:00 AM","Barber County","Kansas","Midwest","West North Central","20007","37.222906","-98.685052 ","567","7","0","0","11/20/2021 12:00:00 AM","2019","4427","NYTIMES-USCENSUS"
"11/21/2021 12:00:00 AM","Miami-Dade County","Florida","South","South Atlantic","12086","25.616009","-80.50375 ","677570","9121","0","0","11/20/2021 12:00:00 AM","2019","2716940","NYTIMES-USCENSUS"
"11/21/2021 12:00:00 AM","San Mateo County","California","West","Pacific","06081","37.414672","-122.371546 ","55830","627","0","0","11/20/2021 12:00:00 AM","2019","766573","NYTIMES-USCENSUS"
"11/21/2021 12:00:00 AM","Putnam County","New York","Northeast","Middle Atlantic","36079","41.427907","-73.743861 ","12937","101","17","1","11/20/2021 12:00:00 AM","2019","98320","NYTIMES-USCENSUS"
"11/21/2021 12:00:00 AM","Van Buren County","Iowa","Midwest","West North Central","19177","40.754117","-91.952943 ","907","22","0","0","11/20/2021 12:00:00 AM","2019","7044","NYTIMES-USCENSUS"
"11/21/2021 12:00:00 AM","Marion County","Alabama","South","East South Central","01093","34.138219","-87.881551 ","5383","129","2","0","11/20/2021 12:00:00 AM","2019","29709","NYTIMES-USCENSUS"
"11/21/2021 12:00:00 AM","Tippecanoe County","Indiana","Midwest","East North Central","18157","40.389133","-86.893554 ","29467","275","0","0","11/20/2021 12:00:00 AM","2019","195732","NYTIMES-USCENSUS"
