"monitor_date","county","state_name","region","subregion","fips","latitude","longitude","case_count_to_date","death_count_to_date","case_count","death_count","previous_monitor_date","population_year","population","source"
"4/30/2021 12:00:00 AM","Rockingham County","New Hampshire","Northeast","New England","33015","42.988664","-71.09908 ","23350","249","52","2","4/29/2021 12:00:00 AM","2019","309769","NYTIMES-USCENSUS"
"4/30/2021 12:00:00 AM","Saline County","Missouri","Midwest","West North Central","29195","39.13584","-93.204164 ","2822","38","1","0","4/29/2021 12:00:00 AM","2019","22761","NYTIMES-USCENSUS"
"4/30/2021 12:00:00 AM","Brunswick County","North Carolina","South","South Atlantic","37019","34.038754","-78.227765 ","9012","152","18","0","4/29/2021 12:00:00 AM","2019","142820","NYTIMES-USCENSUS"
"4/30/2021 12:00:00 AM","Montgomery County","New York","Northeast","Middle Atlantic","36057","42.900891","-74.435357 ","4067","120","19","1","4/29/2021 12:00:00 AM","2019","49221","NYTIMES-USCENSUS"
"4/30/2021 12:00:00 AM","Pitkin County","Colorado","West","Mountain","08097","39.217541","-106.916162 ","2579","4","0","0","4/29/2021 12:00:00 AM","2019","17767","NYTIMES-USCENSUS"
"4/30/2021 12:00:00 AM","Garza County","Texas","South","West South Central","48169","33.183792","-101.301134 ","488","22","0","0","4/29/2021 12:00:00 AM","2019","6229","NYTIMES-USCENSUS"
"4/30/2021 12:00:00 AM","Montmorency County","Michigan","Midwest","East North Central","26119","45.024134","-84.130107 ","543","19","1","1","4/29/2021 12:00:00 AM","2019","9328","NYTIMES-USCENSUS"
"4/30/2021 12:00:00 AM","Oconee County","South Carolina","South","South Atlantic","45073","34.748766","-83.06154 ","9472","133","40","0","4/29/2021 12:00:00 AM","2019","79546","NYTIMES-USCENSUS"
"4/30/2021 12:00:00 AM","Cedar County","Missouri","Midwest","West North Central","29039","37.733655","-93.850014 ","1079","21","4","0","4/29/2021 12:00:00 AM","2019","14349","NYTIMES-USCENSUS"
"4/30/2021 12:00:00 AM","Roanoke County","Virginia","South","South Atlantic","51161","37.330792","-80.191237 ","8129","139","12","0","4/29/2021 12:00:00 AM","2019","94186","NYTIMES-USCENSUS"
"4/30/2021 12:00:00 AM","Edwards County","Illinois","Midwest","East North Central","17047","38.417095","-88.047941 ","566","13","0","0","4/29/2021 12:00:00 AM","2019","6395","NYTIMES-USCENSUS"
"4/30/2021 12:00:00 AM","Kingsbury County","South Dakota","Midwest","West North Central","46077","44.362969","-97.499313 ","814","16","2","1","4/29/2021 12:00:00 AM","2019","4939","NYTIMES-USCENSUS"
"4/30/2021 12:00:00 AM","Sarasota County","Florida","South","South Atlantic","12115","27.225327","-82.423714 ","32385","812","42","1","4/29/2021 12:00:00 AM","2019","433742","NYTIMES-USCENSUS"
"4/30/2021 12:00:00 AM","Lamar County","Georgia","South","South Atlantic","13171","33.07444","-84.146689 ","2028","56","3","0","4/29/2021 12:00:00 AM","2019","19077","NYTIMES-USCENSUS"
"4/30/2021 12:00:00 AM","Emmons County","North Dakota","Midwest","West North Central","38029","46.284255","-100.237842 ","419","13","1","0","4/29/2021 12:00:00 AM","2019","3241","NYTIMES-USCENSUS"
"4/30/2021 12:00:00 AM","Harrison County","Iowa","Midwest","West North Central","19085","41.688584","-95.827149 ","1786","73","3","0","4/29/2021 12:00:00 AM","2019","14049","NYTIMES-USCENSUS"
"4/30/2021 12:00:00 AM","Menominee County","Michigan","Midwest","East North Central","26109","45.535568","-87.501457 ","2048","41","3","0","4/29/2021 12:00:00 AM","2019","22780","NYTIMES-USCENSUS"
"4/30/2021 12:00:00 AM","McCurtain County","Oklahoma","South","West South Central","40089","34.117073","-94.766086 ","3928","88","0","0","4/29/2021 12:00:00 AM","2019","32832","NYTIMES-USCENSUS"
"4/30/2021 12:00:00 AM","Wells County","North Dakota","Midwest","West North Central","38103","47.580851","-99.682213 ","446","8","2","0","4/29/2021 12:00:00 AM","2019","3834","NYTIMES-USCENSUS"
"4/30/2021 12:00:00 AM","Union County","Kentucky","South","East South Central","21225","37.658029","-87.95165 ","1331","15","0","0","4/29/2021 12:00:00 AM","2019","14381","NYTIMES-USCENSUS"
"4/30/2021 12:00:00 AM","Roosevelt County","Montana","West","Mountain","30085","48.282747","-104.99517 ","1627","54","2","0","4/29/2021 12:00:00 AM","2019","11004","NYTIMES-USCENSUS"
"4/30/2021 12:00:00 AM","Sevier County","Utah","West","Mountain","49041","38.746824","-111.81193 ","2181","14","1","0","4/29/2021 12:00:00 AM","2019","21620","NYTIMES-USCENSUS"
"4/30/2021 12:00:00 AM","Hamilton County","Florida","South","South Atlantic","12047","30.491187","-82.951071 ","1623","25","0","0","4/29/2021 12:00:00 AM","2019","14428","NYTIMES-USCENSUS"
"4/30/2021 12:00:00 AM","Granville County","North Carolina","South","South Atlantic","37077","36.299884","-78.657634 ","5878","80","12","0","4/29/2021 12:00:00 AM","2019","60443","NYTIMES-USCENSUS"
"4/30/2021 12:00:00 AM","Haskell County","Kansas","Midwest","West North Central","20081","37.554979","-100.879952 ","418","9","0","0","4/29/2021 12:00:00 AM","2019","3968","NYTIMES-USCENSUS"
"4/30/2021 12:00:00 AM","Appomattox County","Virginia","South","South Atlantic","51011","37.370725","-78.81094 ","1579","24","3","0","4/29/2021 12:00:00 AM","2019","15911","NYTIMES-USCENSUS"
"4/30/2021 12:00:00 AM","Osage County","Oklahoma","South","West South Central","40113","36.624299","-96.408112 ","4681","73","0","0","4/29/2021 12:00:00 AM","2019","46963","NYTIMES-USCENSUS"
"4/30/2021 12:00:00 AM","Seward County","Kansas","Midwest","West North Central","20175","37.18096","-100.855257 ","3957","41","0","0","4/29/2021 12:00:00 AM","2019","21428","NYTIMES-USCENSUS"
"4/30/2021 12:00:00 AM","Muskingum County","Ohio","Midwest","East North Central","39119","39.966046","-81.943506 ","8770","131","4","3","4/29/2021 12:00:00 AM","2019","86215","NYTIMES-USCENSUS"
"4/30/2021 12:00:00 AM","Wilson County","Texas","South","West South Central","48493","29.173883","-98.086734 ","4469","68","7","0","4/29/2021 12:00:00 AM","2019","51070","NYTIMES-USCENSUS"
"4/30/2021 12:00:00 AM","Adams County","Iowa","Midwest","West North Central","19003","41.021656","-94.696906 ","337","4","0","0","4/29/2021 12:00:00 AM","2019","3602","NYTIMES-USCENSUS"
"4/30/2021 12:00:00 AM","Norfolk city","Virginia","South","South Atlantic","51710","36.923015","-76.244641 ","17348","252","31","0","4/29/2021 12:00:00 AM","2019","242742","NYTIMES-USCENSUS"
"4/30/2021 12:00:00 AM","Assumption Parish","Louisiana","South","West South Central","22007","29.9033","-91.065219 ","2173","36","3","0","4/29/2021 12:00:00 AM","2019","21891","NYTIMES-USCENSUS"
"4/30/2021 12:00:00 AM","Frederick County","Maryland","South","South Atlantic","24021","39.470177","-77.397636 ","19437","320","17","0","4/29/2021 12:00:00 AM","2019","259547","NYTIMES-USCENSUS"
"4/30/2021 12:00:00 AM","Kent County","Michigan","Midwest","East North Central","26081","43.032497","-85.547446 ","68106","783","243","-2","4/29/2021 12:00:00 AM","2019","656955","NYTIMES-USCENSUS"
"4/30/2021 12:00:00 AM","Imperial County","California","West","Pacific","06025","33.040814","-115.3554 ","28235","720","58","0","4/29/2021 12:00:00 AM","2019","181215","NYTIMES-USCENSUS"
"4/30/2021 12:00:00 AM","Harrison County","Kentucky","South","East South Central","21097","38.444578","-84.334131 ","1670","22","3","0","4/29/2021 12:00:00 AM","2019","18886","NYTIMES-USCENSUS"
"4/30/2021 12:00:00 AM","Mendocino County","California","West","Pacific","06045","39.432388","-123.442881 ","4029","48","5","0","4/29/2021 12:00:00 AM","2019","86749","NYTIMES-USCENSUS"
"4/30/2021 12:00:00 AM","Crawford County","Georgia","South","South Atlantic","13079","32.709428","-83.979187 ","661","19","3","0","4/29/2021 12:00:00 AM","2019","12404","NYTIMES-USCENSUS"
"4/30/2021 12:00:00 AM","Fond du Lac County","Wisconsin","Midwest","East North Central","55039","43.754722","-88.493284 ","13531","120","18","0","4/29/2021 12:00:00 AM","2019","103403","NYTIMES-USCENSUS"
"4/30/2021 12:00:00 AM","Delaware County","Oklahoma","South","West South Central","40041","36.393437","-94.808189 ","4594","90","0","0","4/29/2021 12:00:00 AM","2019","43009","NYTIMES-USCENSUS"
"4/30/2021 12:00:00 AM","Lincoln County","Colorado","West","Mountain","08073","38.99374","-103.507555 ","1020","4","0","0","4/29/2021 12:00:00 AM","2019","5701","NYTIMES-USCENSUS"
"4/30/2021 12:00:00 AM","Nye County","Nevada","West","Mountain","32023","37.965864","-116.459011 ","2918","106","4","0","4/29/2021 12:00:00 AM","2019","46523","NYTIMES-USCENSUS"
"4/30/2021 12:00:00 AM","Marion County","Iowa","Midwest","West North Central","19125","41.331433","-93.093868 ","3587","75","4","0","4/29/2021 12:00:00 AM","2019","33253","NYTIMES-USCENSUS"
"4/30/2021 12:00:00 AM","Clay County","Kentucky","South","East South Central","21051","37.164273","-83.715473 ","2653","43","3","0","4/29/2021 12:00:00 AM","2019","19901","NYTIMES-USCENSUS"
"4/30/2021 12:00:00 AM","Erie County","Pennsylvania","Northeast","Middle Atlantic","42049","42.117952","-80.096386 ","20073","404","53","0","4/29/2021 12:00:00 AM","2019","269728","NYTIMES-USCENSUS"
"4/30/2021 12:00:00 AM","Hot Springs County","Wyoming","West","Mountain","56017","43.720209","-108.435076 ","368","3","0","0","4/29/2021 12:00:00 AM","2019","4413","NYTIMES-USCENSUS"
"4/30/2021 12:00:00 AM","Taylor County","Georgia","South","South Atlantic","13269","32.554667","-84.251426 ","804","25","0","0","4/29/2021 12:00:00 AM","2019","8020","NYTIMES-USCENSUS"
"4/30/2021 12:00:00 AM","Chatham County","Georgia","South","South Atlantic","13051","31.980404","-81.085184 ","23065","452","36","2","4/29/2021 12:00:00 AM","2019","289430","NYTIMES-USCENSUS"
"4/30/2021 12:00:00 AM","Redwood County","Minnesota","Midwest","West North Central","27127","44.403536","-95.254241 ","1697","36","4","0","4/29/2021 12:00:00 AM","2019","15170","NYTIMES-USCENSUS"
"4/30/2021 12:00:00 AM","New Hanover County","North Carolina","South","South Atlantic","37129","34.183445","-77.864204 ","18846","164","32","0","4/29/2021 12:00:00 AM","2019","234473","NYTIMES-USCENSUS"
"4/30/2021 12:00:00 AM","Coles County","Illinois","Midwest","East North Central","17029","39.51368","-88.220782 ","5631","96","16","0","4/29/2021 12:00:00 AM","2019","50621","NYTIMES-USCENSUS"
"4/30/2021 12:00:00 AM","Franklin County","Mississippi","South","East South Central","28037","31.477773","-90.895457 ","831","23","0","0","4/29/2021 12:00:00 AM","2019","7713","NYTIMES-USCENSUS"
"4/30/2021 12:00:00 AM","Pontotoc County","Oklahoma","South","West South Central","40123","34.721415","-96.69178 ","5105","72","0","0","4/29/2021 12:00:00 AM","2019","38284","NYTIMES-USCENSUS"
"4/30/2021 12:00:00 AM","Divide County","North Dakota","Midwest","West North Central","38023","48.814754","-103.509326 ","175","2","0","0","4/29/2021 12:00:00 AM","2019","2264","NYTIMES-USCENSUS"
"4/30/2021 12:00:00 AM","Ford County","Kansas","Midwest","West North Central","20057","37.688416","-99.884748 ","5743","74","3","0","4/29/2021 12:00:00 AM","2019","33619","NYTIMES-USCENSUS"
"4/30/2021 12:00:00 AM","Northumberland County","Pennsylvania","Northeast","Middle Atlantic","42097","40.851524","-76.709877 ","9224","347","19","1","4/29/2021 12:00:00 AM","2019","90843","NYTIMES-USCENSUS"
"4/30/2021 12:00:00 AM","Rutland County","Vermont","Northeast","New England","50021","43.580858","-73.038202 ","2094","20","17","0","4/29/2021 12:00:00 AM","2019","58191","NYTIMES-USCENSUS"
"4/30/2021 12:00:00 AM","Natrona County","Wyoming","West","Mountain","56025","42.977645","-106.768219 ","7952","136","6","0","4/29/2021 12:00:00 AM","2019","79858","NYTIMES-USCENSUS"
"4/30/2021 12:00:00 AM","Logan County","Ohio","Midwest","East North Central","39091","40.387553","-83.766343 ","3795","76","11","0","4/29/2021 12:00:00 AM","2019","45672","NYTIMES-USCENSUS"
"4/30/2021 12:00:00 AM","Columbia County","Wisconsin","Midwest","East North Central","55021","43.471882","-89.330472 ","5750","69","6","0","4/29/2021 12:00:00 AM","2019","57532","NYTIMES-USCENSUS"
"4/30/2021 12:00:00 AM","Pierce County","Nebraska","Midwest","West North Central","31139","42.271413","-97.610992 ","630","20","2","0","4/29/2021 12:00:00 AM","2019","7148","NYTIMES-USCENSUS"
"4/30/2021 12:00:00 AM","Dallas County","Alabama","South","East South Central","01047","32.333526","-87.11436 ","3530","150","4","0","4/29/2021 12:00:00 AM","2019","37196","NYTIMES-USCENSUS"
"4/30/2021 12:00:00 AM","Walton County","Georgia","South","South Atlantic","13297","33.783887","-83.731829 ","10670","255","25","1","4/29/2021 12:00:00 AM","2019","94593","NYTIMES-USCENSUS"
"4/30/2021 12:00:00 AM","Collingsworth County","Texas","South","West South Central","48087","34.963358","-100.272135 ","323","9","0","0","4/29/2021 12:00:00 AM","2019","2920","NYTIMES-USCENSUS"
"4/30/2021 12:00:00 AM","Sioux County","Iowa","Midwest","West North Central","19167","43.082646","-96.17801 ","5101","74","2","1","4/29/2021 12:00:00 AM","2019","34855","NYTIMES-USCENSUS"
"4/30/2021 12:00:00 AM","Macon County","Georgia","South","South Atlantic","13193","32.362686","-84.051231 ","867","30","6","0","4/29/2021 12:00:00 AM","2019","12947","NYTIMES-USCENSUS"
"4/30/2021 12:00:00 AM","Charlotte County","Florida","South","South Atlantic","12015","26.906396","-82.003657 ","12716","416","25","0","4/29/2021 12:00:00 AM","2019","188910","NYTIMES-USCENSUS"
"4/30/2021 12:00:00 AM","LaGrange County","Indiana","Midwest","East North Central","18087","41.642462","-85.427845 ","2623","72","12","0","4/29/2021 12:00:00 AM","2019","39614","NYTIMES-USCENSUS"
"4/30/2021 12:00:00 AM","Harper County","Kansas","Midwest","West North Central","20077","37.188184","-98.06659 ","625","18","0","0","4/29/2021 12:00:00 AM","2019","5436","NYTIMES-USCENSUS"
"4/30/2021 12:00:00 AM","Eddy County","New Mexico","West","Mountain","35015","32.457835","-104.306434 ","6801","129","7","0","4/29/2021 12:00:00 AM","2019","58460","NYTIMES-USCENSUS"
"4/30/2021 12:00:00 AM","Hart County","Georgia","South","South Atlantic","13147","34.348733","-82.96329 ","2371","52","1","0","4/29/2021 12:00:00 AM","2019","26205","NYTIMES-USCENSUS"
"4/30/2021 12:00:00 AM","Heard County","Georgia","South","South Atlantic","13149","33.291347","-85.137886 ","866","19","5","0","4/29/2021 12:00:00 AM","2019","11923","NYTIMES-USCENSUS"
"4/30/2021 12:00:00 AM","Letcher County","Kentucky","South","East South Central","21133","37.118536","-82.861251 ","1894","42","2","0","4/29/2021 12:00:00 AM","2019","21553","NYTIMES-USCENSUS"
"4/30/2021 12:00:00 AM","Louisa County","Iowa","Midwest","West North Central","19115","41.218211","-91.256994 ","1276","49","0","0","4/29/2021 12:00:00 AM","2019","11035","NYTIMES-USCENSUS"
"4/30/2021 12:00:00 AM","McKinley County","New Mexico","West","Mountain","35031","35.584062","-108.253294 ","12231","465","5","3","4/29/2021 12:00:00 AM","2019","71367","NYTIMES-USCENSUS"
"4/30/2021 12:00:00 AM","Craig County","Virginia","South","South Atlantic","51045","37.473603","-80.231051 ","309","5","2","0","4/29/2021 12:00:00 AM","2019","5131","NYTIMES-USCENSUS"
"4/30/2021 12:00:00 AM","Anderson County","Tennessee","South","East South Central","47001","36.116731","-84.195418 ","8729","172","5","0","4/29/2021 12:00:00 AM","2019","76978","NYTIMES-USCENSUS"
"4/30/2021 12:00:00 AM","Washington County","Pennsylvania","Northeast","Middle Atlantic","42125","40.200005","-80.252132 ","16910","291","97","1","4/29/2021 12:00:00 AM","2019","206865","NYTIMES-USCENSUS"
"4/30/2021 12:00:00 AM","Horry County","South Carolina","South","South Atlantic","45051","33.909269","-78.976675 ","38586","569","49","0","4/29/2021 12:00:00 AM","2019","354081","NYTIMES-USCENSUS"
"4/30/2021 12:00:00 AM","Washington County","Texas","South","West South Central","48477","30.215075","-96.410272 ","4027","92","4","0","4/29/2021 12:00:00 AM","2019","35882","NYTIMES-USCENSUS"
"4/30/2021 12:00:00 AM","Larimer County","Colorado","West","Mountain","08069","40.658093","-105.486764 ","25434","233","84","0","4/29/2021 12:00:00 AM","2019","356899","NYTIMES-USCENSUS"
"4/30/2021 12:00:00 AM","Sullivan County","New York","Northeast","Middle Atlantic","36105","41.719993","-74.771577 ","6386","71","12","0","4/29/2021 12:00:00 AM","2019","75432","NYTIMES-USCENSUS"
"4/30/2021 12:00:00 AM","Perry County","Alabama","South","East South Central","01105","32.639005","-87.293827 ","1075","26","0","0","4/29/2021 12:00:00 AM","2019","8923","NYTIMES-USCENSUS"
"4/30/2021 12:00:00 AM","San Jacinto County","Texas","South","West South Central","48407","30.574388","-95.163136 ","1267","36","4","0","4/29/2021 12:00:00 AM","2019","28859","NYTIMES-USCENSUS"
"4/30/2021 12:00:00 AM","Tulare County","California","West","Pacific","06107","36.228834","-118.781055 ","49585","834","75","0","4/29/2021 12:00:00 AM","2019","466195","NYTIMES-USCENSUS"
"4/30/2021 12:00:00 AM","Clay County","Minnesota","Midwest","West North Central","27027","46.898377","-96.494901 ","8031","91","26","0","4/29/2021 12:00:00 AM","2019","64222","NYTIMES-USCENSUS"
"4/30/2021 12:00:00 AM","Blair County","Pennsylvania","Northeast","Middle Atlantic","42013","40.498683","-78.309597 ","12528","323","72","1","4/29/2021 12:00:00 AM","2019","121829","NYTIMES-USCENSUS"
"4/30/2021 12:00:00 AM","Macon County","Tennessee","South","East South Central","47111","36.537757","-86.00096 ","3610","78","4","0","4/29/2021 12:00:00 AM","2019","24602","NYTIMES-USCENSUS"
"4/30/2021 12:00:00 AM","Grundy County","Missouri","Midwest","West North Central","29079","40.112541","-93.565054 ","986","34","0","0","4/29/2021 12:00:00 AM","2019","9850","NYTIMES-USCENSUS"
"4/30/2021 12:00:00 AM","Platte County","Missouri","Midwest","West North Central","29165","39.37869","-94.761477 ","4130","47","9","0","4/29/2021 12:00:00 AM","2019","104418","NYTIMES-USCENSUS"
"4/30/2021 12:00:00 AM","Early County","Georgia","South","South Atlantic","13099","31.324191","-84.906723 ","1171","48","1","0","4/29/2021 12:00:00 AM","2019","10190","NYTIMES-USCENSUS"
"4/30/2021 12:00:00 AM","Mecklenburg County","Virginia","South","South Atlantic","51117","36.687256","-78.368959 ","2263","66","3","1","4/29/2021 12:00:00 AM","2019","30587","NYTIMES-USCENSUS"
"4/30/2021 12:00:00 AM","Osage County","Kansas","Midwest","West North Central","20139","38.650215","-95.708255 ","1232","25","3","0","4/29/2021 12:00:00 AM","2019","15949","NYTIMES-USCENSUS"
"4/30/2021 12:00:00 AM","Lee County","Georgia","South","South Atlantic","13177","31.818419","-84.146681 ","2721","58","2","0","4/29/2021 12:00:00 AM","2019","29992","NYTIMES-USCENSUS"
"4/30/2021 12:00:00 AM","Pope County","Minnesota","Midwest","West North Central","27121","45.589623","-95.446705 ","1061","6","2","0","4/29/2021 12:00:00 AM","2019","11249","NYTIMES-USCENSUS"
"4/30/2021 12:00:00 AM","Defiance County","Ohio","Midwest","East North Central","39039","41.321679","-84.486433 ","4136","97","8","1","4/29/2021 12:00:00 AM","2019","38087","NYTIMES-USCENSUS"
"4/30/2021 12:00:00 AM","Pope County","Illinois","Midwest","East North Central","17151","37.417169","-88.542374 ","312","4","2","0","4/29/2021 12:00:00 AM","2019","4177","NYTIMES-USCENSUS"
"4/30/2021 12:00:00 AM","Clermont County","Ohio","Midwest","East North Central","39025","39.052054","-84.149485 ","19640","235","23","3","4/29/2021 12:00:00 AM","2019","206428","NYTIMES-USCENSUS"
"4/30/2021 12:00:00 AM","Washington County","Maine","Northeast","New England","23029","44.967009","-67.609354 ","831","15","1","0","4/29/2021 12:00:00 AM","2019","31379","NYTIMES-USCENSUS"
"4/30/2021 12:00:00 AM","Fillmore County","Minnesota","Midwest","West North Central","27045","43.679187","-92.093937 ","1532","9","2","0","4/29/2021 12:00:00 AM","2019","21067","NYTIMES-USCENSUS"
"4/30/2021 12:00:00 AM","Kewaunee County","Wisconsin","Midwest","East North Central","55061","44.605677","-87.448008 ","2664","34","0","0","4/29/2021 12:00:00 AM","2019","20434","NYTIMES-USCENSUS"
"4/30/2021 12:00:00 AM","Ulster County","New York","Northeast","Middle Atlantic","36111","41.947212","-74.265458 ","13480","249","34","0","4/29/2021 12:00:00 AM","2019","177573","NYTIMES-USCENSUS"
"4/30/2021 12:00:00 AM","Unicoi County","Tennessee","South","East South Central","47171","36.100129","-82.418218 ","2013","49","4","0","4/29/2021 12:00:00 AM","2019","17883","NYTIMES-USCENSUS"
"4/30/2021 12:00:00 AM","Storey County","Nevada","West","Mountain","32029","39.438385","-119.524646 ","102","3","2","0","4/29/2021 12:00:00 AM","2019","4123","NYTIMES-USCENSUS"
"4/30/2021 12:00:00 AM","Montgomery County","North Carolina","South","South Atlantic","37123","35.327548","-79.910752 ","3295","93","4","0","4/29/2021 12:00:00 AM","2019","27173","NYTIMES-USCENSUS"
"4/30/2021 12:00:00 AM","Green County","Kentucky","South","East South Central","21087","37.278065","-85.537925 ","1206","16","1","0","4/29/2021 12:00:00 AM","2019","10941","NYTIMES-USCENSUS"
"4/30/2021 12:00:00 AM","Otoe County","Nebraska","Midwest","West North Central","31131","40.637992","-96.131027 ","1444","9","1","0","4/29/2021 12:00:00 AM","2019","16012","NYTIMES-USCENSUS"
"4/30/2021 12:00:00 AM","Oceana County","Michigan","Midwest","East North Central","26127","43.603954","-86.467177 ","2600","53","13","0","4/29/2021 12:00:00 AM","2019","26467","NYTIMES-USCENSUS"
"4/30/2021 12:00:00 AM","Jasper County","Indiana","Midwest","East North Central","18073","41.017688","-87.118814 ","3593","49","13","0","4/29/2021 12:00:00 AM","2019","33562","NYTIMES-USCENSUS"
"4/30/2021 12:00:00 AM","Marshall County","Tennessee","South","East South Central","47117","35.468343","-86.765865 ","4166","58","7","0","4/29/2021 12:00:00 AM","2019","34375","NYTIMES-USCENSUS"
"4/30/2021 12:00:00 AM","Avery County","North Carolina","South","South Atlantic","37011","36.07209","-81.920285 ","2095","20","3","0","4/29/2021 12:00:00 AM","2019","17557","NYTIMES-USCENSUS"
"4/30/2021 12:00:00 AM","Butler County","Ohio","Midwest","East North Central","39017","39.439747","-84.565734 ","38147","579","44","3","4/29/2021 12:00:00 AM","2019","383134","NYTIMES-USCENSUS"
"4/30/2021 12:00:00 AM","Winkler County","Texas","South","West South Central","48495","31.832862","-103.054925 ","767","21","0","0","4/29/2021 12:00:00 AM","2019","8010","NYTIMES-USCENSUS"
"4/30/2021 12:00:00 AM","Jefferson County","Florida","South","South Atlantic","12065","30.396898","-83.921761 ","1485","27","5","0","4/29/2021 12:00:00 AM","2019","14246","NYTIMES-USCENSUS"
"4/30/2021 12:00:00 AM","Pitt County","North Carolina","South","South Atlantic","37147","35.59249","-77.372739 ","19269","86","50","0","4/29/2021 12:00:00 AM","2019","180742","NYTIMES-USCENSUS"
"4/30/2021 12:00:00 AM","Lyman County","South Dakota","Midwest","West North Central","46085","43.894812","-99.841925 ","647","11","0","0","4/29/2021 12:00:00 AM","2019","3781","NYTIMES-USCENSUS"
"4/30/2021 12:00:00 AM","Karnes County","Texas","South","West South Central","48255","28.908996","-97.852205 ","2065","37","0","0","4/29/2021 12:00:00 AM","2019","15601","NYTIMES-USCENSUS"
"4/30/2021 12:00:00 AM","Galax city","Virginia","South","South Atlantic","51640","36.66564","-80.914308 ","1152","51","-3","0","4/29/2021 12:00:00 AM","2019","6347","NYTIMES-USCENSUS"
"4/30/2021 12:00:00 AM","Fleming County","Kentucky","South","East South Central","21069","38.367848","-83.699205 ","1164","22","3","0","4/29/2021 12:00:00 AM","2019","14581","NYTIMES-USCENSUS"
"4/30/2021 12:00:00 AM","Stanislaus County","California","West","Pacific","06099","37.562316","-121.002831 ","61355","1043","104","0","4/29/2021 12:00:00 AM","2019","550660","NYTIMES-USCENSUS"
"4/30/2021 12:00:00 AM","Garfield County","Colorado","West","Mountain","08045","39.599352","-107.90978 ","5760","38","6","0","4/29/2021 12:00:00 AM","2019","60061","NYTIMES-USCENSUS"
"4/30/2021 12:00:00 AM","Dixon County","Nebraska","Midwest","West North Central","31051","42.485086","-96.855784 ","605","9","1","0","4/29/2021 12:00:00 AM","2019","5636","NYTIMES-USCENSUS"
"4/30/2021 12:00:00 AM","Crowley County","Colorado","West","Mountain","08025","38.30618","-103.772736 ","2174","15","5","0","4/29/2021 12:00:00 AM","2019","6061","NYTIMES-USCENSUS"
"4/30/2021 12:00:00 AM","Grand County","Utah","West","Mountain","49019","38.974326","-109.57345 ","888","3","19","0","4/29/2021 12:00:00 AM","2019","9754","NYTIMES-USCENSUS"
"4/30/2021 12:00:00 AM","Coahoma County","Mississippi","South","East South Central","28027","34.230316","-90.60401 ","2931","79","2","0","4/29/2021 12:00:00 AM","2019","22124","NYTIMES-USCENSUS"
"4/30/2021 12:00:00 AM","Carlisle County","Kentucky","South","East South Central","21039","36.85718","-88.976614 ","468","9","3","0","4/29/2021 12:00:00 AM","2019","4760","NYTIMES-USCENSUS"
"4/30/2021 12:00:00 AM","Las Animas County","Colorado","West","Mountain","08071","37.318831","-104.04411 ","1106","11","4","0","4/29/2021 12:00:00 AM","2019","14506","NYTIMES-USCENSUS"
"4/30/2021 12:00:00 AM","Franklin County","Maine","Northeast","New England","23007","44.976724","-70.414935 ","1218","13","3","0","4/29/2021 12:00:00 AM","2019","30199","NYTIMES-USCENSUS"
"4/30/2021 12:00:00 AM","Wake County","North Carolina","South","South Atlantic","37183","35.789846","-78.650624 ","92722","729","259","0","4/29/2021 12:00:00 AM","2019","1111761","NYTIMES-USCENSUS"
"4/30/2021 12:00:00 AM","Osborne County","Kansas","Midwest","West North Central","20141","39.348261","-98.767942 ","289","12","0","0","4/29/2021 12:00:00 AM","2019","3421","NYTIMES-USCENSUS"
"4/30/2021 12:00:00 AM","Boone County","Nebraska","Midwest","West North Central","31011","41.703934","-98.070476 ","583","4","0","0","4/29/2021 12:00:00 AM","2019","5192","NYTIMES-USCENSUS"
"4/30/2021 12:00:00 AM","McNairy County","Tennessee","South","East South Central","47109","35.175375","-88.56374 ","2802","54","-1","0","4/29/2021 12:00:00 AM","2019","25694","NYTIMES-USCENSUS"
"4/30/2021 12:00:00 AM","McMinn County","Tennessee","South","East South Central","47107","35.424472","-84.619949 ","6466","98","10","0","4/29/2021 12:00:00 AM","2019","53794","NYTIMES-USCENSUS"
"4/30/2021 12:00:00 AM","Kane County","Utah","West","Mountain","49025","37.275089","-111.815329 ","659","5","0","0","4/29/2021 12:00:00 AM","2019","7886","NYTIMES-USCENSUS"
"4/30/2021 12:00:00 AM","Adams County","Wisconsin","Midwest","East North Central","55001","43.973757","-89.767228 ","1889","17","3","0","4/29/2021 12:00:00 AM","2019","20220","NYTIMES-USCENSUS"
"4/30/2021 12:00:00 AM","Marion County","Oregon","West","Pacific","41047","44.900898","-122.57626 ","21198","300","94","0","4/29/2021 12:00:00 AM","2019","347818","NYTIMES-USCENSUS"
"4/30/2021 12:00:00 AM","Huerfano County","Colorado","West","Mountain","08055","37.687815","-104.959928 ","385","17","5","0","4/29/2021 12:00:00 AM","2019","6897","NYTIMES-USCENSUS"
"4/30/2021 12:00:00 AM","Scott County","Kentucky","South","East South Central","21209","38.28571","-84.57834 ","4872","32","1","0","4/29/2021 12:00:00 AM","2019","57004","NYTIMES-USCENSUS"
"4/30/2021 12:00:00 AM","Wirt County","West Virginia","South","South Atlantic","54105","39.020034","-81.382975 ","397","3","8","0","4/29/2021 12:00:00 AM","2019","5821","NYTIMES-USCENSUS"
"4/30/2021 12:00:00 AM","Dawes County","Nebraska","Midwest","West North Central","31045","42.713038","-103.135436 ","741","18","0","0","4/29/2021 12:00:00 AM","2019","8589","NYTIMES-USCENSUS"
"4/30/2021 12:00:00 AM","Lamar County","Alabama","South","East South Central","01075","33.787085","-88.087431 ","1408","34","2","0","4/29/2021 12:00:00 AM","2019","13805","NYTIMES-USCENSUS"
"4/30/2021 12:00:00 AM","Huntington County","Indiana","Midwest","East North Central","18069","40.826394","-85.478597 ","3852","82","8","0","4/29/2021 12:00:00 AM","2019","36520","NYTIMES-USCENSUS"
"4/30/2021 12:00:00 AM","Harper County","Oklahoma","South","West South Central","40059","36.80035","-99.662805 ","420","6","0","0","4/29/2021 12:00:00 AM","2019","3688","NYTIMES-USCENSUS"
"4/30/2021 12:00:00 AM","Charlotte County","Virginia","South","South Atlantic","51037","37.009042","-78.658568 ","839","18","5","0","4/29/2021 12:00:00 AM","2019","11880","NYTIMES-USCENSUS"
"4/30/2021 12:00:00 AM","DuPage County","Illinois","Midwest","East North Central","17043","41.852058","-88.086039 ","88752","1348","233","3","4/29/2021 12:00:00 AM","2019","922921","NYTIMES-USCENSUS"
"4/30/2021 12:00:00 AM","Hopewell city","Virginia","South","South Atlantic","51670","37.29101","-77.298944 ","2552","69","6","0","4/29/2021 12:00:00 AM","2019","22529","NYTIMES-USCENSUS"
"4/30/2021 12:00:00 AM","Mono County","California","West","Pacific","06051","37.915836","-118.875167 ","1276","4","0","0","4/29/2021 12:00:00 AM","2019","14444","NYTIMES-USCENSUS"
"4/30/2021 12:00:00 AM","Emanuel County","Georgia","South","South Atlantic","13107","32.5911","-82.299763 ","2544","81","4","0","4/29/2021 12:00:00 AM","2019","22646","NYTIMES-USCENSUS"
"4/30/2021 12:00:00 AM","Jefferson County","Iowa","Midwest","West North Central","19101","41.006376","-91.966628 ","1319","35","0","0","4/29/2021 12:00:00 AM","2019","18295","NYTIMES-USCENSUS"
"4/30/2021 12:00:00 AM","Kemper County","Mississippi","South","East South Central","28069","32.750136","-88.625631 ","958","28","1","0","4/29/2021 12:00:00 AM","2019","9742","NYTIMES-USCENSUS"
"4/30/2021 12:00:00 AM","Campbell County","Wyoming","West","Mountain","56005","44.191999","-105.517014 ","4830","60","10","0","4/29/2021 12:00:00 AM","2019","46341","NYTIMES-USCENSUS"
"4/30/2021 12:00:00 AM","Hancock County","Iowa","Midwest","West North Central","19081","43.075411","-93.743697 ","1460","34","5","0","4/29/2021 12:00:00 AM","2019","10630","NYTIMES-USCENSUS"
"4/30/2021 12:00:00 AM","Wyoming County","Pennsylvania","Northeast","Middle Atlantic","42131","41.525173","-76.008731 ","1824","47","9","1","4/29/2021 12:00:00 AM","2019","26794","NYTIMES-USCENSUS"
"4/30/2021 12:00:00 AM","Grayson County","Virginia","South","South Atlantic","51077","36.652229","-81.215324 ","1438","33","7","0","4/29/2021 12:00:00 AM","2019","15550","NYTIMES-USCENSUS"
"4/30/2021 12:00:00 AM","Wilson County","North Carolina","South","South Atlantic","37195","35.700357","-77.921598 ","9554","171","12","0","4/29/2021 12:00:00 AM","2019","81801","NYTIMES-USCENSUS"
"4/30/2021 12:00:00 AM","Fulton County","Kentucky","South","East South Central","21075","36.552511","-89.187659 ","509","14","1","0","4/29/2021 12:00:00 AM","2019","5969","NYTIMES-USCENSUS"
"4/30/2021 12:00:00 AM","Ringgold County","Iowa","Midwest","West North Central","19159","40.735334","-94.244251 ","541","24","2","0","4/29/2021 12:00:00 AM","2019","4894","NYTIMES-USCENSUS"
"4/30/2021 12:00:00 AM","Carroll County","Maryland","South","South Atlantic","24013","39.563328","-77.01533 ","9113","234","27","1","4/29/2021 12:00:00 AM","2019","168447","NYTIMES-USCENSUS"
"4/30/2021 12:00:00 AM","Knox County","Nebraska","Midwest","West North Central","31107","42.634404","-97.891349 ","884","12","-1","0","4/29/2021 12:00:00 AM","2019","8332","NYTIMES-USCENSUS"
"4/30/2021 12:00:00 AM","Nicholas County","Kentucky","South","East South Central","21181","38.338031","-84.026223 ","541","8","3","0","4/29/2021 12:00:00 AM","2019","7269","NYTIMES-USCENSUS"
"4/30/2021 12:00:00 AM","Greene County","Alabama","South","East South Central","01063","32.844497","-87.9642 ","921","34","0","0","4/29/2021 12:00:00 AM","2019","8111","NYTIMES-USCENSUS"
"4/30/2021 12:00:00 AM","Taylor County","Kentucky","South","East South Central","21217","37.36621","-85.328059 ","3037","47","4","1","4/29/2021 12:00:00 AM","2019","25769","NYTIMES-USCENSUS"
"4/30/2021 12:00:00 AM","Brookings County","South Dakota","Midwest","West North Central","46011","44.376675","-96.797797 ","4184","37","6","0","4/29/2021 12:00:00 AM","2019","35077","NYTIMES-USCENSUS"
"4/30/2021 12:00:00 AM","Tift County","Georgia","South","South Atlantic","13277","31.457003","-83.525931 ","4877","125","4","0","4/29/2021 12:00:00 AM","2019","40644","NYTIMES-USCENSUS"
"4/30/2021 12:00:00 AM","Marlboro County","South Carolina","South","South Atlantic","45069","34.60167","-79.679435 ","3288","53","4","0","4/29/2021 12:00:00 AM","2019","26118","NYTIMES-USCENSUS"
"4/30/2021 12:00:00 AM","Buffalo County","Wisconsin","Midwest","East North Central","55011","44.385633","-91.761294 ","1383","7","2","0","4/29/2021 12:00:00 AM","2019","13031","NYTIMES-USCENSUS"
"4/30/2021 12:00:00 AM","Montrose County","Colorado","West","Mountain","08085","38.407507","-108.266282 ","3422","57","7","0","4/29/2021 12:00:00 AM","2019","42758","NYTIMES-USCENSUS"
"4/30/2021 12:00:00 AM","Lincoln County","Washington","West","Pacific","53043","47.582743","-118.417692 ","466","8","2","1","4/29/2021 12:00:00 AM","2019","10939","NYTIMES-USCENSUS"
"4/30/2021 12:00:00 AM","Stanton County","Kansas","Midwest","West North Central","20187","37.565932","-101.789383 ","184","6","0","0","4/29/2021 12:00:00 AM","2019","2006","NYTIMES-USCENSUS"
"4/30/2021 12:00:00 AM","Blaine County","Oklahoma","South","West South Central","40011","35.877795","-98.429031 ","1040","18","0","0","4/29/2021 12:00:00 AM","2019","9429","NYTIMES-USCENSUS"
"4/30/2021 12:00:00 AM","Franklin County","Virginia","South","South Atlantic","51067","36.991186","-79.882715 ","3986","74","5","0","4/29/2021 12:00:00 AM","2019","56042","NYTIMES-USCENSUS"
"4/30/2021 12:00:00 AM","Clarke County","Alabama","South","East South Central","01025","31.685521","-87.818624 ","3502","60","1","0","4/29/2021 12:00:00 AM","2019","23622","NYTIMES-USCENSUS"
"4/30/2021 12:00:00 AM","Crawford County","Missouri","Midwest","West North Central","29055","37.966559","-91.313936 ","2556","36","6","0","4/29/2021 12:00:00 AM","2019","23920","NYTIMES-USCENSUS"
"4/30/2021 12:00:00 AM","Montgomery County","Maryland","South","South Atlantic","24031","39.137381","-77.203063 ","69851","1522","70","0","4/29/2021 12:00:00 AM","2019","1050688","NYTIMES-USCENSUS"
"4/30/2021 12:00:00 AM","Corson County","South Dakota","Midwest","West North Central","46031","45.685671","-101.179665 ","478","12","0","0","4/29/2021 12:00:00 AM","2019","4086","NYTIMES-USCENSUS"
"4/30/2021 12:00:00 AM","Logan County","Nebraska","Midwest","West North Central","31113","41.542155","-100.443665 ","80","0","0","0","4/29/2021 12:00:00 AM","2019","748","NYTIMES-USCENSUS"
"4/30/2021 12:00:00 AM","Lawrence County","Missouri","Midwest","West North Central","29109","37.10659","-93.830551 ","3378","81","2","0","4/29/2021 12:00:00 AM","2019","38355","NYTIMES-USCENSUS"
"4/30/2021 12:00:00 AM","Andrews County","Texas","South","West South Central","48003","32.312258","-102.640206 ","1816","47","4","0","4/29/2021 12:00:00 AM","2019","18705","NYTIMES-USCENSUS"
"4/30/2021 12:00:00 AM","Collin County","Texas","South","West South Central","48085","33.194494","-96.579428 ","89787","818","133","0","4/29/2021 12:00:00 AM","2019","1034730","NYTIMES-USCENSUS"
"4/30/2021 12:00:00 AM","Crosby County","Texas","South","West South Central","48107","33.609144","-101.29871 ","654","29","0","0","4/29/2021 12:00:00 AM","2019","5737","NYTIMES-USCENSUS"
"4/30/2021 12:00:00 AM","Pamlico County","North Carolina","South","South Atlantic","37137","35.147575","-76.665268 ","1115","13","0","0","4/29/2021 12:00:00 AM","2019","12726","NYTIMES-USCENSUS"
"4/30/2021 12:00:00 AM","White County","Arkansas","South","West South Central","05145","35.255118","-91.753034 ","7944","118","2","0","4/29/2021 12:00:00 AM","2019","78753","NYTIMES-USCENSUS"
"4/30/2021 12:00:00 AM","Warren County","Pennsylvania","Northeast","Middle Atlantic","42123","41.834298","-79.298182 ","2499","101","6","0","4/29/2021 12:00:00 AM","2019","39191","NYTIMES-USCENSUS"
"4/30/2021 12:00:00 AM","Washington County","Alabama","South","East South Central","01129","31.408503","-88.212404 ","1666","39","1","0","4/29/2021 12:00:00 AM","2019","16326","NYTIMES-USCENSUS"
"4/30/2021 12:00:00 AM","Donley County","Texas","South","West South Central","48129","34.955036","-100.815846 ","406","15","1","0","4/29/2021 12:00:00 AM","2019","3278","NYTIMES-USCENSUS"
"4/30/2021 12:00:00 AM","Bingham County","Idaho","West","Mountain","16011","43.216357","-112.399206 ","4823","74","4","0","4/29/2021 12:00:00 AM","2019","46811","NYTIMES-USCENSUS"
"4/30/2021 12:00:00 AM","Furnas County","Nebraska","Midwest","West North Central","31065","40.191865","-99.909663 ","504","5","1","0","4/29/2021 12:00:00 AM","2019","4676","NYTIMES-USCENSUS"
"4/30/2021 12:00:00 AM","Crawford County","Illinois","Midwest","East North Central","17033","39.002787","-87.760619 ","2103","42","3","0","4/29/2021 12:00:00 AM","2019","18667","NYTIMES-USCENSUS"
"4/30/2021 12:00:00 AM","Hall County","Texas","South","West South Central","48191","34.453189","-100.576343 ","462","14","0","0","4/29/2021 12:00:00 AM","2019","2964","NYTIMES-USCENSUS"
"4/30/2021 12:00:00 AM","Attala County","Mississippi","South","East South Central","28007","33.090468","-89.588622 ","2142","73","0","0","4/29/2021 12:00:00 AM","2019","18174","NYTIMES-USCENSUS"
"4/30/2021 12:00:00 AM","Rutherford County","North Carolina","South","South Atlantic","37161","35.402747","-81.919582 ","7216","206","14","0","4/29/2021 12:00:00 AM","2019","67029","NYTIMES-USCENSUS"
"4/30/2021 12:00:00 AM","Independence County","Arkansas","South","West South Central","05063","35.737499","-91.559942 ","3751","123","0","0","4/29/2021 12:00:00 AM","2019","37825","NYTIMES-USCENSUS"
"4/30/2021 12:00:00 AM","Elbert County","Georgia","South","South Atlantic","13105","34.116413","-82.841909 ","2290","72","0","0","4/29/2021 12:00:00 AM","2019","19194","NYTIMES-USCENSUS"
"4/30/2021 12:00:00 AM","Mitchell County","North Carolina","South","South Atlantic","37121","36.013102","-82.163554 ","1405","16","2","0","4/29/2021 12:00:00 AM","2019","14964","NYTIMES-USCENSUS"
"4/30/2021 12:00:00 AM","Pacific County","Washington","West","Pacific","53049","46.556587","-123.782419 ","894","10","4","0","4/29/2021 12:00:00 AM","2019","22471","NYTIMES-USCENSUS"
"4/30/2021 12:00:00 AM","Morrison County","Minnesota","Midwest","West North Central","27097","46.020484","-94.266619 ","4076","60","19","0","4/29/2021 12:00:00 AM","2019","33386","NYTIMES-USCENSUS"
"4/30/2021 12:00:00 AM","Guadalupe County","New Mexico","West","Mountain","35019","34.869782","-104.784968 ","629","9","1","0","4/29/2021 12:00:00 AM","2019","4300","NYTIMES-USCENSUS"
"4/30/2021 12:00:00 AM","Hot Spring County","Arkansas","South","West South Central","05059","34.315177","-92.944147 ","5077","72","0","1","4/29/2021 12:00:00 AM","2019","33771","NYTIMES-USCENSUS"
"4/30/2021 12:00:00 AM","Ziebach County","South Dakota","Midwest","West North Central","46137","44.989764","-101.660827 ","344","9","0","0","4/29/2021 12:00:00 AM","2019","2756","NYTIMES-USCENSUS"
"4/30/2021 12:00:00 AM","Nueces County","Texas","South","West South Central","48355","27.740032","-97.516214 ","41746","774","62","0","4/29/2021 12:00:00 AM","2019","362294","NYTIMES-USCENSUS"
"4/30/2021 12:00:00 AM","Grant County","Indiana","Midwest","East North Central","18053","40.515758","-85.654946 ","7357","179","6","0","4/29/2021 12:00:00 AM","2019","65769","NYTIMES-USCENSUS"
"4/30/2021 12:00:00 AM","Clinton County","Iowa","Midwest","West North Central","19045","41.898073","-90.534243 ","5477","92","7","0","4/29/2021 12:00:00 AM","2019","46429","NYTIMES-USCENSUS"
"4/30/2021 12:00:00 AM","Colleton County","South Carolina","South","South Atlantic","45029","32.835018","-80.655244 ","3582","126","8","0","4/29/2021 12:00:00 AM","2019","37677","NYTIMES-USCENSUS"
"4/30/2021 12:00:00 AM","Venango County","Pennsylvania","Northeast","Middle Atlantic","42121","41.400714","-79.765813 ","3752","92","6","0","4/29/2021 12:00:00 AM","2019","50668","NYTIMES-USCENSUS"
"4/30/2021 12:00:00 AM","Greene County","Illinois","Midwest","East North Central","17061","39.355439","-90.387682 ","1429","46","0","0","4/29/2021 12:00:00 AM","2019","12969","NYTIMES-USCENSUS"
"4/30/2021 12:00:00 AM","Jackson County","Oregon","West","Pacific","41029","42.411621","-122.675611 ","10476","130","56","0","4/29/2021 12:00:00 AM","2019","220944","NYTIMES-USCENSUS"
"4/30/2021 12:00:00 AM","Madison County","New York","Northeast","Middle Atlantic","36053","42.910026","-75.663575 ","4378","88","6","0","4/29/2021 12:00:00 AM","2019","70941","NYTIMES-USCENSUS"
"4/30/2021 12:00:00 AM","Payette County","Idaho","West","Mountain","16075","44.00243","-116.750238 ","2536","36","6","0","4/29/2021 12:00:00 AM","2019","23951","NYTIMES-USCENSUS"
"4/30/2021 12:00:00 AM","Washington County","Oregon","West","Pacific","41067","45.553542","-123.097615 ","24577","231","93","0","4/29/2021 12:00:00 AM","2019","601592","NYTIMES-USCENSUS"
"4/30/2021 12:00:00 AM","Bertie County","North Carolina","South","South Atlantic","37015","36.059043","-76.962364 ","1749","43","3","0","4/29/2021 12:00:00 AM","2019","18947","NYTIMES-USCENSUS"
"4/30/2021 12:00:00 AM","Douglas County","Oregon","West","Pacific","41019","43.286328","-123.154476 ","3144","69","7","0","4/29/2021 12:00:00 AM","2019","110980","NYTIMES-USCENSUS"
"4/30/2021 12:00:00 AM","Adair County","Oklahoma","South","West South Central","40001","35.898043","-94.651026 ","3170","41","0","0","4/29/2021 12:00:00 AM","2019","22194","NYTIMES-USCENSUS"
"4/30/2021 12:00:00 AM","Washington County","Mississippi","South","East South Central","28151","33.273174","-90.944446 ","5313","133","4","0","4/29/2021 12:00:00 AM","2019","43909","NYTIMES-USCENSUS"
"4/30/2021 12:00:00 AM","Stewart County","Tennessee","South","East South Central","47161","36.458464","-87.811889 ","1317","28","-1","0","4/29/2021 12:00:00 AM","2019","13715","NYTIMES-USCENSUS"
"4/30/2021 12:00:00 AM","Los Angeles County","California","West","Pacific","06037","34.196398","-118.261862 ","1233723","23899","687","41","4/29/2021 12:00:00 AM","2019","10039107","NYTIMES-USCENSUS"
"4/30/2021 12:00:00 AM","Plymouth County","Iowa","Midwest","West North Central","19149","42.737585","-96.215864 ","3995","79","3","0","4/29/2021 12:00:00 AM","2019","25177","NYTIMES-USCENSUS"
"4/30/2021 12:00:00 AM","Whitman County","Washington","West","Pacific","53075","46.905944","-117.53539 ","4211","48","33","1","4/29/2021 12:00:00 AM","2019","50104","NYTIMES-USCENSUS"
"4/30/2021 12:00:00 AM","Saline County","Nebraska","Midwest","West North Central","31151","40.516802","-97.131755 ","2023","3","2","0","4/29/2021 12:00:00 AM","2019","14224","NYTIMES-USCENSUS"
"4/30/2021 12:00:00 AM","Bond County","Illinois","Midwest","East North Central","17005","38.885924","-89.436592 ","2016","30","4","0","4/29/2021 12:00:00 AM","2019","16426","NYTIMES-USCENSUS"
"4/30/2021 12:00:00 AM","Franklin County","Georgia","South","South Atlantic","13119","34.375266","-83.227532 ","2677","53","2","0","4/29/2021 12:00:00 AM","2019","23349","NYTIMES-USCENSUS"
"4/30/2021 12:00:00 AM","Meade County","Kansas","Midwest","West North Central","20119","37.243886","-100.360094 ","513","12","0","0","4/29/2021 12:00:00 AM","2019","4033","NYTIMES-USCENSUS"
"4/30/2021 12:00:00 AM","Woodson County","Kansas","Midwest","West North Central","20207","37.888193","-95.758469 ","216","5","0","0","4/29/2021 12:00:00 AM","2019","3138","NYTIMES-USCENSUS"
"4/30/2021 12:00:00 AM","Crane County","Texas","South","West South Central","48103","31.422796","-102.487774 ","529","12","1","0","4/29/2021 12:00:00 AM","2019","4797","NYTIMES-USCENSUS"
"4/30/2021 12:00:00 AM","Vance County","North Carolina","South","South Atlantic","37181","36.365481","-78.405434 ","4886","86","12","0","4/29/2021 12:00:00 AM","2019","44535","NYTIMES-USCENSUS"
"4/30/2021 12:00:00 AM","Brooke County","West Virginia","South","South Atlantic","54009","40.272645","-80.578691 ","2158","59","2","0","4/29/2021 12:00:00 AM","2019","21939","NYTIMES-USCENSUS"
"4/30/2021 12:00:00 AM","Levy County","Florida","South","South Atlantic","12075","29.271854","-82.831233 ","3405","53","9","0","4/29/2021 12:00:00 AM","2019","41503","NYTIMES-USCENSUS"
"4/30/2021 12:00:00 AM","Butler County","Missouri","Midwest","West North Central","29023","36.71518","-90.40313 ","4157","42","1","0","4/29/2021 12:00:00 AM","2019","42478","NYTIMES-USCENSUS"
"4/30/2021 12:00:00 AM","Louisa County","Virginia","South","South Atlantic","51109","37.972704","-77.959795 ","1945","32","6","0","4/29/2021 12:00:00 AM","2019","37591","NYTIMES-USCENSUS"
"4/30/2021 12:00:00 AM","Monroe County","Missouri","Midwest","West North Central","29137","39.49827","-92.006458 ","995","12","0","0","4/29/2021 12:00:00 AM","2019","8644","NYTIMES-USCENSUS"
"4/30/2021 12:00:00 AM","Lexington city","Virginia","South","South Atlantic","51678","37.782332","-79.44432 ","1171","32","1","0","4/29/2021 12:00:00 AM","2019","7446","NYTIMES-USCENSUS"
"4/30/2021 12:00:00 AM","Taylor County","West Virginia","South","South Atlantic","54091","39.332478","-80.046554 ","1209","23","2","0","4/29/2021 12:00:00 AM","2019","16695","NYTIMES-USCENSUS"
"4/30/2021 12:00:00 AM","Dane County","Wisconsin","Midwest","East North Central","55025","43.067468","-89.417852 ","45696","322","76","0","4/29/2021 12:00:00 AM","2019","546695","NYTIMES-USCENSUS"
"4/30/2021 12:00:00 AM","Grady County","Oklahoma","South","West South Central","40051","35.021058","-97.88689 ","5919","121","0","0","4/29/2021 12:00:00 AM","2019","55834","NYTIMES-USCENSUS"
"4/30/2021 12:00:00 AM","Sargent County","North Dakota","Midwest","West North Central","38081","46.108204","-97.630051 ","488","7","3","0","4/29/2021 12:00:00 AM","2019","3898","NYTIMES-USCENSUS"
"4/30/2021 12:00:00 AM","Monona County","Iowa","Midwest","West North Central","19133","42.049432","-95.956566 ","825","30","2","0","4/29/2021 12:00:00 AM","2019","8615","NYTIMES-USCENSUS"
"4/30/2021 12:00:00 AM","Bucks County","Pennsylvania","Northeast","Middle Atlantic","42017","40.336887","-75.10706 ","58427","1248","232","0","4/29/2021 12:00:00 AM","2019","628270","NYTIMES-USCENSUS"
"4/30/2021 12:00:00 AM","Charles County","Maryland","South","South Atlantic","24017","38.472853","-77.015427 ","10526","190","26","0","4/29/2021 12:00:00 AM","2019","163257","NYTIMES-USCENSUS"
"4/30/2021 12:00:00 AM","La Crosse County","Wisconsin","Midwest","East North Central","55063","43.908222","-91.111758 ","13461","82","10","0","4/29/2021 12:00:00 AM","2019","118016","NYTIMES-USCENSUS"
"4/30/2021 12:00:00 AM","Spencer County","Indiana","Midwest","East North Central","18147","38.009697","-87.010375 ","2300","31","5","0","4/29/2021 12:00:00 AM","2019","20277","NYTIMES-USCENSUS"
"4/30/2021 12:00:00 AM","Catawba County","North Carolina","South","South Atlantic","37035","35.661883","-81.214906 ","19156","297","267","-1","4/29/2021 12:00:00 AM","2019","159551","NYTIMES-USCENSUS"
"4/30/2021 12:00:00 AM","Lincoln County","Maine","Northeast","New England","23015","43.994781","-69.513624 ","863","2","6","0","4/29/2021 12:00:00 AM","2019","34634","NYTIMES-USCENSUS"
"4/30/2021 12:00:00 AM","Alachua County","Florida","South","South Atlantic","12001","29.67574","-82.357221 ","24635","275","28","0","4/29/2021 12:00:00 AM","2019","269043","NYTIMES-USCENSUS"
"4/30/2021 12:00:00 AM","Dawson County","Texas","South","West South Central","48115","32.742528","-101.948771 ","1735","68","0","0","4/29/2021 12:00:00 AM","2019","12728","NYTIMES-USCENSUS"
"4/30/2021 12:00:00 AM","Newton County","Texas","South","West South Central","48351","30.786718","-93.73925 ","620","35","2","0","4/29/2021 12:00:00 AM","2019","13595","NYTIMES-USCENSUS"
"4/30/2021 12:00:00 AM","Androscoggin County","Maine","Northeast","New England","23001","44.167681","-70.207435 ","7148","70","38","2","4/29/2021 12:00:00 AM","2019","108277","NYTIMES-USCENSUS"
"4/30/2021 12:00:00 AM","Mahaska County","Iowa","Midwest","West North Central","19123","41.330797","-92.636366 ","2277","50","8","0","4/29/2021 12:00:00 AM","2019","22095","NYTIMES-USCENSUS"
"4/30/2021 12:00:00 AM","Adams County","Colorado","West","Mountain","08001","39.874325","-104.331872 ","57234","701","235","0","4/29/2021 12:00:00 AM","2019","517421","NYTIMES-USCENSUS"
"4/30/2021 12:00:00 AM","Floyd County","Indiana","Midwest","East North Central","18043","38.318081","-85.911847 ","7617","181","7","0","4/29/2021 12:00:00 AM","2019","78522","NYTIMES-USCENSUS"
"4/30/2021 12:00:00 AM","DeWitt County","Texas","South","West South Central","48123","29.082346","-97.361654 ","1932","59","2","0","4/29/2021 12:00:00 AM","2019","20160","NYTIMES-USCENSUS"
"4/30/2021 12:00:00 AM","Castro County","Texas","South","West South Central","48069","34.533621","-102.258786 ","983","32","0","0","4/29/2021 12:00:00 AM","2019","7530","NYTIMES-USCENSUS"
"4/30/2021 12:00:00 AM","Chambers County","Texas","South","West South Central","48071","29.696374","-94.669445 ","4933","49","7","0","4/29/2021 12:00:00 AM","2019","43837","NYTIMES-USCENSUS"
"4/30/2021 12:00:00 AM","Linn County","Kansas","Midwest","West North Central","20107","38.216549","-94.844932 ","815","12","0","0","4/29/2021 12:00:00 AM","2019","9703","NYTIMES-USCENSUS"
"4/30/2021 12:00:00 AM","Greene County","Tennessee","South","East South Central","47059","36.179487","-82.847523 ","7827","153","5","0","4/29/2021 12:00:00 AM","2019","69069","NYTIMES-USCENSUS"
"4/30/2021 12:00:00 AM","Tucker County","West Virginia","South","South Atlantic","54093","39.111175","-79.559968 ","523","10","0","0","4/29/2021 12:00:00 AM","2019","6839","NYTIMES-USCENSUS"
"4/30/2021 12:00:00 AM","Missoula County","Montana","West","Mountain","30063","47.027263","-113.892691 ","9000","93","6","0","4/29/2021 12:00:00 AM","2019","119600","NYTIMES-USCENSUS"
"4/30/2021 12:00:00 AM","Weber County","Utah","West","Mountain","49057","41.270325","-111.876883 ","28783","199","30","0","4/29/2021 12:00:00 AM","2019","260213","NYTIMES-USCENSUS"
"4/30/2021 12:00:00 AM","Vilas County","Wisconsin","Midwest","East North Central","55125","46.049848","-89.501254 ","2381","42","2","0","4/29/2021 12:00:00 AM","2019","22195","NYTIMES-USCENSUS"
"4/30/2021 12:00:00 AM","Wayne County","New York","Northeast","Middle Atlantic","36117","43.218114","-77.049402 ","5442","67","20","0","4/29/2021 12:00:00 AM","2019","89918","NYTIMES-USCENSUS"
"4/30/2021 12:00:00 AM","Ohio County","Indiana","Midwest","East North Central","18115","38.940527","-84.964299 ","562","11","1","0","4/29/2021 12:00:00 AM","2019","5875","NYTIMES-USCENSUS"
"4/30/2021 12:00:00 AM","Appling County","Georgia","South","South Atlantic","13001","31.739712","-82.290103 ","2308","71","2","0","4/29/2021 12:00:00 AM","2019","18386","NYTIMES-USCENSUS"
"4/30/2021 12:00:00 AM","Carroll County","Illinois","Midwest","East North Central","17015","42.0709","-89.924189 ","1730","37","3","0","4/29/2021 12:00:00 AM","2019","14305","NYTIMES-USCENSUS"
"4/30/2021 12:00:00 AM","Union County","Mississippi","South","East South Central","28145","34.489533","-89.002339 ","4079","76","2","0","4/29/2021 12:00:00 AM","2019","28815","NYTIMES-USCENSUS"
"4/30/2021 12:00:00 AM","Nemaha County","Kansas","Midwest","West North Central","20131","39.791043","-96.005381 ","1514","55","0","0","4/29/2021 12:00:00 AM","2019","10231","NYTIMES-USCENSUS"
"4/30/2021 12:00:00 AM","Shelby County","Indiana","Midwest","East North Central","18145","39.524135","-85.792174 ","5837","106","8","0","4/29/2021 12:00:00 AM","2019","44729","NYTIMES-USCENSUS"
"4/30/2021 12:00:00 AM","Monroe County","Mississippi","South","East South Central","28095","33.89003","-88.485038 ","4084","133","3","1","4/29/2021 12:00:00 AM","2019","35252","NYTIMES-USCENSUS"
"4/30/2021 12:00:00 AM","Marshall County","South Dakota","Midwest","West North Central","46091","45.737044","-97.58087 ","370","6","0","0","4/29/2021 12:00:00 AM","2019","4935","NYTIMES-USCENSUS"
"4/30/2021 12:00:00 AM","Otero County","Colorado","West","Mountain","08089","37.88417","-103.72126 ","1964","64","13","0","4/29/2021 12:00:00 AM","2019","18278","NYTIMES-USCENSUS"
"4/30/2021 12:00:00 AM","Cerro Gordo County","Iowa","Midwest","West North Central","19033","43.074975","-93.250965 ","5331","88","8","1","4/29/2021 12:00:00 AM","2019","42450","NYTIMES-USCENSUS"
"4/30/2021 12:00:00 AM","Henry County","Iowa","Midwest","West North Central","19087","40.984802","-91.547259 ","2896","37","6","0","4/29/2021 12:00:00 AM","2019","19954","NYTIMES-USCENSUS"
"4/30/2021 12:00:00 AM","Colusa County","California","West","Pacific","06011","39.177739","-122.237563 ","2216","16","0","0","4/29/2021 12:00:00 AM","2019","21547","NYTIMES-USCENSUS"
"4/30/2021 12:00:00 AM","Kodiak Island Borough","Alaska","West","Pacific","02150","57.7044","-153.918372 ","1101","5","0","0","4/29/2021 12:00:00 AM","2019","12998","NYTIMES-USCENSUS"
"4/30/2021 12:00:00 AM","George County","Mississippi","South","East South Central","28039","30.855431","-88.642268 ","2452","47","1","0","4/29/2021 12:00:00 AM","2019","24500","NYTIMES-USCENSUS"
"4/30/2021 12:00:00 AM","Osceola County","Michigan","Midwest","East North Central","26133","43.997552","-85.322283 ","1790","27","10","0","4/29/2021 12:00:00 AM","2019","23460","NYTIMES-USCENSUS"
"4/30/2021 12:00:00 AM","Texas County","Missouri","Midwest","West North Central","29215","37.314257","-91.964478 ","1822","23","0","0","4/29/2021 12:00:00 AM","2019","25398","NYTIMES-USCENSUS"
"4/30/2021 12:00:00 AM","Saratoga County","New York","Northeast","Middle Atlantic","36091","43.106135","-73.855387 ","14760","164","25","0","4/29/2021 12:00:00 AM","2019","229863","NYTIMES-USCENSUS"
"4/30/2021 12:00:00 AM","Bureau County","Illinois","Midwest","East North Central","17011","41.401304","-89.528377 ","3624","95","13","0","4/29/2021 12:00:00 AM","2019","32628","NYTIMES-USCENSUS"
"4/30/2021 12:00:00 AM","Grand Forks County","North Dakota","Midwest","West North Central","38035","47.926003","-97.450851 ","10516","77","18","0","4/29/2021 12:00:00 AM","2019","69451","NYTIMES-USCENSUS"
"4/30/2021 12:00:00 AM","Henry County","Kentucky","South","East South Central","21103","38.451383","-85.119647 ","1328","13","1","0","4/29/2021 12:00:00 AM","2019","16126","NYTIMES-USCENSUS"
"4/30/2021 12:00:00 AM","Acadia Parish","Louisiana","South","West South Central","22001","30.291497","-92.411037 ","6481","192","11","0","4/29/2021 12:00:00 AM","2019","62045","NYTIMES-USCENSUS"
"4/30/2021 12:00:00 AM","Renville County","Minnesota","Midwest","West North Central","27129","44.723697","-94.955617 ","1765","43","6","0","4/29/2021 12:00:00 AM","2019","14548","NYTIMES-USCENSUS"
"4/30/2021 12:00:00 AM","Madison County","Missouri","Midwest","West North Central","29123","37.474481","-90.343413 ","1633","16","1","0","4/29/2021 12:00:00 AM","2019","12088","NYTIMES-USCENSUS"
"4/30/2021 12:00:00 AM","Ellsworth County","Kansas","Midwest","West North Central","20053","38.700845","-98.205355 ","1221","25","1","0","4/29/2021 12:00:00 AM","2019","6102","NYTIMES-USCENSUS"
"4/30/2021 12:00:00 AM","Wexford County","Michigan","Midwest","East North Central","26165","44.331375","-85.570046 ","2687","38","9","0","4/29/2021 12:00:00 AM","2019","33631","NYTIMES-USCENSUS"
"4/30/2021 12:00:00 AM","Troup County","Georgia","South","South Atlantic","13285","33.034482","-85.02836 ","7460","225","15","1","4/29/2021 12:00:00 AM","2019","69922","NYTIMES-USCENSUS"
"4/30/2021 12:00:00 AM","Polk County","Wisconsin","Midwest","East North Central","55095","45.462041","-92.447066 ","4500","53","19","2","4/29/2021 12:00:00 AM","2019","43783","NYTIMES-USCENSUS"
"4/30/2021 12:00:00 AM","Ontonagon County","Michigan","Midwest","East North Central","26131","46.835325","-89.276912 ","454","21","1","0","4/29/2021 12:00:00 AM","2019","5720","NYTIMES-USCENSUS"
"4/30/2021 12:00:00 AM","Wayne County","Michigan","Midwest","East North Central","26163","42.284664","-83.261953 ","154839","4632","742","19","4/29/2021 12:00:00 AM","2019","1749343","NYTIMES-USCENSUS"
"4/30/2021 12:00:00 AM","Deer Lodge County","Montana","West","Mountain","30023","46.094672","-113.141624 ","1112","15","5","0","4/29/2021 12:00:00 AM","2019","9140","NYTIMES-USCENSUS"
"4/30/2021 12:00:00 AM","Stone County","Missouri","Midwest","West North Central","29209","36.745822","-93.457842 ","2408","44","-1","0","4/29/2021 12:00:00 AM","2019","31952","NYTIMES-USCENSUS"
"4/30/2021 12:00:00 AM","Valley County","Idaho","West","Mountain","16085","44.85596","-115.618061 ","835","6","0","0","4/29/2021 12:00:00 AM","2019","11392","NYTIMES-USCENSUS"
"4/30/2021 12:00:00 AM","Effingham County","Georgia","South","South Atlantic","13103","32.361688","-81.343355 ","4582","68","7","0","4/29/2021 12:00:00 AM","2019","64296","NYTIMES-USCENSUS"
"4/30/2021 12:00:00 AM","Chase County","Nebraska","Midwest","West North Central","31029","40.53039","-101.694192 ","462","5","0","0","4/29/2021 12:00:00 AM","2019","3924","NYTIMES-USCENSUS"
"4/30/2021 12:00:00 AM","Platte County","Wyoming","West","Mountain","56031","42.131593","-104.953963 ","623","11","0","0","4/29/2021 12:00:00 AM","2019","8393","NYTIMES-USCENSUS"
"4/30/2021 12:00:00 AM","Lawrence County","Pennsylvania","Northeast","Middle Atlantic","42073","40.992735","-80.334446 ","7246","205","21","0","4/29/2021 12:00:00 AM","2019","85512","NYTIMES-USCENSUS"
"4/30/2021 12:00:00 AM","Gaines County","Texas","South","West South Central","48165","32.743942","-102.631561 ","1434","43","0","0","4/29/2021 12:00:00 AM","2019","21492","NYTIMES-USCENSUS"
"4/30/2021 12:00:00 AM","Jersey County","Illinois","Midwest","East North Central","17083","39.080195","-90.361385 ","2674","68","7","0","4/29/2021 12:00:00 AM","2019","21773","NYTIMES-USCENSUS"
"4/30/2021 12:00:00 AM","McIntosh County","Oklahoma","South","West South Central","40091","35.369108","-95.671787 ","1997","58","0","0","4/29/2021 12:00:00 AM","2019","19596","NYTIMES-USCENSUS"
"4/30/2021 12:00:00 AM","Warren County","Ohio","Midwest","East North Central","39165","39.425663","-84.16994 ","24139","298","19","3","4/29/2021 12:00:00 AM","2019","234602","NYTIMES-USCENSUS"
"4/30/2021 12:00:00 AM","York County","Virginia","South","South Atlantic","51199","37.220914","-76.395533 ","3689","52","4","0","4/29/2021 12:00:00 AM","2019","68280","NYTIMES-USCENSUS"
"4/30/2021 12:00:00 AM","Arkansas County","Arkansas","South","West South Central","05001","34.28957","-91.376547 ","2094","36","1","0","4/29/2021 12:00:00 AM","2019","17486","NYTIMES-USCENSUS"
"4/30/2021 12:00:00 AM","Tom Green County","Texas","South","West South Central","48451","31.398823","-100.463788 ","16757","269","3","0","4/29/2021 12:00:00 AM","2019","119200","NYTIMES-USCENSUS"
"4/30/2021 12:00:00 AM","Olmsted County","Minnesota","Midwest","West North Central","27109","43.999499","-92.410098 ","13024","97","23","0","4/29/2021 12:00:00 AM","2019","158293","NYTIMES-USCENSUS"
"4/30/2021 12:00:00 AM","Freestone County","Texas","South","West South Central","48161","31.701749","-96.144957 ","1874","49","4","0","4/29/2021 12:00:00 AM","2019","19717","NYTIMES-USCENSUS"
"4/30/2021 12:00:00 AM","Jones County","Mississippi","South","East South Central","28067","31.616601","-89.168532 ","8354","163","4","0","4/29/2021 12:00:00 AM","2019","68098","NYTIMES-USCENSUS"
"4/30/2021 12:00:00 AM","Okmulgee County","Oklahoma","South","West South Central","40111","35.6435","-95.965947 ","3724","77","0","0","4/29/2021 12:00:00 AM","2019","38465","NYTIMES-USCENSUS"
"4/30/2021 12:00:00 AM","Jasper County","Georgia","South","South Atlantic","13159","33.316981","-83.689151 ","1399","38","1","0","4/29/2021 12:00:00 AM","2019","14219","NYTIMES-USCENSUS"
"4/30/2021 12:00:00 AM","Cherokee County","Iowa","Midwest","West North Central","19035","42.742737","-95.633262 ","1583","38","0","0","4/29/2021 12:00:00 AM","2019","11235","NYTIMES-USCENSUS"
"4/30/2021 12:00:00 AM","Steele County","Minnesota","Midwest","West North Central","27147","44.015261","-93.220453 ","3769","15","15","1","4/29/2021 12:00:00 AM","2019","36649","NYTIMES-USCENSUS"
"4/30/2021 12:00:00 AM","Bristol County","Rhode Island","Northeast","New England","44001","41.70684","-71.286687 ","5000","141","0","0","4/29/2021 12:00:00 AM","2019","48479","NYTIMES-USCENSUS"
"4/30/2021 12:00:00 AM","Plumas County","California","West","Pacific","06063","39.992295","-120.824371 ","700","6","0","0","4/29/2021 12:00:00 AM","2019","18807","NYTIMES-USCENSUS"
"4/30/2021 12:00:00 AM","Dickinson County","Iowa","Midwest","West North Central","19059","43.389611","-95.196057 ","2467","43","5","0","4/29/2021 12:00:00 AM","2019","17258","NYTIMES-USCENSUS"
"4/30/2021 12:00:00 AM","Shelby County","Tennessee","South","East South Central","47157","35.184553","-89.894612 ","95449","1619","187","2","4/29/2021 12:00:00 AM","2019","937166","NYTIMES-USCENSUS"
"4/30/2021 12:00:00 AM","New London County","Connecticut","Northeast","New England","09011","41.472652","-72.108634 ","21907","441","45","1","4/29/2021 12:00:00 AM","2019","265206","NYTIMES-USCENSUS"
"4/30/2021 12:00:00 AM","Berrien County","Georgia","South","South Atlantic","13019","31.288652","-83.22787 ","1828","44","3","0","4/29/2021 12:00:00 AM","2019","19397","NYTIMES-USCENSUS"
"4/30/2021 12:00:00 AM","Crawford County","Iowa","Midwest","West North Central","19047","42.043119","-95.38909 ","2635","40","-2","0","4/29/2021 12:00:00 AM","2019","16820","NYTIMES-USCENSUS"
"4/30/2021 12:00:00 AM","Yell County","Arkansas","South","West South Central","05149","34.997713","-93.408303 ","3424","65","0","0","4/29/2021 12:00:00 AM","2019","21341","NYTIMES-USCENSUS"
"4/30/2021 12:00:00 AM","Franklin County","Iowa","Midwest","West North Central","19069","42.736545","-93.271415 ","1154","21","2","0","4/29/2021 12:00:00 AM","2019","10070","NYTIMES-USCENSUS"
"4/30/2021 12:00:00 AM","Calhoun County","Michigan","Midwest","East North Central","26025","42.24299","-85.012385 ","13439","269","70","0","4/29/2021 12:00:00 AM","2019","134159","NYTIMES-USCENSUS"
"4/30/2021 12:00:00 AM","Leelanau County","Michigan","Midwest","East North Central","26089","45.146182","-86.051574 ","1191","17","4","0","4/29/2021 12:00:00 AM","2019","21761","NYTIMES-USCENSUS"
"4/30/2021 12:00:00 AM","Orange County","Vermont","Northeast","New England","50017","44.003349","-72.369464 ","744","3","10","0","4/29/2021 12:00:00 AM","2019","28892","NYTIMES-USCENSUS"
"4/30/2021 12:00:00 AM","Surry County","North Carolina","South","South Atlantic","37171","36.415416","-80.686463 ","8090","158","9","0","4/29/2021 12:00:00 AM","2019","71783","NYTIMES-USCENSUS"
"4/30/2021 12:00:00 AM","St. Lucie County","Florida","South","South Atlantic","12111","27.379814","-80.443536 ","26025","626","74","2","4/29/2021 12:00:00 AM","2019","328297","NYTIMES-USCENSUS"
"4/30/2021 12:00:00 AM","Crittenden County","Kentucky","South","East South Central","21055","37.358149","-88.10501 ","650","21","0","0","4/29/2021 12:00:00 AM","2019","8806","NYTIMES-USCENSUS"
"4/30/2021 12:00:00 AM","Richmond County","Virginia","South","South Atlantic","51159","37.942894","-76.730561 ","1490","15","-1","0","4/29/2021 12:00:00 AM","2019","9023","NYTIMES-USCENSUS"
"4/30/2021 12:00:00 AM","Adair County","Iowa","Midwest","West North Central","19001","41.328528","-94.478164 ","860","32","0","0","4/29/2021 12:00:00 AM","2019","7152","NYTIMES-USCENSUS"
"4/30/2021 12:00:00 AM","Christian County","Kentucky","South","East South Central","21047","36.892059","-87.492986 ","6961","104","9","0","4/29/2021 12:00:00 AM","2019","70461","NYTIMES-USCENSUS"
"4/30/2021 12:00:00 AM","Madison County","Florida","South","South Atlantic","12079","30.447233","-83.470416 ","2050","45","0","0","4/29/2021 12:00:00 AM","2019","18493","NYTIMES-USCENSUS"
"4/30/2021 12:00:00 AM","Charles Mix County","South Dakota","Midwest","West North Central","46023","43.206185","-98.595143 ","1376","22","1","0","4/29/2021 12:00:00 AM","2019","9292","NYTIMES-USCENSUS"
"4/30/2021 12:00:00 AM","Fairfield County","South Carolina","South","South Atlantic","45039","34.395669","-81.127001 ","2373","79","5","0","4/29/2021 12:00:00 AM","2019","22347","NYTIMES-USCENSUS"
"4/30/2021 12:00:00 AM","Columbia County","Arkansas","South","West South Central","05027","33.223038","-93.232843 ","2338","56","0","0","4/29/2021 12:00:00 AM","2019","23457","NYTIMES-USCENSUS"
"4/30/2021 12:00:00 AM","Logan County","Illinois","Midwest","East North Central","17107","40.129277","-89.365309 ","3774","70","19","0","4/29/2021 12:00:00 AM","2019","28618","NYTIMES-USCENSUS"
"4/30/2021 12:00:00 AM","Grayson County","Kentucky","South","East South Central","21085","37.458577","-86.344011 ","2122","53","1","0","4/29/2021 12:00:00 AM","2019","26427","NYTIMES-USCENSUS"
"4/30/2021 12:00:00 AM","Manistee County","Michigan","Midwest","East North Central","26101","44.245268","-86.327537 ","1901","23","2","0","4/29/2021 12:00:00 AM","2019","24558","NYTIMES-USCENSUS"
"4/30/2021 12:00:00 AM","Delaware County","Pennsylvania","Northeast","Middle Atlantic","42045","39.916685","-75.398818 ","50475","1388","192","4","4/29/2021 12:00:00 AM","2019","566747","NYTIMES-USCENSUS"
"4/30/2021 12:00:00 AM","Hidalgo County","New Mexico","West","Mountain","35023","31.898052","-108.751929 ","361","9","1","0","4/29/2021 12:00:00 AM","2019","4198","NYTIMES-USCENSUS"
"4/30/2021 12:00:00 AM","Kalkaska County","Michigan","Midwest","East North Central","26079","44.678881","-85.088992 ","1047","21","9","0","4/29/2021 12:00:00 AM","2019","18038","NYTIMES-USCENSUS"
"4/30/2021 12:00:00 AM","New Madrid County","Missouri","Midwest","West North Central","29143","36.594261","-89.655948 ","2109","43","0","0","4/29/2021 12:00:00 AM","2019","17076","NYTIMES-USCENSUS"
"4/30/2021 12:00:00 AM","Gaston County","North Carolina","South","South Atlantic","37071","35.293344","-81.177256 ","26177","420","44","0","4/29/2021 12:00:00 AM","2019","224529","NYTIMES-USCENSUS"
"4/30/2021 12:00:00 AM","Mecklenburg County","North Carolina","South","South Atlantic","37119","35.246862","-80.833832 ","109948","940","211","1","4/29/2021 12:00:00 AM","2019","1110356","NYTIMES-USCENSUS"
"4/30/2021 12:00:00 AM","Upshur County","West Virginia","South","South Atlantic","54097","38.90253","-80.231606 ","1842","33","1","0","4/29/2021 12:00:00 AM","2019","24176","NYTIMES-USCENSUS"
"4/30/2021 12:00:00 AM","Union County","Iowa","Midwest","West North Central","19175","41.02855","-94.245091 ","1257","32","7","0","4/29/2021 12:00:00 AM","2019","12241","NYTIMES-USCENSUS"
"4/30/2021 12:00:00 AM","Middlesex County","New Jersey","Northeast","Middle Atlantic","34023","40.439621","-74.40743 ","90854","2299","149","5","4/29/2021 12:00:00 AM","2019","825062","NYTIMES-USCENSUS"
"4/30/2021 12:00:00 AM","Saline County","Arkansas","South","West South Central","05125","34.648525","-92.674463 ","11858","166","10","0","4/29/2021 12:00:00 AM","2019","122437","NYTIMES-USCENSUS"
"4/30/2021 12:00:00 AM","Chattooga County","Georgia","South","South Atlantic","13055","34.474178","-85.345289 ","2818","71","7","2","4/29/2021 12:00:00 AM","2019","24789","NYTIMES-USCENSUS"
"4/30/2021 12:00:00 AM","Comal County","Texas","South","West South Central","48091","29.812377","-98.258129 ","10270","317","23","0","4/29/2021 12:00:00 AM","2019","156209","NYTIMES-USCENSUS"
"4/30/2021 12:00:00 AM","McDowell County","North Carolina","South","South Atlantic","37111","35.682271","-82.048044 ","5192","63","15","0","4/29/2021 12:00:00 AM","2019","45756","NYTIMES-USCENSUS"
"4/30/2021 12:00:00 AM","Fluvanna County","Virginia","South","South Atlantic","51065","37.830584","-78.283494 ","1902","17","118","0","4/29/2021 12:00:00 AM","2019","27270","NYTIMES-USCENSUS"
"4/30/2021 12:00:00 AM","Macon County","North Carolina","South","South Atlantic","37113","35.152959","-83.421901 ","3055","36","8","1","4/29/2021 12:00:00 AM","2019","35858","NYTIMES-USCENSUS"
"4/30/2021 12:00:00 AM","Ripley County","Indiana","Midwest","East North Central","18137","39.100226","-85.260494 ","3373","70","3","1","4/29/2021 12:00:00 AM","2019","28324","NYTIMES-USCENSUS"
"4/30/2021 12:00:00 AM","Schuylkill County","Pennsylvania","Northeast","Middle Atlantic","42107","40.703682","-76.217788 ","14108","392","79","0","4/29/2021 12:00:00 AM","2019","141359","NYTIMES-USCENSUS"
"4/30/2021 12:00:00 AM","Norman County","Minnesota","Midwest","West North Central","27107","47.329453","-96.463776 ","534","9","2","0","4/29/2021 12:00:00 AM","2019","6375","NYTIMES-USCENSUS"
"4/30/2021 12:00:00 AM","Appanoose County","Iowa","Midwest","West North Central","19007","40.744249","-92.873065 ","1275","47","0","0","4/29/2021 12:00:00 AM","2019","12426","NYTIMES-USCENSUS"
"4/30/2021 12:00:00 AM","Marion County","Tennessee","South","East South Central","47115","35.133422","-85.618399 ","3120","47","1","0","4/29/2021 12:00:00 AM","2019","28907","NYTIMES-USCENSUS"
"4/30/2021 12:00:00 AM","McKenzie County","North Dakota","Midwest","West North Central","38053","47.742475","-103.403215 ","1280","12","2","0","4/29/2021 12:00:00 AM","2019","15024","NYTIMES-USCENSUS"
"4/30/2021 12:00:00 AM","Todd County","South Dakota","Midwest","West North Central","46121","43.208794","-100.707664 ","1226","29","1","0","4/29/2021 12:00:00 AM","2019","10177","NYTIMES-USCENSUS"
"4/30/2021 12:00:00 AM","Boone County","Arkansas","South","West South Central","05009","36.304299","-93.079236 ","3802","80","1","0","4/29/2021 12:00:00 AM","2019","37432","NYTIMES-USCENSUS"
"4/30/2021 12:00:00 AM","Madison County","Virginia","South","South Atlantic","51113","38.412059","-78.276961 ","606","16","2","0","4/29/2021 12:00:00 AM","2019","13261","NYTIMES-USCENSUS"
"4/30/2021 12:00:00 AM","Colonial Heights city","Virginia","South","South Atlantic","51570","37.261685","-77.396804 ","1676","61","-1","1","4/29/2021 12:00:00 AM","2019","17370","NYTIMES-USCENSUS"
"4/30/2021 12:00:00 AM","Columbus County","North Carolina","South","South Atlantic","37047","34.261602","-78.639308 ","6285","150","14","0","4/29/2021 12:00:00 AM","2019","55508","NYTIMES-USCENSUS"
"4/30/2021 12:00:00 AM","Berks County","Pennsylvania","Northeast","Middle Atlantic","42011","40.413957","-75.92686 ","45600","993","191","2","4/29/2021 12:00:00 AM","2019","421164","NYTIMES-USCENSUS"
"4/30/2021 12:00:00 AM","Ramsey County","North Dakota","Midwest","West North Central","38071","48.266163","-98.739031 ","1703","30","0","0","4/29/2021 12:00:00 AM","2019","11519","NYTIMES-USCENSUS"
"4/30/2021 12:00:00 AM","Tangipahoa Parish","Louisiana","South","West South Central","22105","30.621348","-90.40649 ","12610","292","13","1","4/29/2021 12:00:00 AM","2019","134758","NYTIMES-USCENSUS"
"4/30/2021 12:00:00 AM","West Carroll Parish","Louisiana","South","West South Central","22123","32.79248","-91.451998 ","1173","41","5","0","4/29/2021 12:00:00 AM","2019","10830","NYTIMES-USCENSUS"
"4/30/2021 12:00:00 AM","Marin County","California","West","Pacific","06041","38.051367","-122.746396 ","13884","228","18","1","4/29/2021 12:00:00 AM","2019","258826","NYTIMES-USCENSUS"
"4/30/2021 12:00:00 AM","Putnam County","Indiana","Midwest","East North Central","18133","39.665548","-86.853373 ","3567","60","3","0","4/29/2021 12:00:00 AM","2019","37576","NYTIMES-USCENSUS"
"4/30/2021 12:00:00 AM","Cross County","Arkansas","South","West South Central","05037","35.285692","-90.763984 ","1941","50","0","0","4/29/2021 12:00:00 AM","2019","16419","NYTIMES-USCENSUS"
"4/30/2021 12:00:00 AM","Clinton County","Michigan","Midwest","East North Central","26037","42.950455","-84.591695 ","7271","81","21","0","4/29/2021 12:00:00 AM","2019","79595","NYTIMES-USCENSUS"
"4/30/2021 12:00:00 AM","Sumter County","Florida","South","South Atlantic","12119","28.715444","-82.069952 ","9263","275","14","0","4/29/2021 12:00:00 AM","2019","132420","NYTIMES-USCENSUS"
"4/30/2021 12:00:00 AM","Shenandoah County","Virginia","South","South Atlantic","51171","38.856204","-78.573987 ","4229","130","7","0","4/29/2021 12:00:00 AM","2019","43616","NYTIMES-USCENSUS"
"4/30/2021 12:00:00 AM","Lincoln County","New Mexico","West","Mountain","35027","33.740841","-105.449805 ","1662","19","4","0","4/29/2021 12:00:00 AM","2019","19572","NYTIMES-USCENSUS"
"4/30/2021 12:00:00 AM","Union County","Ohio","Midwest","East North Central","39159","40.295901","-83.367042 ","5682","47","12","0","4/29/2021 12:00:00 AM","2019","58988","NYTIMES-USCENSUS"
"4/30/2021 12:00:00 AM","Bosque County","Texas","South","West South Central","48035","31.900819","-97.637641 ","1665","33","0","0","4/29/2021 12:00:00 AM","2019","18685","NYTIMES-USCENSUS"
"4/30/2021 12:00:00 AM","Camp County","Texas","South","West South Central","48063","32.974581","-94.979085 ","1238","42","1","0","4/29/2021 12:00:00 AM","2019","13094","NYTIMES-USCENSUS"
"4/30/2021 12:00:00 AM","Wolfe County","Kentucky","South","East South Central","21237","37.743893","-83.49511 ","512","5","3","0","4/29/2021 12:00:00 AM","2019","7157","NYTIMES-USCENSUS"
"4/30/2021 12:00:00 AM","Milwaukee County","Wisconsin","Midwest","East North Central","55079","42.912643","-87.862312 ","114801","1345","168","1","4/29/2021 12:00:00 AM","2019","945726","NYTIMES-USCENSUS"
"4/30/2021 12:00:00 AM","Franklin County","Ohio","Midwest","East North Central","39049","39.969875","-83.009086 ","124615","1385","166","6","4/29/2021 12:00:00 AM","2019","1316756","NYTIMES-USCENSUS"
"4/30/2021 12:00:00 AM","Emmet County","Iowa","Midwest","West North Central","19063","43.377984","-94.66937 ","1324","40","1","0","4/29/2021 12:00:00 AM","2019","9208","NYTIMES-USCENSUS"
"4/30/2021 12:00:00 AM","Suffolk city","Virginia","South","South Atlantic","51800","36.697157","-76.634781 ","7821","185","14","0","4/29/2021 12:00:00 AM","2019","92108","NYTIMES-USCENSUS"
"4/30/2021 12:00:00 AM","Tolland County","Connecticut","Northeast","New England","09013","41.858081","-72.340978 ","9350","182","29","0","4/29/2021 12:00:00 AM","2019","150721","NYTIMES-USCENSUS"
"4/30/2021 12:00:00 AM","Vermillion County","Indiana","Midwest","East North Central","18165","39.854045","-87.462071 ","1674","43","0","0","4/29/2021 12:00:00 AM","2019","15498","NYTIMES-USCENSUS"
"4/30/2021 12:00:00 AM","Lander County","Nevada","West","Mountain","32015","39.90021","-117.04724 ","450","9","0","0","4/29/2021 12:00:00 AM","2019","5532","NYTIMES-USCENSUS"
"4/30/2021 12:00:00 AM","Jackson County","Texas","South","West South Central","48239","28.959802","-96.58908 ","1814","31","7","0","4/29/2021 12:00:00 AM","2019","14760","NYTIMES-USCENSUS"
"4/30/2021 12:00:00 AM","Adams County","Idaho","West","Mountain","16003","44.877004","-116.461624 ","339","4","0","0","4/29/2021 12:00:00 AM","2019","4294","NYTIMES-USCENSUS"
"4/30/2021 12:00:00 AM","Lancaster County","Virginia","South","South Atlantic","51103","37.704843","-76.412663 ","710","16","0","0","4/29/2021 12:00:00 AM","2019","10603","NYTIMES-USCENSUS"
"4/30/2021 12:00:00 AM","St. John the Baptist Parish","Louisiana","South","West South Central","22095","30.144068","-90.49096 ","3696","137","3","0","4/29/2021 12:00:00 AM","2019","42837","NYTIMES-USCENSUS"
"4/30/2021 12:00:00 AM","Livingston Parish","Louisiana","South","West South Central","22063","30.440419","-90.727474 ","13311","204","39","0","4/29/2021 12:00:00 AM","2019","140789","NYTIMES-USCENSUS"
"4/30/2021 12:00:00 AM","Racine County","Wisconsin","Midwest","East North Central","55101","42.780392","-87.771599 ","24490","368","37","0","4/29/2021 12:00:00 AM","2019","196311","NYTIMES-USCENSUS"
"4/30/2021 12:00:00 AM","Power County","Idaho","West","Mountain","16077","42.694126","-112.844407 ","662","9","0","0","4/29/2021 12:00:00 AM","2019","7681","NYTIMES-USCENSUS"
"4/30/2021 12:00:00 AM","Cumberland County","Pennsylvania","Northeast","Middle Atlantic","42041","40.164805","-77.263442 ","19625","511","67","0","4/29/2021 12:00:00 AM","2019","253370","NYTIMES-USCENSUS"
"4/30/2021 12:00:00 AM","Columbia County","Washington","West","Pacific","53013","46.29285","-117.911634 ","119","5","0","0","4/29/2021 12:00:00 AM","2019","3985","NYTIMES-USCENSUS"
"4/30/2021 12:00:00 AM","Wayne County","Missouri","Midwest","West North Central","29223","37.111074","-90.453931 ","1030","11","0","0","4/29/2021 12:00:00 AM","2019","12873","NYTIMES-USCENSUS"
"4/30/2021 12:00:00 AM","Churchill County","Nevada","West","Mountain","32001","39.53771","-118.264166 ","2031","49","2","0","4/29/2021 12:00:00 AM","2019","24909","NYTIMES-USCENSUS"
"4/30/2021 12:00:00 AM","Hamilton County","Texas","South","West South Central","48193","31.707342","-98.111756 ","770","26","0","0","4/29/2021 12:00:00 AM","2019","8461","NYTIMES-USCENSUS"
"4/30/2021 12:00:00 AM","Marquette County","Michigan","Midwest","East North Central","26103","46.656596","-87.584028 ","5748","59","9","0","4/29/2021 12:00:00 AM","2019","66699","NYTIMES-USCENSUS"
"4/30/2021 12:00:00 AM","Johnson County","Wyoming","West","Mountain","56019","44.044048","-106.588541 ","717","10","0","0","4/29/2021 12:00:00 AM","2019","8445","NYTIMES-USCENSUS"
"4/30/2021 12:00:00 AM","Martin County","Kentucky","South","East South Central","21159","37.796774","-82.506623 ","1025","20","2","0","4/29/2021 12:00:00 AM","2019","11195","NYTIMES-USCENSUS"
"4/30/2021 12:00:00 AM","Beckham County","Oklahoma","South","West South Central","40009","35.270601","-99.690057 ","2892","54","0","0","4/29/2021 12:00:00 AM","2019","21859","NYTIMES-USCENSUS"
"4/30/2021 12:00:00 AM","Sherburne County","Minnesota","Midwest","West North Central","27141","45.453176","-93.76913 ","11238","81","53","0","4/29/2021 12:00:00 AM","2019","97238","NYTIMES-USCENSUS"
"4/30/2021 12:00:00 AM","Sitka City and Borough","Alaska","West","Pacific","02220","57.193204","-135.367396 ","338","0","0","0","4/29/2021 12:00:00 AM","2019","8493","NYTIMES-USCENSUS"
"4/30/2021 12:00:00 AM","Callahan County","Texas","South","West South Central","48059","32.29315","-99.372249 ","1187","39","0","0","4/29/2021 12:00:00 AM","2019","13943","NYTIMES-USCENSUS"
"4/30/2021 12:00:00 AM","Covington County","Alabama","South","East South Central","01039","31.243987","-86.448721 ","4105","116","1","0","4/29/2021 12:00:00 AM","2019","37049","NYTIMES-USCENSUS"
"4/30/2021 12:00:00 AM","Van Buren County","Tennessee","South","East South Central","47175","35.699234","-85.458409 ","844","23","1","0","4/29/2021 12:00:00 AM","2019","5872","NYTIMES-USCENSUS"
"4/30/2021 12:00:00 AM","Fayette County","Tennessee","South","East South Central","47047","35.196993","-89.413803 ","5017","76","17","0","4/29/2021 12:00:00 AM","2019","41133","NYTIMES-USCENSUS"
"4/30/2021 12:00:00 AM","Hendricks County","Indiana","Midwest","East North Central","18063","39.768963","-86.509908 ","17093","331","35","0","4/29/2021 12:00:00 AM","2019","170311","NYTIMES-USCENSUS"
"4/30/2021 12:00:00 AM","Williamson County","Texas","South","West South Central","48491","30.649082","-97.605065 ","45408","462","82","0","4/29/2021 12:00:00 AM","2019","590551","NYTIMES-USCENSUS"
"4/30/2021 12:00:00 AM","Champaign County","Ohio","Midwest","East North Central","39021","40.132775","-83.767604 ","3272","58","15","0","4/29/2021 12:00:00 AM","2019","38885","NYTIMES-USCENSUS"
"4/30/2021 12:00:00 AM","Dickinson County","Kansas","Midwest","West North Central","20041","38.867735","-97.157943 ","1744","44","4","0","4/29/2021 12:00:00 AM","2019","18466","NYTIMES-USCENSUS"
"4/30/2021 12:00:00 AM","Sagadahoc County","Maine","Northeast","New England","23023","43.916845","-69.844227 ","1274","8","14","0","4/29/2021 12:00:00 AM","2019","35856","NYTIMES-USCENSUS"
"4/30/2021 12:00:00 AM","Albany County","Wyoming","West","Mountain","56001","41.665514","-105.721883 ","4242","11","17","0","4/29/2021 12:00:00 AM","2019","38880","NYTIMES-USCENSUS"
"4/30/2021 12:00:00 AM","Talladega County","Alabama","South","East South Central","01121","33.369314","-86.17593 ","8167","175","18","0","4/29/2021 12:00:00 AM","2019","79978","NYTIMES-USCENSUS"
"4/30/2021 12:00:00 AM","Macon County","Missouri","Midwest","West North Central","29121","39.829795","-92.56434 ","1538","15","0","0","4/29/2021 12:00:00 AM","2019","15117","NYTIMES-USCENSUS"
"4/30/2021 12:00:00 AM","Middlesex County","Massachusetts","Northeast","New England","25017","42.481718","-71.394916 ","132248","3720","237","2","4/29/2021 12:00:00 AM","2019","1611699","NYTIMES-USCENSUS"
"4/30/2021 12:00:00 AM","Box Butte County","Nebraska","Midwest","West North Central","31013","42.21038","-103.081779 ","933","9","-1","0","4/29/2021 12:00:00 AM","2019","10783","NYTIMES-USCENSUS"
"4/30/2021 12:00:00 AM","Hemphill County","Texas","South","West South Central","48211","35.815956","-100.27921 ","586","2","0","0","4/29/2021 12:00:00 AM","2019","3819","NYTIMES-USCENSUS"
"4/30/2021 12:00:00 AM","Anderson County","Kentucky","South","East South Central","21005","38.005396","-84.986417 ","1726","21","3","0","4/29/2021 12:00:00 AM","2019","22747","NYTIMES-USCENSUS"
"4/30/2021 12:00:00 AM","Wayne County","North Carolina","South","South Atlantic","37191","35.35419","-78.00867 ","10989","243","14","0","4/29/2021 12:00:00 AM","2019","123131","NYTIMES-USCENSUS"
"4/30/2021 12:00:00 AM","Benson County","North Dakota","Midwest","West North Central","38005","48.071743","-99.351152 ","1060","18","1","0","4/29/2021 12:00:00 AM","2019","6832","NYTIMES-USCENSUS"
"4/30/2021 12:00:00 AM","Clark County","Missouri","Midwest","West North Central","29045","40.407275","-91.729472 ","670","7","-1","0","4/29/2021 12:00:00 AM","2019","6797","NYTIMES-USCENSUS"
"4/30/2021 12:00:00 AM","Lee County","Mississippi","South","East South Central","28081","34.29237","-88.682439 ","9944","171","1","0","4/29/2021 12:00:00 AM","2019","85436","NYTIMES-USCENSUS"
"4/30/2021 12:00:00 AM","Lawrence County","Alabama","South","East South Central","01079","34.529776","-87.321865 ","2992","97","2","0","4/29/2021 12:00:00 AM","2019","32924","NYTIMES-USCENSUS"
"4/30/2021 12:00:00 AM","Scurry County","Texas","South","West South Central","48415","32.744353","-100.913346 ","2425","62","-2","0","4/29/2021 12:00:00 AM","2019","16703","NYTIMES-USCENSUS"
"4/30/2021 12:00:00 AM","Goshen County","Wyoming","West","Mountain","56015","42.089455","-104.35354 ","1207","24","0","0","4/29/2021 12:00:00 AM","2019","13211","NYTIMES-USCENSUS"
"4/30/2021 12:00:00 AM","St. Lawrence County","New York","Northeast","Middle Atlantic","36089","44.488112","-75.074311 ","6352","96","15","0","4/29/2021 12:00:00 AM","2019","107740","NYTIMES-USCENSUS"
"4/30/2021 12:00:00 AM","Emmet County","Michigan","Midwest","East North Central","26047","45.590094","-84.986822 ","2668","41","12","0","4/29/2021 12:00:00 AM","2019","33415","NYTIMES-USCENSUS"
"4/30/2021 12:00:00 AM","Traverse County","Minnesota","Midwest","West North Central","27155","45.769935","-96.474832 ","365","5","0","0","4/29/2021 12:00:00 AM","2019","3259","NYTIMES-USCENSUS"
"4/30/2021 12:00:00 AM","Sabine Parish","Louisiana","South","West South Central","22085","31.560402","-93.559579 ","2925","60","-5","0","4/29/2021 12:00:00 AM","2019","23884","NYTIMES-USCENSUS"
"4/30/2021 12:00:00 AM","Ralls County","Missouri","Midwest","West North Central","29173","39.553455","-91.524787 ","1053","12","0","0","4/29/2021 12:00:00 AM","2019","10309","NYTIMES-USCENSUS"
"4/30/2021 12:00:00 AM","Houston County","Georgia","South","South Atlantic","13153","32.458287","-83.662522 ","14536","252","19","0","4/29/2021 12:00:00 AM","2019","157863","NYTIMES-USCENSUS"
"4/30/2021 12:00:00 AM","Menominee County","Wisconsin","Midwest","East North Central","55078","44.991304","-88.669251 ","806","11","2","0","4/29/2021 12:00:00 AM","2019","4556","NYTIMES-USCENSUS"
"4/30/2021 12:00:00 AM","Marion County","Ohio","Midwest","East North Central","39101","40.588034","-83.168803 ","8469","135","9","0","4/29/2021 12:00:00 AM","2019","65093","NYTIMES-USCENSUS"
"4/30/2021 12:00:00 AM","Trinity County","California","West","Pacific","06105","40.647858","-123.114666 ","327","3","0","0","4/29/2021 12:00:00 AM","2019","12285","NYTIMES-USCENSUS"
"4/30/2021 12:00:00 AM","Leon County","Texas","South","West South Central","48289","31.300493","-95.995622 ","1625","43","1","0","4/29/2021 12:00:00 AM","2019","17404","NYTIMES-USCENSUS"
"4/30/2021 12:00:00 AM","Alcorn County","Mississippi","South","East South Central","28003","34.886569","-88.581109 ","3097","68","7","0","4/29/2021 12:00:00 AM","2019","36953","NYTIMES-USCENSUS"
"4/30/2021 12:00:00 AM","Union County","New Jersey","Northeast","Middle Atlantic","34039","40.659871","-74.308696 ","70239","1929","147","2","4/29/2021 12:00:00 AM","2019","556341","NYTIMES-USCENSUS"
"4/30/2021 12:00:00 AM","Montgomery County","Kansas","Midwest","West North Central","20125","37.189537","-95.742403 ","3449","79","8","0","4/29/2021 12:00:00 AM","2019","31829","NYTIMES-USCENSUS"
"4/30/2021 12:00:00 AM","Utah County","Utah","West","Mountain","49049","40.120425","-111.668508 ","95259","380","75","2","4/29/2021 12:00:00 AM","2019","636235","NYTIMES-USCENSUS"
"4/30/2021 12:00:00 AM","Baraga County","Michigan","Midwest","East North Central","26013","46.695859","-88.36181 ","855","35","6","0","4/29/2021 12:00:00 AM","2019","8209","NYTIMES-USCENSUS"
"4/30/2021 12:00:00 AM","Boundary County","Idaho","West","Mountain","16021","48.773131","-116.524668 ","861","10","1","0","4/29/2021 12:00:00 AM","2019","12245","NYTIMES-USCENSUS"
"4/30/2021 12:00:00 AM","Santa Fe County","New Mexico","West","Mountain","35049","35.514531","-105.963972 ","10321","145","6","0","4/29/2021 12:00:00 AM","2019","150358","NYTIMES-USCENSUS"
"4/30/2021 12:00:00 AM","Lake County","California","West","Pacific","06033","39.094802","-122.746757 ","3438","43","5","0","4/29/2021 12:00:00 AM","2019","64386","NYTIMES-USCENSUS"
"4/30/2021 12:00:00 AM","Columbia County","Pennsylvania","Northeast","Middle Atlantic","42037","41.045517","-76.40426 ","5461","133","26","0","4/29/2021 12:00:00 AM","2019","64964","NYTIMES-USCENSUS"
"4/30/2021 12:00:00 AM","Fayette County","Georgia","South","South Atlantic","13113","33.412717","-84.493941 ","8877","168","28","1","4/29/2021 12:00:00 AM","2019","114421","NYTIMES-USCENSUS"
"4/30/2021 12:00:00 AM","Newton County","Indiana","Midwest","East North Central","18111","40.962399","-87.402172 ","1059","36","4","0","4/29/2021 12:00:00 AM","2019","13984","NYTIMES-USCENSUS"
"4/30/2021 12:00:00 AM","Buffalo County","Nebraska","Midwest","West North Central","31019","40.855265","-99.074984 ","5472","58","6","0","4/29/2021 12:00:00 AM","2019","49659","NYTIMES-USCENSUS"
"4/30/2021 12:00:00 AM","Pulaski County","Arkansas","South","West South Central","05119","34.770311","-92.312996 ","39003","651","28","1","4/29/2021 12:00:00 AM","2019","391911","NYTIMES-USCENSUS"
"4/30/2021 12:00:00 AM","Monroe County","Wisconsin","Midwest","East North Central","55081","43.945175","-90.619969 ","4600","38","8","0","4/29/2021 12:00:00 AM","2019","46253","NYTIMES-USCENSUS"
"4/30/2021 12:00:00 AM","Petersburg Borough","Alaska","West","Pacific","02195","57.112458","-133.008598 ","159","0","0","0","4/29/2021 12:00:00 AM","2019","3266","NYTIMES-USCENSUS"
"4/30/2021 12:00:00 AM","Lewis County","New York","Northeast","Middle Atlantic","36049","43.782681","-75.44414 ","2545","34","5","0","4/29/2021 12:00:00 AM","2019","26296","NYTIMES-USCENSUS"
"4/30/2021 12:00:00 AM","McCracken County","Kentucky","South","East South Central","21145","37.054111","-88.712454 ","6487","120","17","0","4/29/2021 12:00:00 AM","2019","65418","NYTIMES-USCENSUS"
"4/30/2021 12:00:00 AM","Gloucester County","New Jersey","Northeast","Middle Atlantic","34015","39.722875","-75.145679 ","29614","606","64","0","4/29/2021 12:00:00 AM","2019","291636","NYTIMES-USCENSUS"
"4/30/2021 12:00:00 AM","Jefferson County","Wisconsin","Midwest","East North Central","55055","43.013804","-88.773985 ","9488","132","6","0","4/29/2021 12:00:00 AM","2019","84769","NYTIMES-USCENSUS"
"4/30/2021 12:00:00 AM","Scott County","Indiana","Midwest","East North Central","18143","38.679431","-85.751898 ","2647","55","7","0","4/29/2021 12:00:00 AM","2019","23873","NYTIMES-USCENSUS"
"4/30/2021 12:00:00 AM","Grant County","Wisconsin","Midwest","East North Central","55043","42.870028","-90.694229 ","5656","90","7","0","4/29/2021 12:00:00 AM","2019","51439","NYTIMES-USCENSUS"
"4/30/2021 12:00:00 AM","Napa County","California","West","Pacific","06055","38.5071","-122.325904 ","9790","81","12","0","4/29/2021 12:00:00 AM","2019","137744","NYTIMES-USCENSUS"
"4/30/2021 12:00:00 AM","Huron County","Michigan","Midwest","East North Central","26063","43.907616","-82.857045 ","3958","72","8","0","4/29/2021 12:00:00 AM","2019","30981","NYTIMES-USCENSUS"
"4/30/2021 12:00:00 AM","Morgan County","West Virginia","South","South Atlantic","54065","39.557345","-78.256517 ","1124","20","4","0","4/29/2021 12:00:00 AM","2019","17884","NYTIMES-USCENSUS"
"4/30/2021 12:00:00 AM","Midland County","Texas","South","West South Central","48329","31.814269","-102.002454 ","17331","266","0","0","4/29/2021 12:00:00 AM","2019","176832","NYTIMES-USCENSUS"
"4/30/2021 12:00:00 AM","Wells County","Indiana","Midwest","East North Central","18179","40.735273","-85.212974 ","2923","83","2","0","4/29/2021 12:00:00 AM","2019","28296","NYTIMES-USCENSUS"
"4/30/2021 12:00:00 AM","Tuscaloosa County","Alabama","South","East South Central","01125","33.29022","-87.522783 ","25603","449","26","0","4/29/2021 12:00:00 AM","2019","209355","NYTIMES-USCENSUS"
"4/30/2021 12:00:00 AM","Allen County","Indiana","Midwest","East North Central","18003","41.091909","-85.071791 ","39995","696","82","0","4/29/2021 12:00:00 AM","2019","379299","NYTIMES-USCENSUS"
"4/30/2021 12:00:00 AM","Ouachita County","Arkansas","South","West South Central","05103","33.591168","-92.878413 ","2305","61","1","0","4/29/2021 12:00:00 AM","2019","23382","NYTIMES-USCENSUS"
"4/30/2021 12:00:00 AM","Fresno County","California","West","Pacific","06019","36.761006","-119.655019 ","101189","1667","28","1","4/29/2021 12:00:00 AM","2019","999101","NYTIMES-USCENSUS"
"4/30/2021 12:00:00 AM","Maries County","Missouri","Midwest","West North Central","29125","38.162615","-91.923601 ","634","8","1","0","4/29/2021 12:00:00 AM","2019","8697","NYTIMES-USCENSUS"
"4/30/2021 12:00:00 AM","Ashe County","North Carolina","South","South Atlantic","37009","36.443469","-81.499334 ","2081","41","9","0","4/29/2021 12:00:00 AM","2019","27203","NYTIMES-USCENSUS"
"4/30/2021 12:00:00 AM","Knott County","Kentucky","South","East South Central","21119","37.354368","-82.952546 ","1138","23","6","0","4/29/2021 12:00:00 AM","2019","14806","NYTIMES-USCENSUS"
"4/30/2021 12:00:00 AM","Clay County","South Dakota","Midwest","West North Central","46027","42.91615","-96.980468 ","1917","15","1","0","4/29/2021 12:00:00 AM","2019","14070","NYTIMES-USCENSUS"
"4/30/2021 12:00:00 AM","Ocean County","New Jersey","Northeast","Middle Atlantic","34029","39.865669","-74.258864 ","74575","2112","106","1","4/29/2021 12:00:00 AM","2019","607186","NYTIMES-USCENSUS"
"4/30/2021 12:00:00 AM","McClain County","Oklahoma","South","West South Central","40087","35.016436","-97.449803 ","5273","69","0","0","4/29/2021 12:00:00 AM","2019","40474","NYTIMES-USCENSUS"
"4/30/2021 12:00:00 AM","Crawford County","Michigan","Midwest","East North Central","26039","44.680175","-84.611343 ","931","11","0","0","4/29/2021 12:00:00 AM","2019","14029","NYTIMES-USCENSUS"
"4/30/2021 12:00:00 AM","Pike County","Mississippi","South","East South Central","28113","31.177516","-90.397725 ","3280","105","5","0","4/29/2021 12:00:00 AM","2019","39288","NYTIMES-USCENSUS"
"4/30/2021 12:00:00 AM","Warren County","Mississippi","South","East South Central","28149","32.356095","-90.852384 ","4348","119","7","0","4/29/2021 12:00:00 AM","2019","45381","NYTIMES-USCENSUS"
"4/30/2021 12:00:00 AM","Essex County","Virginia","South","South Atlantic","51057","37.936389","-76.933747 ","753","9","1","0","4/29/2021 12:00:00 AM","2019","10953","NYTIMES-USCENSUS"
"4/30/2021 12:00:00 AM","Johnston County","Oklahoma","South","West South Central","40069","34.313455","-96.654254 ","1375","35","0","0","4/29/2021 12:00:00 AM","2019","11085","NYTIMES-USCENSUS"
"4/30/2021 12:00:00 AM","Red Lake County","Minnesota","Midwest","West North Central","27125","47.865487","-96.08718 ","392","7","-1","0","4/29/2021 12:00:00 AM","2019","4055","NYTIMES-USCENSUS"
"4/30/2021 12:00:00 AM","Oklahoma County","Oklahoma","South","West South Central","40109","35.554611","-97.409401 ","86030","1194","0","0","4/29/2021 12:00:00 AM","2019","797434","NYTIMES-USCENSUS"
"4/30/2021 12:00:00 AM","Smith County","Tennessee","South","East South Central","47159","36.256645","-85.941915 ","2766","39","3","0","4/29/2021 12:00:00 AM","2019","20157","NYTIMES-USCENSUS"
"4/30/2021 12:00:00 AM","Sedgwick County","Kansas","Midwest","West North Central","20173","37.681045","-97.461054 ","56132","743","133","0","4/29/2021 12:00:00 AM","2019","516042","NYTIMES-USCENSUS"
"4/30/2021 12:00:00 AM","Duplin County","North Carolina","South","South Atlantic","37061","34.934403","-77.933543 ","6204","132","8","0","4/29/2021 12:00:00 AM","2019","58741","NYTIMES-USCENSUS"
"4/30/2021 12:00:00 AM","Clay County","West Virginia","South","South Atlantic","54015","38.459826","-81.081866 ","470","9","0","0","4/29/2021 12:00:00 AM","2019","8508","NYTIMES-USCENSUS"
"4/30/2021 12:00:00 AM","Putnam County","New York","Northeast","Middle Atlantic","36079","41.427907","-73.743861 ","10416","91","12","0","4/29/2021 12:00:00 AM","2019","98320","NYTIMES-USCENSUS"
"4/30/2021 12:00:00 AM","Cleveland County","Oklahoma","South","West South Central","40027","35.206376","-97.323088 ","30818","401","0","0","4/29/2021 12:00:00 AM","2019","284014","NYTIMES-USCENSUS"
"4/30/2021 12:00:00 AM","Swain County","North Carolina","South","South Atlantic","37173","35.568849","-83.465614 ","1207","18","0","0","4/29/2021 12:00:00 AM","2019","14271","NYTIMES-USCENSUS"
"4/30/2021 12:00:00 AM","Newton County","Georgia","South","South Atlantic","13217","33.552751","-83.85136 ","10940","237","21","0","4/29/2021 12:00:00 AM","2019","111744","NYTIMES-USCENSUS"
"4/30/2021 12:00:00 AM","Clinton County","Kentucky","South","East South Central","21053","36.727258","-85.136098 ","1448","32","0","0","4/29/2021 12:00:00 AM","2019","10218","NYTIMES-USCENSUS"
"4/30/2021 12:00:00 AM","Breathitt County","Kentucky","South","East South Central","21025","37.517807","-83.317158 ","993","8","1","0","4/29/2021 12:00:00 AM","2019","12630","NYTIMES-USCENSUS"
"4/30/2021 12:00:00 AM","Yavapai County","Arizona","West","Mountain","04025","34.631071","-112.577225 ","18692","502","24","0","4/29/2021 12:00:00 AM","2019","235099","NYTIMES-USCENSUS"
"4/30/2021 12:00:00 AM","Delaware County","Iowa","Midwest","West North Central","19055","42.472937","-91.366767 ","2073","39","3","0","4/29/2021 12:00:00 AM","2019","17011","NYTIMES-USCENSUS"
"4/30/2021 12:00:00 AM","Yadkin County","North Carolina","South","South Atlantic","37197","36.158765","-80.665164 ","3939","47","5","0","4/29/2021 12:00:00 AM","2019","37667","NYTIMES-USCENSUS"
"4/30/2021 12:00:00 AM","Henrico County","Virginia","South","South Atlantic","51087","37.43752","-77.300333 ","24950","602","26","-1","4/29/2021 12:00:00 AM","2019","330818","NYTIMES-USCENSUS"
"4/30/2021 12:00:00 AM","Gallia County","Ohio","Midwest","East North Central","39053","38.817046","-82.301746 ","2344","48","3","1","4/29/2021 12:00:00 AM","2019","29898","NYTIMES-USCENSUS"
"4/30/2021 12:00:00 AM","Putnam County","Florida","South","South Atlantic","12107","29.593896","-81.732039 ","6436","145","9","0","4/29/2021 12:00:00 AM","2019","74521","NYTIMES-USCENSUS"
"4/30/2021 12:00:00 AM","Bay County","Michigan","Midwest","East North Central","26017","43.699711","-83.978701 ","10536","322","39","0","4/29/2021 12:00:00 AM","2019","103126","NYTIMES-USCENSUS"
"4/30/2021 12:00:00 AM","Christian County","Missouri","Midwest","West North Central","29043","36.969739","-93.187614 ","8896","91","35","0","4/29/2021 12:00:00 AM","2019","88595","NYTIMES-USCENSUS"
"4/30/2021 12:00:00 AM","Stafford County","Virginia","South","South Atlantic","51179","38.423084","-77.458048 ","11067","75","36","0","4/29/2021 12:00:00 AM","2019","152882","NYTIMES-USCENSUS"
"4/30/2021 12:00:00 AM","Stevens County","Washington","West","Pacific","53065","48.388728","-117.854455 ","2054","28","11","0","4/29/2021 12:00:00 AM","2019","45723","NYTIMES-USCENSUS"
"4/30/2021 12:00:00 AM","Carter County","Oklahoma","South","West South Central","40019","34.251848","-97.287927 ","6091","108","0","0","4/29/2021 12:00:00 AM","2019","48111","NYTIMES-USCENSUS"
"4/30/2021 12:00:00 AM","St. Tammany Parish","Louisiana","South","West South Central","22103","30.410022","-89.951962 ","25568","520","27","0","4/29/2021 12:00:00 AM","2019","260419","NYTIMES-USCENSUS"
"4/30/2021 12:00:00 AM","Ste. Genevieve County","Missouri","Midwest","West North Central","29186","37.885845","-90.161531 ","1809","16","3","0","4/29/2021 12:00:00 AM","2019","17894","NYTIMES-USCENSUS"
"4/30/2021 12:00:00 AM","Pickens County","Georgia","South","South Atlantic","13227","34.456746","-84.490351 ","3412","79","5","0","4/29/2021 12:00:00 AM","2019","32591","NYTIMES-USCENSUS"
"4/30/2021 12:00:00 AM","Nash County","North Carolina","South","South Atlantic","37127","35.965945","-77.987555 ","11312","181","16","0","4/29/2021 12:00:00 AM","2019","94298","NYTIMES-USCENSUS"
"4/30/2021 12:00:00 AM","Richland County","Montana","West","Mountain","30083","47.785633","-104.563408 ","1215","17","9","0","4/29/2021 12:00:00 AM","2019","10803","NYTIMES-USCENSUS"
"4/30/2021 12:00:00 AM","Buchanan County","Virginia","South","South Atlantic","51027","37.26812","-82.038151 ","1408","38","0","0","4/29/2021 12:00:00 AM","2019","21004","NYTIMES-USCENSUS"
"4/30/2021 12:00:00 AM","Hale County","Texas","South","West South Central","48189","34.068436","-101.822888 ","6111","155","0","0","4/29/2021 12:00:00 AM","2019","33406","NYTIMES-USCENSUS"
"4/30/2021 12:00:00 AM","Bartow County","Georgia","South","South Atlantic","13015","34.240917","-84.838188 ","14680","223","22","0","4/29/2021 12:00:00 AM","2019","107738","NYTIMES-USCENSUS"
"4/30/2021 12:00:00 AM","Calhoun County","Florida","South","South Atlantic","12013","30.388801","-85.197915 ","1688","43","0","0","4/29/2021 12:00:00 AM","2019","14105","NYTIMES-USCENSUS"
"4/30/2021 12:00:00 AM","Fayette County","Kentucky","South","East South Central","21067","38.040678","-84.458272 ","35315","307","47","3","4/29/2021 12:00:00 AM","2019","323152","NYTIMES-USCENSUS"
"4/30/2021 12:00:00 AM","Claiborne County","Mississippi","South","East South Central","28021","31.97281","-90.915424 ","1021","30","0","0","4/29/2021 12:00:00 AM","2019","8988","NYTIMES-USCENSUS"
"4/30/2021 12:00:00 AM","Lyon County","Minnesota","Midwest","West North Central","27083","44.409195","-95.847268 ","3541","50","12","0","4/29/2021 12:00:00 AM","2019","25474","NYTIMES-USCENSUS"
"4/30/2021 12:00:00 AM","Westmoreland County","Virginia","South","South Atlantic","51193","38.109311","-76.803933 ","1261","24","1","0","4/29/2021 12:00:00 AM","2019","18015","NYTIMES-USCENSUS"
"4/30/2021 12:00:00 AM","Crockett County","Tennessee","South","East South Central","47033","35.818795","-89.132494 ","2026","48","5","0","4/29/2021 12:00:00 AM","2019","14230","NYTIMES-USCENSUS"
"4/30/2021 12:00:00 AM","Highland County","Ohio","Midwest","East North Central","39071","39.184422","-83.601359 ","3510","61","0","0","4/29/2021 12:00:00 AM","2019","43161","NYTIMES-USCENSUS"
"4/30/2021 12:00:00 AM","Crenshaw County","Alabama","South","East South Central","01041","31.730311","-86.320038 ","1513","57","0","0","4/29/2021 12:00:00 AM","2019","13772","NYTIMES-USCENSUS"
"4/30/2021 12:00:00 AM","Norton city","Virginia","South","South Atlantic","51720","36.931549","-82.625996 ","283","7","6","0","4/29/2021 12:00:00 AM","2019","3981","NYTIMES-USCENSUS"
"4/30/2021 12:00:00 AM","Cimarron County","Oklahoma","South","West South Central","40025","36.74839","-102.517698 ","214","1","0","0","4/29/2021 12:00:00 AM","2019","2137","NYTIMES-USCENSUS"
"4/30/2021 12:00:00 AM","Natchitoches Parish","Louisiana","South","West South Central","22069","31.732509","-93.082546 ","4040","86","7","0","4/29/2021 12:00:00 AM","2019","38158","NYTIMES-USCENSUS"
