"monitor_date","county","state_name","region","subregion","fips","latitude","longitude","case_count_to_date","death_count_to_date","case_count","death_count","previous_monitor_date","population_year","population","source"
"7/12/2022 12:00:00 AM","Calhoun County","Georgia","South","South Atlantic","13037","31.521279","-84.62629 ","1399","24","0","0","7/11/2022 12:00:00 AM","2019","6189","NYTIMES-USCENSUS"
"7/12/2022 12:00:00 AM","Calhoun County","Iowa","Midwest","West North Central","19025","42.38617","-94.643683 ","2712","25","0","0","7/11/2022 12:00:00 AM","2019","9668","NYTIMES-USCENSUS"
"7/12/2022 12:00:00 AM","Caldwell County","Kentucky","South","East South Central","21033","37.148642","-87.870509 ","4352","62","0","0","7/11/2022 12:00:00 AM","2019","12747","NYTIMES-USCENSUS"
"7/12/2022 12:00:00 AM","Caldwell County","Missouri","Midwest","West North Central","29025","39.658998","-93.979179 ","1783","39","0","0","7/11/2022 12:00:00 AM","2019","9020","NYTIMES-USCENSUS"
"7/12/2022 12:00:00 AM","Caldwell County","Texas","South","West South Central","48055","29.832399","-97.628141 ","15413","176","23","0","7/11/2022 12:00:00 AM","2019","43664","NYTIMES-USCENSUS"
"7/12/2022 12:00:00 AM","Butte County","California","West","Pacific","06007","39.665336","-121.603209 ","44184","439","240","1","7/11/2022 12:00:00 AM","2019","219186","NYTIMES-USCENSUS"
"7/12/2022 12:00:00 AM","Butte County","South Dakota","Midwest","West North Central","46019","44.896226","-103.501436 ","2847","46","0","0","7/11/2022 12:00:00 AM","2019","10429","NYTIMES-USCENSUS"
"7/12/2022 12:00:00 AM","Boone County","Arkansas","South","West South Central","05009","36.304299","-93.079236 ","9897","181","21","0","7/11/2022 12:00:00 AM","2019","37432","NYTIMES-USCENSUS"
"7/12/2022 12:00:00 AM","Boone County","Illinois","Midwest","East North Central","17007","42.318983","-88.824295 ","15155","132","18","0","7/11/2022 12:00:00 AM","2019","53544","NYTIMES-USCENSUS"
"7/12/2022 12:00:00 AM","Boone County","West Virginia","South","South Atlantic","54005","38.022814","-81.713538 ","7137","78","13","0","7/11/2022 12:00:00 AM","2019","21457","NYTIMES-USCENSUS"
"7/12/2022 12:00:00 AM","Boone County","Nebraska","Midwest","West North Central","31011","41.703934","-98.070476 ","1105","5","0","0","7/11/2022 12:00:00 AM","2019","5192","NYTIMES-USCENSUS"
"7/12/2022 12:00:00 AM","Boone County","Iowa","Midwest","West North Central","19015","42.038642","-93.938603 ","5782","57","0","0","7/11/2022 12:00:00 AM","2019","26234","NYTIMES-USCENSUS"
"7/12/2022 12:00:00 AM","Boone County","Indiana","Midwest","East North Central","18011","40.050892","-86.469014 ","16176","191","0","0","7/11/2022 12:00:00 AM","2019","67843","NYTIMES-USCENSUS"
"7/12/2022 12:00:00 AM","Boone County","Kentucky","South","East South Central","21015","38.9589","-84.736371 ","42178","306","0","0","7/11/2022 12:00:00 AM","2019","133581","NYTIMES-USCENSUS"
"7/12/2022 12:00:00 AM","Blount County","Alabama","South","East South Central","01009","33.977358","-86.56644 ","15612","247","46","0","7/11/2022 12:00:00 AM","2019","57826","NYTIMES-USCENSUS"
"7/12/2022 12:00:00 AM","Blaine County","Oklahoma","South","West South Central","40011","35.877795","-98.429031 ","2498","44","0","0","7/11/2022 12:00:00 AM","2019","9429","NYTIMES-USCENSUS"
"7/12/2022 12:00:00 AM","Blaine County","Idaho","West","Mountain","16013","43.394192","-113.955371 ","6480","30","0","0","7/11/2022 12:00:00 AM","2019","23021","NYTIMES-USCENSUS"
"7/12/2022 12:00:00 AM","Big Horn County","Wyoming","West","Mountain","56003","44.525117","-107.994848 ","2758","63","44","0","7/11/2022 12:00:00 AM","2019","11790","NYTIMES-USCENSUS"
"7/12/2022 12:00:00 AM","Bibb County","Georgia","South","South Atlantic","13021","32.808845","-83.694194 ","39709","797","0","0","7/11/2022 12:00:00 AM","2019","153159","NYTIMES-USCENSUS"
"7/12/2022 12:00:00 AM","Bay County","Michigan","Midwest","East North Central","26017","43.699711","-83.978701 ","28755","600","87","0","7/11/2022 12:00:00 AM","2019","103126","NYTIMES-USCENSUS"
"7/12/2022 12:00:00 AM","Bath County","Kentucky","South","East South Central","21011","38.152249","-83.737641 ","3421","49","0","0","7/11/2022 12:00:00 AM","2019","12500","NYTIMES-USCENSUS"
"7/12/2022 12:00:00 AM","Barton County","Kansas","Midwest","West North Central","20009","38.481239","-98.767837 ","6652","107","0","0","7/11/2022 12:00:00 AM","2019","25779","NYTIMES-USCENSUS"
"7/12/2022 12:00:00 AM","Barry County","Missouri","Midwest","West North Central","29009","36.699376","-93.834334 ","6924","143","0","0","7/11/2022 12:00:00 AM","2019","35789","NYTIMES-USCENSUS"
"7/12/2022 12:00:00 AM","Barbour County","Alabama","South","East South Central","01005","31.870253","-85.405104 ","6043","100","15","0","7/11/2022 12:00:00 AM","2019","24686","NYTIMES-USCENSUS"
"7/12/2022 12:00:00 AM","Baldwin County","Georgia","South","South Atlantic","13009","33.05949","-83.255457 ","9858","241","0","0","7/11/2022 12:00:00 AM","2019","44890","NYTIMES-USCENSUS"
"7/12/2022 12:00:00 AM","Baker County","Florida","South","South Atlantic","12003","30.324442","-82.302284 ","9007","143","0","0","7/11/2022 12:00:00 AM","2019","29210","NYTIMES-USCENSUS"
"7/12/2022 12:00:00 AM","Baker County","Georgia","South","South Atlantic","13007","31.31958","-84.454881 ","555","15","0","0","7/11/2022 12:00:00 AM","2019","3038","NYTIMES-USCENSUS"
"7/12/2022 12:00:00 AM","Wyoming County","West Virginia","South","South Atlantic","54109","37.60366","-81.549032 ","7549","124","12","0","7/11/2022 12:00:00 AM","2019","20394","NYTIMES-USCENSUS"
"7/12/2022 12:00:00 AM","Wyandotte County","Kansas","Midwest","West North Central","20209","39.115384","-94.763087 ","49051","521","0","0","7/11/2022 12:00:00 AM","2019","165429","NYTIMES-USCENSUS"
"7/12/2022 12:00:00 AM","Wyandot County","Ohio","Midwest","East North Central","39175","40.839782","-83.313681 ","5603","105","0","0","7/11/2022 12:00:00 AM","2019","21772","NYTIMES-USCENSUS"
"7/12/2022 12:00:00 AM","Wright County","Minnesota","Midwest","West North Central","27171","45.175091","-93.966396 ","38511","307","0","0","7/11/2022 12:00:00 AM","2019","138377","NYTIMES-USCENSUS"
"7/12/2022 12:00:00 AM","Worth County","Georgia","South","South Atlantic","13321","31.551773","-83.84996 ","4860","120","0","0","7/11/2022 12:00:00 AM","2019","20247","NYTIMES-USCENSUS"
"7/12/2022 12:00:00 AM","Worcester County","Massachusetts","Northeast","New England","25027","42.311693","-71.940282 ","212740","2672","0","0","7/11/2022 12:00:00 AM","2019","830622","NYTIMES-USCENSUS"
"7/12/2022 12:00:00 AM","Woodward County","Oklahoma","South","West South Central","40153","36.425619","-99.273661 ","5316","76","0","0","7/11/2022 12:00:00 AM","2019","20211","NYTIMES-USCENSUS"
"7/12/2022 12:00:00 AM","Woodson County","Kansas","Midwest","West North Central","20207","37.888193","-95.758469 ","833","17","0","0","7/11/2022 12:00:00 AM","2019","3138","NYTIMES-USCENSUS"
"7/12/2022 12:00:00 AM","Woods County","Oklahoma","South","West South Central","40151","36.726984","-98.863649 ","2403","38","0","0","7/11/2022 12:00:00 AM","2019","8793","NYTIMES-USCENSUS"
"7/12/2022 12:00:00 AM","Woodruff County","Arkansas","South","West South Central","05147","35.192777","-91.244535 ","1820","31","1","0","7/11/2022 12:00:00 AM","2019","6320","NYTIMES-USCENSUS"
"7/12/2022 12:00:00 AM","Woodford County","Kentucky","South","East South Central","21239","38.043103","-84.748855 ","7659","53","0","0","7/11/2022 12:00:00 AM","2019","26734","NYTIMES-USCENSUS"
"7/12/2022 12:00:00 AM","Woodbury County","Iowa","Midwest","West North Central","19193","42.39322","-96.053296 ","29482","342","0","0","7/11/2022 12:00:00 AM","2019","103107","NYTIMES-USCENSUS"
"7/12/2022 12:00:00 AM","Wood County","West Virginia","South","South Atlantic","54107","39.211602","-81.516234 ","23535","354","35","0","7/11/2022 12:00:00 AM","2019","83518","NYTIMES-USCENSUS"
"7/12/2022 12:00:00 AM","Wolfe County","Kentucky","South","East South Central","21237","37.743893","-83.49511 ","2707","29","0","0","7/11/2022 12:00:00 AM","2019","7157","NYTIMES-USCENSUS"
"7/12/2022 12:00:00 AM","Wise County","Virginia","South","South Atlantic","51195","36.974561","-82.62156 ","11126","204","23","0","7/11/2022 12:00:00 AM","2019","37383","NYTIMES-USCENSUS"
"7/12/2022 12:00:00 AM","Dodge County","Wisconsin","Midwest","East North Central","55027","43.429628","-88.701939 ","28597","342","33","0","7/11/2022 12:00:00 AM","2019","87839","NYTIMES-USCENSUS"
"7/12/2022 12:00:00 AM","Dodge County","Nebraska","Midwest","West North Central","31053","41.577008","-96.645852 ","10435","111","0","0","7/11/2022 12:00:00 AM","2019","36565","NYTIMES-USCENSUS"
"7/12/2022 12:00:00 AM","Dickinson County","Kansas","Midwest","West North Central","20041","38.867735","-97.157943 ","4988","86","0","0","7/11/2022 12:00:00 AM","2019","18466","NYTIMES-USCENSUS"
"7/12/2022 12:00:00 AM","Dickinson County","Iowa","Midwest","West North Central","19059","43.389611","-95.196057 ","4252","73","0","0","7/11/2022 12:00:00 AM","2019","17258","NYTIMES-USCENSUS"
"7/12/2022 12:00:00 AM","Dewey County","South Dakota","Midwest","West North Central","46041","45.148049","-100.837953 ","3142","44","0","0","7/11/2022 12:00:00 AM","2019","5892","NYTIMES-USCENSUS"
"7/12/2022 12:00:00 AM","Deuel County","South Dakota","Midwest","West North Central","46039","44.75629","-96.690239 ","1064","12","0","0","7/11/2022 12:00:00 AM","2019","4351","NYTIMES-USCENSUS"
"7/12/2022 12:00:00 AM","DeSoto County","Mississippi","South","East South Central","28033","34.874922","-89.991211 ","53805","556","0","0","7/11/2022 12:00:00 AM","2019","184945","NYTIMES-USCENSUS"
"7/12/2022 12:00:00 AM","Delta County","Michigan","Midwest","East North Central","26041","45.805229","-86.901938 ","10680","161","77","0","7/11/2022 12:00:00 AM","2019","35784","NYTIMES-USCENSUS"
"7/12/2022 12:00:00 AM","Delta County","Colorado","West","Mountain","08029","38.861595","-107.864892 ","6564","141","3","0","7/11/2022 12:00:00 AM","2019","31162","NYTIMES-USCENSUS"
"7/12/2022 12:00:00 AM","Delaware County","Iowa","Midwest","West North Central","19055","42.472937","-91.366767 ","4196","68","0","0","7/11/2022 12:00:00 AM","2019","17011","NYTIMES-USCENSUS"
"7/12/2022 12:00:00 AM","Delaware County","Pennsylvania","Northeast","Middle Atlantic","42045","39.916685","-75.398818 ","121733","1898","0","0","7/11/2022 12:00:00 AM","2019","566747","NYTIMES-USCENSUS"
"7/12/2022 12:00:00 AM","Delaware County","Oklahoma","South","West South Central","40041","36.393437","-94.808189 ","11546","204","0","0","7/11/2022 12:00:00 AM","2019","43009","NYTIMES-USCENSUS"
"7/12/2022 12:00:00 AM","Delaware County","Ohio","Midwest","East North Central","39041","40.278941","-83.007462 ","48628","275","0","0","7/11/2022 12:00:00 AM","2019","209177","NYTIMES-USCENSUS"
"7/12/2022 12:00:00 AM","Delaware County","Indiana","Midwest","East North Central","18035","40.227543","-85.399262 ","26290","451","0","0","7/11/2022 12:00:00 AM","2019","114135","NYTIMES-USCENSUS"
"7/12/2022 12:00:00 AM","Colfax County","New Mexico","West","Mountain","35007","36.612964","-104.64011 ","2808","68","0","1","7/11/2022 12:00:00 AM","2019","11941","NYTIMES-USCENSUS"
"7/12/2022 12:00:00 AM","Coffee County","Alabama","South","East South Central","01031","31.402258","-85.989602 ","14447","236","27","0","7/11/2022 12:00:00 AM","2019","52342","NYTIMES-USCENSUS"
"7/12/2022 12:00:00 AM","Coffee County","Tennessee","South","East South Central","47031","35.488765","-86.078202 ","17593","273","0","0","7/11/2022 12:00:00 AM","2019","56520","NYTIMES-USCENSUS"
"7/12/2022 12:00:00 AM","Clinton County","Iowa","Midwest","West North Central","19045","41.898073","-90.534243 ","12010","146","0","0","7/11/2022 12:00:00 AM","2019","46429","NYTIMES-USCENSUS"
"7/12/2022 12:00:00 AM","Clinton County","New York","Northeast","Middle Atlantic","36019","44.752712","-73.705643 ","19313","94","8","0","7/11/2022 12:00:00 AM","2019","80485","NYTIMES-USCENSUS"
"7/12/2022 12:00:00 AM","Clinton County","Kentucky","South","East South Central","21053","36.727258","-85.136098 ","3856","53","0","0","7/11/2022 12:00:00 AM","2019","10218","NYTIMES-USCENSUS"
"7/12/2022 12:00:00 AM","Clinton County","Indiana","Midwest","East North Central","18023","40.305944","-86.477567 ","9572","132","0","0","7/11/2022 12:00:00 AM","2019","32399","NYTIMES-USCENSUS"
"7/12/2022 12:00:00 AM","Clinton County","Illinois","Midwest","East North Central","17027","38.606295","-89.426228 ","12653","122","16","0","7/11/2022 12:00:00 AM","2019","37562","NYTIMES-USCENSUS"
"7/12/2022 12:00:00 AM","Clinton County","Ohio","Midwest","East North Central","39027","39.416681","-83.804583 ","10809","169","0","0","7/11/2022 12:00:00 AM","2019","41968","NYTIMES-USCENSUS"
"7/12/2022 12:00:00 AM","Clinton County","Missouri","Midwest","West North Central","29049","39.608723","-94.395803 ","4962","122","0","0","7/11/2022 12:00:00 AM","2019","20387","NYTIMES-USCENSUS"
"7/12/2022 12:00:00 AM","Clinton County","Michigan","Midwest","East North Central","26037","42.950455","-84.591695 ","23432","211","134","0","7/11/2022 12:00:00 AM","2019","79595","NYTIMES-USCENSUS"
"7/12/2022 12:00:00 AM","Cleveland County","North Carolina","South","South Atlantic","37045","35.33463","-81.557114 ","31081","405","0","0","7/11/2022 12:00:00 AM","2019","97947","NYTIMES-USCENSUS"
"7/12/2022 12:00:00 AM","Cleveland County","Arkansas","South","West South Central","05025","33.893201","-92.188714 ","2373","36","4","0","7/11/2022 12:00:00 AM","2019","7956","NYTIMES-USCENSUS"
"7/12/2022 12:00:00 AM","Cleburne County","Arkansas","South","West South Central","05023","35.566315","-92.05995 ","6770","129","33","0","7/11/2022 12:00:00 AM","2019","24919","NYTIMES-USCENSUS"
"7/12/2022 12:00:00 AM","Campbell County","Virginia","South","South Atlantic","51031","37.210152","-79.095428 ","14189","220","11","0","7/11/2022 12:00:00 AM","2019","54885","NYTIMES-USCENSUS"
"7/12/2022 12:00:00 AM","Campbell County","Wyoming","West","Mountain","56005","44.191999","-105.517014 ","12618","150","98","1","7/11/2022 12:00:00 AM","2019","46341","NYTIMES-USCENSUS"
"7/12/2022 12:00:00 AM","Campbell County","Kentucky","South","East South Central","21037","38.946981","-84.379583 ","26585","187","0","0","7/11/2022 12:00:00 AM","2019","93584","NYTIMES-USCENSUS"
"7/12/2022 12:00:00 AM","Cameron County","Pennsylvania","Northeast","Middle Atlantic","42023","41.438291","-78.198323 ","873","21","0","0","7/11/2022 12:00:00 AM","2019","4447","NYTIMES-USCENSUS"
"7/12/2022 12:00:00 AM","Camden County","Georgia","South","South Atlantic","13039","30.913358","-81.642019 ","12092","124","0","0","7/11/2022 12:00:00 AM","2019","54666","NYTIMES-USCENSUS"
"7/12/2022 12:00:00 AM","Camden County","North Carolina","South","South Atlantic","37029","36.342344","-76.162488 ","1896","9","0","0","7/11/2022 12:00:00 AM","2019","10867","NYTIMES-USCENSUS"
"7/12/2022 12:00:00 AM","Camden County","New Jersey","Northeast","Middle Atlantic","34007","39.802407","-74.961249 ","141224","1857","173","2","7/11/2022 12:00:00 AM","2019","506471","NYTIMES-USCENSUS"
"7/12/2022 12:00:00 AM","Calhoun County","Illinois","Midwest","East North Central","17013","39.164262","-90.666295 ","1607","8","3","0","7/11/2022 12:00:00 AM","2019","4739","NYTIMES-USCENSUS"
"7/12/2022 12:00:00 AM","Calhoun County","Texas","South","West South Central","48057","28.441719","-96.579574 ","6092","51","12","0","7/11/2022 12:00:00 AM","2019","21290","NYTIMES-USCENSUS"
"7/12/2022 12:00:00 AM","Calhoun County","Mississippi","South","East South Central","28013","33.936634","-89.337114 ","4801","71","0","0","7/11/2022 12:00:00 AM","2019","14361","NYTIMES-USCENSUS"
"7/12/2022 12:00:00 AM","Calhoun County","South Carolina","South","South Atlantic","45017","33.67478","-80.780347 ","2966","61","31","0","7/11/2022 12:00:00 AM","2019","14553","NYTIMES-USCENSUS"
"7/12/2022 12:00:00 AM","Calhoun County","West Virginia","South","South Atlantic","54013","38.844159","-81.115478 ","1997","15","4","0","7/11/2022 12:00:00 AM","2019","7109","NYTIMES-USCENSUS"
"7/12/2022 12:00:00 AM","Calhoun County","Alabama","South","East South Central","01015","33.770516","-85.827909 ","33770","635","83","1","7/11/2022 12:00:00 AM","2019","113605","NYTIMES-USCENSUS"
"7/12/2022 12:00:00 AM","Calhoun County","Michigan","Midwest","East North Central","26025","42.24299","-85.012385 ","36736","595","218","6","7/11/2022 12:00:00 AM","2019","134159","NYTIMES-USCENSUS"
"7/12/2022 12:00:00 AM","Suffolk city","Virginia","South","South Atlantic","51800","36.697157","-76.634781 ","20762","310","52","0","7/11/2022 12:00:00 AM","2019","92108","NYTIMES-USCENSUS"
"7/12/2022 12:00:00 AM","Sublette County","Wyoming","West","Mountain","56035","42.767928","-109.91617 ","2039","27","22","0","7/11/2022 12:00:00 AM","2019","9831","NYTIMES-USCENSUS"
"7/12/2022 12:00:00 AM","Stutsman County","North Dakota","Midwest","West North Central","38093","46.972223","-98.956123 ","7311","97","0","0","7/11/2022 12:00:00 AM","2019","20704","NYTIMES-USCENSUS"
"7/12/2022 12:00:00 AM","Strafford County","New Hampshire","Northeast","New England","33017","43.293272","-71.035589 ","32942","218","11","0","7/11/2022 12:00:00 AM","2019","130633","NYTIMES-USCENSUS"
"7/12/2022 12:00:00 AM","Story County","Iowa","Midwest","West North Central","19169","42.037538","-93.466093 ","20862","92","0","0","7/11/2022 12:00:00 AM","2019","97117","NYTIMES-USCENSUS"
"7/12/2022 12:00:00 AM","Storey County","Nevada","West","Mountain","32029","39.438385","-119.524646 ","156","11","0","0","7/11/2022 12:00:00 AM","2019","4123","NYTIMES-USCENSUS"
"7/12/2022 12:00:00 AM","Stone County","Missouri","Midwest","West North Central","29209","36.745822","-93.457842 ","6131","123","0","0","7/11/2022 12:00:00 AM","2019","31952","NYTIMES-USCENSUS"
"7/12/2022 12:00:00 AM","Stokes County","North Carolina","South","South Atlantic","37169","36.393797","-80.269921 ","12061","183","0","0","7/11/2022 12:00:00 AM","2019","45591","NYTIMES-USCENSUS"
"7/12/2022 12:00:00 AM","Stoddard County","Missouri","Midwest","West North Central","29207","36.851557","-89.947481 ","6287","139","0","0","7/11/2022 12:00:00 AM","2019","29025","NYTIMES-USCENSUS"
"7/12/2022 12:00:00 AM","Stillwater County","Montana","West","Mountain","30095","45.658545","-109.381576 ","1586","32","0","0","7/11/2022 12:00:00 AM","2019","9642","NYTIMES-USCENSUS"
"7/12/2022 12:00:00 AM","Stewart County","Georgia","South","South Atlantic","13259","32.073225","-84.834912 ","2814","35","0","0","7/11/2022 12:00:00 AM","2019","6621","NYTIMES-USCENSUS"
"7/12/2022 12:00:00 AM","Stevens County","Washington","West","Pacific","53065","48.388728","-117.854455 ","8761","151","0","0","7/11/2022 12:00:00 AM","2019","45723","NYTIMES-USCENSUS"
"7/12/2022 12:00:00 AM","Steuben County","Indiana","Midwest","East North Central","18151","41.643467","-85.002405 ","10012","122","0","0","7/11/2022 12:00:00 AM","2019","34594","NYTIMES-USCENSUS"
"7/12/2022 12:00:00 AM","Stephenson County","Illinois","Midwest","East North Central","17177","42.349726","-89.665994 ","12607","186","15","0","7/11/2022 12:00:00 AM","2019","44498","NYTIMES-USCENSUS"
"7/12/2022 12:00:00 AM","Stephens County","Georgia","South","South Atlantic","13257","34.553582","-83.290588 ","6503","163","0","0","7/11/2022 12:00:00 AM","2019","25925","NYTIMES-USCENSUS"
"7/12/2022 12:00:00 AM","Steele County","North Dakota","Midwest","West North Central","38091","47.451062","-97.71892 ","393","2","0","0","7/11/2022 12:00:00 AM","2019","1890","NYTIMES-USCENSUS"
"7/12/2022 12:00:00 AM","Stearns County","Minnesota","Midwest","West North Central","27145","45.555235","-94.610482 ","53999","376","0","0","7/11/2022 12:00:00 AM","2019","161075","NYTIMES-USCENSUS"
"7/12/2022 12:00:00 AM","Ste. Genevieve County","Missouri","Midwest","West North Central","29186","37.885845","-90.161531 ","3937","39","0","0","7/11/2022 12:00:00 AM","2019","17894","NYTIMES-USCENSUS"
"7/12/2022 12:00:00 AM","Staunton city","Virginia","South","South Atlantic","51790","38.157978","-79.061876 ","6186","117","30","0","7/11/2022 12:00:00 AM","2019","24932","NYTIMES-USCENSUS"
"7/12/2022 12:00:00 AM","Starr County","Texas","South","West South Central","48427","26.530903","-98.740235 ","21040","366","43","0","7/11/2022 12:00:00 AM","2019","64633","NYTIMES-USCENSUS"
"7/12/2022 12:00:00 AM","Starke County","Indiana","Midwest","East North Central","18149","41.284478","-86.644636 ","4946","100","0","0","7/11/2022 12:00:00 AM","2019","22995","NYTIMES-USCENSUS"
"7/12/2022 12:00:00 AM","Stark County","North Dakota","Midwest","West North Central","38089","46.817031","-102.662026 ","12068","86","0","0","7/11/2022 12:00:00 AM","2019","31489","NYTIMES-USCENSUS"
"7/12/2022 12:00:00 AM","Stanton County","Kansas","Midwest","West North Central","20187","37.565932","-101.789383 ","437","9","0","0","7/11/2022 12:00:00 AM","2019","2006","NYTIMES-USCENSUS"
"7/12/2022 12:00:00 AM","Schoolcraft County","Michigan","Midwest","East North Central","26153","46.021122","-86.197029 ","1879","16","9","0","7/11/2022 12:00:00 AM","2019","8094","NYTIMES-USCENSUS"
"7/12/2022 12:00:00 AM","Schoharie County","New York","Northeast","Middle Atlantic","36095","42.591294","-74.438172 ","5644","36","3","0","7/11/2022 12:00:00 AM","2019","30999","NYTIMES-USCENSUS"
"7/12/2022 12:00:00 AM","Schley County","Georgia","South","South Atlantic","13249","32.263444","-84.322708 ","1221","11","0","0","7/11/2022 12:00:00 AM","2019","5257","NYTIMES-USCENSUS"
"7/12/2022 12:00:00 AM","Schenectady County","New York","Northeast","Middle Atlantic","36093","42.817552","-74.043559 ","37992","317","20","0","7/11/2022 12:00:00 AM","2019","155299","NYTIMES-USCENSUS"
"7/12/2022 12:00:00 AM","Sawyer County","Wisconsin","Midwest","East North Central","55113","45.864911","-91.147133 ","4984","63","7","0","7/11/2022 12:00:00 AM","2019","16558","NYTIMES-USCENSUS"
"7/12/2022 12:00:00 AM","Saunders County","Nebraska","Midwest","West North Central","31155","41.223388","-96.642097 ","5137","30","0","0","7/11/2022 12:00:00 AM","2019","21578","NYTIMES-USCENSUS"
"7/12/2022 12:00:00 AM","Sauk County","Wisconsin","Midwest","East North Central","55111","43.428001","-89.943318 ","17764","138","15","0","7/11/2022 12:00:00 AM","2019","64442","NYTIMES-USCENSUS"
"7/12/2022 12:00:00 AM","Sarpy County","Nebraska","Midwest","West North Central","31153","41.115064","-96.109125 ","52636","286","0","0","7/11/2022 12:00:00 AM","2019","187196","NYTIMES-USCENSUS"
"7/12/2022 12:00:00 AM","Sargent County","North Dakota","Midwest","West North Central","38081","46.108204","-97.630051 ","1072","9","0","0","7/11/2022 12:00:00 AM","2019","3898","NYTIMES-USCENSUS"
"7/12/2022 12:00:00 AM","Saratoga County","New York","Northeast","Middle Atlantic","36091","43.106135","-73.855387 ","53488","349","11","0","7/11/2022 12:00:00 AM","2019","229863","NYTIMES-USCENSUS"
"7/12/2022 12:00:00 AM","Sarasota County","Florida","South","South Atlantic","12115","27.225327","-82.423714 ","101615","1688","0","0","7/11/2022 12:00:00 AM","2019","433742","NYTIMES-USCENSUS"
"7/12/2022 12:00:00 AM","Santa Rosa County","Florida","South","South Atlantic","12113","30.675348","-87.018919 ","51405","629","0","0","7/11/2022 12:00:00 AM","2019","184313","NYTIMES-USCENSUS"
"7/12/2022 12:00:00 AM","Santa Fe County","New Mexico","West","Mountain","35049","35.514531","-105.963972 ","34182","321","59","1","7/11/2022 12:00:00 AM","2019","150358","NYTIMES-USCENSUS"
"7/12/2022 12:00:00 AM","Santa Cruz County","Arizona","West","Mountain","04023","31.525733","-110.845228 ","17178","232","0","0","7/11/2022 12:00:00 AM","2019","46498","NYTIMES-USCENSUS"
"7/12/2022 12:00:00 AM","Santa Clara County","California","West","Pacific","06085","37.221614","-121.68954 ","409393","2365","4145","4","7/11/2022 12:00:00 AM","2019","1927852","NYTIMES-USCENSUS"
"7/12/2022 12:00:00 AM","Santa Barbara County","California","West","Pacific","06083","34.536677","-120.038364 ","102781","699","787","2","7/11/2022 12:00:00 AM","2019","446499","NYTIMES-USCENSUS"
"7/12/2022 12:00:00 AM","Sanpete County","Utah","West","Mountain","49039","39.373426","-111.576933 ","8530","56","0","0","7/11/2022 12:00:00 AM","2019","30939","NYTIMES-USCENSUS"
"7/12/2022 12:00:00 AM","Sanilac County","Michigan","Midwest","East North Central","26151","43.449155","-82.642815 ","9178","202","49","2","7/11/2022 12:00:00 AM","2019","41170","NYTIMES-USCENSUS"
"7/12/2022 12:00:00 AM","Wirt County","West Virginia","South","South Atlantic","54105","39.020034","-81.382975 ","1522","25","0","0","7/11/2022 12:00:00 AM","2019","5821","NYTIMES-USCENSUS"
"7/12/2022 12:00:00 AM","Winston County","Alabama","South","East South Central","01133","34.154566","-87.365346 ","7859","133","12","0","7/11/2022 12:00:00 AM","2019","23629","NYTIMES-USCENSUS"
"7/12/2022 12:00:00 AM","Winona County","Minnesota","Midwest","West North Central","27169","43.981353","-91.777044 ","13944","74","0","0","7/11/2022 12:00:00 AM","2019","50484","NYTIMES-USCENSUS"
"7/12/2022 12:00:00 AM","Winneshiek County","Iowa","Midwest","West North Central","19191","43.292989","-91.850788 ","4063","52","0","0","7/11/2022 12:00:00 AM","2019","19991","NYTIMES-USCENSUS"
"7/12/2022 12:00:00 AM","Winnebago County","Illinois","Midwest","East North Central","17201","42.337396","-89.161205 ","85191","868","111","0","7/11/2022 12:00:00 AM","2019","282572","NYTIMES-USCENSUS"
"7/12/2022 12:00:00 AM","Winn Parish","Louisiana","South","West South Central","22127","31.941187","-92.641269 ","4694","64","21","0","7/11/2022 12:00:00 AM","2019","13904","NYTIMES-USCENSUS"
"7/12/2022 12:00:00 AM","Winkler County","Texas","South","West South Central","48495","31.832862","-103.054925 ","1881","34","0","0","7/11/2022 12:00:00 AM","2019","8010","NYTIMES-USCENSUS"
"7/12/2022 12:00:00 AM","Windsor County","Vermont","Northeast","New England","50027","43.572448","-72.598813 ","10300","59","0","0","7/11/2022 12:00:00 AM","2019","55062","NYTIMES-USCENSUS"
"7/12/2022 12:00:00 AM","Windham County","Connecticut","Northeast","New England","09015","41.824999","-71.990702 ","28065","310","22","0","7/11/2022 12:00:00 AM","2019","116782","NYTIMES-USCENSUS"
"7/12/2022 12:00:00 AM","Winchester city","Virginia","South","South Atlantic","51840","39.173869","-78.176356 ","6825","81","11","0","7/11/2022 12:00:00 AM","2019","28078","NYTIMES-USCENSUS"
"7/12/2022 12:00:00 AM","Wilson County","Kansas","Midwest","West North Central","20205","37.558515","-95.745175 ","2901","50","0","0","7/11/2022 12:00:00 AM","2019","8525","NYTIMES-USCENSUS"
"7/12/2022 12:00:00 AM","Williamson County","Illinois","Midwest","East North Central","17199","37.730353","-88.930018 ","24380","266","47","0","7/11/2022 12:00:00 AM","2019","66597","NYTIMES-USCENSUS"
"7/12/2022 12:00:00 AM","Vernon County","Missouri","Midwest","West North Central","29217","37.850196","-94.341597 ","5361","110","0","0","7/11/2022 12:00:00 AM","2019","20563","NYTIMES-USCENSUS"
"7/12/2022 12:00:00 AM","Vermillion County","Indiana","Midwest","East North Central","18165","39.854045","-87.462071 ","4330","78","0","0","7/11/2022 12:00:00 AM","2019","15498","NYTIMES-USCENSUS"
"7/12/2022 12:00:00 AM","Vermilion Parish","Louisiana","South","West South Central","22113","29.789722","-92.291568 ","16317","226","58","0","7/11/2022 12:00:00 AM","2019","59511","NYTIMES-USCENSUS"
"7/12/2022 12:00:00 AM","Vermilion County","Illinois","Midwest","East North Central","17183","40.186754","-87.726778 ","30115","314","60","0","7/11/2022 12:00:00 AM","2019","75758","NYTIMES-USCENSUS"
"7/12/2022 12:00:00 AM","Ventura County","California","West","Pacific","06111","34.358748","-119.133145 ","205261","1518","1461","0","7/11/2022 12:00:00 AM","2019","846006","NYTIMES-USCENSUS"
"7/12/2022 12:00:00 AM","Venango County","Pennsylvania","Northeast","Middle Atlantic","42121","41.400714","-79.765813 ","11911","247","0","0","7/11/2022 12:00:00 AM","2019","50668","NYTIMES-USCENSUS"
"7/12/2022 12:00:00 AM","Vanderburgh County","Indiana","Midwest","East North Central","18163","38.02007","-87.586166 ","60747","642","0","0","7/11/2022 12:00:00 AM","2019","181451","NYTIMES-USCENSUS"
"7/12/2022 12:00:00 AM","Vance County","North Carolina","South","South Atlantic","37181","36.365481","-78.405434 ","12796","125","0","0","7/11/2022 12:00:00 AM","2019","44535","NYTIMES-USCENSUS"
"7/12/2022 12:00:00 AM","Van Zandt County","Texas","South","West South Central","48467","32.558787","-95.836906 ","10772","284","15","0","7/11/2022 12:00:00 AM","2019","56590","NYTIMES-USCENSUS"
"7/12/2022 12:00:00 AM","Van Wert County","Ohio","Midwest","East North Central","39161","40.85552","-84.585775 ","6974","149","0","0","7/11/2022 12:00:00 AM","2019","28275","NYTIMES-USCENSUS"
"7/12/2022 12:00:00 AM","Van Buren County","Tennessee","South","East South Central","47175","35.699234","-85.458409 ","1889","48","0","0","7/11/2022 12:00:00 AM","2019","5872","NYTIMES-USCENSUS"
"7/12/2022 12:00:00 AM","Valley County","Idaho","West","Mountain","16085","44.85596","-115.618061 ","2819","16","0","0","7/11/2022 12:00:00 AM","2019","11392","NYTIMES-USCENSUS"
"7/12/2022 12:00:00 AM","Valencia County","New Mexico","West","Mountain","35061","34.71684","-106.806582 ","20885","286","19","0","7/11/2022 12:00:00 AM","2019","76688","NYTIMES-USCENSUS"
"7/12/2022 12:00:00 AM","Valdez-Cordova Census Area","Alaska","West","Pacific","02261","61.4","-144.5","3250","20","0","0","7/11/2022 12:00:00 AM","2019","9202","NYTIMES-USCENSUS"
"7/12/2022 12:00:00 AM","Val Verde County","Texas","South","West South Central","48465","29.875285","-101.143324 ","14776","304","2","0","7/11/2022 12:00:00 AM","2019","49025","NYTIMES-USCENSUS"
"7/12/2022 12:00:00 AM","Uvalde County","Texas","South","West South Central","48463","29.350308","-99.768427 ","10821","145","3","0","7/11/2022 12:00:00 AM","2019","26741","NYTIMES-USCENSUS"
"7/12/2022 12:00:00 AM","Utah County","Utah","West","Mountain","49049","40.120425","-111.668508 ","211057","810","0","0","7/11/2022 12:00:00 AM","2019","636235","NYTIMES-USCENSUS"
"7/12/2022 12:00:00 AM","Upson County","Georgia","South","South Atlantic","13293","32.881837","-84.292283 ","8088","239","0","0","7/11/2022 12:00:00 AM","2019","26320","NYTIMES-USCENSUS"
"7/12/2022 12:00:00 AM","Upshur County","Texas","South","West South Central","48459","32.735349","-94.941184 ","8117","186","13","0","7/11/2022 12:00:00 AM","2019","41753","NYTIMES-USCENSUS"
"7/12/2022 12:00:00 AM","Union Parish","Louisiana","South","West South Central","22111","32.829349","-92.37565 ","7341","135","28","0","7/11/2022 12:00:00 AM","2019","22108","NYTIMES-USCENSUS"
"7/12/2022 12:00:00 AM","Union County","Kentucky","South","East South Central","21225","37.658029","-87.95165 ","4483","57","0","0","7/11/2022 12:00:00 AM","2019","14381","NYTIMES-USCENSUS"
"7/12/2022 12:00:00 AM","Unicoi County","Tennessee","South","East South Central","47171","36.100129","-82.418218 ","5370","97","0","0","7/11/2022 12:00:00 AM","2019","17883","NYTIMES-USCENSUS"
"7/12/2022 12:00:00 AM","Umatilla County","Oregon","West","Pacific","41059","45.5912","-118.73388 ","23597","229","19","0","7/11/2022 12:00:00 AM","2019","77950","NYTIMES-USCENSUS"
"7/12/2022 12:00:00 AM","Ulster County","New York","Northeast","Middle Atlantic","36111","41.947212","-74.265458 ","36369","375","32","0","7/11/2022 12:00:00 AM","2019","177573","NYTIMES-USCENSUS"
"7/12/2022 12:00:00 AM","Uintah County","Utah","West","Mountain","49047","40.125887","-109.517748 ","8447","73","0","0","7/11/2022 12:00:00 AM","2019","35734","NYTIMES-USCENSUS"
"7/12/2022 12:00:00 AM","Uinta County","Wyoming","West","Mountain","56041","41.284726","-110.558947 ","5906","39","50","0","7/11/2022 12:00:00 AM","2019","20226","NYTIMES-USCENSUS"
"7/12/2022 12:00:00 AM","Tyrrell County","North Carolina","South","South Atlantic","37177","35.87042","-76.165345 ","1030","8","0","0","7/11/2022 12:00:00 AM","2019","4016","NYTIMES-USCENSUS"
"7/12/2022 12:00:00 AM","Summit County","Ohio","Midwest","East North Central","39153","41.121847","-81.534928 ","121977","1736","0","0","7/11/2022 12:00:00 AM","2019","541013","NYTIMES-USCENSUS"
"7/12/2022 12:00:00 AM","Summers County","West Virginia","South","South Atlantic","54089","37.655999","-80.856325 ","3042","55","8","0","7/11/2022 12:00:00 AM","2019","12573","NYTIMES-USCENSUS"
"7/12/2022 12:00:00 AM","Sully County","South Dakota","Midwest","West North Central","46119","44.722325","-100.131399 ","249","3","0","0","7/11/2022 12:00:00 AM","2019","1391","NYTIMES-USCENSUS"
"7/12/2022 12:00:00 AM","Sullivan County","Indiana","Midwest","East North Central","18153","39.089225","-87.415843 ","5472","77","0","0","7/11/2022 12:00:00 AM","2019","20669","NYTIMES-USCENSUS"
"7/12/2022 12:00:00 AM","Suffolk County","Massachusetts","Northeast","New England","25025","42.338551","-71.018253 ","239792","2050","0","0","7/11/2022 12:00:00 AM","2019","803907","NYTIMES-USCENSUS"
"7/12/2022 12:00:00 AM","Montgomery County","Georgia","South","South Atlantic","13209","32.172108","-82.533349 ","2123","53","0","0","7/11/2022 12:00:00 AM","2019","9172","NYTIMES-USCENSUS"
"7/12/2022 12:00:00 AM","Montgomery County","Pennsylvania","Northeast","Middle Atlantic","42091","40.209999","-75.370201 ","170987","2380","0","0","7/11/2022 12:00:00 AM","2019","830915","NYTIMES-USCENSUS"
"7/12/2022 12:00:00 AM","Montgomery County","Ohio","Midwest","East North Central","39113","39.753736","-84.290591 ","134819","2032","0","0","7/11/2022 12:00:00 AM","2019","531687","NYTIMES-USCENSUS"
"7/12/2022 12:00:00 AM","Montgomery County","Virginia","South","South Atlantic","51121","37.175538","-80.387794 ","20914","157","30","0","7/11/2022 12:00:00 AM","2019","98535","NYTIMES-USCENSUS"
"7/12/2022 12:00:00 AM","Mason County","Washington","West","Pacific","53045","47.350832","-123.173103 ","13662","145","0","0","7/11/2022 12:00:00 AM","2019","66768","NYTIMES-USCENSUS"
"7/12/2022 12:00:00 AM","Mason County","Kentucky","South","East South Central","21161","38.594137","-83.828125 ","5309","108","0","0","7/11/2022 12:00:00 AM","2019","17070","NYTIMES-USCENSUS"
"7/12/2022 12:00:00 AM","Mason County","Michigan","Midwest","East North Central","26105","43.957196","-86.442937 ","7244","96","58","0","7/11/2022 12:00:00 AM","2019","29144","NYTIMES-USCENSUS"
"7/12/2022 12:00:00 AM","Mason County","Illinois","Midwest","East North Central","17125","40.236993","-89.913575 ","4237","63","4","0","7/11/2022 12:00:00 AM","2019","13359","NYTIMES-USCENSUS"
"7/12/2022 12:00:00 AM","Mason County","Texas","South","West South Central","48319","30.703916","-99.237302 ","832","12","7","0","7/11/2022 12:00:00 AM","2019","4274","NYTIMES-USCENSUS"
"7/12/2022 12:00:00 AM","Martin County","North Carolina","South","South Atlantic","37117","35.847301","-77.119602 ","6499","95","0","0","7/11/2022 12:00:00 AM","2019","22440","NYTIMES-USCENSUS"
"7/12/2022 12:00:00 AM","Martin County","Florida","South","South Atlantic","12085","27.083604","-80.398201 ","33795","637","0","0","7/11/2022 12:00:00 AM","2019","161000","NYTIMES-USCENSUS"
"7/12/2022 12:00:00 AM","Martin County","Minnesota","Midwest","West North Central","27091","43.677173","-94.547096 ","5884","65","0","0","7/11/2022 12:00:00 AM","2019","19683","NYTIMES-USCENSUS"
"7/12/2022 12:00:00 AM","Martin County","Indiana","Midwest","East North Central","18101","38.705322","-86.801847 ","2232","25","0","0","7/11/2022 12:00:00 AM","2019","10255","NYTIMES-USCENSUS"
"7/12/2022 12:00:00 AM","Martin County","Texas","South","West South Central","48317","32.30983","-101.961836 ","1256","26","2","0","7/11/2022 12:00:00 AM","2019","5771","NYTIMES-USCENSUS"
"7/12/2022 12:00:00 AM","Marshall County","Illinois","Midwest","East North Central","17123","41.031119","-89.342371 ","3026","33","10","0","7/11/2022 12:00:00 AM","2019","11438","NYTIMES-USCENSUS"
"7/12/2022 12:00:00 AM","Marshall County","Mississippi","South","East South Central","28093","34.76619","-89.504231 ","10465","176","0","0","7/11/2022 12:00:00 AM","2019","35294","NYTIMES-USCENSUS"
"7/12/2022 12:00:00 AM","Marshall County","South Dakota","Midwest","West North Central","46091","45.737044","-97.58087 ","808","13","0","0","7/11/2022 12:00:00 AM","2019","4935","NYTIMES-USCENSUS"
"7/12/2022 12:00:00 AM","Marshall County","Tennessee","South","East South Central","47117","35.468343","-86.765865 ","10718","125","0","0","7/11/2022 12:00:00 AM","2019","34375","NYTIMES-USCENSUS"
"7/12/2022 12:00:00 AM","Marshall County","Indiana","Midwest","East North Central","18099","41.325003","-86.269036 ","12728","197","0","0","7/11/2022 12:00:00 AM","2019","46258","NYTIMES-USCENSUS"
"7/12/2022 12:00:00 AM","Marshall County","West Virginia","South","South Atlantic","54051","39.854426","-80.671794 ","9664","156","11","0","7/11/2022 12:00:00 AM","2019","30531","NYTIMES-USCENSUS"
"7/12/2022 12:00:00 AM","Marshall County","Alabama","South","East South Central","01095","34.309564","-86.321668 ","28372","396","49","1","7/11/2022 12:00:00 AM","2019","96774","NYTIMES-USCENSUS"
"7/12/2022 12:00:00 AM","Marshall County","Minnesota","Midwest","West North Central","27089","48.362728","-96.357761 ","2166","24","0","0","7/11/2022 12:00:00 AM","2019","9336","NYTIMES-USCENSUS"
"7/12/2022 12:00:00 AM","Marshall County","Oklahoma","South","West South Central","40095","34.027007","-96.770533 ","4727","46","0","0","7/11/2022 12:00:00 AM","2019","16931","NYTIMES-USCENSUS"
"7/12/2022 12:00:00 AM","Marshall County","Kentucky","South","East South Central","21157","36.882017","-88.332752 ","8807","117","0","0","7/11/2022 12:00:00 AM","2019","31100","NYTIMES-USCENSUS"
"7/12/2022 12:00:00 AM","Marquette County","Michigan","Midwest","East North Central","26103","46.656596","-87.584028 ","17450","140","120","1","7/11/2022 12:00:00 AM","2019","66699","NYTIMES-USCENSUS"
"7/12/2022 12:00:00 AM","Marion County","Illinois","Midwest","East North Central","17121","38.648236","-88.920362 ","12536","217","28","0","7/11/2022 12:00:00 AM","2019","37205","NYTIMES-USCENSUS"
"7/12/2022 12:00:00 AM","Marion County","Ohio","Midwest","East North Central","39101","40.588034","-83.168803 ","20944","272","0","0","7/11/2022 12:00:00 AM","2019","65093","NYTIMES-USCENSUS"
"7/12/2022 12:00:00 AM","Marion County","Tennessee","South","East South Central","47115","35.133422","-85.618399 ","9147","132","0","0","7/11/2022 12:00:00 AM","2019","28907","NYTIMES-USCENSUS"
"7/12/2022 12:00:00 AM","Marion County","Alabama","South","East South Central","01093","34.138219","-87.881551 ","8560","153","19","0","7/11/2022 12:00:00 AM","2019","29709","NYTIMES-USCENSUS"
"7/12/2022 12:00:00 AM","Marion County","Georgia","South","South Atlantic","13197","32.359312","-84.528735 ","1564","51","0","0","7/11/2022 12:00:00 AM","2019","8359","NYTIMES-USCENSUS"
"7/12/2022 12:00:00 AM","Marion County","Texas","South","West South Central","48315","32.798182","-94.356853 ","1744","60","2","0","7/11/2022 12:00:00 AM","2019","9854","NYTIMES-USCENSUS"
"7/12/2022 12:00:00 AM","Marion County","Mississippi","South","East South Central","28091","31.230167","-89.821712 ","7368","136","0","0","7/11/2022 12:00:00 AM","2019","24573","NYTIMES-USCENSUS"
"7/12/2022 12:00:00 AM","Marion County","Indiana","Midwest","East North Central","18097","39.782976","-86.135794 ","237840","3021","0","0","7/11/2022 12:00:00 AM","2019","964582","NYTIMES-USCENSUS"
"7/12/2022 12:00:00 AM","Marion County","Kentucky","South","East South Central","21155","37.552604","-85.268959 ","6765","86","0","0","7/11/2022 12:00:00 AM","2019","19273","NYTIMES-USCENSUS"
"7/12/2022 12:00:00 AM","Marion County","Arkansas","South","West South Central","05089","36.266664","-92.678577 ","3582","89","4","0","7/11/2022 12:00:00 AM","2019","16694","NYTIMES-USCENSUS"
"7/12/2022 12:00:00 AM","Marion County","South Carolina","South","South Atlantic","45067","34.08362","-79.354001 ","9256","165","102","0","7/11/2022 12:00:00 AM","2019","30657","NYTIMES-USCENSUS"
"7/12/2022 12:00:00 AM","Marion County","Oregon","West","Pacific","41047","44.900898","-122.57626 ","77275","744","119","0","7/11/2022 12:00:00 AM","2019","347818","NYTIMES-USCENSUS"
"7/12/2022 12:00:00 AM","Marion County","Missouri","Midwest","West North Central","29127","39.807538","-91.635379 ","8391","124","0","0","7/11/2022 12:00:00 AM","2019","28530","NYTIMES-USCENSUS"
"7/12/2022 12:00:00 AM","Marion County","Kansas","Midwest","West North Central","20115","38.359647","-97.102771 ","3433","46","0","0","7/11/2022 12:00:00 AM","2019","11884","NYTIMES-USCENSUS"
"7/12/2022 12:00:00 AM","Marion County","Florida","South","South Atlantic","12083","29.202805","-82.0431 ","89459","2149","0","0","7/11/2022 12:00:00 AM","2019","365579","NYTIMES-USCENSUS"
"7/12/2022 12:00:00 AM","Marion County","West Virginia","South","South Atlantic","54049","39.505839","-80.243402 ","16630","181","26","0","7/11/2022 12:00:00 AM","2019","56072","NYTIMES-USCENSUS"
"7/12/2022 12:00:00 AM","Kiowa County","Kansas","Midwest","West North Central","20097","37.561231","-99.286539 ","691","7","0","0","7/11/2022 12:00:00 AM","2019","2475","NYTIMES-USCENSUS"
"7/12/2022 12:00:00 AM","Kiowa County","Oklahoma","South","West South Central","40075","34.921489","-98.981617 ","1996","54","0","0","7/11/2022 12:00:00 AM","2019","8708","NYTIMES-USCENSUS"
"7/12/2022 12:00:00 AM","Otsego County","New York","Northeast","Middle Atlantic","36077","42.629776","-75.028841 ","11452","94","8","0","7/11/2022 12:00:00 AM","2019","59493","NYTIMES-USCENSUS"
"7/12/2022 12:00:00 AM","Otero County","Colorado","West","Mountain","08089","37.88417","-103.72126 ","4629","131","5","1","7/11/2022 12:00:00 AM","2019","18278","NYTIMES-USCENSUS"
"7/12/2022 12:00:00 AM","Osceola County","Michigan","Midwest","East North Central","26133","43.997552","-85.322283 ","5346","83","20","0","7/11/2022 12:00:00 AM","2019","23460","NYTIMES-USCENSUS"
"7/12/2022 12:00:00 AM","Osceola County","Iowa","Midwest","West North Central","19143","43.378542","-95.633788 ","1416","22","0","0","7/11/2022 12:00:00 AM","2019","5958","NYTIMES-USCENSUS"
"7/12/2022 12:00:00 AM","Osage County","Kansas","Midwest","West North Central","20139","38.650215","-95.708255 ","4092","61","0","0","7/11/2022 12:00:00 AM","2019","15949","NYTIMES-USCENSUS"
"7/12/2022 12:00:00 AM","Osage County","Missouri","Midwest","West North Central","29151","38.464253","-91.859504 ","3327","46","0","0","7/11/2022 12:00:00 AM","2019","13615","NYTIMES-USCENSUS"
"7/12/2022 12:00:00 AM","Orleans County","Vermont","Northeast","New England","50019","44.828442","-72.25163 ","6907","38","0","0","7/11/2022 12:00:00 AM","2019","27037","NYTIMES-USCENSUS"
"7/12/2022 12:00:00 AM","Orange County","Indiana","Midwest","East North Central","18117","38.547381","-86.489257 ","5263","99","0","0","7/11/2022 12:00:00 AM","2019","19646","NYTIMES-USCENSUS"
"7/12/2022 12:00:00 AM","Orange County","Florida","South","South Atlantic","12095","28.514391","-81.323284 ","417572","2898","0","0","7/11/2022 12:00:00 AM","2019","1393452","NYTIMES-USCENSUS"
"7/12/2022 12:00:00 AM","Orange County","Virginia","South","South Atlantic","51137","38.249326","-78.011092 ","7478","90","4","0","7/11/2022 12:00:00 AM","2019","37051","NYTIMES-USCENSUS"
"7/12/2022 12:00:00 AM","Orange County","North Carolina","South","South Atlantic","37135","36.062526","-79.120034 ","31965","137","0","0","7/11/2022 12:00:00 AM","2019","148476","NYTIMES-USCENSUS"
"7/12/2022 12:00:00 AM","Orange County","Texas","South","West South Central","48361","30.122323","-93.8941 ","15497","360","12","0","7/11/2022 12:00:00 AM","2019","83396","NYTIMES-USCENSUS"
"7/12/2022 12:00:00 AM","Orange County","California","West","Pacific","06059","33.675687","-117.777207 ","668092","7155","5303","10","7/11/2022 12:00:00 AM","2019","3175692","NYTIMES-USCENSUS"
"7/12/2022 12:00:00 AM","Orange County","Vermont","Northeast","New England","50017","44.003349","-72.369464 ","4650","14","0","0","7/11/2022 12:00:00 AM","2019","28892","NYTIMES-USCENSUS"
"7/12/2022 12:00:00 AM","Murray County","Oklahoma","South","West South Central","40099","34.485766","-97.071557 ","4315","78","0","0","7/11/2022 12:00:00 AM","2019","14073","NYTIMES-USCENSUS"
"7/12/2022 12:00:00 AM","Murray County","Minnesota","Midwest","West North Central","27101","44.015594","-95.761581 ","2121","19","0","0","7/11/2022 12:00:00 AM","2019","8194","NYTIMES-USCENSUS"
"7/12/2022 12:00:00 AM","Morton County","Kansas","Midwest","West North Central","20129","37.185249","-101.809516 ","639","12","0","0","7/11/2022 12:00:00 AM","2019","2587","NYTIMES-USCENSUS"
"7/12/2022 12:00:00 AM","Morrow County","Oregon","West","Pacific","41049","45.425496","-119.602311 ","3111","34","1","0","7/11/2022 12:00:00 AM","2019","11603","NYTIMES-USCENSUS"
"7/12/2022 12:00:00 AM","Morris County","Kansas","Midwest","West North Central","20127","38.688204","-96.651448 ","1549","30","0","0","7/11/2022 12:00:00 AM","2019","5620","NYTIMES-USCENSUS"
"7/12/2022 12:00:00 AM","Morris County","New Jersey","Northeast","Middle Atlantic","34027","40.858896","-74.547292 ","139130","1581","290","1","7/11/2022 12:00:00 AM","2019","491845","NYTIMES-USCENSUS"
"7/12/2022 12:00:00 AM","Morgan County","Tennessee","South","East South Central","47129","36.138697","-84.639262 ","6343","87","0","0","7/11/2022 12:00:00 AM","2019","21403","NYTIMES-USCENSUS"
"7/12/2022 12:00:00 AM","Morgan County","Kentucky","South","East South Central","21175","37.92294","-83.258944 ","5565","33","0","0","7/11/2022 12:00:00 AM","2019","13309","NYTIMES-USCENSUS"
"7/12/2022 12:00:00 AM","Morgan County","Alabama","South","East South Central","01103","34.454484","-86.846402 ","38164","519","144","0","7/11/2022 12:00:00 AM","2019","119679","NYTIMES-USCENSUS"
"7/12/2022 12:00:00 AM","Morgan County","Illinois","Midwest","East North Central","17137","39.717668","-90.205005 ","10453","146","22","0","7/11/2022 12:00:00 AM","2019","33658","NYTIMES-USCENSUS"
"7/12/2022 12:00:00 AM","Morgan County","Utah","West","Mountain","49029","41.091027","-111.577885 ","3016","15","0","0","7/11/2022 12:00:00 AM","2019","12124","NYTIMES-USCENSUS"
"7/12/2022 12:00:00 AM","Morgan County","Ohio","Midwest","East North Central","39115","39.624946","-81.861697 ","3488","61","0","0","7/11/2022 12:00:00 AM","2019","14508","NYTIMES-USCENSUS"
"7/12/2022 12:00:00 AM","Morgan County","Georgia","South","South Atlantic","13211","33.598696","-83.499435 ","4853","70","0","0","7/11/2022 12:00:00 AM","2019","19276","NYTIMES-USCENSUS"
"7/12/2022 12:00:00 AM","Morgan County","Colorado","West","Mountain","08087","40.263159","-103.81221 ","6075","138","15","0","7/11/2022 12:00:00 AM","2019","29068","NYTIMES-USCENSUS"
"7/12/2022 12:00:00 AM","Morgan County","Indiana","Midwest","East North Central","18109","39.482646","-86.447457 ","17304","290","0","0","7/11/2022 12:00:00 AM","2019","70489","NYTIMES-USCENSUS"
"7/12/2022 12:00:00 AM","Morgan County","Missouri","Midwest","West North Central","29141","38.420806","-92.874835 ","4204","115","0","0","7/11/2022 12:00:00 AM","2019","20627","NYTIMES-USCENSUS"
"7/12/2022 12:00:00 AM","Moore County","North Carolina","South","South Atlantic","37125","35.308272","-79.492725 ","26247","331","0","0","7/11/2022 12:00:00 AM","2019","100880","NYTIMES-USCENSUS"
"7/12/2022 12:00:00 AM","Moore County","Texas","South","West South Central","48341","35.835676","-101.890502 ","5865","111","0","0","7/11/2022 12:00:00 AM","2019","20940","NYTIMES-USCENSUS"
"7/12/2022 12:00:00 AM","Montgomery County","New York","Northeast","Middle Atlantic","36057","42.900891","-74.435357 ","13144","209","6","0","7/11/2022 12:00:00 AM","2019","49221","NYTIMES-USCENSUS"
"7/12/2022 12:00:00 AM","Montgomery County","Kentucky","South","East South Central","21173","38.038109","-83.912416 ","9380","110","0","0","7/11/2022 12:00:00 AM","2019","28157","NYTIMES-USCENSUS"
"7/12/2022 12:00:00 AM","Montgomery County","Iowa","Midwest","West North Central","19137","41.021735","-95.15779 ","2274","56","0","0","7/11/2022 12:00:00 AM","2019","9917","NYTIMES-USCENSUS"
"7/12/2022 12:00:00 AM","Montgomery County","Tennessee","South","East South Central","47125","36.500354","-87.380887 ","52692","589","0","0","7/11/2022 12:00:00 AM","2019","208993","NYTIMES-USCENSUS"
"7/12/2022 12:00:00 AM","Montgomery County","Maryland","South","South Atlantic","24031","39.137381","-77.203063 ","203356","2097","1021","2","7/11/2022 12:00:00 AM","2019","1050688","NYTIMES-USCENSUS"
"7/12/2022 12:00:00 AM","Montgomery County","Mississippi","South","East South Central","28097","33.500714","-89.639625 ","3120","79","0","0","7/11/2022 12:00:00 AM","2019","9775","NYTIMES-USCENSUS"
"7/12/2022 12:00:00 AM","Montgomery County","Arkansas","South","West South Central","05097","34.545656","-93.664153 ","1595","56","5","0","7/11/2022 12:00:00 AM","2019","8986","NYTIMES-USCENSUS"
"7/12/2022 12:00:00 AM","Montgomery County","Missouri","Midwest","West North Central","29139","38.935184","-91.465427 ","2637","58","0","0","7/11/2022 12:00:00 AM","2019","11551","NYTIMES-USCENSUS"
"7/12/2022 12:00:00 AM","Montgomery County","Alabama","South","East South Central","01101","32.202881","-86.204461 ","60211","959","279","0","7/11/2022 12:00:00 AM","2019","226486","NYTIMES-USCENSUS"
"7/12/2022 12:00:00 AM","Montgomery County","Texas","South","West South Central","48339","30.298801","-95.50295 ","152708","1303","211","0","7/11/2022 12:00:00 AM","2019","607391","NYTIMES-USCENSUS"
"7/12/2022 12:00:00 AM","Montgomery County","Kansas","Midwest","West North Central","20125","37.189537","-95.742403 ","9686","166","0","0","7/11/2022 12:00:00 AM","2019","31829","NYTIMES-USCENSUS"
"7/12/2022 12:00:00 AM","Montgomery County","Indiana","Midwest","East North Central","18107","40.040296","-86.892715 ","11086","165","0","0","7/11/2022 12:00:00 AM","2019","38338","NYTIMES-USCENSUS"
"7/12/2022 12:00:00 AM","Montgomery County","Illinois","Midwest","East North Central","17135","39.228068","-89.478141 ","10348","111","13","0","7/11/2022 12:00:00 AM","2019","28414","NYTIMES-USCENSUS"
"7/12/2022 12:00:00 AM","Gallatin County","Illinois","Midwest","East North Central","17059","37.768677","-88.227964 ","1505","19","6","0","7/11/2022 12:00:00 AM","2019","4828","NYTIMES-USCENSUS"
"7/12/2022 12:00:00 AM","Gallatin County","Kentucky","South","East South Central","21077","38.755663","-84.865143 ","2289","52","0","0","7/11/2022 12:00:00 AM","2019","8869","NYTIMES-USCENSUS"
"7/12/2022 12:00:00 AM","Fulton County","Arkansas","South","West South Central","05049","36.381322","-91.819285 ","2792","94","3","0","7/11/2022 12:00:00 AM","2019","12477","NYTIMES-USCENSUS"
"7/12/2022 12:00:00 AM","Fulton County","Pennsylvania","Northeast","Middle Atlantic","42057","39.91075","-78.122617 ","4286","66","0","0","7/11/2022 12:00:00 AM","2019","14530","NYTIMES-USCENSUS"
"7/12/2022 12:00:00 AM","Fulton County","Ohio","Midwest","East North Central","39051","41.597264","-84.124267 ","10834","181","0","0","7/11/2022 12:00:00 AM","2019","42126","NYTIMES-USCENSUS"
"7/12/2022 12:00:00 AM","Fulton County","Indiana","Midwest","East North Central","18049","41.050384","-86.265006 ","5053","103","0","0","7/11/2022 12:00:00 AM","2019","19974","NYTIMES-USCENSUS"
"7/12/2022 12:00:00 AM","Fulton County","Kentucky","South","East South Central","21075","36.552511","-89.187659 ","1275","33","0","0","7/11/2022 12:00:00 AM","2019","5969","NYTIMES-USCENSUS"
"7/12/2022 12:00:00 AM","Fulton County","Georgia","South","South Atlantic","13121","33.790034","-84.468182 ","240444","2392","0","0","7/11/2022 12:00:00 AM","2019","1063937","NYTIMES-USCENSUS"
"7/12/2022 12:00:00 AM","Fulton County","Illinois","Midwest","East North Central","17057","40.46524","-90.202269 ","11073","139","9","0","7/11/2022 12:00:00 AM","2019","34340","NYTIMES-USCENSUS"
"7/12/2022 12:00:00 AM","Fremont County","Idaho","West","Mountain","16043","44.218091","-111.484429 ","2252","28","0","0","7/11/2022 12:00:00 AM","2019","13099","NYTIMES-USCENSUS"
"7/12/2022 12:00:00 AM","Fremont County","Iowa","Midwest","West North Central","19071","40.74259","-95.599182 ","1433","26","0","0","7/11/2022 12:00:00 AM","2019","6960","NYTIMES-USCENSUS"
"7/12/2022 12:00:00 AM","Fremont County","Colorado","West","Mountain","08043","38.45517","-105.424958 ","16530","191","17","1","7/11/2022 12:00:00 AM","2019","47839","NYTIMES-USCENSUS"
"7/12/2022 12:00:00 AM","Frederick County","Maryland","South","South Atlantic","24021","39.470177","-77.397636 ","50506","535","127","0","7/11/2022 12:00:00 AM","2019","259547","NYTIMES-USCENSUS"
"7/12/2022 12:00:00 AM","Franklin County","Iowa","Midwest","West North Central","19069","42.736545","-93.271415 ","2607","43","0","0","7/11/2022 12:00:00 AM","2019","10070","NYTIMES-USCENSUS"
"7/12/2022 12:00:00 AM","Franklin County","Nebraska","Midwest","West North Central","31061","40.183203","-98.96208 ","429","13","0","0","7/11/2022 12:00:00 AM","2019","2979","NYTIMES-USCENSUS"
"7/12/2022 12:00:00 AM","Franklin County","Mississippi","South","East South Central","28037","31.477773","-90.895457 ","2022","38","0","0","7/11/2022 12:00:00 AM","2019","7713","NYTIMES-USCENSUS"
"7/12/2022 12:00:00 AM","Franklin County","Indiana","Midwest","East North Central","18047","39.409762","-85.066964 ","4495","67","0","0","7/11/2022 12:00:00 AM","2019","22758","NYTIMES-USCENSUS"
"7/12/2022 12:00:00 AM","Franklin County","Kansas","Midwest","West North Central","20059","38.558019","-95.278962 ","7227","93","0","0","7/11/2022 12:00:00 AM","2019","25544","NYTIMES-USCENSUS"
"7/12/2022 12:00:00 AM","Franklin County","Kentucky","South","East South Central","21073","38.234919","-84.868786 ","14984","159","0","0","7/11/2022 12:00:00 AM","2019","50991","NYTIMES-USCENSUS"
"7/12/2022 12:00:00 AM","Franklin County","Idaho","West","Mountain","16041","42.173609","-111.822965 ","2418","29","0","0","7/11/2022 12:00:00 AM","2019","13876","NYTIMES-USCENSUS"
"7/12/2022 12:00:00 AM","Franklin County","Georgia","South","South Atlantic","13119","34.375266","-83.227532 ","5541","104","0","0","7/11/2022 12:00:00 AM","2019","23349","NYTIMES-USCENSUS"
"7/12/2022 12:00:00 AM","Franklin County","Virginia","South","South Atlantic","51067","36.991186","-79.882715 ","11832","200","16","0","7/11/2022 12:00:00 AM","2019","56042","NYTIMES-USCENSUS"
"7/12/2022 12:00:00 AM","Franklin County","Massachusetts","Northeast","New England","25011","42.584504","-72.591792 ","12365","151","0","0","7/11/2022 12:00:00 AM","2019","70180","NYTIMES-USCENSUS"
"7/12/2022 12:00:00 AM","Franklin County","New York","Northeast","Middle Atlantic","36033","44.594376","-74.31067 ","10543","48","4","1","7/11/2022 12:00:00 AM","2019","50022","NYTIMES-USCENSUS"
"7/12/2022 12:00:00 AM","Franklin County","Texas","South","West South Central","48159","33.175846","-95.219066 ","2290","44","2","0","7/11/2022 12:00:00 AM","2019","10725","NYTIMES-USCENSUS"
"7/12/2022 12:00:00 AM","Franklin County","Florida","South","South Atlantic","12037","29.677794","-84.815213 ","3193","53","0","0","7/11/2022 12:00:00 AM","2019","12125","NYTIMES-USCENSUS"
"7/12/2022 12:00:00 AM","Franklin County","Alabama","South","East South Central","01059","34.441989","-87.842814 ","10187","140","10","0","7/11/2022 12:00:00 AM","2019","31362","NYTIMES-USCENSUS"
"7/12/2022 12:00:00 AM","Franklin County","Arkansas","South","West South Central","05047","35.508558","-93.887665 ","3957","73","13","0","7/11/2022 12:00:00 AM","2019","17715","NYTIMES-USCENSUS"
"7/12/2022 12:00:00 AM","Franklin County","Ohio","Midwest","East North Central","39049","39.969875","-83.009086 ","314556","2638","0","0","7/11/2022 12:00:00 AM","2019","1316756","NYTIMES-USCENSUS"
"7/12/2022 12:00:00 AM","Franklin County","Tennessee","South","East South Central","47051","35.155926","-86.099203 ","13313","187","0","0","7/11/2022 12:00:00 AM","2019","42208","NYTIMES-USCENSUS"
"7/12/2022 12:00:00 AM","Franklin County","Washington","West","Pacific","53021","46.537502","-118.903891 ","33856","216","0","0","7/11/2022 12:00:00 AM","2019","95222","NYTIMES-USCENSUS"
"7/12/2022 12:00:00 AM","Franklin County","Maine","Northeast","New England","23007","44.976724","-70.414935 ","6373","63","10","0","7/11/2022 12:00:00 AM","2019","30199","NYTIMES-USCENSUS"
"7/12/2022 12:00:00 AM","Franklin County","Pennsylvania","Northeast","Middle Atlantic","42055","39.926772","-77.724521 ","42735","708","0","0","7/11/2022 12:00:00 AM","2019","155027","NYTIMES-USCENSUS"
"7/12/2022 12:00:00 AM","Franklin County","Missouri","Midwest","West North Central","29071","38.413003","-91.072832 ","27282","379","0","0","7/11/2022 12:00:00 AM","2019","103967","NYTIMES-USCENSUS"
"7/12/2022 12:00:00 AM","Franklin County","North Carolina","South","South Atlantic","37069","36.088241","-78.28309 ","22486","82","0","0","7/11/2022 12:00:00 AM","2019","69685","NYTIMES-USCENSUS"
"7/12/2022 12:00:00 AM","Franklin County","Vermont","Northeast","New England","50011","44.858964","-72.909402 ","10629","68","0","0","7/11/2022 12:00:00 AM","2019","49402","NYTIMES-USCENSUS"
"7/12/2022 12:00:00 AM","Forsyth County","Georgia","South","South Atlantic","13117","34.225143","-84.127408 ","59617","410","0","0","7/11/2022 12:00:00 AM","2019","244252","NYTIMES-USCENSUS"
"7/12/2022 12:00:00 AM","Ford County","Kansas","Midwest","West North Central","20057","37.688416","-99.884748 ","10921","118","0","0","7/11/2022 12:00:00 AM","2019","33619","NYTIMES-USCENSUS"
"7/12/2022 12:00:00 AM","Floyd County","Iowa","Midwest","West North Central","19067","43.052741","-92.787367 ","3749","62","0","0","7/11/2022 12:00:00 AM","2019","15642","NYTIMES-USCENSUS"
"7/12/2022 12:00:00 AM","Floyd County","Texas","South","West South Central","48153","34.07373","-101.303274 ","2012","48","4","0","7/11/2022 12:00:00 AM","2019","5712","NYTIMES-USCENSUS"
"7/12/2022 12:00:00 AM","Floyd County","Virginia","South","South Atlantic","51063","36.931433","-80.350266 ","2762","49","6","0","7/11/2022 12:00:00 AM","2019","15749","NYTIMES-USCENSUS"
"7/12/2022 12:00:00 AM","Floyd County","Georgia","South","South Atlantic","13115","34.263692","-85.213685 ","28299","527","0","0","7/11/2022 12:00:00 AM","2019","98498","NYTIMES-USCENSUS"
"7/12/2022 12:00:00 AM","Floyd County","Indiana","Midwest","East North Central","18043","38.318081","-85.911847 ","20531","307","0","0","7/11/2022 12:00:00 AM","2019","78522","NYTIMES-USCENSUS"
"7/12/2022 12:00:00 AM","Dodge County","Minnesota","Midwest","West North Central","27039","44.020706","-92.869353 ","6121","22","0","0","7/11/2022 12:00:00 AM","2019","20934","NYTIMES-USCENSUS"
"7/12/2022 12:00:00 AM","King County","Washington","West","Pacific","53033","47.490552","-121.833977 ","476602","2933","0","0","7/11/2022 12:00:00 AM","2019","2252782","NYTIMES-USCENSUS"
"7/12/2022 12:00:00 AM","Kent County","Michigan","Midwest","East North Central","26081","43.032497","-85.547446 ","180090","1579","885","11","7/11/2022 12:00:00 AM","2019","656955","NYTIMES-USCENSUS"
"7/12/2022 12:00:00 AM","Kent County","Delaware","South","South Atlantic","10001","39.097088","-75.502982 ","55849","664","37","0","7/11/2022 12:00:00 AM","2019","180786","NYTIMES-USCENSUS"
"7/12/2022 12:00:00 AM","Kent County","Rhode Island","Northeast","New England","44003","41.675118","-71.580282 ","55169","519","0","0","7/11/2022 12:00:00 AM","2019","164292","NYTIMES-USCENSUS"
"7/12/2022 12:00:00 AM","Kent County","Maryland","South","South Atlantic","24029","39.241279","-76.125987 ","3381","70","10","0","7/11/2022 12:00:00 AM","2019","19422","NYTIMES-USCENSUS"
"7/12/2022 12:00:00 AM","Harrison County","Indiana","Midwest","East North Central","18061","38.186454","-86.103766 ","11444","140","0","0","7/11/2022 12:00:00 AM","2019","40515","NYTIMES-USCENSUS"
"7/12/2022 12:00:00 AM","Harrison County","Mississippi","South","East South Central","28047","30.416536","-89.083376 ","57321","669","0","0","7/11/2022 12:00:00 AM","2019","208080","NYTIMES-USCENSUS"
"7/12/2022 12:00:00 AM","Harrison County","West Virginia","South","South Atlantic","54033","39.279182","-80.386498 ","21828","259","42","0","7/11/2022 12:00:00 AM","2019","67256","NYTIMES-USCENSUS"
"7/12/2022 12:00:00 AM","Harrison County","Missouri","Midwest","West North Central","29081","40.34562","-93.992582 ","1963","35","0","0","7/11/2022 12:00:00 AM","2019","8352","NYTIMES-USCENSUS"
"7/12/2022 12:00:00 AM","Harrison County","Texas","South","West South Central","48203","32.547991","-94.374434 ","13959","227","24","0","7/11/2022 12:00:00 AM","2019","66553","NYTIMES-USCENSUS"
"7/12/2022 12:00:00 AM","Harrison County","Kentucky","South","East South Central","21097","38.444578","-84.334131 ","7028","79","0","0","7/11/2022 12:00:00 AM","2019","18886","NYTIMES-USCENSUS"
"7/12/2022 12:00:00 AM","Harrison County","Ohio","Midwest","East North Central","39067","40.292318","-81.091565 ","3418","74","0","0","7/11/2022 12:00:00 AM","2019","15040","NYTIMES-USCENSUS"
"7/12/2022 12:00:00 AM","Harris County","Texas","South","West South Central","48201","29.857273","-95.393037 ","1119966","11059","2162","4","7/11/2022 12:00:00 AM","2019","4713325","NYTIMES-USCENSUS"
"7/12/2022 12:00:00 AM","Harper County","Kansas","Midwest","West North Central","20077","37.188184","-98.06659 ","1691","28","0","0","7/11/2022 12:00:00 AM","2019","5436","NYTIMES-USCENSUS"
"7/12/2022 12:00:00 AM","Harlan County","Kentucky","South","East South Central","21095","36.859223","-83.221497 ","9586","216","0","0","7/11/2022 12:00:00 AM","2019","26010","NYTIMES-USCENSUS"
"7/12/2022 12:00:00 AM","Hardin County","Illinois","Midwest","East North Central","17069","37.517852","-88.266148 ","1109","20","4","0","7/11/2022 12:00:00 AM","2019","3821","NYTIMES-USCENSUS"
"7/12/2022 12:00:00 AM","Hardin County","Iowa","Midwest","West North Central","19083","42.390208","-93.241669 ","4313","63","0","0","7/11/2022 12:00:00 AM","2019","16846","NYTIMES-USCENSUS"
"7/12/2022 12:00:00 AM","Hardin County","Texas","South","West South Central","48199","30.329648","-94.393178 ","12465","251","13","0","7/11/2022 12:00:00 AM","2019","57602","NYTIMES-USCENSUS"
"7/12/2022 12:00:00 AM","Hardin County","Kentucky","South","East South Central","21093","37.695836","-85.963183 ","35358","448","0","0","7/11/2022 12:00:00 AM","2019","110958","NYTIMES-USCENSUS"
"7/12/2022 12:00:00 AM","Hardin County","Tennessee","South","East South Central","47071","35.201893","-88.185696 ","9180","154","0","0","7/11/2022 12:00:00 AM","2019","25652","NYTIMES-USCENSUS"
"7/12/2022 12:00:00 AM","Hardeman County","Texas","South","West South Central","48197","34.289904","-99.745697 ","567","19","1","0","7/11/2022 12:00:00 AM","2019","3933","NYTIMES-USCENSUS"
"7/12/2022 12:00:00 AM","Hancock County","Illinois","Midwest","East North Central","17067","40.401318","-91.168801 ","4656","58","10","0","7/11/2022 12:00:00 AM","2019","17708","NYTIMES-USCENSUS"
"7/12/2022 12:00:00 AM","Hancock County","Maine","Northeast","New England","23009","44.564906","-68.370703 ","8634","93","21","0","7/11/2022 12:00:00 AM","2019","54987","NYTIMES-USCENSUS"
"7/12/2022 12:00:00 AM","Hancock County","Indiana","Midwest","East North Central","18059","39.822529","-85.77315 ","21829","264","0","0","7/11/2022 12:00:00 AM","2019","78168","NYTIMES-USCENSUS"
"7/12/2022 12:00:00 AM","Hancock County","Tennessee","South","East South Central","47067","36.521353","-83.227493 ","2072","37","0","0","7/11/2022 12:00:00 AM","2019","6620","NYTIMES-USCENSUS"
"7/12/2022 12:00:00 AM","Hancock County","Mississippi","South","East South Central","28045","30.391641","-89.482791 ","13078","153","0","0","7/11/2022 12:00:00 AM","2019","47632","NYTIMES-USCENSUS"
"7/12/2022 12:00:00 AM","Hancock County","Ohio","Midwest","East North Central","39063","41.000217","-83.665947 ","17908","277","0","0","7/11/2022 12:00:00 AM","2019","75783","NYTIMES-USCENSUS"
"7/12/2022 12:00:00 AM","Hancock County","Iowa","Midwest","West North Central","19081","43.075411","-93.743697 ","2970","48","0","0","7/11/2022 12:00:00 AM","2019","10630","NYTIMES-USCENSUS"
"7/12/2022 12:00:00 AM","Hancock County","Kentucky","South","East South Central","21091","37.843325","-86.792761 ","2627","25","0","0","7/11/2022 12:00:00 AM","2019","8722","NYTIMES-USCENSUS"
"7/12/2022 12:00:00 AM","Hancock County","Georgia","South","South Atlantic","13141","33.26922","-83.000465 ","1647","90","0","0","7/11/2022 12:00:00 AM","2019","8457","NYTIMES-USCENSUS"
"7/12/2022 12:00:00 AM","Hampshire County","Massachusetts","Northeast","New England","25015","42.339459","-72.663694 ","33756","368","0","0","7/11/2022 12:00:00 AM","2019","160830","NYTIMES-USCENSUS"
"7/12/2022 12:00:00 AM","Hamilton County","New York","Northeast","Middle Atlantic","36041","43.657879","-74.502456 ","963","5","2","0","7/11/2022 12:00:00 AM","2019","4416","NYTIMES-USCENSUS"
"7/12/2022 12:00:00 AM","Hamilton County","Nebraska","Midwest","West North Central","31081","40.872817","-98.022329 ","2382","25","0","0","7/11/2022 12:00:00 AM","2019","9324","NYTIMES-USCENSUS"
"7/12/2022 12:00:00 AM","Hamilton County","Kansas","Midwest","West North Central","20075","37.995244","-101.793689 ","468","3","0","0","7/11/2022 12:00:00 AM","2019","2539","NYTIMES-USCENSUS"
"7/12/2022 12:00:00 AM","Hamilton County","Indiana","Midwest","East North Central","18057","40.053513","-86.021709 ","87852","675","0","0","7/11/2022 12:00:00 AM","2019","338011","NYTIMES-USCENSUS"
"7/12/2022 12:00:00 AM","Hamilton County","Tennessee","South","East South Central","47065","35.163472","-85.201843 ","106888","1180","196","0","7/11/2022 12:00:00 AM","2019","367804","NYTIMES-USCENSUS"
"7/12/2022 12:00:00 AM","Hamilton County","Illinois","Midwest","East North Central","17065","38.085227","-88.539009 ","2272","34","0","0","7/11/2022 12:00:00 AM","2019","8116","NYTIMES-USCENSUS"
"7/12/2022 12:00:00 AM","Hamilton County","Iowa","Midwest","West North Central","19079","42.390789","-93.70913 ","3586","73","0","0","7/11/2022 12:00:00 AM","2019","14773","NYTIMES-USCENSUS"
"7/12/2022 12:00:00 AM","Hamilton County","Florida","South","South Atlantic","12047","30.491187","-82.951071 ","3954","56","0","0","7/11/2022 12:00:00 AM","2019","14428","NYTIMES-USCENSUS"
"7/12/2022 12:00:00 AM","Hamilton County","Ohio","Midwest","East North Central","39061","39.196927","-84.544187 ","202477","2081","0","0","7/11/2022 12:00:00 AM","2019","817473","NYTIMES-USCENSUS"
"7/12/2022 12:00:00 AM","Hall County","Texas","South","West South Central","48191","34.453189","-100.576343 ","1133","24","0","0","7/11/2022 12:00:00 AM","2019","2964","NYTIMES-USCENSUS"
"7/12/2022 12:00:00 AM","Hall County","Georgia","South","South Atlantic","13139","34.317569","-83.8185 ","56635","858","0","0","7/11/2022 12:00:00 AM","2019","204441","NYTIMES-USCENSUS"
"7/12/2022 12:00:00 AM","Halifax County","North Carolina","South","South Atlantic","37083","36.251438","-77.644842 ","14987","188","0","0","7/11/2022 12:00:00 AM","2019","50010","NYTIMES-USCENSUS"
"7/12/2022 12:00:00 AM","Hale County","Alabama","South","East South Central","01065","32.752796","-87.623061 ","5047","106","12","0","7/11/2022 12:00:00 AM","2019","14651","NYTIMES-USCENSUS"
"7/12/2022 12:00:00 AM","Dickens County","Texas","South","West South Central","48125","33.615363","-100.787617 ","468","16","0","0","7/11/2022 12:00:00 AM","2019","2211","NYTIMES-USCENSUS"
"7/12/2022 12:00:00 AM","DeWitt County","Texas","South","West South Central","48123","29.082346","-97.361654 ","6721","100","7","0","7/11/2022 12:00:00 AM","2019","20160","NYTIMES-USCENSUS"
"7/12/2022 12:00:00 AM","Dewey County","Oklahoma","South","West South Central","40043","35.97796","-99.014385 ","1088","32","0","0","7/11/2022 12:00:00 AM","2019","4891","NYTIMES-USCENSUS"
"7/12/2022 12:00:00 AM","DeSoto County","Florida","South","South Atlantic","12027","27.190581","-81.806253 ","9935","152","0","0","7/11/2022 12:00:00 AM","2019","38001","NYTIMES-USCENSUS"
"7/12/2022 12:00:00 AM","Desha County","Arkansas","South","West South Central","05041","33.828752","-91.244103 ","3202","41","13","0","7/11/2022 12:00:00 AM","2019","11361","NYTIMES-USCENSUS"
"7/12/2022 12:00:00 AM","Deschutes County","Oregon","West","Pacific","41017","43.915118","-121.225575 ","53789","300","97","0","7/11/2022 12:00:00 AM","2019","197692","NYTIMES-USCENSUS"
"7/12/2022 12:00:00 AM","Des Moines County","Iowa","Midwest","West North Central","19057","40.915339","-91.186925 ","9586","142","0","0","7/11/2022 12:00:00 AM","2019","38967","NYTIMES-USCENSUS"
"7/12/2022 12:00:00 AM","Denver County","Colorado","West","Mountain","08031","39.76185","-104.881105 ","200055","1401","314","0","7/11/2022 12:00:00 AM","2019","727211","NYTIMES-USCENSUS"
"7/12/2022 12:00:00 AM","Denton County","Texas","South","West South Central","48121","33.205132","-97.12114 ","192340","1363","1330","1","7/11/2022 12:00:00 AM","2019","887207","NYTIMES-USCENSUS"
"7/12/2022 12:00:00 AM","Dent County","Missouri","Midwest","West North Central","29065","37.603072","-91.489717 ","3397","87","0","0","7/11/2022 12:00:00 AM","2019","15573","NYTIMES-USCENSUS"
"7/12/2022 12:00:00 AM","Delta County","Texas","South","West South Central","48119","33.385933","-95.67335 ","1874","25","0","0","7/11/2022 12:00:00 AM","2019","5331","NYTIMES-USCENSUS"
"7/12/2022 12:00:00 AM","Delaware County","New York","Northeast","Middle Atlantic","36025","42.193986","-74.966728 ","8823","79","8","0","7/11/2022 12:00:00 AM","2019","44135","NYTIMES-USCENSUS"
"7/12/2022 12:00:00 AM","Colonial Heights city","Virginia","South","South Atlantic","51570","37.261685","-77.396804 ","5363","101","11","0","7/11/2022 12:00:00 AM","2019","17370","NYTIMES-USCENSUS"
"7/12/2022 12:00:00 AM","Collingsworth County","Texas","South","West South Central","48087","34.963358","-100.272135 ","730","16","0","0","7/11/2022 12:00:00 AM","2019","2920","NYTIMES-USCENSUS"
"7/12/2022 12:00:00 AM","Collin County","Texas","South","West South Central","48085","33.194494","-96.579428 ","232963","1519","541","0","7/11/2022 12:00:00 AM","2019","1034730","NYTIMES-USCENSUS"
"7/12/2022 12:00:00 AM","Collier County","Florida","South","South Atlantic","12021","26.118786","-81.400955 ","91157","1021","0","0","7/11/2022 12:00:00 AM","2019","384902","NYTIMES-USCENSUS"
"7/12/2022 12:00:00 AM","Colleton County","South Carolina","South","South Atlantic","45029","32.835018","-80.655244 ","9440","222","74","0","7/11/2022 12:00:00 AM","2019","37677","NYTIMES-USCENSUS"
"7/12/2022 12:00:00 AM","Colfax County","Nebraska","Midwest","West North Central","31037","41.57496","-97.088945 ","2729","28","0","0","7/11/2022 12:00:00 AM","2019","10709","NYTIMES-USCENSUS"
"7/12/2022 12:00:00 AM","Coles County","Illinois","Midwest","East North Central","17029","39.51368","-88.220782 ","16207","176","26","0","7/11/2022 12:00:00 AM","2019","50621","NYTIMES-USCENSUS"
"7/12/2022 12:00:00 AM","Coleman County","Texas","South","West South Central","48083","31.914205","-99.346622 ","1690","71","0","0","7/11/2022 12:00:00 AM","2019","8175","NYTIMES-USCENSUS"
"7/12/2022 12:00:00 AM","Cole County","Missouri","Midwest","West North Central","29051","38.503233","-92.280027 ","21093","291","0","0","7/11/2022 12:00:00 AM","2019","76745","NYTIMES-USCENSUS"
"7/12/2022 12:00:00 AM","Colbert County","Alabama","South","East South Central","01033","34.703112","-87.801457 ","17329","263","52","1","7/11/2022 12:00:00 AM","2019","55241","NYTIMES-USCENSUS"
"7/12/2022 12:00:00 AM","Coke County","Texas","South","West South Central","48081","31.87711","-100.635231 ","923","20","3","0","7/11/2022 12:00:00 AM","2019","3387","NYTIMES-USCENSUS"
"7/12/2022 12:00:00 AM","Coffey County","Kansas","Midwest","West North Central","20031","38.23645","-95.729137 ","2488","45","0","0","7/11/2022 12:00:00 AM","2019","8179","NYTIMES-USCENSUS"
"7/12/2022 12:00:00 AM","Coffee County","Georgia","South","South Atlantic","13069","31.549245","-82.84494 ","10892","281","0","0","7/11/2022 12:00:00 AM","2019","43273","NYTIMES-USCENSUS"
"7/12/2022 12:00:00 AM","Codington County","South Dakota","Midwest","West North Central","46029","44.966285","-97.198837 ","8785","101","0","0","7/11/2022 12:00:00 AM","2019","28009","NYTIMES-USCENSUS"
"7/12/2022 12:00:00 AM","Coconino County","Arizona","West","Mountain","04005","35.829692","-111.773728 ","46865","480","0","0","7/11/2022 12:00:00 AM","2019","143476","NYTIMES-USCENSUS"
"7/12/2022 12:00:00 AM","Cocke County","Tennessee","South","East South Central","47029","35.916198","-83.119224 ","12024","224","0","0","7/11/2022 12:00:00 AM","2019","36004","NYTIMES-USCENSUS"
"7/12/2022 12:00:00 AM","Cochran County","Texas","South","West South Central","48079","33.60844","-102.830449 ","901","23","3","0","7/11/2022 12:00:00 AM","2019","2853","NYTIMES-USCENSUS"
"7/12/2022 12:00:00 AM","Cochise County","Arizona","West","Mountain","04003","31.840129","-109.775163 ","33589","578","0","0","7/11/2022 12:00:00 AM","2019","125922","NYTIMES-USCENSUS"
"7/12/2022 12:00:00 AM","Cobb County","Georgia","South","South Atlantic","13067","33.939929","-84.574121 ","189428","1875","0","0","7/11/2022 12:00:00 AM","2019","760141","NYTIMES-USCENSUS"
"7/12/2022 12:00:00 AM","Coal County","Oklahoma","South","West South Central","40029","34.582861","-96.288039 ","1720","24","0","0","7/11/2022 12:00:00 AM","2019","5495","NYTIMES-USCENSUS"
"7/12/2022 12:00:00 AM","Coahoma County","Mississippi","South","East South Central","28027","34.230316","-90.60401 ","6925","127","0","0","7/11/2022 12:00:00 AM","2019","22124","NYTIMES-USCENSUS"
"7/12/2022 12:00:00 AM","Cloud County","Kansas","Midwest","West North Central","20029","39.487329","-97.64139 ","2285","42","0","0","7/11/2022 12:00:00 AM","2019","8786","NYTIMES-USCENSUS"
"7/12/2022 12:00:00 AM","Clinton County","Pennsylvania","Northeast","Middle Atlantic","42035","41.239508","-77.629009 ","9633","130","0","0","7/11/2022 12:00:00 AM","2019","38632","NYTIMES-USCENSUS"
"7/12/2022 12:00:00 AM","Clinch County","Georgia","South","South Atlantic","13065","30.917653","-82.702614 ","2179","42","0","0","7/11/2022 12:00:00 AM","2019","6618","NYTIMES-USCENSUS"
"7/12/2022 12:00:00 AM","Cleveland County","Oklahoma","South","West South Central","40027","35.206376","-97.323088 ","83356","826","0","0","7/11/2022 12:00:00 AM","2019","284014","NYTIMES-USCENSUS"
"7/12/2022 12:00:00 AM","Clermont County","Ohio","Midwest","East North Central","39025","39.052054","-84.149485 ","54941","565","0","0","7/11/2022 12:00:00 AM","2019","206428","NYTIMES-USCENSUS"
"7/12/2022 12:00:00 AM","Cleburne County","Alabama","South","East South Central","01029","33.671964","-85.516126 ","3644","69","6","0","7/11/2022 12:00:00 AM","2019","14910","NYTIMES-USCENSUS"
"7/12/2022 12:00:00 AM","Clearwater County","Minnesota","Midwest","West North Central","27029","47.575873","-95.371117 ","2209","31","0","0","7/11/2022 12:00:00 AM","2019","8818","NYTIMES-USCENSUS"
"7/12/2022 12:00:00 AM","Clearfield County","Pennsylvania","Northeast","Middle Atlantic","42033","41.006862","-78.477724 ","20449","355","0","0","7/11/2022 12:00:00 AM","2019","79255","NYTIMES-USCENSUS"
"7/12/2022 12:00:00 AM","Hall County","Nebraska","Midwest","West North Central","31079","40.866027","-98.502664 ","17009","146","0","0","7/11/2022 12:00:00 AM","2019","61353","NYTIMES-USCENSUS"
"7/12/2022 12:00:00 AM","Halifax County","Virginia","South","South Atlantic","51083","36.766461","-78.939614 ","7978","165","5","0","7/11/2022 12:00:00 AM","2019","33911","NYTIMES-USCENSUS"
"7/12/2022 12:00:00 AM","Hale County","Texas","South","West South Central","48189","34.068436","-101.822888 ","6829","245","11","0","7/11/2022 12:00:00 AM","2019","33406","NYTIMES-USCENSUS"
"7/12/2022 12:00:00 AM","Gallia County","Ohio","Midwest","East North Central","39053","38.817046","-82.301746 ","8157","128","0","0","7/11/2022 12:00:00 AM","2019","29898","NYTIMES-USCENSUS"
"7/12/2022 12:00:00 AM","Gallatin County","Montana","West","Mountain","30031","45.518054","-111.163921 ","37659","123","75","0","7/11/2022 12:00:00 AM","2019","114434","NYTIMES-USCENSUS"
"7/12/2022 12:00:00 AM","Galax city","Virginia","South","South Atlantic","51640","36.66564","-80.914308 ","2798","79","17","0","7/11/2022 12:00:00 AM","2019","6347","NYTIMES-USCENSUS"
"7/12/2022 12:00:00 AM","Gaines County","Texas","South","West South Central","48165","32.743942","-102.631561 ","2235","83","0","0","7/11/2022 12:00:00 AM","2019","21492","NYTIMES-USCENSUS"
"7/12/2022 12:00:00 AM","Gage County","Nebraska","Midwest","West North Central","31067","40.255234","-96.683453 ","3656","45","0","0","7/11/2022 12:00:00 AM","2019","21513","NYTIMES-USCENSUS"
"7/12/2022 12:00:00 AM","Gadsden County","Florida","South","South Atlantic","12039","30.578687","-84.612607 ","14475","210","0","0","7/11/2022 12:00:00 AM","2019","45660","NYTIMES-USCENSUS"
"7/12/2022 12:00:00 AM","Furnas County","Nebraska","Midwest","West North Central","31065","40.191865","-99.909663 ","1162","8","0","0","7/11/2022 12:00:00 AM","2019","4676","NYTIMES-USCENSUS"
"7/12/2022 12:00:00 AM","Fulton County","New York","Northeast","Middle Atlantic","36035","43.115609","-74.423678 ","14170","173","4","0","7/11/2022 12:00:00 AM","2019","53383","NYTIMES-USCENSUS"
"7/12/2022 12:00:00 AM","Frontier County","Nebraska","Midwest","West North Central","31063","40.530947","-100.406683 ","556","3","0","0","7/11/2022 12:00:00 AM","2019","2627","NYTIMES-USCENSUS"
"7/12/2022 12:00:00 AM","Frio County","Texas","South","West South Central","48163","28.869383","-99.109005 ","6169","94","2","0","7/11/2022 12:00:00 AM","2019","20306","NYTIMES-USCENSUS"
"7/12/2022 12:00:00 AM","Fresno County","California","West","Pacific","06019","36.761006","-119.655019 ","279340","2786","2194","0","7/11/2022 12:00:00 AM","2019","999101","NYTIMES-USCENSUS"
"7/12/2022 12:00:00 AM","Fremont County","Wyoming","West","Mountain","56013","43.054831","-108.608935 ","14818","194","183","0","7/11/2022 12:00:00 AM","2019","39261","NYTIMES-USCENSUS"
"7/12/2022 12:00:00 AM","Freestone County","Texas","South","West South Central","48161","31.701749","-96.144957 ","3964","82","0","0","7/11/2022 12:00:00 AM","2019","19717","NYTIMES-USCENSUS"
"7/12/2022 12:00:00 AM","Freeborn County","Minnesota","Midwest","West North Central","27047","43.674202","-93.350289 ","9503","78","0","0","7/11/2022 12:00:00 AM","2019","30281","NYTIMES-USCENSUS"
"7/12/2022 12:00:00 AM","Fredericksburg city","Virginia","South","South Atlantic","51630","38.299272","-77.486658 ","5956","41","4","0","7/11/2022 12:00:00 AM","2019","29036","NYTIMES-USCENSUS"
"7/12/2022 12:00:00 AM","Frederick County","Virginia","South","South Atlantic","51069","39.20366","-78.263829 ","22391","253","45","0","7/11/2022 12:00:00 AM","2019","89313","NYTIMES-USCENSUS"
"7/12/2022 12:00:00 AM","Franklin Parish","Louisiana","South","West South Central","22041","32.139076","-91.672371 ","7671","178","30","0","7/11/2022 12:00:00 AM","2019","20015","NYTIMES-USCENSUS"
"7/12/2022 12:00:00 AM","Franklin County","Illinois","Midwest","East North Central","17055","37.991852","-88.926321 ","12925","180","27","0","7/11/2022 12:00:00 AM","2019","38469","NYTIMES-USCENSUS"
"7/12/2022 12:00:00 AM","Franklin city","Virginia","South","South Atlantic","51620","36.684014","-76.941396 ","2424","52","3","0","7/11/2022 12:00:00 AM","2019","7967","NYTIMES-USCENSUS"
"7/12/2022 12:00:00 AM","Fountain County","Indiana","Midwest","East North Central","18045","40.121237","-87.234872 ","5697","105","0","0","7/11/2022 12:00:00 AM","2019","16346","NYTIMES-USCENSUS"
"7/12/2022 12:00:00 AM","Foster County","North Dakota","Midwest","West North Central","38031","47.471431","-98.872876 ","1023","23","0","0","7/11/2022 12:00:00 AM","2019","3210","NYTIMES-USCENSUS"
"7/12/2022 12:00:00 AM","Fort Bend County","Texas","South","West South Central","48157","29.526602","-95.771015 ","212068","1271","489","0","7/11/2022 12:00:00 AM","2019","811688","NYTIMES-USCENSUS"
"7/12/2022 12:00:00 AM","Forsyth County","North Carolina","South","South Atlantic","37067","36.132466","-80.256961 ","101906","842","0","0","7/11/2022 12:00:00 AM","2019","382295","NYTIMES-USCENSUS"
"7/12/2022 12:00:00 AM","Forrest County","Mississippi","South","East South Central","28035","31.18858","-89.259447 ","23488","316","0","0","7/11/2022 12:00:00 AM","2019","74897","NYTIMES-USCENSUS"
"7/12/2022 12:00:00 AM","Forest County","Pennsylvania","Northeast","Middle Atlantic","42053","41.513304","-79.249705 ","2303","35","0","0","7/11/2022 12:00:00 AM","2019","7247","NYTIMES-USCENSUS"
"7/12/2022 12:00:00 AM","Ford County","Illinois","Midwest","East North Central","17053","40.596539","-88.224588 ","4758","77","6","0","7/11/2022 12:00:00 AM","2019","12961","NYTIMES-USCENSUS"
"7/12/2022 12:00:00 AM","Fond du Lac County","Wisconsin","Midwest","East North Central","55039","43.754722","-88.493284 ","34033","285","27","0","7/11/2022 12:00:00 AM","2019","103403","NYTIMES-USCENSUS"
"7/12/2022 12:00:00 AM","Fluvanna County","Virginia","South","South Atlantic","51065","37.830584","-78.283494 ","5776","47","13","0","7/11/2022 12:00:00 AM","2019","27270","NYTIMES-USCENSUS"
"7/12/2022 12:00:00 AM","Floyd County","Kentucky","South","East South Central","21071","37.552456","-82.739724 ","13138","222","0","0","7/11/2022 12:00:00 AM","2019","35589","NYTIMES-USCENSUS"
"7/12/2022 12:00:00 AM","Dodge County","Georgia","South","South Atlantic","13091","32.164369","-83.167866 ","5386","156","0","0","7/11/2022 12:00:00 AM","2019","20605","NYTIMES-USCENSUS"
"7/12/2022 12:00:00 AM","Dixon County","Nebraska","Midwest","West North Central","31051","42.485086","-96.855784 ","1237","11","0","0","7/11/2022 12:00:00 AM","2019","5636","NYTIMES-USCENSUS"
"7/12/2022 12:00:00 AM","Dixie County","Florida","South","South Atlantic","12029","29.552675","-83.236232 ","4237","71","0","0","7/11/2022 12:00:00 AM","2019","16826","NYTIMES-USCENSUS"
"7/12/2022 12:00:00 AM","Divide County","North Dakota","Midwest","West North Central","38023","48.814754","-103.509326 ","489","4","0","0","7/11/2022 12:00:00 AM","2019","2264","NYTIMES-USCENSUS"
"7/12/2022 12:00:00 AM","Dinwiddie County","Virginia","South","South Atlantic","51053","37.073498","-77.635492 ","5937","95","8","0","7/11/2022 12:00:00 AM","2019","28544","NYTIMES-USCENSUS"
"7/12/2022 12:00:00 AM","Dimmit County","Texas","South","West South Central","48127","28.423587","-99.765871 ","5936","51","8","0","7/11/2022 12:00:00 AM","2019","10124","NYTIMES-USCENSUS"
"7/12/2022 12:00:00 AM","Dillon County","South Carolina","South","South Atlantic","45033","34.390172","-79.374964 ","10260","145","71","0","7/11/2022 12:00:00 AM","2019","30479","NYTIMES-USCENSUS"
"7/12/2022 12:00:00 AM","Dillingham Census Area","Alaska","West","Pacific","02070","59.543326","-158.267123 ","2000","12","0","0","7/11/2022 12:00:00 AM","2019","4916","NYTIMES-USCENSUS"
"7/12/2022 12:00:00 AM","Dickson County","Tennessee","South","East South Central","47043","36.145533","-87.364155 ","16555","245","0","0","7/11/2022 12:00:00 AM","2019","53948","NYTIMES-USCENSUS"
"7/12/2022 12:00:00 AM","Dickinson County","Michigan","Midwest","East North Central","26043","46.012833","-87.866139 ","7833","113","48","0","7/11/2022 12:00:00 AM","2019","25239","NYTIMES-USCENSUS"
"7/12/2022 12:00:00 AM","Dickey County","North Dakota","Midwest","West North Central","38021","46.107756","-98.496518 ","1523","39","0","0","7/11/2022 12:00:00 AM","2019","4872","NYTIMES-USCENSUS"
"7/12/2022 12:00:00 AM","Blanco County","Texas","South","West South Central","48031","30.266456","-98.399217 ","2761","34","3","0","7/11/2022 12:00:00 AM","2019","11931","NYTIMES-USCENSUS"
"7/12/2022 12:00:00 AM","Blair County","Pennsylvania","Northeast","Middle Atlantic","42013","40.498683","-78.309597 ","31017","636","0","0","7/11/2022 12:00:00 AM","2019","121829","NYTIMES-USCENSUS"
"7/12/2022 12:00:00 AM","Bladen County","North Carolina","South","South Atlantic","37017","34.591938","-78.539489 ","9962","133","0","0","7/11/2022 12:00:00 AM","2019","32722","NYTIMES-USCENSUS"
"7/12/2022 12:00:00 AM","Blackford County","Indiana","Midwest","East North Central","18009","40.472672","-85.32373 ","3261","69","0","0","7/11/2022 12:00:00 AM","2019","11758","NYTIMES-USCENSUS"
"7/12/2022 12:00:00 AM","Black Hawk County","Iowa","Midwest","West North Central","19013","42.471132","-92.3076 ","34418","491","0","0","7/11/2022 12:00:00 AM","2019","131228","NYTIMES-USCENSUS"
"7/12/2022 12:00:00 AM","Bingham County","Idaho","West","Mountain","16011","43.216357","-112.399206 ","10187","161","9","0","7/11/2022 12:00:00 AM","2019","46811","NYTIMES-USCENSUS"
"7/12/2022 12:00:00 AM","Big Stone County","Minnesota","Midwest","West North Central","27011","45.419925","-96.402226 ","1470","9","0","0","7/11/2022 12:00:00 AM","2019","4991","NYTIMES-USCENSUS"
"7/12/2022 12:00:00 AM","Big Horn County","Montana","West","Mountain","30003","45.407868","-107.518162 ","5070","100","0","0","7/11/2022 12:00:00 AM","2019","13319","NYTIMES-USCENSUS"
"7/12/2022 12:00:00 AM","Bienville Parish","Louisiana","South","West South Central","22013","32.340952","-93.041151 ","4215","111","16","0","7/11/2022 12:00:00 AM","2019","13241","NYTIMES-USCENSUS"
"7/12/2022 12:00:00 AM","Bexar County","Texas","South","West South Central","48029","29.448671","-98.520147 ","605444","6187","772","2","7/11/2022 12:00:00 AM","2019","2003554","NYTIMES-USCENSUS"
"7/12/2022 12:00:00 AM","Bethel Census Area","Alaska","West","Pacific","02050","60.929141","-160.152625 ","10844","41","0","0","7/11/2022 12:00:00 AM","2019","18386","NYTIMES-USCENSUS"
"7/12/2022 12:00:00 AM","Bayfield County","Wisconsin","Midwest","East North Central","55007","46.634199","-91.177282 ","3817","42","7","0","7/11/2022 12:00:00 AM","2019","15036","NYTIMES-USCENSUS"
"7/12/2022 12:00:00 AM","Bay County","Florida","South","South Atlantic","12005","30.15914","-85.534395 ","48372","832","0","0","7/11/2022 12:00:00 AM","2019","174705","NYTIMES-USCENSUS"
"7/12/2022 12:00:00 AM","Baxter County","Arkansas","South","West South Central","05005","36.280268","-92.329949 ","9421","251","8","0","7/11/2022 12:00:00 AM","2019","41932","NYTIMES-USCENSUS"
"7/12/2022 12:00:00 AM","Bates County","Missouri","Midwest","West North Central","29013","38.257217","-94.339246 ","3875","97","0","0","7/11/2022 12:00:00 AM","2019","16172","NYTIMES-USCENSUS"
"7/12/2022 12:00:00 AM","Bastrop County","Texas","South","West South Central","48021","30.100772","-97.310639 ","23444","240","31","0","7/11/2022 12:00:00 AM","2019","88723","NYTIMES-USCENSUS"
"7/12/2022 12:00:00 AM","Bartow County","Georgia","South","South Atlantic","13015","34.240917","-84.838188 ","30502","451","0","0","7/11/2022 12:00:00 AM","2019","107738","NYTIMES-USCENSUS"
"7/12/2022 12:00:00 AM","Bartholomew County","Indiana","Midwest","East North Central","18005","39.205843","-85.897999 ","22708","251","0","0","7/11/2022 12:00:00 AM","2019","83779","NYTIMES-USCENSUS"
"7/12/2022 12:00:00 AM","Barry County","Michigan","Midwest","East North Central","26015","42.582811","-85.31455 ","15177","173","62","0","7/11/2022 12:00:00 AM","2019","61550","NYTIMES-USCENSUS"
"7/12/2022 12:00:00 AM","Barrow County","Georgia","South","South Atlantic","13013","33.992009","-83.712303 ","22777","260","0","0","7/11/2022 12:00:00 AM","2019","83240","NYTIMES-USCENSUS"
"7/12/2022 12:00:00 AM","Barron County","Wisconsin","Midwest","East North Central","55005","45.437192","-91.852892 ","14279","147","9","0","7/11/2022 12:00:00 AM","2019","45244","NYTIMES-USCENSUS"
"7/12/2022 12:00:00 AM","Barren County","Kentucky","South","East South Central","21009","36.962805","-85.932108 ","13725","222","0","0","7/11/2022 12:00:00 AM","2019","44249","NYTIMES-USCENSUS"
"7/12/2022 12:00:00 AM","Barnwell County","South Carolina","South","South Atlantic","45011","33.260552","-81.434228 ","6068","103","56","0","7/11/2022 12:00:00 AM","2019","20866","NYTIMES-USCENSUS"
"7/12/2022 12:00:00 AM","Barnstable County","Massachusetts","Northeast","New England","25001","41.706123","-70.164823 ","40818","608","0","0","7/11/2022 12:00:00 AM","2019","212990","NYTIMES-USCENSUS"
"7/12/2022 12:00:00 AM","Barnes County","North Dakota","Midwest","West North Central","38003","46.94255","-98.070195 ","3102","47","0","0","7/11/2022 12:00:00 AM","2019","10415","NYTIMES-USCENSUS"
"7/12/2022 12:00:00 AM","Barbour County","West Virginia","South","South Atlantic","54001","39.139725","-79.996947 ","5161","74","5","0","7/11/2022 12:00:00 AM","2019","16441","NYTIMES-USCENSUS"
"7/12/2022 12:00:00 AM","Barber County","Kansas","Midwest","West North Central","20007","37.222906","-98.685052 ","1058","9","0","0","7/11/2022 12:00:00 AM","2019","4427","NYTIMES-USCENSUS"
"7/12/2022 12:00:00 AM","Baraga County","Michigan","Midwest","East North Central","26013","46.695859","-88.36181 ","2364","56","16","0","7/11/2022 12:00:00 AM","2019","8209","NYTIMES-USCENSUS"
"7/12/2022 12:00:00 AM","Bannock County","Idaho","West","Mountain","16005","42.692921","-112.228982 ","21858","251","0","0","7/11/2022 12:00:00 AM","2019","87808","NYTIMES-USCENSUS"
"7/12/2022 12:00:00 AM","Banks County","Georgia","South","South Atlantic","13011","34.351922","-83.498441 ","4104","98","0","0","7/11/2022 12:00:00 AM","2019","19234","NYTIMES-USCENSUS"
"7/12/2022 12:00:00 AM","Bandera County","Texas","South","West South Central","48019","29.756389","-99.248285 ","3833","77","4","0","7/11/2022 12:00:00 AM","2019","23112","NYTIMES-USCENSUS"
"7/12/2022 12:00:00 AM","Bamberg County","South Carolina","South","South Atlantic","45009","33.203021","-81.053161 ","3679","75","43","0","7/11/2022 12:00:00 AM","2019","14066","NYTIMES-USCENSUS"
"7/12/2022 12:00:00 AM","Baltimore County","Maryland","South","South Atlantic","24005","39.443167","-76.616569 ","147406","2545","478","3","7/11/2022 12:00:00 AM","2019","827370","NYTIMES-USCENSUS"
"7/12/2022 12:00:00 AM","Baltimore city","Maryland","South","South Atlantic","24510","39.300032","-76.610476 ","126850","1825","375","0","7/11/2022 12:00:00 AM","2019","593490","NYTIMES-USCENSUS"
"7/12/2022 12:00:00 AM","Ballard County","Kentucky","South","East South Central","21007","37.051323","-89.010367 ","1535","34","0","0","7/11/2022 12:00:00 AM","2019","7888","NYTIMES-USCENSUS"
"7/12/2022 12:00:00 AM","Baldwin County","Alabama","South","East South Central","01003","30.659218","-87.746067 ","60142","683","174","0","7/11/2022 12:00:00 AM","2019","223234","NYTIMES-USCENSUS"
"7/12/2022 12:00:00 AM","Baker County","Oregon","West","Pacific","41001","44.703427","-117.691933 ","3437","50","13","0","7/11/2022 12:00:00 AM","2019","16124","NYTIMES-USCENSUS"
"7/12/2022 12:00:00 AM","Bailey County","Texas","South","West South Central","48017","34.067521","-102.830345 ","1647","39","1","0","7/11/2022 12:00:00 AM","2019","7000","NYTIMES-USCENSUS"
"7/12/2022 12:00:00 AM","Canyon County","Idaho","West","Mountain","16027","43.625796","-116.709058 ","63788","690","0","0","7/11/2022 12:00:00 AM","2019","229849","NYTIMES-USCENSUS"
"7/12/2022 12:00:00 AM","Cannon County","Tennessee","South","East South Central","47015","35.808394","-86.062404 ","4386","68","0","0","7/11/2022 12:00:00 AM","2019","14678","NYTIMES-USCENSUS"
"7/12/2022 12:00:00 AM","Candler County","Georgia","South","South Atlantic","13043","32.40395","-82.071266 ","2279","100","0","0","7/11/2022 12:00:00 AM","2019","10803","NYTIMES-USCENSUS"
"7/12/2022 12:00:00 AM","Canadian County","Oklahoma","South","West South Central","40017","35.543354","-97.979889 ","41476","393","0","0","7/11/2022 12:00:00 AM","2019","148306","NYTIMES-USCENSUS"
"7/12/2022 12:00:00 AM","Campbell County","Tennessee","South","East South Central","47013","36.401592","-84.159249 ","12780","170","0","0","7/11/2022 12:00:00 AM","2019","39842","NYTIMES-USCENSUS"
"7/12/2022 12:00:00 AM","Camp County","Texas","South","West South Central","48063","32.974581","-94.979085 ","2954","75","3","0","7/11/2022 12:00:00 AM","2019","13094","NYTIMES-USCENSUS"
"7/12/2022 12:00:00 AM","Cameron Parish","Louisiana","South","West South Central","22023","29.871812","-93.164948 ","1235","8","1","0","7/11/2022 12:00:00 AM","2019","6973","NYTIMES-USCENSUS"
"7/12/2022 12:00:00 AM","Cameron County","Texas","South","West South Central","48061","26.102923","-97.478958 ","114853","2047","140","0","7/11/2022 12:00:00 AM","2019","423163","NYTIMES-USCENSUS"
"7/12/2022 12:00:00 AM","Camden County","Missouri","Midwest","West North Central","29029","38.026527","-92.765327 ","9697","183","0","0","7/11/2022 12:00:00 AM","2019","46305","NYTIMES-USCENSUS"
"7/12/2022 12:00:00 AM","Cambria County","Pennsylvania","Northeast","Middle Atlantic","42021","40.510227","-78.710477 ","36492","744","0","0","7/11/2022 12:00:00 AM","2019","130192","NYTIMES-USCENSUS"
"7/12/2022 12:00:00 AM","Camas County","Idaho","West","Mountain","16025","43.502552","-114.772135 ","164","2","0","0","7/11/2022 12:00:00 AM","2019","1106","NYTIMES-USCENSUS"
"7/12/2022 12:00:00 AM","Calvert County","Maryland","South","South Atlantic","24009","38.522719","-76.529762 ","12510","150","41","0","7/11/2022 12:00:00 AM","2019","92525","NYTIMES-USCENSUS"
"7/12/2022 12:00:00 AM","Calumet County","Wisconsin","Midwest","East North Central","55015","44.07841","-88.212132 ","15322","125","15","0","7/11/2022 12:00:00 AM","2019","50089","NYTIMES-USCENSUS"
"7/12/2022 12:00:00 AM","Calloway County","Kentucky","South","East South Central","21035","36.620978","-88.274086 ","9578","98","0","0","7/11/2022 12:00:00 AM","2019","39001","NYTIMES-USCENSUS"
"7/12/2022 12:00:00 AM","Callaway County","Missouri","Midwest","West North Central","29027","38.835547","-91.923446 ","12575","133","0","0","7/11/2022 12:00:00 AM","2019","44743","NYTIMES-USCENSUS"
"7/12/2022 12:00:00 AM","Callahan County","Texas","South","West South Central","48059","32.29315","-99.372249 ","3065","72","3","0","7/11/2022 12:00:00 AM","2019","13943","NYTIMES-USCENSUS"
"7/12/2022 12:00:00 AM","Calhoun County","Florida","South","South Atlantic","12013","30.388801","-85.197915 ","4226","99","0","0","7/11/2022 12:00:00 AM","2019","14105","NYTIMES-USCENSUS"
"7/12/2022 12:00:00 AM","Caledonia County","Vermont","Northeast","New England","50005","44.468791","-72.112168 ","6122","30","0","0","7/11/2022 12:00:00 AM","2019","29993","NYTIMES-USCENSUS"
"7/12/2022 12:00:00 AM","Caldwell Parish","Louisiana","South","West South Central","22021","32.101219","-92.114231 ","3782","55","12","0","7/11/2022 12:00:00 AM","2019","9918","NYTIMES-USCENSUS"
"7/12/2022 12:00:00 AM","Caldwell County","North Carolina","South","South Atlantic","37027","35.966396","-81.51254 ","23558","309","0","0","7/11/2022 12:00:00 AM","2019","82178","NYTIMES-USCENSUS"
"7/12/2022 12:00:00 AM","Calcasieu Parish","Louisiana","South","West South Central","22019","30.229559","-93.358015 ","58384","714","156","0","7/11/2022 12:00:00 AM","2019","203436","NYTIMES-USCENSUS"
"7/12/2022 12:00:00 AM","Calaveras County","California","West","Pacific","06009","38.191068","-120.554107 ","8385","125","50","0","7/11/2022 12:00:00 AM","2019","45905","NYTIMES-USCENSUS"
"7/12/2022 12:00:00 AM","Caddo Parish","Louisiana","South","West South Central","22017","32.580106","-93.88497 ","72971","1160","254","0","7/11/2022 12:00:00 AM","2019","240204","NYTIMES-USCENSUS"
"7/12/2022 12:00:00 AM","Caddo County","Oklahoma","South","West South Central","40015","35.16792","-98.381045 ","8526","172","0","0","7/11/2022 12:00:00 AM","2019","28762","NYTIMES-USCENSUS"
"7/12/2022 12:00:00 AM","Cache County","Utah","West","Mountain","49005","41.734117","-111.745399 ","38565","111","0","0","7/11/2022 12:00:00 AM","2019","128289","NYTIMES-USCENSUS"
"7/12/2022 12:00:00 AM","Cabell County","West Virginia","South","South Atlantic","54011","38.419578","-82.243397 ","29622","388","52","0","7/11/2022 12:00:00 AM","2019","91945","NYTIMES-USCENSUS"
"7/12/2022 12:00:00 AM","Cabarrus County","North Carolina","South","South Atlantic","37025","35.388346","-80.552728 ","60492","508","0","0","7/11/2022 12:00:00 AM","2019","216453","NYTIMES-USCENSUS"
"7/12/2022 12:00:00 AM","Butts County","Georgia","South","South Atlantic","13035","33.290355","-83.958221 ","6806","162","0","0","7/11/2022 12:00:00 AM","2019","24936","NYTIMES-USCENSUS"
"7/12/2022 12:00:00 AM","Bossier Parish","Louisiana","South","West South Central","22015","32.698481","-93.626561 ","41829","497","165","0","7/11/2022 12:00:00 AM","2019","127039","NYTIMES-USCENSUS"
"7/12/2022 12:00:00 AM","Bosque County","Texas","South","West South Central","48035","31.900819","-97.637641 ","4248","70","5","0","7/11/2022 12:00:00 AM","2019","18685","NYTIMES-USCENSUS"
"7/12/2022 12:00:00 AM","Boone County","Missouri","Midwest","West North Central","29019","38.989861","-92.310202 ","48248","261","71","0","7/11/2022 12:00:00 AM","2019","180463","NYTIMES-USCENSUS"
"7/12/2022 12:00:00 AM","Bonneville County","Idaho","West","Mountain","16019","43.395171","-111.621878 ","32026","289","0","0","7/11/2022 12:00:00 AM","2019","119062","NYTIMES-USCENSUS"
"7/12/2022 12:00:00 AM","Bonner County","Idaho","West","Mountain","16017","48.316796","-116.612362 ","9339","190","0","0","7/11/2022 12:00:00 AM","2019","45739","NYTIMES-USCENSUS"
"7/12/2022 12:00:00 AM","Bond County","Illinois","Midwest","East North Central","17005","38.885924","-89.436592 ","4632","37","10","0","7/11/2022 12:00:00 AM","2019","16426","NYTIMES-USCENSUS"
"7/12/2022 12:00:00 AM","Bon Homme County","South Dakota","Midwest","West North Central","46009","42.985799","-97.884199 ","2318","39","0","0","7/11/2022 12:00:00 AM","2019","6901","NYTIMES-USCENSUS"
"7/12/2022 12:00:00 AM","Bollinger County","Missouri","Midwest","West North Central","29017","37.318427","-90.024645 ","2745","43","0","0","7/11/2022 12:00:00 AM","2019","12133","NYTIMES-USCENSUS"
"7/12/2022 12:00:00 AM","Bolivar County","Mississippi","South","East South Central","28011","33.799139","-90.88412 ","9923","180","0","0","7/11/2022 12:00:00 AM","2019","30628","NYTIMES-USCENSUS"
"7/12/2022 12:00:00 AM","Blue Earth County","Minnesota","Midwest","West North Central","27013","44.03371","-94.064012 ","19080","105","0","0","7/11/2022 12:00:00 AM","2019","67653","NYTIMES-USCENSUS"
"7/12/2022 12:00:00 AM","Blount County","Tennessee","South","East South Central","47009","35.688185","-83.922973 ","40712","451","0","0","7/11/2022 12:00:00 AM","2019","133088","NYTIMES-USCENSUS"
"7/12/2022 12:00:00 AM","Bledsoe County","Tennessee","South","East South Central","47007","35.593561","-85.20591 ","4747","61","0","0","7/11/2022 12:00:00 AM","2019","15064","NYTIMES-USCENSUS"
"7/12/2022 12:00:00 AM","Bleckley County","Georgia","South","South Atlantic","13023","32.435403","-83.331717 ","3478","100","0","0","7/11/2022 12:00:00 AM","2019","12873","NYTIMES-USCENSUS"
"7/12/2022 12:00:00 AM","Owsley County","Kentucky","South","East South Central","21189","37.423622","-83.691637 ","1606","30","0","0","7/11/2022 12:00:00 AM","2019","4415","NYTIMES-USCENSUS"
"7/12/2022 12:00:00 AM","Owen County","Indiana","Midwest","East North Central","18119","39.317339","-86.838845 ","6181","123","0","0","7/11/2022 12:00:00 AM","2019","20799","NYTIMES-USCENSUS"
"7/12/2022 12:00:00 AM","Overton County","Tennessee","South","East South Central","47133","36.34485","-85.283076 ","7373","126","0","0","7/11/2022 12:00:00 AM","2019","22241","NYTIMES-USCENSUS"
"7/12/2022 12:00:00 AM","Outagamie County","Wisconsin","Midwest","East North Central","55087","44.418226","-88.464988 ","57808","419","51","0","7/11/2022 12:00:00 AM","2019","187885","NYTIMES-USCENSUS"
"7/12/2022 12:00:00 AM","Ouray County","Colorado","West","Mountain","08091","38.154731","-107.78848 ","988","6","3","0","7/11/2022 12:00:00 AM","2019","4952","NYTIMES-USCENSUS"
"7/12/2022 12:00:00 AM","Ouachita Parish","Louisiana","South","West South Central","22073","32.480932","-92.151581 ","53665","763","163","2","7/11/2022 12:00:00 AM","2019","153279","NYTIMES-USCENSUS"
