"monitor_date","county","state_name","region","subregion","fips","latitude","longitude","case_count_to_date","death_count_to_date","case_count","death_count","previous_monitor_date","population_year","population","source"
"6/14/2022 12:00:00 AM","Sitka City and Borough","Alaska","West","Pacific","02220","57.193204","-135.367396 ","2810","5","2810","5","","2019","8493","NYTIMES-USCENSUS"
"6/14/2022 12:00:00 AM","Walker County","Alabama","South","East South Central","01127","33.791558","-87.301094 ","18954","447","18954","447","","2019","63521","NYTIMES-USCENSUS"
"6/14/2022 12:00:00 AM","Randall County","Texas","South","West South Central","48381","34.962529","-101.895547 ","38598","516","38598","516","","2019","137713","NYTIMES-USCENSUS"
"6/14/2022 12:00:00 AM","Lucas County","Ohio","Midwest","East North Central","39095","41.682321","-83.468903 ","106736","1423","106736","1423","","2019","428348","NYTIMES-USCENSUS"
"6/14/2022 12:00:00 AM","Linn County","Iowa","Midwest","West North Central","19113","42.077951","-91.597674 ","54594","589","54594","589","","2019","226706","NYTIMES-USCENSUS"
"6/14/2022 12:00:00 AM","Penobscot County","Maine","Northeast","New England","23019","45.409284","-68.666616 ","31110","340","31110","340","","2019","152148","NYTIMES-USCENSUS"
"6/14/2022 12:00:00 AM","Warren County","Kentucky","South","East South Central","21227","36.995634","-86.423579 ","44230","381","44230","381","","2019","132896","NYTIMES-USCENSUS"
"6/14/2022 12:00:00 AM","Hendry County","Florida","South","South Atlantic","12051","26.539967","-81.152114 ","11985","161","11985","161","","2019","42022","NYTIMES-USCENSUS"
"6/14/2022 12:00:00 AM","Dickinson County","Kansas","Midwest","West North Central","20041","38.867735","-97.157943 ","4882","85","4882","85","","2019","18466","NYTIMES-USCENSUS"
"6/14/2022 12:00:00 AM","Weld County","Colorado","West","Mountain","08123","40.555961","-104.383666 ","90946","707","90946","707","","2019","324492","NYTIMES-USCENSUS"
"6/14/2022 12:00:00 AM","San Jacinto County","Texas","South","West South Central","48407","30.574388","-95.163136 ","5703","102","5703","102","","2019","28859","NYTIMES-USCENSUS"
"6/14/2022 12:00:00 AM","Madison County","Kentucky","South","East South Central","21151","37.725511","-84.278362 ","28658","283","28658","283","","2019","92987","NYTIMES-USCENSUS"
"6/14/2022 12:00:00 AM","Ashtabula County","Ohio","Midwest","East North Central","39007","41.906637","-80.745592 ","21189","431","21189","431","","2019","97241","NYTIMES-USCENSUS"
"6/14/2022 12:00:00 AM","DeSoto County","Florida","South","South Atlantic","12027","27.190581","-81.806253 ","9621","151","9621","151","","2019","38001","NYTIMES-USCENSUS"
"6/14/2022 12:00:00 AM","Houston County","Texas","South","West South Central","48225","31.323036","-95.4216 ","4281","111","4281","111","","2019","22968","NYTIMES-USCENSUS"
"6/14/2022 12:00:00 AM","Marlboro County","South Carolina","South","South Atlantic","45069","34.60167","-79.679435 ","8121","105","8121","105","","2019","26118","NYTIMES-USCENSUS"
"6/14/2022 12:00:00 AM","Powhatan County","Virginia","South","South Atlantic","51145","37.549404","-77.912855 ","5412","60","5412","60","","2019","29652","NYTIMES-USCENSUS"
"6/14/2022 12:00:00 AM","Rockland County","New York","Northeast","Middle Atlantic","36087","41.154628","-74.024662 ","99667","906","99667","906","","2019","325789","NYTIMES-USCENSUS"
"6/14/2022 12:00:00 AM","Ida County","Iowa","Midwest","West North Central","19093","42.39186","-95.507421 ","1843","49","1843","49","","2019","6860","NYTIMES-USCENSUS"
"6/14/2022 12:00:00 AM","Franklin County","Vermont","Northeast","New England","50011","44.858964","-72.909402 ","10521","68","10521","68","","2019","49402","NYTIMES-USCENSUS"
"6/14/2022 12:00:00 AM","Quitman County","Georgia","South","South Atlantic","13239","31.862938","-85.004798 ","427","4","427","4","","2019","2299","NYTIMES-USCENSUS"
"6/14/2022 12:00:00 AM","Nelson County","North Dakota","Midwest","West North Central","38063","47.918667","-98.204428 ","770","18","770","18","","2019","2879","NYTIMES-USCENSUS"
"6/14/2022 12:00:00 AM","Garfield County","Colorado","West","Mountain","08045","39.599352","-107.90978 ","15692","91","15692","91","","2019","60061","NYTIMES-USCENSUS"
"6/14/2022 12:00:00 AM","Gadsden County","Florida","South","South Atlantic","12039","30.578687","-84.612607 ","13742","207","13742","207","","2019","45660","NYTIMES-USCENSUS"
"6/14/2022 12:00:00 AM","Jefferson County","Indiana","Midwest","East North Central","18077","38.783604","-85.44009 ","9501","162","9501","162","","2019","32308","NYTIMES-USCENSUS"
"6/14/2022 12:00:00 AM","Sheridan County","Kansas","Midwest","West North Central","20179","39.350547","-100.441228 ","793","18","793","18","","2019","2521","NYTIMES-USCENSUS"
"6/14/2022 12:00:00 AM","Reynolds County","Missouri","Midwest","West North Central","29179","37.366464","-90.972282 ","1171","26","1171","26","","2019","6270","NYTIMES-USCENSUS"
"6/14/2022 12:00:00 AM","Hocking County","Ohio","Midwest","East North Central","39073","39.490342","-82.483447 ","6859","124","6859","124","","2019","28264","NYTIMES-USCENSUS"
"6/14/2022 12:00:00 AM","Glasscock County","Texas","South","West South Central","48173","31.868006","-101.521494 ","201","3","201","3","","2019","1409","NYTIMES-USCENSUS"
"6/14/2022 12:00:00 AM","Drew County","Arkansas","South","West South Central","05043","33.587242","-91.722778 ","4718","70","4718","70","","2019","18219","NYTIMES-USCENSUS"
"6/14/2022 12:00:00 AM","Bullitt County","Kentucky","South","East South Central","21029","37.969945","-85.702635 ","22707","228","22707","228","","2019","81676","NYTIMES-USCENSUS"
"6/14/2022 12:00:00 AM","Oneida County","Wisconsin","Midwest","East North Central","55085","45.716176","-89.534533 ","8957","139","8957","139","","2019","35595","NYTIMES-USCENSUS"
"6/14/2022 12:00:00 AM","Washington County","Maryland","South","South Atlantic","24043","39.603621","-77.814671 ","36215","589","36215","589","","2019","151049","NYTIMES-USCENSUS"
"6/14/2022 12:00:00 AM","Baldwin County","Georgia","South","South Atlantic","13009","33.05949","-83.255457 ","9676","240","9676","240","","2019","44890","NYTIMES-USCENSUS"
"6/14/2022 12:00:00 AM","Muscogee County","Georgia","South","South Atlantic","13215","32.510197","-84.874946 ","38908","829","38908","829","","2019","195769","NYTIMES-USCENSUS"
"6/14/2022 12:00:00 AM","Wetzel County","West Virginia","South","South Atlantic","54103","39.59818","-80.635399 ","4536","87","4536","87","","2019","15065","NYTIMES-USCENSUS"
"6/14/2022 12:00:00 AM","Pointe Coupee Parish","Louisiana","South","West South Central","22077","30.708319","-91.604621 ","6476","93","6476","93","","2019","21730","NYTIMES-USCENSUS"
"6/14/2022 12:00:00 AM","Alachua County","Florida","South","South Atlantic","12001","29.67574","-82.357221 ","71531","672","71531","672","","2019","269043","NYTIMES-USCENSUS"
"6/14/2022 12:00:00 AM","Cass County","North Dakota","Midwest","West North Central","38017","46.927003","-97.252375 ","61305","333","61305","333","","2019","181923","NYTIMES-USCENSUS"
"6/14/2022 12:00:00 AM","Kitsap County","Washington","West","Pacific","53035","47.639595","-122.649634 ","43812","352","43812","352","","2019","271473","NYTIMES-USCENSUS"
"6/14/2022 12:00:00 AM","Knox County","Texas","South","West South Central","48275","33.61189","-99.730356 ","496","25","496","25","","2019","3664","NYTIMES-USCENSUS"
"6/14/2022 12:00:00 AM","Pend Oreille County","Washington","West","Pacific","53051","48.543825","-117.232191 ","2547","37","2547","37","","2019","13724","NYTIMES-USCENSUS"
"6/14/2022 12:00:00 AM","Creek County","Oklahoma","South","West South Central","40037","35.907398","-96.380177 ","18411","338","18411","338","","2019","71522","NYTIMES-USCENSUS"
"6/14/2022 12:00:00 AM","Northwest Arctic Borough","Alaska","West","Pacific","02188","67.005066","-160.021086 ","4915","14","4915","14","","2019","7621","NYTIMES-USCENSUS"
"6/14/2022 12:00:00 AM","Berkeley County","West Virginia","South","South Atlantic","54003","39.447938","-78.037754 ","37489","307","37489","307","","2019","119171","NYTIMES-USCENSUS"
"6/14/2022 12:00:00 AM","Wythe County","Virginia","South","South Atlantic","51197","36.899867","-81.083001 ","7776","149","7776","149","","2019","28684","NYTIMES-USCENSUS"
"6/14/2022 12:00:00 AM","Etowah County","Alabama","South","East South Central","01055","34.047641","-86.034263 ","28966","652","28966","652","","2019","102268","NYTIMES-USCENSUS"
"6/14/2022 12:00:00 AM","Dorchester County","South Carolina","South","South Atlantic","45035","33.082186","-80.404697 ","58351","501","58351","501","","2019","162809","NYTIMES-USCENSUS"
"6/14/2022 12:00:00 AM","Divide County","North Dakota","Midwest","West North Central","38023","48.814754","-103.509326 ","477","4","477","4","","2019","2264","NYTIMES-USCENSUS"
"6/14/2022 12:00:00 AM","Acadia Parish","Louisiana","South","West South Central","22001","30.291497","-92.411037 ","16147","295","16147","295","","2019","62045","NYTIMES-USCENSUS"
"6/14/2022 12:00:00 AM","Bertie County","North Carolina","South","South Atlantic","37015","36.059043","-76.962364 ","4397","70","4397","70","","2019","18947","NYTIMES-USCENSUS"
"6/14/2022 12:00:00 AM","Yalobusha County","Mississippi","South","East South Central","28161","34.030666","-89.703807 ","4230","57","4230","57","","2019","12108","NYTIMES-USCENSUS"
"6/14/2022 12:00:00 AM","Wabasha County","Minnesota","Midwest","West North Central","27157","44.289634","-92.233454 ","5955","19","5955","19","","2019","21627","NYTIMES-USCENSUS"
"6/14/2022 12:00:00 AM","Fairfield County","Connecticut","Northeast","New England","09001","41.227413","-73.367061 ","224142","2745","224142","2745","","2019","943332","NYTIMES-USCENSUS"
"6/14/2022 12:00:00 AM","Cherokee County","Oklahoma","South","West South Central","40021","35.904367","-94.996796 ","14712","152","14712","152","","2019","48657","NYTIMES-USCENSUS"
"6/14/2022 12:00:00 AM","Pocahontas County","West Virginia","South","South Atlantic","54075","38.332606","-80.010121 ","2104","32","2104","32","","2019","8247","NYTIMES-USCENSUS"
"6/14/2022 12:00:00 AM","Bourbon County","Kansas","Midwest","West North Central","20011","37.8561","-94.850928 ","4438","56","4438","56","","2019","14534","NYTIMES-USCENSUS"
"6/14/2022 12:00:00 AM","Schoolcraft County","Michigan","Midwest","East North Central","26153","46.021122","-86.197029 ","1845","16","1845","16","","2019","8094","NYTIMES-USCENSUS"
"6/14/2022 12:00:00 AM","Bullock County","Alabama","South","East South Central","01011","32.101759","-85.717261 ","2363","54","2363","54","","2019","10101","NYTIMES-USCENSUS"
"6/14/2022 12:00:00 AM","Sandusky County","Ohio","Midwest","East North Central","39143","41.355319","-83.142776 ","14285","239","14285","239","","2019","58518","NYTIMES-USCENSUS"
"6/14/2022 12:00:00 AM","Gogebic County","Michigan","Midwest","East North Central","26053","46.488054","-89.788314 ","3389","69","3389","69","","2019","13975","NYTIMES-USCENSUS"
"6/14/2022 12:00:00 AM","Butts County","Georgia","South","South Atlantic","13035","33.290355","-83.958221 ","6640","160","6640","160","","2019","24936","NYTIMES-USCENSUS"
"6/14/2022 12:00:00 AM","Whitley County","Kentucky","South","East South Central","21235","36.758024","-84.144648 ","14381","208","14381","208","","2019","36264","NYTIMES-USCENSUS"
"6/14/2022 12:00:00 AM","Box Butte County","Nebraska","Midwest","West North Central","31013","42.21038","-103.081779 ","2277","17","2277","17","","2019","10783","NYTIMES-USCENSUS"
"6/14/2022 12:00:00 AM","Martin County","Texas","South","West South Central","48317","32.30983","-101.961836 ","1225","26","1225","26","","2019","5771","NYTIMES-USCENSUS"
"6/14/2022 12:00:00 AM","Mathews County","Virginia","South","South Atlantic","51115","37.425348","-76.268808 ","1572","27","1572","27","","2019","8834","NYTIMES-USCENSUS"
"6/14/2022 12:00:00 AM","Jefferson County","Illinois","Midwest","East North Central","17081","38.30078","-88.92421 ","11325","177","11325","177","","2019","37684","NYTIMES-USCENSUS"
"6/14/2022 12:00:00 AM","Grady County","Oklahoma","South","West South Central","40051","35.021058","-97.88689 ","13885","247","13885","247","","2019","55834","NYTIMES-USCENSUS"
"6/14/2022 12:00:00 AM","Lincoln County","Maine","Northeast","New England","23015","43.994781","-69.513624 ","5820","36","5820","36","","2019","34634","NYTIMES-USCENSUS"
"6/14/2022 12:00:00 AM","Columbia County","Arkansas","South","West South Central","05027","33.223038","-93.232843 ","5501","97","5501","97","","2019","23457","NYTIMES-USCENSUS"
"6/14/2022 12:00:00 AM","Daviess County","Kentucky","South","East South Central","21059","37.731671","-87.087139 ","31701","392","31701","392","","2019","101511","NYTIMES-USCENSUS"
"6/14/2022 12:00:00 AM","Polk County","Nebraska","Midwest","West North Central","31143","41.187925","-97.570663 ","1210","18","1210","18","","2019","5213","NYTIMES-USCENSUS"
"6/14/2022 12:00:00 AM","Marquette County","Michigan","Midwest","East North Central","26103","46.656596","-87.584028 ","17028","136","17028","136","","2019","66699","NYTIMES-USCENSUS"
"6/14/2022 12:00:00 AM","Jefferson County","Arkansas","South","West South Central","05069","34.277239","-91.929673 ","18843","277","18843","277","","2019","66824","NYTIMES-USCENSUS"
"6/14/2022 12:00:00 AM","De Soto Parish","Louisiana","South","West South Central","22031","32.059248","-93.740797 ","7643","135","7643","135","","2019","27463","NYTIMES-USCENSUS"
"6/14/2022 12:00:00 AM","Henderson County","Kentucky","South","East South Central","21101","37.792542","-87.572577 ","14232","170","14232","170","","2019","45210","NYTIMES-USCENSUS"
"6/14/2022 12:00:00 AM","Riverside County","California","West","Pacific","06065","33.729828","-116.002239 ","648585","6540","648585","6540","","2019","2470546","NYTIMES-USCENSUS"
"6/14/2022 12:00:00 AM","Middlesex County","Connecticut","Northeast","New England","09007","41.433003","-72.52278 ","32338","486","32338","486","","2019","162436","NYTIMES-USCENSUS"
"6/14/2022 12:00:00 AM","Cabell County","West Virginia","South","South Atlantic","54011","38.419578","-82.243397 ","28812","383","28812","383","","2019","91945","NYTIMES-USCENSUS"
"6/14/2022 12:00:00 AM","Seminole County","Florida","South","South Atlantic","12117","28.690065","-81.131975 ","109602","1104","109602","1104","","2019","471826","NYTIMES-USCENSUS"
"6/14/2022 12:00:00 AM","Ulster County","New York","Northeast","Middle Atlantic","36111","41.947212","-74.265458 ","35485","373","35485","373","","2019","177573","NYTIMES-USCENSUS"
"6/14/2022 12:00:00 AM","Lassen County","California","West","Pacific","06035","40.715287","-120.621223 ","10993","69","10993","69","","2019","30573","NYTIMES-USCENSUS"
"6/14/2022 12:00:00 AM","Nye County","Nevada","West","Mountain","32023","37.965864","-116.459011 ","7694","272","7694","272","","2019","46523","NYTIMES-USCENSUS"
"6/14/2022 12:00:00 AM","Highland County","Virginia","South","South Atlantic","51091","38.366243","-79.564472 ","399","7","399","7","","2019","2190","NYTIMES-USCENSUS"
"6/14/2022 12:00:00 AM","Grant County","Kentucky","South","East South Central","21081","38.649167","-84.625924 ","8056","64","8056","64","","2019","25069","NYTIMES-USCENSUS"
"6/14/2022 12:00:00 AM","Polk County","Florida","South","South Atlantic","12105","27.953649","-81.693534 ","209329","3016","209329","3016","","2019","724777","NYTIMES-USCENSUS"
"6/14/2022 12:00:00 AM","Jones County","Iowa","Midwest","West North Central","19105","42.125118","-91.116914 ","5631","73","5631","73","","2019","20681","NYTIMES-USCENSUS"
"6/14/2022 12:00:00 AM","Clay County","Alabama","South","East South Central","01027","33.2704","-85.863525 ","4153","82","4153","82","","2019","13235","NYTIMES-USCENSUS"
"6/14/2022 12:00:00 AM","Abbeville County","South Carolina","South","South Atlantic","45001","34.229041","-82.454058 ","6729","69","6729","69","","2019","24527","NYTIMES-USCENSUS"
"6/14/2022 12:00:00 AM","Perry County","Alabama","South","East South Central","01105","32.639005","-87.293827 ","2142","47","2142","47","","2019","8923","NYTIMES-USCENSUS"
"6/14/2022 12:00:00 AM","Moore County","Texas","South","West South Central","48341","35.835676","-101.890502 ","5761","111","5761","111","","2019","20940","NYTIMES-USCENSUS"
"6/14/2022 12:00:00 AM","Lipscomb County","Texas","South","West South Central","48295","36.2802","-100.272683 ","727","15","727","15","","2019","3233","NYTIMES-USCENSUS"
"6/14/2022 12:00:00 AM","Lee County","Illinois","Midwest","East North Central","17103","41.747447","-89.299362 ","9503","118","9503","118","","2019","34096","NYTIMES-USCENSUS"
"6/14/2022 12:00:00 AM","Miami-Dade County","Florida","South","South Atlantic","12086","25.616009","-80.50375 ","1270888","10988","1270888","10988","","2019","2716940","NYTIMES-USCENSUS"
"6/14/2022 12:00:00 AM","Gwinnett County","Georgia","South","South Atlantic","13135","33.958756","-84.025735 ","216227","1893","216227","1893","","2019","936250","NYTIMES-USCENSUS"
"6/14/2022 12:00:00 AM","Denton County","Texas","South","West South Central","48121","33.205132","-97.12114 ","185627","1358","185627","1358","","2019","887207","NYTIMES-USCENSUS"
"6/14/2022 12:00:00 AM","Mississippi County","Missouri","Midwest","West North Central","29133","36.826264","-89.295929 ","3563","59","3563","59","","2019","13180","NYTIMES-USCENSUS"
"6/14/2022 12:00:00 AM","Crawford County","Wisconsin","Midwest","East North Central","55023","43.242768","-90.935185 ","4396","28","4396","28","","2019","16131","NYTIMES-USCENSUS"
"6/14/2022 12:00:00 AM","Turner County","Georgia","South","South Atlantic","13287","31.7248","-83.620319 ","2595","62","2595","62","","2019","7985","NYTIMES-USCENSUS"
"6/14/2022 12:00:00 AM","Addison County","Vermont","Northeast","New England","50001","44.031248","-73.141581 ","6170","19","6170","19","","2019","36777","NYTIMES-USCENSUS"
"6/14/2022 12:00:00 AM","Berrien County","Michigan","Midwest","East North Central","26021","41.791382","-86.742543 ","36196","571","36196","571","","2019","153401","NYTIMES-USCENSUS"
"6/14/2022 12:00:00 AM","Franklin County","Massachusetts","Northeast","New England","25011","42.584504","-72.591792 ","12066","149","12066","149","","2019","70180","NYTIMES-USCENSUS"
"6/14/2022 12:00:00 AM","Iowa County","Wisconsin","Midwest","East North Central","55049","43.001021","-90.133691 ","5706","30","5706","30","","2019","23678","NYTIMES-USCENSUS"
"6/14/2022 12:00:00 AM","Milam County","Texas","South","West South Central","48331","30.791242","-96.984395 ","5005","102","5005","102","","2019","24823","NYTIMES-USCENSUS"
"6/14/2022 12:00:00 AM","Lincoln County","Tennessee","South","East South Central","47103","35.142784","-86.593403 ","10100","175","10100","175","","2019","34366","NYTIMES-USCENSUS"
"6/14/2022 12:00:00 AM","Harris County","Georgia","South","South Atlantic","13145","32.731549","-84.912432 ","6167","114","6167","114","","2019","35236","NYTIMES-USCENSUS"
"6/14/2022 12:00:00 AM","McNairy County","Tennessee","South","East South Central","47109","35.175375","-88.56374 ","7753","123","7753","123","","2019","25694","NYTIMES-USCENSUS"
"6/14/2022 12:00:00 AM","Miami County","Kansas","Midwest","West North Central","20121","38.566772","-94.832963 ","8067","100","8067","100","","2019","34237","NYTIMES-USCENSUS"
"6/14/2022 12:00:00 AM","Colfax County","New Mexico","West","Mountain","35007","36.612964","-104.64011 ","2750","66","2750","66","","2019","11941","NYTIMES-USCENSUS"
"6/14/2022 12:00:00 AM","Mower County","Minnesota","Midwest","West North Central","27099","43.666249","-92.759514 ","12346","74","12346","74","","2019","40062","NYTIMES-USCENSUS"
"6/14/2022 12:00:00 AM","Lancaster County","Pennsylvania","Northeast","Middle Atlantic","42071","40.041992","-76.250198 ","126163","1913","126163","1913","","2019","545724","NYTIMES-USCENSUS"
"6/14/2022 12:00:00 AM","Osborne County","Kansas","Midwest","West North Central","20141","39.348261","-98.767942 ","814","19","814","19","","2019","3421","NYTIMES-USCENSUS"
"6/14/2022 12:00:00 AM","Jefferson County","Pennsylvania","Northeast","Middle Atlantic","42065","41.138028","-79.012419 ","9360","240","9360","240","","2019","43425","NYTIMES-USCENSUS"
"6/14/2022 12:00:00 AM","Pima County","Arizona","West","Mountain","04019","32.128038","-111.783657 ","262655","3866","262655","3866","","2019","1047279","NYTIMES-USCENSUS"
"6/14/2022 12:00:00 AM","Baker County","Oregon","West","Pacific","41001","44.703427","-117.691933 ","3296","50","3296","50","","2019","16124","NYTIMES-USCENSUS"
"6/14/2022 12:00:00 AM","Hardy County","West Virginia","South","South Atlantic","54031","39.011361","-78.841729 ","4298","49","4298","49","","2019","13776","NYTIMES-USCENSUS"
"6/14/2022 12:00:00 AM","Love County","Oklahoma","South","West South Central","40085","33.957804","-97.245093 ","3127","40","3127","40","","2019","10253","NYTIMES-USCENSUS"
"6/14/2022 12:00:00 AM","Gonzales County","Texas","South","West South Central","48177","29.461912","-97.49192 ","4783","99","4783","99","","2019","20837","NYTIMES-USCENSUS"
"6/14/2022 12:00:00 AM","Sonoma County","California","West","Pacific","06097","38.525182","-122.92611 ","97850","494","97850","494","","2019","494336","NYTIMES-USCENSUS"
"6/14/2022 12:00:00 AM","Randolph County","North Carolina","South","South Atlantic","37151","35.709915","-79.806215 ","36763","455","36763","455","","2019","143667","NYTIMES-USCENSUS"
"6/14/2022 12:00:00 AM","Rusk County","Wisconsin","Midwest","East North Central","55107","45.472734","-91.136745 ","3542","56","3542","56","","2019","14178","NYTIMES-USCENSUS"
"6/14/2022 12:00:00 AM","Stanly County","North Carolina","South","South Atlantic","37167","35.310449","-80.254374 ","19890","265","19890","265","","2019","62806","NYTIMES-USCENSUS"
"6/14/2022 12:00:00 AM","Gillespie County","Texas","South","West South Central","48171","30.325093","-98.94185 ","5518","109","5518","109","","2019","26988","NYTIMES-USCENSUS"
"6/14/2022 12:00:00 AM","Montgomery County","Kansas","Midwest","West North Central","20125","37.189537","-95.742403 ","9508","166","9508","166","","2019","31829","NYTIMES-USCENSUS"
"6/14/2022 12:00:00 AM","Pulaski County","Georgia","South","South Atlantic","13235","32.238803","-83.481845 ","2204","78","2204","78","","2019","11137","NYTIMES-USCENSUS"
"6/14/2022 12:00:00 AM","Greene County","Pennsylvania","Northeast","Middle Atlantic","42059","39.847707","-80.225655 ","8713","107","8713","107","","2019","36233","NYTIMES-USCENSUS"
"6/14/2022 12:00:00 AM","Pondera County","Montana","West","Mountain","30073","48.228604","-112.220761 ","1219","9","1219","9","","2019","5911","NYTIMES-USCENSUS"
"6/14/2022 12:00:00 AM","Breathitt County","Kentucky","South","East South Central","21025","37.517807","-83.317158 ","3947","54","3947","54","","2019","12630","NYTIMES-USCENSUS"
"6/14/2022 12:00:00 AM","Clay County","North Carolina","South","South Atlantic","37043","35.052997","-83.752264 ","2686","47","2686","47","","2019","11231","NYTIMES-USCENSUS"
"6/14/2022 12:00:00 AM","Johnston County","North Carolina","South","South Atlantic","37101","35.513419","-78.367348 ","62503","459","62503","459","","2019","209339","NYTIMES-USCENSUS"
"6/14/2022 12:00:00 AM","Tioga County","Pennsylvania","Northeast","Middle Atlantic","42117","41.766859","-77.257288 ","8587","195","8587","195","","2019","40591","NYTIMES-USCENSUS"
"6/14/2022 12:00:00 AM","Lancaster County","Virginia","South","South Atlantic","51103","37.704843","-76.412663 ","1918","31","1918","31","","2019","10603","NYTIMES-USCENSUS"
"6/14/2022 12:00:00 AM","Madison County","New York","Northeast","Middle Atlantic","36053","42.910026","-75.663575 ","14680","128","14680","128","","2019","70941","NYTIMES-USCENSUS"
"6/14/2022 12:00:00 AM","Lowndes County","Georgia","South","South Atlantic","13185","30.833145","-83.268995 ","31589","392","31589","392","","2019","117406","NYTIMES-USCENSUS"
"6/14/2022 12:00:00 AM","Polk County","Georgia","South","South Atlantic","13233","33.996015","-85.188338 ","12031","195","12031","195","","2019","42613","NYTIMES-USCENSUS"
"6/14/2022 12:00:00 AM","Adams County","Nebraska","Midwest","West North Central","31001","40.520632","-98.500044 ","6684","73","6684","73","","2019","31363","NYTIMES-USCENSUS"
"6/14/2022 12:00:00 AM","Dukes County","Massachusetts","Northeast","New England","25007","41.38097","-70.701499 ","3746","0","3746","0","","2019","17332","NYTIMES-USCENSUS"
"6/14/2022 12:00:00 AM","Union County","Florida","South","South Atlantic","12125","30.05428","-82.366918 ","4354","116","4354","116","","2019","15237","NYTIMES-USCENSUS"
"6/14/2022 12:00:00 AM","Grayson County","Texas","South","West South Central","48181","33.624524","-96.675693 ","27451","637","27451","637","","2019","136212","NYTIMES-USCENSUS"
"6/14/2022 12:00:00 AM","Freestone County","Texas","South","West South Central","48161","31.701749","-96.144957 ","3899","82","3899","82","","2019","19717","NYTIMES-USCENSUS"
"6/14/2022 12:00:00 AM","Putnam County","New York","Northeast","Middle Atlantic","36079","41.427907","-73.743861 ","26106","125","26106","125","","2019","98320","NYTIMES-USCENSUS"
"6/14/2022 12:00:00 AM","Grays Harbor County","Washington","West","Pacific","53027","47.113732","-123.826735 ","17627","202","17627","202","","2019","75061","NYTIMES-USCENSUS"
"6/14/2022 12:00:00 AM","Platte County","Nebraska","Midwest","West North Central","31141","41.576866","-97.513467 ","8692","75","8692","75","","2019","33470","NYTIMES-USCENSUS"
"6/14/2022 12:00:00 AM","Bayfield County","Wisconsin","Midwest","East North Central","55007","46.634199","-91.177282 ","3661","42","3661","42","","2019","15036","NYTIMES-USCENSUS"
"6/14/2022 12:00:00 AM","Catron County","New Mexico","West","Mountain","35003","33.901621","-108.391928 ","429","15","429","15","","2019","3527","NYTIMES-USCENSUS"
"6/14/2022 12:00:00 AM","Charlotte County","Florida","South","South Atlantic","12015","26.906396","-82.003657 ","38059","821","38059","821","","2019","188910","NYTIMES-USCENSUS"
"6/14/2022 12:00:00 AM","Sioux County","Iowa","Midwest","West North Central","19167","43.082646","-96.17801 ","8061","87","8061","87","","2019","34855","NYTIMES-USCENSUS"
"6/14/2022 12:00:00 AM","Lunenburg County","Virginia","South","South Atlantic","51111","36.945555","-78.240528 ","2627","39","2627","39","","2019","12196","NYTIMES-USCENSUS"
"6/14/2022 12:00:00 AM","Ben Hill County","Georgia","South","South Atlantic","13017","31.740772","-83.147197 ","4358","122","4358","122","","2019","16700","NYTIMES-USCENSUS"
"6/14/2022 12:00:00 AM","Barry County","Michigan","Midwest","East North Central","26015","42.582811","-85.31455 ","14843","170","14843","170","","2019","61550","NYTIMES-USCENSUS"
"6/14/2022 12:00:00 AM","Jefferson County","Iowa","Midwest","West North Central","19101","41.006376","-91.966628 ","3570","52","3570","52","","2019","18295","NYTIMES-USCENSUS"
"6/14/2022 12:00:00 AM","Conecuh County","Alabama","South","East South Central","01035","31.430926","-86.988722 ","2920","70","2920","70","","2019","12067","NYTIMES-USCENSUS"
"6/14/2022 12:00:00 AM","Onslow County","North Carolina","South","South Atlantic","37133","34.763109","-77.499469 ","53940","382","53940","382","","2019","197938","NYTIMES-USCENSUS"
"6/14/2022 12:00:00 AM","Trempealeau County","Wisconsin","Midwest","East North Central","55121","44.30305","-91.358867 ","8707","66","8707","66","","2019","29649","NYTIMES-USCENSUS"
"6/14/2022 12:00:00 AM","Louisa County","Iowa","Midwest","West North Central","19115","41.218211","-91.256994 ","2548","62","2548","62","","2019","11035","NYTIMES-USCENSUS"
"6/14/2022 12:00:00 AM","Smith County","Kansas","Midwest","West North Central","20183","39.78466","-98.785429 ","647","9","647","9","","2019","3583","NYTIMES-USCENSUS"
"6/14/2022 12:00:00 AM","Caldwell County","Texas","South","West South Central","48055","29.832399","-97.628141 ","14750","176","14750","176","","2019","43664","NYTIMES-USCENSUS"
"6/14/2022 12:00:00 AM","Berkshire County","Massachusetts","Northeast","New England","25003","42.371493","-73.217928 ","28390","391","28390","391","","2019","124944","NYTIMES-USCENSUS"
"6/14/2022 12:00:00 AM","Starke County","Indiana","Midwest","East North Central","18149","41.284478","-86.644636 ","4886","99","4886","99","","2019","22995","NYTIMES-USCENSUS"
"6/14/2022 12:00:00 AM","Yancey County","North Carolina","South","South Atlantic","37199","35.889326","-82.303954 ","5623","58","5623","58","","2019","18069","NYTIMES-USCENSUS"
"6/14/2022 12:00:00 AM","Modoc County","California","West","Pacific","06049","41.592918","-120.71837 ","1030","8","1030","8","","2019","8841","NYTIMES-USCENSUS"
"6/14/2022 12:00:00 AM","Hot Springs County","Wyoming","West","Mountain","56017","43.720209","-108.435076 ","1201","17","1201","17","","2019","4413","NYTIMES-USCENSUS"
"6/14/2022 12:00:00 AM","Greene County","Georgia","South","South Atlantic","13133","33.576704","-83.166625 ","4040","85","4040","85","","2019","18324","NYTIMES-USCENSUS"
"6/14/2022 12:00:00 AM","Hockley County","Texas","South","West South Central","48219","33.605932","-102.343398 ","7821","162","7821","162","","2019","23021","NYTIMES-USCENSUS"
"6/14/2022 12:00:00 AM","Hartley County","Texas","South","West South Central","48205","35.840244","-102.610047 ","1369","3","1369","3","","2019","5576","NYTIMES-USCENSUS"
"6/14/2022 12:00:00 AM","Coleman County","Texas","South","West South Central","48083","31.914205","-99.346622 ","1661","71","1661","71","","2019","8175","NYTIMES-USCENSUS"
"6/14/2022 12:00:00 AM","McCook County","South Dakota","Midwest","West North Central","46087","43.680416","-97.358048 ","1353","31","1353","31","","2019","5586","NYTIMES-USCENSUS"
"6/14/2022 12:00:00 AM","Washington County","Minnesota","Midwest","West North Central","27163","45.037929","-92.890117 ","71877","490","71877","490","","2019","262440","NYTIMES-USCENSUS"
"6/14/2022 12:00:00 AM","Steele County","North Dakota","Midwest","West North Central","38091","47.451062","-97.71892 ","387","2","387","2","","2019","1890","NYTIMES-USCENSUS"
"6/14/2022 12:00:00 AM","Lincoln County","West Virginia","South","South Atlantic","54043","38.17177","-82.077623 ","5798","84","5798","84","","2019","20409","NYTIMES-USCENSUS"
"6/14/2022 12:00:00 AM","Upshur County","Texas","South","West South Central","48459","32.735349","-94.941184 ","7981","186","7981","186","","2019","41753","NYTIMES-USCENSUS"
"6/14/2022 12:00:00 AM","Trigg County","Kentucky","South","East South Central","21221","36.807681","-87.858652 ","4098","45","4098","45","","2019","14651","NYTIMES-USCENSUS"
"6/14/2022 12:00:00 AM","Ouachita Parish","Louisiana","South","West South Central","22073","32.480932","-92.151581 ","51339","756","51339","756","","2019","153279","NYTIMES-USCENSUS"
"6/14/2022 12:00:00 AM","Alamance County","North Carolina","South","South Atlantic","37001","36.043954","-79.400573 ","49661","496","49661","496","","2019","169509","NYTIMES-USCENSUS"
"6/14/2022 12:00:00 AM","Rutland County","Vermont","Northeast","New England","50021","43.580858","-73.038202 ","14373","77","14373","77","","2019","58191","NYTIMES-USCENSUS"
"6/14/2022 12:00:00 AM","Benton County","Arkansas","South","West South Central","05007","36.337819","-94.256298 ","68191","864","68191","864","","2019","279141","NYTIMES-USCENSUS"
"6/14/2022 12:00:00 AM","Jim Hogg County","Texas","South","West South Central","48247","27.053231","-98.747572 ","2774","22","2774","22","","2019","5200","NYTIMES-USCENSUS"
"6/14/2022 12:00:00 AM","Greenwood County","South Carolina","South","South Atlantic","45047","34.155796","-82.127876 ","22838","309","22838","309","","2019","70811","NYTIMES-USCENSUS"
"6/14/2022 12:00:00 AM","Beaver County","Pennsylvania","Northeast","Middle Atlantic","42007","40.68414","-80.350721 ","41943","758","41943","758","","2019","163929","NYTIMES-USCENSUS"
"6/14/2022 12:00:00 AM","Oregon County","Missouri","Midwest","West North Central","29149","36.68531","-91.401827 ","2055","37","2055","37","","2019","10529","NYTIMES-USCENSUS"
"6/14/2022 12:00:00 AM","Anoka County","Minnesota","Midwest","West North Central","27003","45.27411","-93.242723 ","103831","807","103831","807","","2019","356921","NYTIMES-USCENSUS"
"6/14/2022 12:00:00 AM","New Kent County","Virginia","South","South Atlantic","51127","37.51016","-76.999331 ","4928","32","4928","32","","2019","23091","NYTIMES-USCENSUS"
"6/14/2022 12:00:00 AM","East Baton Rouge Parish","Louisiana","South","West South Central","22033","30.54393","-91.093131 ","115341","1351","115341","1351","","2019","440059","NYTIMES-USCENSUS"
"6/14/2022 12:00:00 AM","Grant County","Arkansas","South","West South Central","05053","34.285568","-92.422979 ","4521","62","4521","62","","2019","18265","NYTIMES-USCENSUS"
"6/14/2022 12:00:00 AM","Rio Blanco County","Colorado","West","Mountain","08103","39.972622","-108.200716 ","1779","13","1779","13","","2019","6324","NYTIMES-USCENSUS"
"6/14/2022 12:00:00 AM","Morgan County","Missouri","Midwest","West North Central","29141","38.420806","-92.874835 ","4100","115","4100","115","","2019","20627","NYTIMES-USCENSUS"
"6/14/2022 12:00:00 AM","Dakota County","Nebraska","Midwest","West North Central","31043","42.391624","-96.561327 ","6887","82","6887","82","","2019","20026","NYTIMES-USCENSUS"
"6/14/2022 12:00:00 AM","Jackson County","Michigan","Midwest","East North Central","26075","42.248474","-84.420868 ","46784","596","46784","596","","2019","158510","NYTIMES-USCENSUS"
"6/14/2022 12:00:00 AM","Cass County","Nebraska","Midwest","West North Central","31025","40.909878","-96.140609 ","6249","46","6249","46","","2019","26248","NYTIMES-USCENSUS"
"6/14/2022 12:00:00 AM","Valley County","Nebraska","Midwest","West North Central","31175","41.564094","-98.983484 ","740","6","740","6","","2019","4158","NYTIMES-USCENSUS"
"6/14/2022 12:00:00 AM","Garden County","Nebraska","Midwest","West North Central","31069","41.633364","-102.302985 ","380","1","380","1","","2019","1837","NYTIMES-USCENSUS"
"6/14/2022 12:00:00 AM","Fort Bend County","Texas","South","West South Central","48157","29.526602","-95.771015 ","200057","1265","200057","1265","","2019","811688","NYTIMES-USCENSUS"
"6/14/2022 12:00:00 AM","Alexander County","Illinois","Midwest","East North Central","17003","37.183658","-89.349516 ","1323","15","1323","15","","2019","5761","NYTIMES-USCENSUS"
"6/14/2022 12:00:00 AM","Montgomery County","Mississippi","South","East South Central","28097","33.500714","-89.639625 ","3011","78","3011","78","","2019","9775","NYTIMES-USCENSUS"
"6/14/2022 12:00:00 AM","Mitchell County","Texas","South","West South Central","48335","32.304117","-100.924392 ","1876","49","1876","49","","2019","8545","NYTIMES-USCENSUS"
"6/14/2022 12:00:00 AM","Morrow County","Oregon","West","Pacific","41049","45.425496","-119.602311 ","3019","34","3019","34","","2019","11603","NYTIMES-USCENSUS"
"6/14/2022 12:00:00 AM","Jackson County","Missouri","Midwest","West North Central","29095","39.005364","-94.343211 ","99281","1223","99281","1223","","2019","703011","NYTIMES-USCENSUS"
"6/14/2022 12:00:00 AM","Watonwan County","Minnesota","Midwest","West North Central","27165","43.978109","-94.613798 ","3033","24","3033","24","","2019","10897","NYTIMES-USCENSUS"
"6/14/2022 12:00:00 AM","Tooele County","Utah","West","Mountain","49045","40.467753","-113.123979 ","21996","104","21996","104","","2019","72259","NYTIMES-USCENSUS"
"6/14/2022 12:00:00 AM","Suffolk County","Massachusetts","Northeast","New England","25025","42.338551","-71.018253 ","235687","2031","235687","2031","","2019","803907","NYTIMES-USCENSUS"
"6/14/2022 12:00:00 AM","Westmoreland County","Virginia","South","South Atlantic","51193","38.109311","-76.803933 ","3395","52","3395","52","","2019","18015","NYTIMES-USCENSUS"
"6/14/2022 12:00:00 AM","San Diego County","California","West","Pacific","06073","33.023604","-116.776117 ","868656","5316","868656","5316","","2019","3338330","NYTIMES-USCENSUS"
"6/14/2022 12:00:00 AM","La Salle County","Texas","South","West South Central","48283","28.351098","-99.096774 ","2447","48","2447","48","","2019","7520","NYTIMES-USCENSUS"
"6/14/2022 12:00:00 AM","Carson City","Nevada","West","Mountain","32510","39.15306","-119.747368 ","15370","219","15370","219","","2019","55916","NYTIMES-USCENSUS"
"6/14/2022 12:00:00 AM","Kosciusko County","Indiana","Midwest","East North Central","18085","41.244293","-85.861575 ","20125","237","20125","237","","2019","79456","NYTIMES-USCENSUS"
"6/14/2022 12:00:00 AM","Indian River County","Florida","South","South Atlantic","12061","27.700528","-80.574789 ","34592","659","34592","659","","2019","159923","NYTIMES-USCENSUS"
"6/14/2022 12:00:00 AM","Wyoming County","Pennsylvania","Northeast","Middle Atlantic","42131","41.525173","-76.008731 ","5524","108","5524","108","","2019","26794","NYTIMES-USCENSUS"
"6/14/2022 12:00:00 AM","Jefferson County","Alabama","South","East South Central","01073","33.553444","-86.896536 ","190903","2383","190903","2383","","2019","658573","NYTIMES-USCENSUS"
"6/14/2022 12:00:00 AM","McDowell County","North Carolina","South","South Atlantic","37111","35.682271","-82.048044 ","14185","177","14185","177","","2019","45756","NYTIMES-USCENSUS"
"6/14/2022 12:00:00 AM","Wilson County","North Carolina","South","South Atlantic","37195","35.700357","-77.921598 ","22415","323","22415","323","","2019","81801","NYTIMES-USCENSUS"
"6/14/2022 12:00:00 AM","Wexford County","Michigan","Midwest","East North Central","26165","44.331375","-85.570046 ","7419","107","7419","107","","2019","33631","NYTIMES-USCENSUS"
"6/14/2022 12:00:00 AM","McClain County","Oklahoma","South","West South Central","40087","35.016436","-97.449803 ","11877","138","11877","138","","2019","40474","NYTIMES-USCENSUS"
"6/14/2022 12:00:00 AM","Evangeline Parish","Louisiana","South","West South Central","22039","30.720693","-92.404086 ","8537","160","8537","160","","2019","33395","NYTIMES-USCENSUS"
"6/14/2022 12:00:00 AM","Spalding County","Georgia","South","South Atlantic","13255","33.262348","-84.284905 ","16242","421","16242","421","","2019","66703","NYTIMES-USCENSUS"
"6/14/2022 12:00:00 AM","Clay County","Indiana","Midwest","East North Central","18021","39.393928","-87.115858 ","6974","89","6974","89","","2019","26225","NYTIMES-USCENSUS"
"6/14/2022 12:00:00 AM","Boone County","Iowa","Midwest","West North Central","19015","42.038642","-93.938603 ","5658","55","5658","55","","2019","26234","NYTIMES-USCENSUS"
"6/14/2022 12:00:00 AM","Haskell County","Texas","South","West South Central","48207","33.175964","-99.730774 ","903","39","903","39","","2019","5658","NYTIMES-USCENSUS"
"6/14/2022 12:00:00 AM","Franklin County","Missouri","Midwest","West North Central","29071","38.413003","-91.072832 ","26467","376","26467","376","","2019","103967","NYTIMES-USCENSUS"
"6/14/2022 12:00:00 AM","Burleigh County","North Dakota","Midwest","West North Central","38015","46.978829","-100.469533 ","35558","303","35558","303","","2019","95626","NYTIMES-USCENSUS"
"6/14/2022 12:00:00 AM","Sherburne County","Minnesota","Midwest","West North Central","27141","45.453176","-93.76913 ","28253","182","28253","182","","2019","97238","NYTIMES-USCENSUS"
"6/14/2022 12:00:00 AM","Mercer County","North Dakota","Midwest","West North Central","38057","47.307147","-101.833328 ","2615","24","2615","24","","2019","8187","NYTIMES-USCENSUS"
"6/14/2022 12:00:00 AM","Clark County","Nevada","West","Mountain","32003","36.21413","-115.014398 ","563205","8548","563205","8548","","2019","2266715","NYTIMES-USCENSUS"
"6/14/2022 12:00:00 AM","Cumberland County","Maine","Northeast","New England","23005","43.808348","-70.330375 ","55599","380","55599","380","","2019","295003","NYTIMES-USCENSUS"
"6/14/2022 12:00:00 AM","Forest County","Pennsylvania","Northeast","Middle Atlantic","42053","41.513304","-79.249705 ","2289","35","2289","35","","2019","7247","NYTIMES-USCENSUS"
"6/14/2022 12:00:00 AM","Renville County","North Dakota","Midwest","West North Central","38075","48.712781","-101.658152 ","568","15","568","15","","2019","2327","NYTIMES-USCENSUS"
"6/14/2022 12:00:00 AM","Holt County","Missouri","Midwest","West North Central","29087","40.095724","-95.219072 ","1104","30","1104","30","","2019","4403","NYTIMES-USCENSUS"
"6/14/2022 12:00:00 AM","Lewis County","West Virginia","South","South Atlantic","54041","38.988877","-80.495477 ","5658","88","5658","88","","2019","15907","NYTIMES-USCENSUS"
"6/14/2022 12:00:00 AM","Union County","South Carolina","South","South Atlantic","45087","34.690397","-81.615896 ","7862","150","7862","150","","2019","27316","NYTIMES-USCENSUS"
"6/14/2022 12:00:00 AM","Whitfield County","Georgia","South","South Atlantic","13313","34.801726","-84.968541 ","34276","439","34276","439","","2019","104628","NYTIMES-USCENSUS"
"6/14/2022 12:00:00 AM","Bamberg County","South Carolina","South","South Atlantic","45009","33.203021","-81.053161 ","3535","75","3535","75","","2019","14066","NYTIMES-USCENSUS"
"6/14/2022 12:00:00 AM","Mitchell County","Kansas","Midwest","West North Central","20123","39.393026","-98.207362 ","1438","24","1438","24","","2019","5979","NYTIMES-USCENSUS"
"6/14/2022 12:00:00 AM","Pulaski County","Kentucky","South","East South Central","21199","37.107452","-84.576969 ","18471","294","18471","294","","2019","64979","NYTIMES-USCENSUS"
"6/14/2022 12:00:00 AM","Madison County","Arkansas","South","West South Central","05087","36.012545","-93.724053 ","4046","63","4046","63","","2019","16576","NYTIMES-USCENSUS"
"6/14/2022 12:00:00 AM","Kimble County","Texas","South","West South Central","48267","30.479472","-99.746396 ","736","15","736","15","","2019","4337","NYTIMES-USCENSUS"
"6/14/2022 12:00:00 AM","Washington County","Nebraska","Midwest","West North Central","31177","41.533973","-96.224577 ","4669","45","4669","45","","2019","20729","NYTIMES-USCENSUS"
"6/14/2022 12:00:00 AM","Union County","Iowa","Midwest","West North Central","19175","41.02855","-94.245091 ","2759","51","2759","51","","2019","12241","NYTIMES-USCENSUS"
"6/14/2022 12:00:00 AM","Torrance County","New Mexico","West","Mountain","35057","34.554978","-105.890557 ","3259","58","3259","58","","2019","15461","NYTIMES-USCENSUS"
"6/14/2022 12:00:00 AM","Douglas County","Illinois","Midwest","East North Central","17041","39.766078","-88.222866 ","6741","61","6741","61","","2019","19465","NYTIMES-USCENSUS"
"6/14/2022 12:00:00 AM","Phelps County","Missouri","Midwest","West North Central","29161","37.866326","-91.790349 ","10490","245","10490","245","","2019","44573","NYTIMES-USCENSUS"
"6/14/2022 12:00:00 AM","San Francisco County","California","West","Pacific","06075","37.727239","-123.032229 ","161075","890","161075","890","","2019","881549","NYTIMES-USCENSUS"
"6/14/2022 12:00:00 AM","Idaho County","Idaho","West","Mountain","16049","45.849644","-115.467337 ","3060","52","3060","52","","2019","16667","NYTIMES-USCENSUS"
"6/14/2022 12:00:00 AM","Scott County","Arkansas","South","West South Central","05127","34.858869","-94.063641 ","2325","44","2325","44","","2019","10281","NYTIMES-USCENSUS"
"6/14/2022 12:00:00 AM","Wake County","North Carolina","South","South Atlantic","37183","35.789846","-78.650624 ","322105","1149","322105","1149","","2019","1111761","NYTIMES-USCENSUS"
"6/14/2022 12:00:00 AM","Ransom County","North Dakota","Midwest","West North Central","38073","46.449276","-97.647554 ","1534","28","1534","28","","2019","5218","NYTIMES-USCENSUS"
"6/14/2022 12:00:00 AM","Ashley County","Arkansas","South","West South Central","05003","33.190835","-91.772267 ","5173","66","5173","66","","2019","19657","NYTIMES-USCENSUS"
"6/14/2022 12:00:00 AM","Androscoggin County","Maine","Northeast","New England","23001","44.167681","-70.207435 ","24035","289","24035","289","","2019","108277","NYTIMES-USCENSUS"
"6/14/2022 12:00:00 AM","Jackson County","Oklahoma","South","West South Central","40065","34.594006","-99.412235 ","6616","108","6616","108","","2019","24530","NYTIMES-USCENSUS"
"6/14/2022 12:00:00 AM","Magoffin County","Kentucky","South","East South Central","21153","37.698983","-83.069721 ","4055","52","4055","52","","2019","12161","NYTIMES-USCENSUS"
"6/14/2022 12:00:00 AM","Pike County","Arkansas","South","West South Central","05109","34.158191","-93.658659 ","2635","44","2635","44","","2019","10718","NYTIMES-USCENSUS"
"6/14/2022 12:00:00 AM","McLeod County","Minnesota","Midwest","West North Central","27085","44.821657","-94.272323 ","11138","108","11138","108","","2019","35893","NYTIMES-USCENSUS"
"6/14/2022 12:00:00 AM","Alpine County","California","West","Pacific","06003","38.621783","-119.798352 ","130","0","130","0","","2019","1129","NYTIMES-USCENSUS"
"6/14/2022 12:00:00 AM","Marion County","Kansas","Midwest","West North Central","20115","38.359647","-97.102771 ","3391","46","3391","46","","2019","11884","NYTIMES-USCENSUS"
"6/14/2022 12:00:00 AM","Athens County","Ohio","Midwest","East North Central","39009","39.332755","-82.045885 ","15257","143","15257","143","","2019","65327","NYTIMES-USCENSUS"
"6/14/2022 12:00:00 AM","Washington County","Colorado","West","Mountain","08121","39.96579","-103.209744 ","1076","29","1076","29","","2019","4908","NYTIMES-USCENSUS"
"6/14/2022 12:00:00 AM","Clay County","West Virginia","South","South Atlantic","54015","38.459826","-81.081866 ","2389","43","2389","43","","2019","8508","NYTIMES-USCENSUS"
"6/14/2022 12:00:00 AM","Butte County","California","West","Pacific","06007","39.665336","-121.603209 ","42033","430","42033","430","","2019","219186","NYTIMES-USCENSUS"
"6/14/2022 12:00:00 AM","Park County","Wyoming","West","Mountain","56029","44.492387","-109.593597 ","6975","144","6975","144","","2019","29194","NYTIMES-USCENSUS"
"6/14/2022 12:00:00 AM","Grant County","North Dakota","Midwest","West North Central","38037","46.357827","-101.639049 ","453","11","453","11","","2019","2274","NYTIMES-USCENSUS"
"6/14/2022 12:00:00 AM","Dickinson County","Iowa","Midwest","West North Central","19059","43.389611","-95.196057 ","4187","73","4187","73","","2019","17258","NYTIMES-USCENSUS"
"6/14/2022 12:00:00 AM","Navajo County","Arizona","West","Mountain","04017","35.390785","-110.321025 ","39055","911","39055","911","","2019","110924","NYTIMES-USCENSUS"
"6/14/2022 12:00:00 AM","Oswego County","New York","Northeast","Middle Atlantic","36075","43.461443","-76.209262 ","29491","198","29491","198","","2019","117124","NYTIMES-USCENSUS"
"6/14/2022 12:00:00 AM","Ford County","Kansas","Midwest","West North Central","20057","37.688416","-99.884748 ","10683","118","10683","118","","2019","33619","NYTIMES-USCENSUS"
"6/14/2022 12:00:00 AM","Suffolk County","New York","Northeast","Middle Atlantic","36103","40.943554","-72.692218 ","465546","4461","465546","4461","","2019","1476601","NYTIMES-USCENSUS"
"6/14/2022 12:00:00 AM","Walker County","Georgia","South","South Atlantic","13295","34.735802","-85.305456 ","17542","254","17542","254","","2019","69761","NYTIMES-USCENSUS"
"6/14/2022 12:00:00 AM","Hancock County","Mississippi","South","East South Central","28045","30.391641","-89.482791 ","12577","152","12577","152","","2019","47632","NYTIMES-USCENSUS"
"6/14/2022 12:00:00 AM","Jasper County","Iowa","Midwest","West North Central","19099","41.685551","-93.054147 ","8886","111","8886","111","","2019","37185","NYTIMES-USCENSUS"
"6/14/2022 12:00:00 AM","Hickman County","Tennessee","South","East South Central","47081","35.802327","-87.467116 ","6932","110","6932","110","","2019","25178","NYTIMES-USCENSUS"
"6/14/2022 12:00:00 AM","Big Stone County","Minnesota","Midwest","West North Central","27011","45.419925","-96.402226 ","1455","9","1455","9","","2019","4991","NYTIMES-USCENSUS"
"6/14/2022 12:00:00 AM","Morgan County","Indiana","Midwest","East North Central","18109","39.482646","-86.447457 ","16946","289","16946","289","","2019","70489","NYTIMES-USCENSUS"
"6/14/2022 12:00:00 AM","Dewey County","South Dakota","Midwest","West North Central","46041","45.148049","-100.837953 ","3140","44","3140","44","","2019","5892","NYTIMES-USCENSUS"
"6/14/2022 12:00:00 AM","Morris County","Kansas","Midwest","West North Central","20127","38.688204","-96.651448 ","1522","30","1522","30","","2019","5620","NYTIMES-USCENSUS"
"6/14/2022 12:00:00 AM","Saunders County","Nebraska","Midwest","West North Central","31155","41.223388","-96.642097 ","5077","30","5077","30","","2019","21578","NYTIMES-USCENSUS"
"6/14/2022 12:00:00 AM","Elmore County","Alabama","South","East South Central","01051","32.597229","-86.142735 ","23822","347","23822","347","","2019","81209","NYTIMES-USCENSUS"
"6/14/2022 12:00:00 AM","Putnam County","Tennessee","South","East South Central","47141","36.14094","-85.49618 ","25419","305","25419","305","","2019","80245","NYTIMES-USCENSUS"
"6/14/2022 12:00:00 AM","Multnomah County","Oregon","West","Pacific","41051","45.547711","-122.417363 ","135769","1233","135769","1233","","2019","812855","NYTIMES-USCENSUS"
"6/14/2022 12:00:00 AM","Stone County","Mississippi","South","East South Central","28131","30.790184","-89.112297 ","5485","72","5485","72","","2019","18336","NYTIMES-USCENSUS"
"6/14/2022 12:00:00 AM","Clearfield County","Pennsylvania","Northeast","Middle Atlantic","42033","41.006862","-78.477724 ","20108","352","20108","352","","2019","79255","NYTIMES-USCENSUS"
"6/14/2022 12:00:00 AM","Stutsman County","North Dakota","Midwest","West North Central","38093","46.972223","-98.956123 ","7184","97","7184","97","","2019","20704","NYTIMES-USCENSUS"
"6/14/2022 12:00:00 AM","Beadle County","South Dakota","Midwest","West North Central","46005","44.418265","-98.279422 ","4629","60","4629","60","","2019","18453","NYTIMES-USCENSUS"
"6/14/2022 12:00:00 AM","Washington County","Idaho","West","Mountain","16087","44.448223","-116.797792 ","2433","57","2433","57","","2019","10194","NYTIMES-USCENSUS"
"6/14/2022 12:00:00 AM","Macon County","Missouri","Midwest","West North Central","29121","39.829795","-92.56434 ","3703","59","3703","59","","2019","15117","NYTIMES-USCENSUS"
"6/14/2022 12:00:00 AM","Island County","Washington","West","Pacific","53029","48.158554","-122.670649 ","11328","78","11328","78","","2019","85141","NYTIMES-USCENSUS"
"6/14/2022 12:00:00 AM","Mason County","West Virginia","South","South Atlantic","54053","38.770914","-82.029007 ","7038","95","7038","95","","2019","26516","NYTIMES-USCENSUS"
"6/14/2022 12:00:00 AM","San Mateo County","California","West","Pacific","06081","37.414672","-122.371546 ","152066","766","152066","766","","2019","766573","NYTIMES-USCENSUS"
"6/14/2022 12:00:00 AM","Osceola County","Michigan","Midwest","East North Central","26133","43.997552","-85.322283 ","5221","81","5221","81","","2019","23460","NYTIMES-USCENSUS"
"6/14/2022 12:00:00 AM","Wilkes County","North Carolina","South","South Atlantic","37193","36.208883","-81.166095 ","18172","271","18172","271","","2019","68412","NYTIMES-USCENSUS"
"6/14/2022 12:00:00 AM","Ohio County","Indiana","Midwest","East North Central","18115","38.940527","-84.964299 ","1479","19","1479","19","","2019","5875","NYTIMES-USCENSUS"
"6/14/2022 12:00:00 AM","Essex County","New York","Northeast","Middle Atlantic","36031","44.109601","-73.778431 ","6461","64","6461","64","","2019","36885","NYTIMES-USCENSUS"
"6/14/2022 12:00:00 AM","Pope County","Illinois","Midwest","East North Central","17151","37.417169","-88.542374 ","981","9","981","9","","2019","4177","NYTIMES-USCENSUS"
"6/14/2022 12:00:00 AM","Brown County","Wisconsin","Midwest","East North Central","55009","44.474024","-87.99613 ","88272","564","88272","564","","2019","264542","NYTIMES-USCENSUS"
"6/14/2022 12:00:00 AM","Whiteside County","Illinois","Midwest","East North Central","17195","41.750673","-89.911005 ","16311","270","16311","270","","2019","55175","NYTIMES-USCENSUS"
"6/14/2022 12:00:00 AM","McMinn County","Tennessee","South","East South Central","47107","35.424472","-84.619949 ","16823","264","16823","264","","2019","53794","NYTIMES-USCENSUS"
"6/14/2022 12:00:00 AM","LaPorte County","Indiana","Midwest","East North Central","18091","41.549013","-86.744739 ","26843","372","26843","372","","2019","109888","NYTIMES-USCENSUS"
"6/14/2022 12:00:00 AM","Eau Claire County","Wisconsin","Midwest","East North Central","55035","44.726355","-91.286414 ","32104","192","32104","192","","2019","104646","NYTIMES-USCENSUS"
"6/14/2022 12:00:00 AM","McPherson County","Nebraska","Midwest","West North Central","31117","41.648414","-101.120851 ","69","1","69","1","","2019","494","NYTIMES-USCENSUS"
"6/14/2022 12:00:00 AM","Windsor County","Vermont","Northeast","New England","50027","43.572448","-72.598813 ","10082","56","10082","56","","2019","55062","NYTIMES-USCENSUS"
"6/14/2022 12:00:00 AM","Gallatin County","Illinois","Midwest","East North Central","17059","37.768677","-88.227964 ","1454","18","1454","18","","2019","4828","NYTIMES-USCENSUS"
"6/14/2022 12:00:00 AM","Humphreys County","Mississippi","South","East South Central","28053","33.130996","-90.523421 ","2054","46","2054","46","","2019","8064","NYTIMES-USCENSUS"
"6/14/2022 12:00:00 AM","Calhoun County","Georgia","South","South Atlantic","13037","31.521279","-84.62629 ","1366","23","1366","23","","2019","6189","NYTIMES-USCENSUS"
"6/14/2022 12:00:00 AM","Frederick County","Virginia","South","South Atlantic","51069","39.20366","-78.263829 ","21686","251","21686","251","","2019","89313","NYTIMES-USCENSUS"
"6/14/2022 12:00:00 AM","Davie County","North Carolina","South","South Atlantic","37059","35.929355","-80.542552 ","11750","108","11750","108","","2019","42846","NYTIMES-USCENSUS"
"6/14/2022 12:00:00 AM","Yell County","Arkansas","South","West South Central","05149","34.997713","-93.408303 ","6877","107","6877","107","","2019","21341","NYTIMES-USCENSUS"
"6/14/2022 12:00:00 AM","Lawrence County","South Dakota","Midwest","West North Central","46081","44.348514","-103.806362 ","6689","83","6689","83","","2019","25844","NYTIMES-USCENSUS"
"6/14/2022 12:00:00 AM","Walla Walla County","Washington","West","Pacific","53071","46.254606","-118.48037 ","16969","143","16969","143","","2019","60760","NYTIMES-USCENSUS"
"6/14/2022 12:00:00 AM","Pickaway County","Ohio","Midwest","East North Central","39129","39.648947","-83.052827 ","17979","231","17979","231","","2019","58457","NYTIMES-USCENSUS"
"6/14/2022 12:00:00 AM","Pittsylvania County","Virginia","South","South Atlantic","51143","36.821721","-79.398502 ","14985","201","14985","201","","2019","60354","NYTIMES-USCENSUS"
"6/14/2022 12:00:00 AM","Botetourt County","Virginia","South","South Atlantic","51023","37.565482","-79.797546 ","7895","104","7895","104","","2019","33419","NYTIMES-USCENSUS"
"6/14/2022 12:00:00 AM","Union County","Ohio","Midwest","East North Central","39159","40.295901","-83.367042 ","16400","102","16400","102","","2019","58988","NYTIMES-USCENSUS"
"6/14/2022 12:00:00 AM","Washington County","Utah","West","Mountain","49053","37.262531","-113.4878 ","45738","467","45738","467","","2019","177556","NYTIMES-USCENSUS"
"6/14/2022 12:00:00 AM","Clinton County","Iowa","Midwest","West North Central","19045","41.898073","-90.534243 ","11830","146","11830","146","","2019","46429","NYTIMES-USCENSUS"
"6/14/2022 12:00:00 AM","Page County","Virginia","South","South Atlantic","51139","38.623209","-78.491872 ","5792","123","5792","123","","2019","23902","NYTIMES-USCENSUS"
"6/14/2022 12:00:00 AM","Putnam County","Ohio","Midwest","East North Central","39137","41.024533","-84.129879 ","8603","157","8603","157","","2019","33861","NYTIMES-USCENSUS"
"6/14/2022 12:00:00 AM","Weakley County","Tennessee","South","East South Central","47183","36.303596","-88.721194 ","9669","156","9669","156","","2019","33328","NYTIMES-USCENSUS"
"6/14/2022 12:00:00 AM","Sumner County","Tennessee","South","East South Central","47165","36.472423","-86.458405 ","54479","731","54479","731","","2019","191283","NYTIMES-USCENSUS"
"6/14/2022 12:00:00 AM","Stafford County","Kansas","Midwest","West North Central","20185","38.03563","-98.719889 ","1167","28","1167","28","","2019","4156","NYTIMES-USCENSUS"
"6/14/2022 12:00:00 AM","Fauquier County","Virginia","South","South Atlantic","51061","38.744096","-77.8215 ","13734","146","13734","146","","2019","71222","NYTIMES-USCENSUS"
"6/14/2022 12:00:00 AM","Tulare County","California","West","Pacific","06107","36.228834","-118.781055 ","140309","1495","140309","1495","","2019","466195","NYTIMES-USCENSUS"
"6/14/2022 12:00:00 AM","New Hanover County","North Carolina","South","South Atlantic","37129","34.183445","-77.864204 ","53081","398","53081","398","","2019","234473","NYTIMES-USCENSUS"
"6/14/2022 12:00:00 AM","McPherson County","South Dakota","Midwest","West North Central","46089","45.784249","-99.211421 ","431","9","431","9","","2019","2379","NYTIMES-USCENSUS"
"6/14/2022 12:00:00 AM","Lee County","Kentucky","South","East South Central","21129","37.608116","-83.719248 ","2966","54","2966","54","","2019","7403","NYTIMES-USCENSUS"
"6/14/2022 12:00:00 AM","Greene County","Tennessee","South","East South Central","47059","36.179487","-82.847523 ","22444","376","22444","376","","2019","69069","NYTIMES-USCENSUS"
"6/14/2022 12:00:00 AM","Camden County","North Carolina","South","South Atlantic","37029","36.342344","-76.162488 ","1850","9","1850","9","","2019","10867","NYTIMES-USCENSUS"
"6/14/2022 12:00:00 AM","Goliad County","Texas","South","West South Central","48175","28.6607","-97.430415 ","1244","32","1244","32","","2019","7658","NYTIMES-USCENSUS"
"6/14/2022 12:00:00 AM","Perry County","Missouri","Midwest","West North Central","29157","37.71113","-89.802125 ","5139","46","5139","46","","2019","19136","NYTIMES-USCENSUS"
"6/14/2022 12:00:00 AM","Noxubee County","Mississippi","South","East South Central","28103","33.106606","-88.566152 ","2747","48","2747","48","","2019","10417","NYTIMES-USCENSUS"
"6/14/2022 12:00:00 AM","Ravalli County","Montana","West","Mountain","30081","46.077744","-114.105795 ","7198","164","7198","164","","2019","43806","NYTIMES-USCENSUS"
"6/14/2022 12:00:00 AM","Livingston County","Missouri","Midwest","West North Central","29117","39.778587","-93.548201 ","3804","97","3804","97","","2019","15227","NYTIMES-USCENSUS"
"6/14/2022 12:00:00 AM","Robertson County","Tennessee","South","East South Central","47147","36.527509","-86.869354 ","21888","308","21888","308","","2019","71813","NYTIMES-USCENSUS"
"6/14/2022 12:00:00 AM","Williamson County","Illinois","Midwest","East North Central","17199","37.730353","-88.930018 ","23474","264","23474","264","","2019","66597","NYTIMES-USCENSUS"
"6/14/2022 12:00:00 AM","Reagan County","Texas","South","West South Central","48383","31.375191","-101.514395 ","869","14","869","14","","2019","3849","NYTIMES-USCENSUS"
"6/14/2022 12:00:00 AM","Johnson County","Texas","South","West South Central","48251","32.379821","-97.364959 ","44480","737","44480","737","","2019","175817","NYTIMES-USCENSUS"
"6/14/2022 12:00:00 AM","Auglaize County","Ohio","Midwest","East North Central","39011","40.561309","-84.224018 ","11769","189","11769","189","","2019","45656","NYTIMES-USCENSUS"
"6/14/2022 12:00:00 AM","Moffat County","Colorado","West","Mountain","08081","40.610864","-108.217154 ","3166","52","3166","52","","2019","13283","NYTIMES-USCENSUS"
"6/14/2022 12:00:00 AM","Coal County","Oklahoma","South","West South Central","40029","34.582861","-96.288039 ","1688","24","1688","24","","2019","5495","NYTIMES-USCENSUS"
"6/14/2022 12:00:00 AM","St. Bernard Parish","Louisiana","South","West South Central","22087","29.91811","-89.263494 ","11891","112","11891","112","","2019","47244","NYTIMES-USCENSUS"
"6/14/2022 12:00:00 AM","Geneva County","Alabama","South","East South Central","01061","31.092382","-85.821022 ","6573","164","6573","164","","2019","26271","NYTIMES-USCENSUS"
"6/14/2022 12:00:00 AM","Defiance County","Ohio","Midwest","East North Central","39039","41.321679","-84.486433 ","10428","166","10428","166","","2019","38087","NYTIMES-USCENSUS"
"6/14/2022 12:00:00 AM","Norton County","Kansas","Midwest","West North Central","20137","39.783867","-99.899235 ","2159","37","2159","37","","2019","5361","NYTIMES-USCENSUS"
"6/14/2022 12:00:00 AM","Baltimore city","Maryland","South","South Atlantic","24510","39.300032","-76.610476 ","123309","1797","123309","1797","","2019","593490","NYTIMES-USCENSUS"
"6/14/2022 12:00:00 AM","Champaign County","Illinois","Midwest","East North Central","17019","40.138985","-88.196975 ","70270","297","70270","297","","2019","209689","NYTIMES-USCENSUS"
"6/14/2022 12:00:00 AM","Maries County","Missouri","Midwest","West North Central","29125","38.162615","-91.923601 ","1633","39","1633","39","","2019","8697","NYTIMES-USCENSUS"
"6/14/2022 12:00:00 AM","Crittenden County","Arkansas","South","West South Central","05035","35.197559","-90.30512 ","14618","227","14618","227","","2019","47955","NYTIMES-USCENSUS"
"6/14/2022 12:00:00 AM","Douglas County","Missouri","Midwest","West North Central","29067","36.946517","-92.515892 ","2590","80","2590","80","","2019","13185","NYTIMES-USCENSUS"
"6/14/2022 12:00:00 AM","Hardin County","Iowa","Midwest","West North Central","19083","42.390208","-93.241669 ","4231","62","4231","62","","2019","16846","NYTIMES-USCENSUS"
"6/14/2022 12:00:00 AM","Leon County","Texas","South","West South Central","48289","31.300493","-95.995622 ","3744","93","3744","93","","2019","17404","NYTIMES-USCENSUS"
"6/14/2022 12:00:00 AM","DeKalb County","Illinois","Midwest","East North Central","17037","41.894612","-88.768991 ","25893","204","25893","204","","2019","104897","NYTIMES-USCENSUS"
"6/14/2022 12:00:00 AM","Victoria County","Texas","South","West South Central","48469","28.79637","-96.971198 ","19314","413","19314","413","","2019","92084","NYTIMES-USCENSUS"
"6/14/2022 12:00:00 AM","Ness County","Kansas","Midwest","West North Central","20135","38.480437","-99.908745 ","782","19","782","19","","2019","2750","NYTIMES-USCENSUS"
"6/14/2022 12:00:00 AM","Warren County","Ohio","Midwest","East North Central","39165","39.425663","-84.16994 ","60116","586","60116","586","","2019","234602","NYTIMES-USCENSUS"
"6/14/2022 12:00:00 AM","Hamblen County","Tennessee","South","East South Central","47063","36.218397","-83.266071 ","19899","363","19899","363","","2019","64934","NYTIMES-USCENSUS"
"6/14/2022 12:00:00 AM","Haskell County","Kansas","Midwest","West North Central","20081","37.554979","-100.879952 ","973","12","973","12","","2019","3968","NYTIMES-USCENSUS"
"6/14/2022 12:00:00 AM","Irion County","Texas","South","West South Central","48235","31.303424","-100.981304 ","465","3","465","3","","2019","1536","NYTIMES-USCENSUS"
"6/14/2022 12:00:00 AM","Jefferson County","Ohio","Midwest","East North Central","39081","40.399384","-80.763527 ","15322","322","15322","322","","2019","65325","NYTIMES-USCENSUS"
"6/14/2022 12:00:00 AM","Wichita County","Texas","South","West South Central","48485","33.988212","-98.70801 ","34418","680","34418","680","","2019","132230","NYTIMES-USCENSUS"
"6/14/2022 12:00:00 AM","Carroll County","Virginia","South","South Atlantic","51035","36.731963","-80.727831 ","6993","148","6993","148","","2019","29791","NYTIMES-USCENSUS"
"6/14/2022 12:00:00 AM","Treutlen County","Georgia","South","South Atlantic","13283","32.409586","-82.570882 ","1656","61","1656","61","","2019","6901","NYTIMES-USCENSUS"
"6/14/2022 12:00:00 AM","Oglethorpe County","Georgia","South","South Atlantic","13221","33.866806","-83.074081 ","3318","58","3318","58","","2019","15259","NYTIMES-USCENSUS"
"6/14/2022 12:00:00 AM","Fentress County","Tennessee","South","East South Central","47049","36.369892","-84.937764 ","5754","129","5754","129","","2019","18523","NYTIMES-USCENSUS"
"6/14/2022 12:00:00 AM","Shelby County","Illinois","Midwest","East North Central","17173","39.384926","-88.798862 ","6355","80","6355","80","","2019","21634","NYTIMES-USCENSUS"
"6/14/2022 12:00:00 AM","Perry County","Mississippi","South","East South Central","28111","31.169307","-88.988755 ","3094","64","3094","64","","2019","11973","NYTIMES-USCENSUS"
"6/14/2022 12:00:00 AM","Claiborne County","Tennessee","South","East South Central","47025","36.501572","-83.660698 ","9213","181","9213","181","","2019","31959","NYTIMES-USCENSUS"
"6/14/2022 12:00:00 AM","Pleasants County","West Virginia","South","South Atlantic","54073","39.368133","-81.161172 ","2099","36","2099","36","","2019","7460","NYTIMES-USCENSUS"
"6/14/2022 12:00:00 AM","Crawford County","Kansas","Midwest","West North Central","20037","37.505821","-94.853897 ","12213","134","12213","134","","2019","38818","NYTIMES-USCENSUS"
"6/14/2022 12:00:00 AM","Shasta County","California","West","Pacific","06089","40.760514","-122.043556 ","37925","655","37925","655","","2019","180080","NYTIMES-USCENSUS"
"6/14/2022 12:00:00 AM","Grant County","West Virginia","South","South Atlantic","54023","39.105988","-79.195064 ","3871","56","3871","56","","2019","11568","NYTIMES-USCENSUS"
"6/14/2022 12:00:00 AM","Corson County","South Dakota","Midwest","West North Central","46031","45.685671","-101.179665 ","1071","17","1071","17","","2019","4086","NYTIMES-USCENSUS"
"6/14/2022 12:00:00 AM","Adair County","Kentucky","South","East South Central","21001","37.105559","-85.28138 ","6082","107","6082","107","","2019","19202","NYTIMES-USCENSUS"
"6/14/2022 12:00:00 AM","Chaffee County","Colorado","West","Mountain","08015","38.734599","-106.300025 ","4980","48","4980","48","","2019","20356","NYTIMES-USCENSUS"
"6/14/2022 12:00:00 AM","Rensselaer County","New York","Northeast","Middle Atlantic","36083","42.710421","-73.513845 ","35639","274","35639","274","","2019","158714","NYTIMES-USCENSUS"
"6/14/2022 12:00:00 AM","Carlton County","Minnesota","Midwest","West North Central","27017","46.603818","-92.671044 ","9618","100","9618","100","","2019","35871","NYTIMES-USCENSUS"
"6/14/2022 12:00:00 AM","Anson County","North Carolina","South","South Atlantic","37007","34.974972","-80.109763 ","6707","102","6707","102","","2019","24446","NYTIMES-USCENSUS"
"6/14/2022 12:00:00 AM","Carroll County","Georgia","South","South Atlantic","13045","33.582237","-85.080527 ","24135","462","24135","462","","2019","119992","NYTIMES-USCENSUS"
"6/14/2022 12:00:00 AM","Citrus County","Florida","South","South Atlantic","12017","28.850292","-82.595552 ","31019","982","31019","982","","2019","149657","NYTIMES-USCENSUS"
"6/14/2022 12:00:00 AM","Dodge County","Wisconsin","Midwest","East North Central","55027","43.429628","-88.701939 ","28114","339","28114","339","","2019","87839","NYTIMES-USCENSUS"
"6/14/2022 12:00:00 AM","Steele County","Minnesota","Midwest","West North Central","27147","44.015261","-93.220453 ","10861","63","10861","63","","2019","36649","NYTIMES-USCENSUS"
"6/14/2022 12:00:00 AM","Black Hawk County","Iowa","Midwest","West North Central","19013","42.471132","-92.3076 ","33808","483","33808","483","","2019","131228","NYTIMES-USCENSUS"
"6/14/2022 12:00:00 AM","Hinds County","Mississippi","South","East South Central","28049","32.267788","-90.466017 ","54335","793","54335","793","","2019","231840","NYTIMES-USCENSUS"
"6/14/2022 12:00:00 AM","Kent County","Rhode Island","Northeast","New England","44003","41.675118","-71.580282 ","53697","518","53697","518","","2019","164292","NYTIMES-USCENSUS"
"6/14/2022 12:00:00 AM","Lee County","Iowa","Midwest","West North Central","19111","40.647588","-91.477157 ","7984","142","7984","142","","2019","33657","NYTIMES-USCENSUS"
"6/14/2022 12:00:00 AM","Jack County","Texas","South","West South Central","48237","33.23216","-98.171177 ","1540","28","1540","28","","2019","8935","NYTIMES-USCENSUS"
"6/14/2022 12:00:00 AM","Scott County","Kansas","Midwest","West North Central","20171","38.481877","-100.90636 ","1289","34","1289","34","","2019","4823","NYTIMES-USCENSUS"
"6/14/2022 12:00:00 AM","Lyon County","Nevada","West","Mountain","32019","39.022213","-119.197425 ","10462","175","10462","175","","2019","57510","NYTIMES-USCENSUS"
"6/14/2022 12:00:00 AM","Lee County","Georgia","South","South Atlantic","13177","31.818419","-84.146681 ","7494","103","7494","103","","2019","29992","NYTIMES-USCENSUS"
"6/14/2022 12:00:00 AM","Arapahoe County","Colorado","West","Mountain","08005","39.644554","-104.331706 ","169976","1306","169976","1306","","2019","656590","NYTIMES-USCENSUS"
"6/14/2022 12:00:00 AM","Madera County","California","West","Pacific","06039","37.209821","-119.749802 ","45221","372","45221","372","","2019","157327","NYTIMES-USCENSUS"
"6/14/2022 12:00:00 AM","Carbon County","Pennsylvania","Northeast","Middle Atlantic","42025","40.918367","-75.705039 ","16740","301","16740","301","","2019","64182","NYTIMES-USCENSUS"
"6/14/2022 12:00:00 AM","Andrews County","Texas","South","West South Central","48003","32.312258","-102.640206 ","3874","72","3874","72","","2019","18705","NYTIMES-USCENSUS"
"6/14/2022 12:00:00 AM","Wayne County","Mississippi","South","East South Central","28153","31.642503","-88.678214 ","6043","87","6043","87","","2019","20183","NYTIMES-USCENSUS"
"6/14/2022 12:00:00 AM","Clark County","Washington","West","Pacific","53011","45.77173","-122.485953 ","95582","830","95582","830","","2019","488241","NYTIMES-USCENSUS"
"6/14/2022 12:00:00 AM","Otero County","New Mexico","West","Mountain","35035","32.615599","-105.751308 ","15945","189","15945","189","","2019","67490","NYTIMES-USCENSUS"
"6/14/2022 12:00:00 AM","Cass County","Michigan","Midwest","East North Central","26027","41.917243","-86.000142 ","11376","147","11376","147","","2019","51787","NYTIMES-USCENSUS"
"6/14/2022 12:00:00 AM","Beauregard Parish","Louisiana","South","West South Central","22011","30.645018","-93.340253 ","9457","143","9457","143","","2019","37497","NYTIMES-USCENSUS"
"6/14/2022 12:00:00 AM","Greenville County","South Carolina","South","South Atlantic","45045","34.892645","-82.372077 ","177127","2020","177127","2020","","2019","523542","NYTIMES-USCENSUS"
"6/14/2022 12:00:00 AM","Effingham County","Georgia","South","South Atlantic","13103","32.361688","-81.343355 ","13628","196","13628","196","","2019","64296","NYTIMES-USCENSUS"
"6/14/2022 12:00:00 AM","Thomas County","Nebraska","Midwest","West North Central","31171","41.85573","-100.524703 ","100","1","100","1","","2019","722","NYTIMES-USCENSUS"
"6/14/2022 12:00:00 AM","Knox County","Maine","Northeast","New England","23013","44.042045","-69.038514 ","6695","40","6695","40","","2019","39772","NYTIMES-USCENSUS"
"6/14/2022 12:00:00 AM","Van Buren County","Arkansas","South","West South Central","05141","35.582953","-92.515976 ","3554","62","3554","62","","2019","16545","NYTIMES-USCENSUS"
"6/14/2022 12:00:00 AM","Kossuth County","Iowa","Midwest","West North Central","19109","43.212356","-94.213965 ","3823","88","3823","88","","2019","14813","NYTIMES-USCENSUS"
"6/14/2022 12:00:00 AM","Aurora County","South Dakota","Midwest","West North Central","46003","43.724719","-98.577587 ","808","17","808","17","","2019","2751","NYTIMES-USCENSUS"
"6/14/2022 12:00:00 AM","Bailey County","Texas","South","West South Central","48017","34.067521","-102.830345 ","1631","39","1631","39","","2019","7000","NYTIMES-USCENSUS"
"6/14/2022 12:00:00 AM","Piute County","Utah","West","Mountain","49031","38.335881","-112.129375 ","305","7","305","7","","2019","1479","NYTIMES-USCENSUS"
"6/14/2022 12:00:00 AM","Lea County","New Mexico","West","Mountain","35025","32.795687","-103.413271 ","20302","356","20302","356","","2019","71070","NYTIMES-USCENSUS"
"6/14/2022 12:00:00 AM","Hidalgo County","Texas","South","West South Central","48215","26.396384","-98.18099 ","213760","3918","213760","3918","","2019","868707","NYTIMES-USCENSUS"
"6/14/2022 12:00:00 AM","Los Alamos County","New Mexico","West","Mountain","35028","35.870047","-106.307968 ","3342","16","3342","16","","2019","19369","NYTIMES-USCENSUS"
"6/14/2022 12:00:00 AM","Jefferson County","Oregon","West","Pacific","41031","44.645151","-121.178632 ","7540","95","7540","95","","2019","24658","NYTIMES-USCENSUS"
"6/14/2022 12:00:00 AM","White County","Indiana","Midwest","East North Central","18181","40.75095","-86.864293 ","7063","97","7063","97","","2019","24102","NYTIMES-USCENSUS"
"6/14/2022 12:00:00 AM","Stevens County","Minnesota","Midwest","West North Central","27149","45.593461","-95.992315 ","2797","14","2797","14","","2019","9805","NYTIMES-USCENSUS"
"6/14/2022 12:00:00 AM","Monroe County","Kentucky","South","East South Central","21171","36.714077","-85.713508 ","3702","79","3702","79","","2019","10650","NYTIMES-USCENSUS"
"6/14/2022 12:00:00 AM","Edwards County","Illinois","Midwest","East North Central","17047","38.417095","-88.047941 ","1773","29","1773","29","","2019","6395","NYTIMES-USCENSUS"
"6/14/2022 12:00:00 AM","Barron County","Wisconsin","Midwest","East North Central","55005","45.437192","-91.852892 ","14043","145","14043","145","","2019","45244","NYTIMES-USCENSUS"
"6/14/2022 12:00:00 AM","Logan County","West Virginia","South","South Atlantic","54045","37.830591","-81.940853 ","10122","187","10122","187","","2019","32019","NYTIMES-USCENSUS"
"6/14/2022 12:00:00 AM","Hempstead County","Arkansas","South","West South Central","05057","33.735953","-93.664355 ","4618","70","4618","70","","2019","21532","NYTIMES-USCENSUS"
"6/14/2022 12:00:00 AM","McKean County","Pennsylvania","Northeast","Middle Atlantic","42083","41.81459","-78.572463 ","8521","143","8521","143","","2019","40625","NYTIMES-USCENSUS"
"6/14/2022 12:00:00 AM","Clay County","Nebraska","Midwest","West North Central","31035","40.523669","-98.050858 ","1534","25","1534","25","","2019","6203","NYTIMES-USCENSUS"
"6/14/2022 12:00:00 AM","Somerset County","Pennsylvania","Northeast","Middle Atlantic","42111","39.981297","-79.028486 ","19221","410","19221","410","","2019","73447","NYTIMES-USCENSUS"
"6/14/2022 12:00:00 AM","Garfield County","Oklahoma","South","West South Central","40047","36.378132","-97.788741 ","15336","295","15336","295","","2019","61056","NYTIMES-USCENSUS"
"6/14/2022 12:00:00 AM","Cumberland County","Illinois","Midwest","East North Central","17035","39.273121","-88.240619 ","3415","49","3415","49","","2019","10766","NYTIMES-USCENSUS"
"6/14/2022 12:00:00 AM","Kit Carson County","Colorado","West","Mountain","08063","39.30534","-102.603023 ","1658","33","1658","33","","2019","7097","NYTIMES-USCENSUS"
"6/14/2022 12:00:00 AM","Worth County","Iowa","Midwest","West North Central","19195","43.373491","-93.248533 ","1795","17","1795","17","","2019","7381","NYTIMES-USCENSUS"
"6/14/2022 12:00:00 AM","Hughes County","Oklahoma","South","West South Central","40063","35.052934","-96.251183 ","2597","62","2597","62","","2019","13279","NYTIMES-USCENSUS"
"6/14/2022 12:00:00 AM","Fleming County","Kentucky","South","East South Central","21069","38.367848","-83.699205 ","4080","62","4080","62","","2019","14581","NYTIMES-USCENSUS"
"6/14/2022 12:00:00 AM","Dallas County","Missouri","Midwest","West North Central","29059","37.683583","-93.033815 ","3881","73","3881","73","","2019","16878","NYTIMES-USCENSUS"
"6/14/2022 12:00:00 AM","Cassia County","Idaho","West","Mountain","16031","42.282313","-113.626328 ","5057","53","5057","53","","2019","24030","NYTIMES-USCENSUS"
"6/14/2022 12:00:00 AM","Cass County","Indiana","Midwest","East North Central","18017","40.753799","-86.355168 ","11840","165","11840","165","","2019","37689","NYTIMES-USCENSUS"
"6/14/2022 12:00:00 AM","Silver Bow County","Montana","West","Mountain","30093","45.896232","-112.660071 ","8629","131","8629","131","","2019","34915","NYTIMES-USCENSUS"
"6/14/2022 12:00:00 AM","Ector County","Texas","South","West South Central","48135","31.865301","-102.542507 ","37753","705","37753","705","","2019","166223","NYTIMES-USCENSUS"
"6/14/2022 12:00:00 AM","Roane County","Tennessee","South","East South Central","47145","35.84725","-84.523929 ","16014","235","16014","235","","2019","53382","NYTIMES-USCENSUS"
"6/14/2022 12:00:00 AM","Manassas city","Virginia","South","South Atlantic","51683","38.746808","-77.482633 ","9691","71","9691","71","","2019","41085","NYTIMES-USCENSUS"
"6/14/2022 12:00:00 AM","Allendale County","South Carolina","South","South Atlantic","45005","32.979757","-81.363265 ","2115","24","2115","24","","2019","8688","NYTIMES-USCENSUS"
"6/14/2022 12:00:00 AM","La Crosse County","Wisconsin","Midwest","East North Central","55063","43.908222","-91.111758 ","37337","188","37337","188","","2019","118016","NYTIMES-USCENSUS"
"6/14/2022 12:00:00 AM","Osceola County","Iowa","Midwest","West North Central","19143","43.378542","-95.633788 ","1401","22","1401","22","","2019","5958","NYTIMES-USCENSUS"
"6/14/2022 12:00:00 AM","Barry County","Missouri","Midwest","West North Central","29009","36.699376","-93.834334 ","6736","142","6736","142","","2019","35789","NYTIMES-USCENSUS"
"6/14/2022 12:00:00 AM","Geary County","Kansas","Midwest","West North Central","20061","39.002139","-96.7681 ","9389","78","9389","78","","2019","31670","NYTIMES-USCENSUS"
"6/14/2022 12:00:00 AM","Benson County","North Dakota","Midwest","West North Central","38005","48.071743","-99.351152 ","1990","23","1990","23","","2019","6832","NYTIMES-USCENSUS"
"6/14/2022 12:00:00 AM","Wilbarger County","Texas","South","West South Central","48487","34.08492","-99.24244 ","3521","88","3521","88","","2019","12769","NYTIMES-USCENSUS"
"6/14/2022 12:00:00 AM","Pendleton County","Kentucky","South","East South Central","21191","38.696284","-84.351943 ","3566","39","3566","39","","2019","14590","NYTIMES-USCENSUS"
"6/14/2022 12:00:00 AM","Laramie County","Wyoming","West","Mountain","56021","41.29283","-104.660395 ","27208","293","27208","293","","2019","99500","NYTIMES-USCENSUS"
"6/14/2022 12:00:00 AM","Robeson County","North Carolina","South","South Atlantic","37155","34.63921","-79.100881 ","42001","543","42001","543","","2019","130625","NYTIMES-USCENSUS"
"6/14/2022 12:00:00 AM","Platte County","Missouri","Midwest","West North Central","29165","39.37869","-94.761477 ","10854","102","10854","102","","2019","104418","NYTIMES-USCENSUS"
"6/14/2022 12:00:00 AM","Portage County","Wisconsin","Midwest","East North Central","55097","44.476246","-89.49807 ","19103","161","19103","161","","2019","70772","NYTIMES-USCENSUS"
"6/14/2022 12:00:00 AM","Vermilion Parish","Louisiana","South","West South Central","22113","29.789722","-92.291568 ","15650","224","15650","224","","2019","59511","NYTIMES-USCENSUS"
"6/14/2022 12:00:00 AM","King William County","Virginia","South","South Atlantic","51101","37.70826","-77.091054 ","3887","44","3887","44","","2019","17148","NYTIMES-USCENSUS"
"6/14/2022 12:00:00 AM","Live Oak County","Texas","South","West South Central","48297","28.351535","-98.126961 ","2168","42","2168","42","","2019","12207","NYTIMES-USCENSUS"
"6/14/2022 12:00:00 AM","Trousdale County","Tennessee","South","East South Central","47169","36.39303","-86.156691 ","4272","46","4272","46","","2019","11284","NYTIMES-USCENSUS"
"6/14/2022 12:00:00 AM","Berkeley County","South Carolina","South","South Atlantic","45015","33.2077","-79.953655 ","54193","451","54193","451","","2019","227907","NYTIMES-USCENSUS"
"6/14/2022 12:00:00 AM","McIntosh County","Oklahoma","South","West South Central","40091","35.369108","-95.671787 ","4895","125","4895","125","","2019","19596","NYTIMES-USCENSUS"
"6/14/2022 12:00:00 AM","Craven County","North Carolina","South","South Atlantic","37049","35.116829","-77.08132 ","25968","209","25968","209","","2019","102139","NYTIMES-USCENSUS"
"6/14/2022 12:00:00 AM","Fayette County","Texas","South","West South Central","48149","29.877886","-96.921231 ","4874","107","4874","107","","2019","25346","NYTIMES-USCENSUS"
"6/14/2022 12:00:00 AM","Jefferson Davis Parish","Louisiana","South","West South Central","22053","30.269529","-92.816221 ","7056","159","7056","159","","2019","31368","NYTIMES-USCENSUS"
"6/14/2022 12:00:00 AM","Fillmore County","Minnesota","Midwest","West North Central","27045","43.679187","-92.093937 ","5065","24","5065","24","","2019","21067","NYTIMES-USCENSUS"
"6/14/2022 12:00:00 AM","Putnam County","West Virginia","South","South Atlantic","54079","38.510518","-81.906109 ","17416","183","17416","183","","2019","56450","NYTIMES-USCENSUS"
"6/14/2022 12:00:00 AM","Ringgold County","Iowa","Midwest","West North Central","19159","40.735334","-94.244251 ","1148","34","1148","34","","2019","4894","NYTIMES-USCENSUS"
"6/14/2022 12:00:00 AM","Lenoir County","North Carolina","South","South Atlantic","37107","35.240066","-77.635514 ","16106","228","16106","228","","2019","55949","NYTIMES-USCENSUS"
"6/14/2022 12:00:00 AM","Schuylkill County","Pennsylvania","Northeast","Middle Atlantic","42107","40.703682","-76.217788 ","35917","688","35917","688","","2019","141359","NYTIMES-USCENSUS"
"6/14/2022 12:00:00 AM","Lancaster County","South Carolina","South","South Atlantic","45057","34.686818","-80.703688 ","26220","281","26220","281","","2019","98012","NYTIMES-USCENSUS"
"6/14/2022 12:00:00 AM","Ingham County","Michigan","Midwest","East North Central","26065","42.603534","-84.373811 ","69190","776","69190","776","","2019","292406","NYTIMES-USCENSUS"
"6/14/2022 12:00:00 AM","Hancock County","Kentucky","South","East South Central","21091","37.843325","-86.792761 ","2544","25","2544","25","","2019","8722","NYTIMES-USCENSUS"
"6/14/2022 12:00:00 AM","Morgan County","West Virginia","South","South Atlantic","54065","39.557345","-78.256517 ","4411","69","4411","69","","2019","17884","NYTIMES-USCENSUS"
"6/14/2022 12:00:00 AM","Orange County","Florida","South","South Atlantic","12095","28.514391","-81.323284 ","398960","2852","398960","2852","","2019","1393452","NYTIMES-USCENSUS"
"6/14/2022 12:00:00 AM","Johnston County","Oklahoma","South","West South Central","40069","34.313455","-96.654254 ","3053","55","3053","55","","2019","11085","NYTIMES-USCENSUS"
"6/14/2022 12:00:00 AM","Washington County","Kansas","Midwest","West North Central","20201","39.776714","-97.095611 ","1420","23","1420","23","","2019","5406","NYTIMES-USCENSUS"
"6/14/2022 12:00:00 AM","Shackelford County","Texas","South","West South Central","48417","32.74382","-99.347005 ","704","12","704","12","","2019","3265","NYTIMES-USCENSUS"
"6/14/2022 12:00:00 AM","Salem County","New Jersey","Northeast","Middle Atlantic","34033","39.573828","-75.357356 ","15265","252","15265","252","","2019","62385","NYTIMES-USCENSUS"
"6/14/2022 12:00:00 AM","Kenton County","Kentucky","South","East South Central","21117","38.930503","-84.533438 ","47226","429","47226","429","","2019","166998","NYTIMES-USCENSUS"
"6/14/2022 12:00:00 AM","Anderson County","Kentucky","South","East South Central","21005","38.005396","-84.986417 ","6829","71","6829","71","","2019","22747","NYTIMES-USCENSUS"
"6/14/2022 12:00:00 AM","Alamosa County","Colorado","West","Mountain","08003","37.568442","-105.788041 ","4774","62","4774","62","","2019","16233","NYTIMES-USCENSUS"
"6/14/2022 12:00:00 AM","Henry County","Tennessee","South","East South Central","47079","36.325295","-88.300288 ","8387","164","8387","164","","2019","32345","NYTIMES-USCENSUS"
"6/14/2022 12:00:00 AM","Queen Anne's County","Maryland","South","South Atlantic","24035","39.040693","-76.082405 ","7526","112","7526","112","","2019","50381","NYTIMES-USCENSUS"
"6/14/2022 12:00:00 AM","Candler County","Georgia","South","South Atlantic","13043","32.40395","-82.071266 ","2213","96","2213","96","","2019","10803","NYTIMES-USCENSUS"
"6/14/2022 12:00:00 AM","Fairfax city","Virginia","South","South Atlantic","51600","38.853183","-77.299025 ","2158","43","2158","43","","2019","24019","NYTIMES-USCENSUS"
"6/14/2022 12:00:00 AM","Hood County","Texas","South","West South Central","48221","32.430149","-97.831677 ","13596","274","13596","274","","2019","61643","NYTIMES-USCENSUS"
"6/14/2022 12:00:00 AM","Marathon County","Wisconsin","Midwest","East North Central","55073","44.898036","-89.757823 ","41763","505","41763","505","","2019","135692","NYTIMES-USCENSUS"
"6/14/2022 12:00:00 AM","Sunflower County","Mississippi","South","East South Central","28133","33.605529","-90.59509 ","5838","125","5838","125","","2019","25110","NYTIMES-USCENSUS"
"6/14/2022 12:00:00 AM","Hertford County","North Carolina","South","South Atlantic","37091","36.363517","-76.981616 ","4910","86","4910","86","","2019","23677","NYTIMES-USCENSUS"
"6/14/2022 12:00:00 AM","Rockwall County","Texas","South","West South Central","48397","32.899886","-96.41205 ","27323","267","27323","267","","2019","104915","NYTIMES-USCENSUS"
"6/14/2022 12:00:00 AM","Fall River County","South Dakota","Midwest","West North Central","46047","43.221619","-103.512609 ","1868","39","1868","39","","2019","6713","NYTIMES-USCENSUS"
"6/14/2022 12:00:00 AM","Anderson County","Texas","South","West South Central","48001","31.841261","-95.661727 ","9740","240","9740","240","","2019","57735","NYTIMES-USCENSUS"
"6/14/2022 12:00:00 AM","Hillsborough County","Florida","South","South Atlantic","12057","27.88761","-82.374417 ","393792","3816","393792","3816","","2019","1471968","NYTIMES-USCENSUS"
"6/14/2022 12:00:00 AM","Ohio County","Kentucky","South","East South Central","21183","37.477859","-86.844871 ","7428","105","7428","105","","2019","23994","NYTIMES-USCENSUS"
"6/14/2022 12:00:00 AM","Eddy County","North Dakota","Midwest","West North Central","38027","47.723436","-98.900474 ","767","6","767","6","","2019","2287","NYTIMES-USCENSUS"
"6/14/2022 12:00:00 AM","Perry County","Ohio","Midwest","East North Central","39127","39.743187","-82.237952 ","8527","125","8527","125","","2019","36134","NYTIMES-USCENSUS"
"6/14/2022 12:00:00 AM","Plumas County","California","West","Pacific","06063","39.992295","-120.824371 ","3572","13","3572","13","","2019","18807","NYTIMES-USCENSUS"
"6/14/2022 12:00:00 AM","Douglas County","Oregon","West","Pacific","41019","43.286328","-123.154476 ","20948","405","20948","405","","2019","110980","NYTIMES-USCENSUS"
"6/14/2022 12:00:00 AM","Baca County","Colorado","West","Mountain","08009","37.30978","-102.543741 ","881","14","881","14","","2019","3581","NYTIMES-USCENSUS"
"6/14/2022 12:00:00 AM","Missaukee County","Michigan","Midwest","East North Central","26113","44.325424","-85.085471 ","3025","62","3025","62","","2019","15118","NYTIMES-USCENSUS"
"6/14/2022 12:00:00 AM","Washington County","Virginia","South","South Atlantic","51191","36.747814","-81.950322 ","14230","217","14230","217","","2019","53740","NYTIMES-USCENSUS"
"6/14/2022 12:00:00 AM","Trinity County","California","West","Pacific","06105","40.647858","-123.114666 ","1516","20","1516","20","","2019","12285","NYTIMES-USCENSUS"
"6/14/2022 12:00:00 AM","Marion County","Mississippi","South","East South Central","28091","31.230167","-89.821712 ","7066","135","7066","135","","2019","24573","NYTIMES-USCENSUS"
"6/14/2022 12:00:00 AM","Barbour County","West Virginia","South","South Atlantic","54001","39.139725","-79.996947 ","5072","74","5072","74","","2019","16441","NYTIMES-USCENSUS"
"6/14/2022 12:00:00 AM","Washington County","Mississippi","South","East South Central","28151","33.273174","-90.944446 ","10639","199","10639","199","","2019","43909","NYTIMES-USCENSUS"
"6/14/2022 12:00:00 AM","Liberty County","Montana","West","Mountain","30051","48.559654","-111.036924 ","408","4","408","4","","2019","2337","NYTIMES-USCENSUS"
"6/14/2022 12:00:00 AM","Berks County","Pennsylvania","Northeast","Middle Atlantic","42011","40.413957","-75.92686 ","106860","1611","106860","1611","","2019","421164","NYTIMES-USCENSUS"
"6/14/2022 12:00:00 AM","Levy County","Florida","South","South Atlantic","12075","29.271854","-82.831233 ","10449","170","10449","170","","2019","41503","NYTIMES-USCENSUS"
"6/14/2022 12:00:00 AM","Hudspeth County","Texas","South","West South Central","48229","31.450868","-105.377549 ","1067","18","1067","18","","2019","4886","NYTIMES-USCENSUS"
"6/14/2022 12:00:00 AM","Franklin County","Maine","Northeast","New England","23007","44.976724","-70.414935 ","6270","62","6270","62","","2019","30199","NYTIMES-USCENSUS"
"6/14/2022 12:00:00 AM","Barnwell County","South Carolina","South","South Atlantic","45011","33.260552","-81.434228 ","5934","103","5934","103","","2019","20866","NYTIMES-USCENSUS"
"6/14/2022 12:00:00 AM","Washington County","Rhode Island","Northeast","New England","44009","41.396792","-71.620282 ","36727","234","36727","234","","2019","125577","NYTIMES-USCENSUS"
"6/14/2022 12:00:00 AM","Lac qui Parle County","Minnesota","Midwest","West North Central","27073","44.999856","-96.176836 ","1815","29","1815","29","","2019","6623","NYTIMES-USCENSUS"
"6/14/2022 12:00:00 AM","Jasper County","Indiana","Midwest","East North Central","18073","41.017688","-87.118814 ","9346","149","9346","149","","2019","33562","NYTIMES-USCENSUS"
"6/14/2022 12:00:00 AM","Burt County","Nebraska","Midwest","West North Central","31021","41.854179","-96.337746 ","1334","17","1334","17","","2019","6459","NYTIMES-USCENSUS"
"6/14/2022 12:00:00 AM","Delaware County","Pennsylvania","Northeast","Middle Atlantic","42045","39.916685","-75.398818 ","118665","1888","118665","1888","","2019","566747","NYTIMES-USCENSUS"
"6/14/2022 12:00:00 AM","Christian County","Missouri","Midwest","West North Central","29043","36.969739","-93.187614 ","21393","265","21393","265","","2019","88595","NYTIMES-USCENSUS"
"6/14/2022 12:00:00 AM","Overton County","Tennessee","South","East South Central","47133","36.34485","-85.283076 ","7218","126","7218","126","","2019","22241","NYTIMES-USCENSUS"
"6/14/2022 12:00:00 AM","Switzerland County","Indiana","Midwest","East North Central","18155","38.825854","-85.029681 ","2327","20","2327","20","","2019","10751","NYTIMES-USCENSUS"
"6/14/2022 12:00:00 AM","Door County","Wisconsin","Midwest","East North Central","55029","45.093417","-87.048683 ","7357","72","7357","72","","2019","27668","NYTIMES-USCENSUS"
"6/14/2022 12:00:00 AM","Lincoln County","Georgia","South","South Atlantic","13181","33.792151","-82.448299 ","1607","35","1607","35","","2019","7921","NYTIMES-USCENSUS"
"6/14/2022 12:00:00 AM","Fulton County","Kentucky","South","East South Central","21075","36.552511","-89.187659 ","1241","33","1241","33","","2019","5969","NYTIMES-USCENSUS"
"6/14/2022 12:00:00 AM","Saluda County","South Carolina","South","South Atlantic","45081","34.005278","-81.727903 ","4017","78","4017","78","","2019","20473","NYTIMES-USCENSUS"
"6/14/2022 12:00:00 AM","Scott County","Iowa","Midwest","West North Central","19163","41.642079","-90.622289 ","42461","397","42461","397","","2019","172943","NYTIMES-USCENSUS"
"6/14/2022 12:00:00 AM","Wyandotte County","Kansas","Midwest","West North Central","20209","39.115384","-94.763087 ","48047","521","48047","521","","2019","165429","NYTIMES-USCENSUS"
"6/14/2022 12:00:00 AM","Worth County","Georgia","South","South Atlantic","13321","31.551773","-83.84996 ","4734","119","4734","119","","2019","20247","NYTIMES-USCENSUS"
"6/14/2022 12:00:00 AM","Radford city","Virginia","South","South Atlantic","51750","37.120119","-80.559147 ","5236","53","5236","53","","2019","18249","NYTIMES-USCENSUS"
"6/14/2022 12:00:00 AM","Logan County","Colorado","West","Mountain","08075","40.728091","-103.090464 ","7638","111","7638","111","","2019","22409","NYTIMES-USCENSUS"
"6/14/2022 12:00:00 AM","Mifflin County","Pennsylvania","Northeast","Middle Atlantic","42087","40.601615","-77.651832 ","12555","279","12555","279","","2019","46138","NYTIMES-USCENSUS"
"6/14/2022 12:00:00 AM","Newport County","Rhode Island","Northeast","New England","44005","41.501045","-71.283063 ","22571","94","22571","94","","2019","82082","NYTIMES-USCENSUS"
"6/14/2022 12:00:00 AM","Morris County","New Jersey","Northeast","Middle Atlantic","34027","40.858896","-74.547292 ","133700","1568","133700","1568","","2019","491845","NYTIMES-USCENSUS"
"6/14/2022 12:00:00 AM","Marion County","Kentucky","South","East South Central","21155","37.552604","-85.268959 ","6540","86","6540","86","","2019","19273","NYTIMES-USCENSUS"
"6/14/2022 12:00:00 AM","Clare County","Michigan","Midwest","East North Central","26035","43.991137","-84.838325 ","7040","157","7040","157","","2019","30950","NYTIMES-USCENSUS"
"6/14/2022 12:00:00 AM","Steuben County","Indiana","Midwest","East North Central","18151","41.643467","-85.002405 ","9826","122","9826","122","","2019","34594","NYTIMES-USCENSUS"
"6/14/2022 12:00:00 AM","Collin County","Texas","South","West South Central","48085","33.194494","-96.579428 ","222768","1510","222768","1510","","2019","1034730","NYTIMES-USCENSUS"
"6/14/2022 12:00:00 AM","Madison County","Iowa","Midwest","West North Central","19121","41.330622","-94.015184 ","3213","40","3213","40","","2019","16338","NYTIMES-USCENSUS"
"6/14/2022 12:00:00 AM","Kalkaska County","Michigan","Midwest","East North Central","26079","44.678881","-85.088992 ","3798","61","3798","61","","2019","18038","NYTIMES-USCENSUS"
"6/14/2022 12:00:00 AM","Mills County","Iowa","Midwest","West North Central","19129","41.033703","-95.619101 ","3421","41","3421","41","","2019","15109","NYTIMES-USCENSUS"
"6/14/2022 12:00:00 AM","Pueblo County","Colorado","West","Mountain","08101","38.162765","-104.484668 ","50019","808","50019","808","","2019","168424","NYTIMES-USCENSUS"
"6/14/2022 12:00:00 AM","Jefferson County","Idaho","West","Mountain","16051","43.796965","-112.318588 ","6088","65","6088","65","","2019","29871","NYTIMES-USCENSUS"
"6/14/2022 12:00:00 AM","Mohave County","Arizona","West","Mountain","04015","35.717705","-113.749689 ","58505","1465","58505","1465","","2019","212181","NYTIMES-USCENSUS"
"6/14/2022 12:00:00 AM","Panola County","Texas","South","West South Central","48365","32.163978","-94.305156 ","4657","129","4657","129","","2019","23194","NYTIMES-USCENSUS"
"6/14/2022 12:00:00 AM","Cambria County","Pennsylvania","Northeast","Middle Atlantic","42021","40.510227","-78.710477 ","35845","739","35845","739","","2019","130192","NYTIMES-USCENSUS"
"6/14/2022 12:00:00 AM","St. Louis city","Missouri","Midwest","West North Central","29510","38.635699","-90.244582 ","60986","788","60986","788","","2019","300576","NYTIMES-USCENSUS"
"6/14/2022 12:00:00 AM","Kiowa County","Kansas","Midwest","West North Central","20097","37.561231","-99.286539 ","689","7","689","7","","2019","2475","NYTIMES-USCENSUS"
"6/14/2022 12:00:00 AM","Ventura County","California","West","Pacific","06111","34.358748","-119.133145 ","195306","1514","195306","1514","","2019","846006","NYTIMES-USCENSUS"
"6/14/2022 12:00:00 AM","Tazewell County","Virginia","South","South Atlantic","51185","37.125395","-81.562924 ","10587","175","10587","175","","2019","40595","NYTIMES-USCENSUS"
"6/14/2022 12:00:00 AM","Skamania County","Washington","West","Pacific","53059","46.024785","-121.953232 ","1596","12","1596","12","","2019","12083","NYTIMES-USCENSUS"
"6/14/2022 12:00:00 AM","Denver County","Colorado","West","Mountain","08031","39.76185","-104.881105 ","189693","1381","189693","1381","","2019","727211","NYTIMES-USCENSUS"
"6/14/2022 12:00:00 AM","Labette County","Kansas","Midwest","West North Central","20099","37.191468","-95.297473 ","6699","80","6699","80","","2019","19618","NYTIMES-USCENSUS"
"6/14/2022 12:00:00 AM","Clarke County","Mississippi","South","East South Central","28023","32.045374","-88.687976 ","4293","108","4293","108","","2019","15541","NYTIMES-USCENSUS"
"6/14/2022 12:00:00 AM","Williams County","Ohio","Midwest","East North Central","39171","41.564959","-84.584324 ","9267","165","9267","165","","2019","36692","NYTIMES-USCENSUS"
"6/14/2022 12:00:00 AM","Jefferson County","New York","Northeast","Middle Atlantic","36045","43.996389","-76.052968 ","22294","141","22294","141","","2019","109834","NYTIMES-USCENSUS"
"6/14/2022 12:00:00 AM","Marion County","Ohio","Midwest","East North Central","39101","40.588034","-83.168803 ","20508","268","20508","268","","2019","65093","NYTIMES-USCENSUS"
"6/14/2022 12:00:00 AM","Nelson County","Virginia","South","South Atlantic","51125","37.789079","-78.88344 ","2693","37","2693","37","","2019","14930","NYTIMES-USCENSUS"
"6/14/2022 12:00:00 AM","Hawkins County","Tennessee","South","East South Central","47073","36.452089","-82.931485 ","16872","327","16872","327","","2019","56786","NYTIMES-USCENSUS"
"6/14/2022 12:00:00 AM","Bradley County","Tennessee","South","East South Central","47011","35.153914","-84.859414 ","33578","419","33578","419","","2019","108110","NYTIMES-USCENSUS"
"6/14/2022 12:00:00 AM","Davison County","South Dakota","Midwest","West North Central","46035","43.680439","-98.155868 ","5970","81","5970","81","","2019","19775","NYTIMES-USCENSUS"
"6/14/2022 12:00:00 AM","Otero County","Colorado","West","Mountain","08089","37.88417","-103.72126 ","4457","130","4457","130","","2019","18278","NYTIMES-USCENSUS"
"6/14/2022 12:00:00 AM","Lawrence County","Mississippi","South","East South Central","28077","31.550009","-90.10753 ","3662","56","3662","56","","2019","12586","NYTIMES-USCENSUS"
"6/14/2022 12:00:00 AM","Dixie County","Florida","South","South Atlantic","12029","29.552675","-83.236232 ","4081","71","4081","71","","2019","16826","NYTIMES-USCENSUS"
"6/14/2022 12:00:00 AM","Duchesne County","Utah","West","Mountain","49013","40.289393","-110.429584 ","4484","27","4484","27","","2019","19938","NYTIMES-USCENSUS"
"6/14/2022 12:00:00 AM","Atlantic County","New Jersey","Northeast","Middle Atlantic","34001","39.469355","-74.633759 ","74038","1014","74038","1014","","2019","263670","NYTIMES-USCENSUS"
"6/14/2022 12:00:00 AM","Jackson County","Kentucky","South","East South Central","21109","37.403458","-84.020576 ","4351","82","4351","82","","2019","13329","NYTIMES-USCENSUS"
"6/14/2022 12:00:00 AM","Winston County","Alabama","South","East South Central","01133","34.154566","-87.365346 ","7649","132","7649","132","","2019","23629","NYTIMES-USCENSUS"
"6/14/2022 12:00:00 AM","Cheyenne County","Kansas","Midwest","West North Central","20023","39.789917","-101.727325 ","660","14","660","14","","2019","2657","NYTIMES-USCENSUS"
"6/14/2022 12:00:00 AM","Cotton County","Oklahoma","South","West South Central","40033","34.290676","-98.373438 ","1469","32","1469","32","","2019","5666","NYTIMES-USCENSUS"
"6/14/2022 12:00:00 AM","Van Buren County","Michigan","Midwest","East North Central","26159","42.28215","-86.306076 ","17777","275","17777","275","","2019","75677","NYTIMES-USCENSUS"
"6/14/2022 12:00:00 AM","Washington County","Indiana","Midwest","East North Central","18175","38.600613","-86.104751 ","6102","87","6102","87","","2019","28036","NYTIMES-USCENSUS"
"6/14/2022 12:00:00 AM","Hancock County","Tennessee","South","East South Central","47067","36.521353","-83.227493 ","2054","37","2054","37","","2019","6620","NYTIMES-USCENSUS"
"6/14/2022 12:00:00 AM","Richmond County","Virginia","South","South Atlantic","51159","37.942894","-76.730561 ","2648","25","2648","25","","2019","9023","NYTIMES-USCENSUS"
"6/14/2022 12:00:00 AM","Morgan County","Georgia","South","South Atlantic","13211","33.598696","-83.499435 ","4765","70","4765","70","","2019","19276","NYTIMES-USCENSUS"
"6/14/2022 12:00:00 AM","Barrow County","Georgia","South","South Atlantic","13013","33.992009","-83.712303 ","22301","257","22301","257","","2019","83240","NYTIMES-USCENSUS"
"6/14/2022 12:00:00 AM","Dent County","Missouri","Midwest","West North Central","29065","37.603072","-91.489717 ","3317","84","3317","84","","2019","15573","NYTIMES-USCENSUS"
"6/14/2022 12:00:00 AM","Wayne County","Michigan","Midwest","East North Central","26163","42.284664","-83.261953 ","435837","8043","435837","8043","","2019","1749343","NYTIMES-USCENSUS"
"6/14/2022 12:00:00 AM","Scott County","Minnesota","Midwest","West North Central","27139","44.651805","-93.533731 ","42534","263","42534","263","","2019","149013","NYTIMES-USCENSUS"
