"monitor_date","county","state_name","region","subregion","fips","latitude","longitude","case_count_to_date","death_count_to_date","case_count","death_count","previous_monitor_date","population_year","population","source"
"1/21/2022 12:00:00 AM","Multnomah County","Oregon","West","Pacific","41051","45.547711","-122.417363 ","94163","940","1484","5","1/20/2022 12:00:00 AM","2019","812855","NYTIMES-USCENSUS"
"1/21/2022 12:00:00 AM","Medina County","Texas","South","West South Central","48325","29.353661","-99.111085 ","8533","177","127","0","1/20/2022 12:00:00 AM","2019","51584","NYTIMES-USCENSUS"
"1/21/2022 12:00:00 AM","Florence County","Wisconsin","Midwest","East North Central","55037","45.871828","-88.406988 ","931","15","11","0","1/20/2022 12:00:00 AM","2019","4295","NYTIMES-USCENSUS"
"1/21/2022 12:00:00 AM","Corson County","South Dakota","Midwest","West North Central","46031","45.685671","-101.179665 ","898","15","19","0","1/20/2022 12:00:00 AM","2019","4086","NYTIMES-USCENSUS"
"1/21/2022 12:00:00 AM","Gregg County","Texas","South","West South Central","48183","32.486401","-94.816277 ","20936","595","182","1","1/20/2022 12:00:00 AM","2019","123945","NYTIMES-USCENSUS"
"1/21/2022 12:00:00 AM","Washington County","Missouri","Midwest","West North Central","29221","37.942611","-90.897018 ","5165","116","51","2","1/20/2022 12:00:00 AM","2019","24730","NYTIMES-USCENSUS"
"1/21/2022 12:00:00 AM","Mason County","Kentucky","South","East South Central","21161","38.594137","-83.828125 ","3759","88","77","0","1/20/2022 12:00:00 AM","2019","17070","NYTIMES-USCENSUS"
"1/21/2022 12:00:00 AM","Dodge County","Wisconsin","Midwest","East North Central","55027","43.429628","-88.701939 ","24641","289","269","1","1/20/2022 12:00:00 AM","2019","87839","NYTIMES-USCENSUS"
"1/21/2022 12:00:00 AM","Hamblen County","Tennessee","South","East South Central","47063","36.218397","-83.266071 ","16152","300","0","0","1/20/2022 12:00:00 AM","2019","64934","NYTIMES-USCENSUS"
"1/21/2022 12:00:00 AM","Allendale County","South Carolina","South","South Atlantic","45005","32.979757","-81.363265 ","1812","22","11","0","1/20/2022 12:00:00 AM","2019","8688","NYTIMES-USCENSUS"
"1/21/2022 12:00:00 AM","Wayne County","Nebraska","Midwest","West North Central","31179","42.210746","-97.126243 ","1595","11","14","0","1/20/2022 12:00:00 AM","2019","9385","NYTIMES-USCENSUS"
"1/21/2022 12:00:00 AM","Harper County","Kansas","Midwest","West North Central","20077","37.188184","-98.06659 ","1552","25","54","0","1/20/2022 12:00:00 AM","2019","5436","NYTIMES-USCENSUS"
"1/21/2022 12:00:00 AM","Live Oak County","Texas","South","West South Central","48297","28.351535","-98.126961 ","1918","39","22","0","1/20/2022 12:00:00 AM","2019","12207","NYTIMES-USCENSUS"
"1/21/2022 12:00:00 AM","Franklin County","Arkansas","South","West South Central","05047","35.508558","-93.887665 ","3405","62","25","1","1/20/2022 12:00:00 AM","2019","17715","NYTIMES-USCENSUS"
"1/21/2022 12:00:00 AM","Menominee County","Wisconsin","Midwest","East North Central","55078","44.991304","-88.669251 ","1696","12","20","0","1/20/2022 12:00:00 AM","2019","4556","NYTIMES-USCENSUS"
"1/21/2022 12:00:00 AM","Umatilla County","Oregon","West","Pacific","41059","45.5912","-118.73388 ","19500","190","317","0","1/20/2022 12:00:00 AM","2019","77950","NYTIMES-USCENSUS"
"1/21/2022 12:00:00 AM","Lexington city","Virginia","South","South Atlantic","51678","37.782332","-79.44432 ","2254","38","103","0","1/20/2022 12:00:00 AM","2019","7446","NYTIMES-USCENSUS"
"1/21/2022 12:00:00 AM","Burnett County","Wisconsin","Midwest","East North Central","55013","45.866897","-92.37573 ","3530","37","38","1","1/20/2022 12:00:00 AM","2019","15414","NYTIMES-USCENSUS"
"1/21/2022 12:00:00 AM","Cumberland County","Maine","Northeast","New England","23005","43.808348","-70.330375 ","33207","286","320","0","1/20/2022 12:00:00 AM","2019","295003","NYTIMES-USCENSUS"
"1/21/2022 12:00:00 AM","Barren County","Kentucky","South","East South Central","21009","36.962805","-85.932108 ","10625","190","139","0","1/20/2022 12:00:00 AM","2019","44249","NYTIMES-USCENSUS"
"1/21/2022 12:00:00 AM","Franklin County","Illinois","Midwest","East North Central","17055","37.991852","-88.926321 ","10661","155","185","2","1/20/2022 12:00:00 AM","2019","38469","NYTIMES-USCENSUS"
"1/21/2022 12:00:00 AM","Muskegon County","Michigan","Midwest","East North Central","26121","43.428739","-86.420908 ","37744","568","730","3","1/20/2022 12:00:00 AM","2019","173566","NYTIMES-USCENSUS"
"1/21/2022 12:00:00 AM","Iosco County","Michigan","Midwest","East North Central","26069","44.386912","-83.380141 ","4300","123","61","1","1/20/2022 12:00:00 AM","2019","25127","NYTIMES-USCENSUS"
"1/21/2022 12:00:00 AM","Grand County","Colorado","West","Mountain","08049","40.113065","-106.110837 ","3169","20","26","0","1/20/2022 12:00:00 AM","2019","15734","NYTIMES-USCENSUS"
"1/21/2022 12:00:00 AM","Linn County","Missouri","Midwest","West North Central","29115","39.86444","-93.108019 ","2166","59","9","0","1/20/2022 12:00:00 AM","2019","11920","NYTIMES-USCENSUS"
"1/21/2022 12:00:00 AM","Murray County","Minnesota","Midwest","West North Central","27101","44.015594","-95.761581 ","1813","15","14","0","1/20/2022 12:00:00 AM","2019","8194","NYTIMES-USCENSUS"
"1/21/2022 12:00:00 AM","East Carroll Parish","Louisiana","South","West South Central","22035","32.73017","-91.234141 ","2082","35","15","0","1/20/2022 12:00:00 AM","2019","6861","NYTIMES-USCENSUS"
"1/21/2022 12:00:00 AM","Burke County","North Dakota","Midwest","West North Central","38013","48.786453","-102.520087 ","403","3","3","0","1/20/2022 12:00:00 AM","2019","2115","NYTIMES-USCENSUS"
"1/21/2022 12:00:00 AM","Blanco County","Texas","South","West South Central","48031","30.266456","-98.399217 ","2121","29","55","1","1/20/2022 12:00:00 AM","2019","11931","NYTIMES-USCENSUS"
"1/21/2022 12:00:00 AM","New Haven County","Connecticut","Northeast","New England","09009","41.349718","-72.900203 ","176971","2534","1215","25","1/20/2022 12:00:00 AM","2019","854757","NYTIMES-USCENSUS"
"1/21/2022 12:00:00 AM","Hamilton County","Florida","South","South Atlantic","12047","30.491187","-82.951071 ","3443","49","232","0","1/20/2022 12:00:00 AM","2019","14428","NYTIMES-USCENSUS"
"1/21/2022 12:00:00 AM","Young County","Texas","South","West South Central","48503","33.158778","-98.67839 ","3481","76","21","0","1/20/2022 12:00:00 AM","2019","18010","NYTIMES-USCENSUS"
"1/21/2022 12:00:00 AM","Livingston County","Michigan","Midwest","East North Central","26093","42.602532","-83.911718 ","41598","386","1278","1","1/20/2022 12:00:00 AM","2019","191995","NYTIMES-USCENSUS"
"1/21/2022 12:00:00 AM","Cassia County","Idaho","West","Mountain","16031","42.282313","-113.626328 ","4202","48","14","0","1/20/2022 12:00:00 AM","2019","24030","NYTIMES-USCENSUS"
"1/21/2022 12:00:00 AM","Williamsburg County","South Carolina","South","South Atlantic","45089","33.626462","-79.716474 ","7385","132","81","0","1/20/2022 12:00:00 AM","2019","30368","NYTIMES-USCENSUS"
"1/21/2022 12:00:00 AM","Stephens County","Oklahoma","South","West South Central","40137","34.481361","-97.855607 ","9131","162","0","0","1/20/2022 12:00:00 AM","2019","43143","NYTIMES-USCENSUS"
"1/21/2022 12:00:00 AM","Jones County","Mississippi","South","East South Central","28067","31.616601","-89.168532 ","18117","251","350","0","1/20/2022 12:00:00 AM","2019","68098","NYTIMES-USCENSUS"
"1/21/2022 12:00:00 AM","Douglas County","Colorado","West","Mountain","08035","39.325414","-104.925987 ","68572","385","925","0","1/20/2022 12:00:00 AM","2019","351154","NYTIMES-USCENSUS"
"1/21/2022 12:00:00 AM","Montgomery County","Missouri","Midwest","West North Central","29139","38.935184","-91.465427 ","2124","38","14","2","1/20/2022 12:00:00 AM","2019","11551","NYTIMES-USCENSUS"
"1/21/2022 12:00:00 AM","Douglas County","Kansas","Midwest","West North Central","20045","38.896417","-95.290947 ","21646","119","822","1","1/20/2022 12:00:00 AM","2019","122259","NYTIMES-USCENSUS"
"1/21/2022 12:00:00 AM","Cheyenne County","Kansas","Midwest","West North Central","20023","39.789917","-101.727325 ","620","14","18","0","1/20/2022 12:00:00 AM","2019","2657","NYTIMES-USCENSUS"
"1/21/2022 12:00:00 AM","Ramsey County","North Dakota","Midwest","West North Central","38071","48.266163","-98.739031 ","3039","47","31","0","1/20/2022 12:00:00 AM","2019","11519","NYTIMES-USCENSUS"
"1/21/2022 12:00:00 AM","Escambia County","Alabama","South","East South Central","01053","31.122287","-87.16841 ","9009","151","125","0","1/20/2022 12:00:00 AM","2019","36633","NYTIMES-USCENSUS"
"1/21/2022 12:00:00 AM","St. Louis County","Minnesota","Midwest","West North Central","27137","47.578635","-92.514593 ","37744","476","598","4","1/20/2022 12:00:00 AM","2019","199070","NYTIMES-USCENSUS"
"1/21/2022 12:00:00 AM","McLeod County","Minnesota","Midwest","West North Central","27085","44.821657","-94.272323 ","8790","97","134","0","1/20/2022 12:00:00 AM","2019","35893","NYTIMES-USCENSUS"
"1/21/2022 12:00:00 AM","Kent County","Rhode Island","Northeast","New England","44003","41.675118","-71.580282 ","40856","450","0","0","1/20/2022 12:00:00 AM","2019","164292","NYTIMES-USCENSUS"
"1/21/2022 12:00:00 AM","Lafayette Parish","Louisiana","South","West South Central","22055","30.206507","-92.06417 ","52751","429","437","1","1/20/2022 12:00:00 AM","2019","244390","NYTIMES-USCENSUS"
"1/21/2022 12:00:00 AM","Walton County","Florida","South","South Atlantic","12131","30.571247","-86.162798 ","14760","177","837","0","1/20/2022 12:00:00 AM","2019","74071","NYTIMES-USCENSUS"
"1/21/2022 12:00:00 AM","Bond County","Illinois","Midwest","East North Central","17005","38.885924","-89.436592 ","3900","34","32","0","1/20/2022 12:00:00 AM","2019","16426","NYTIMES-USCENSUS"
"1/21/2022 12:00:00 AM","Edgecombe County","North Carolina","South","South Atlantic","37065","35.917077","-77.602742 ","12108","133","172","1","1/20/2022 12:00:00 AM","2019","51472","NYTIMES-USCENSUS"
"1/21/2022 12:00:00 AM","Assumption Parish","Louisiana","South","West South Central","22007","29.9033","-91.065219 ","4833","60","46","2","1/20/2022 12:00:00 AM","2019","21891","NYTIMES-USCENSUS"
"1/21/2022 12:00:00 AM","Wyandotte County","Kansas","Midwest","West North Central","20209","39.115384","-94.763087 ","42661","438","901","3","1/20/2022 12:00:00 AM","2019","165429","NYTIMES-USCENSUS"
"1/21/2022 12:00:00 AM","Yates County","New York","Northeast","Middle Atlantic","36123","42.638237","-77.104324 ","2956","36","43","0","1/20/2022 12:00:00 AM","2019","24913","NYTIMES-USCENSUS"
"1/21/2022 12:00:00 AM","Mineral County","Colorado","West","Mountain","08079","37.549067","-107.003236 ","195","1","0","0","1/20/2022 12:00:00 AM","2019","769","NYTIMES-USCENSUS"
"1/21/2022 12:00:00 AM","Tulare County","California","West","Pacific","06107","36.228834","-118.781055 ","107113","1211","1480","11","1/20/2022 12:00:00 AM","2019","466195","NYTIMES-USCENSUS"
"1/21/2022 12:00:00 AM","Pocahontas County","West Virginia","South","South Atlantic","54075","38.332606","-80.010121 ","1604","25","13","0","1/20/2022 12:00:00 AM","2019","8247","NYTIMES-USCENSUS"
"1/21/2022 12:00:00 AM","Terry County","Texas","South","West South Central","48445","33.171229","-102.339284 ","2018","77","37","1","1/20/2022 12:00:00 AM","2019","12337","NYTIMES-USCENSUS"
"1/21/2022 12:00:00 AM","McHenry County","North Dakota","Midwest","West North Central","38049","48.233842","-100.633267 ","1178","28","9","0","1/20/2022 12:00:00 AM","2019","5745","NYTIMES-USCENSUS"
"1/21/2022 12:00:00 AM","Logan County","Nebraska","Midwest","West North Central","31113","41.542155","-100.443665 ","126","0","1","0","1/20/2022 12:00:00 AM","2019","748","NYTIMES-USCENSUS"
"1/21/2022 12:00:00 AM","Humboldt County","Iowa","Midwest","West North Central","19091","42.782221","-94.202775 ","2443","35","0","0","1/20/2022 12:00:00 AM","2019","9558","NYTIMES-USCENSUS"
"1/21/2022 12:00:00 AM","Campbell County","Virginia","South","South Atlantic","51031","37.210152","-79.095428 ","9666","165","92","0","1/20/2022 12:00:00 AM","2019","54885","NYTIMES-USCENSUS"
"1/21/2022 12:00:00 AM","Putnam County","West Virginia","South","South Atlantic","54079","38.510518","-81.906109 ","13427","150","152","0","1/20/2022 12:00:00 AM","2019","56450","NYTIMES-USCENSUS"
"1/21/2022 12:00:00 AM","Missoula County","Montana","West","Mountain","30063","47.027263","-113.892691 ","21459","197","260","2","1/20/2022 12:00:00 AM","2019","119600","NYTIMES-USCENSUS"
"1/21/2022 12:00:00 AM","Fredericksburg city","Virginia","South","South Atlantic","51630","38.299272","-77.486658 ","4769","28","50","0","1/20/2022 12:00:00 AM","2019","29036","NYTIMES-USCENSUS"
"1/21/2022 12:00:00 AM","Grant County","North Dakota","Midwest","West North Central","38037","46.357827","-101.639049 ","431","11","-1","0","1/20/2022 12:00:00 AM","2019","2274","NYTIMES-USCENSUS"
"1/21/2022 12:00:00 AM","Howard County","Maryland","South","South Atlantic","24027","39.252264","-76.924406 ","39319","320","210","3","1/20/2022 12:00:00 AM","2019","325690","NYTIMES-USCENSUS"
"1/21/2022 12:00:00 AM","Hancock County","Ohio","Midwest","East North Central","39063","41.000217","-83.665947 ","15896","232","135","4","1/20/2022 12:00:00 AM","2019","75783","NYTIMES-USCENSUS"
"1/21/2022 12:00:00 AM","Parke County","Indiana","Midwest","East North Central","18121","39.77425","-87.19695 ","3289","40","48","0","1/20/2022 12:00:00 AM","2019","16937","NYTIMES-USCENSUS"
"1/21/2022 12:00:00 AM","Stevens County","Kansas","Midwest","West North Central","20189","37.2017","-101.317268 ","1328","17","38","0","1/20/2022 12:00:00 AM","2019","5485","NYTIMES-USCENSUS"
"1/21/2022 12:00:00 AM","Kenai Peninsula Borough","Alaska","West","Pacific","02122","60.360766","-152.05264 ","13744","85","335","0","1/20/2022 12:00:00 AM","2019","58708","NYTIMES-USCENSUS"
"1/21/2022 12:00:00 AM","Lincoln County","Montana","West","Mountain","30053","48.552385","-115.463185 ","4029","75","30","0","1/20/2022 12:00:00 AM","2019","19980","NYTIMES-USCENSUS"
"1/21/2022 12:00:00 AM","Stone County","Mississippi","South","East South Central","28131","30.790184","-89.112297 ","4560","67","47","0","1/20/2022 12:00:00 AM","2019","18336","NYTIMES-USCENSUS"
"1/21/2022 12:00:00 AM","Noble County","Oklahoma","South","West South Central","40103","36.384901","-97.236335 ","2343","33","0","0","1/20/2022 12:00:00 AM","2019","11131","NYTIMES-USCENSUS"
"1/21/2022 12:00:00 AM","St. Helena Parish","Louisiana","South","West South Central","22091","30.822539","-90.708307 ","1647","20","11","0","1/20/2022 12:00:00 AM","2019","10132","NYTIMES-USCENSUS"
"1/21/2022 12:00:00 AM","Cheshire County","New Hampshire","Northeast","New England","33005","42.92546","-72.248183 ","11698","91","151","1","1/20/2022 12:00:00 AM","2019","76085","NYTIMES-USCENSUS"
"1/21/2022 12:00:00 AM","Polk County","Oregon","West","Pacific","41053","44.900372","-123.39864 ","11966","115","269","3","1/20/2022 12:00:00 AM","2019","86085","NYTIMES-USCENSUS"
"1/21/2022 12:00:00 AM","Delaware County","Ohio","Midwest","East North Central","39041","40.278941","-83.007462 ","40380","220","343","8","1/20/2022 12:00:00 AM","2019","209177","NYTIMES-USCENSUS"
"1/21/2022 12:00:00 AM","Saunders County","Nebraska","Midwest","West North Central","31155","41.223388","-96.642097 ","4433","25","47","0","1/20/2022 12:00:00 AM","2019","21578","NYTIMES-USCENSUS"
"1/21/2022 12:00:00 AM","Columbia County","Pennsylvania","Northeast","Middle Atlantic","42037","41.045517","-76.40426 ","13178","208","120","3","1/20/2022 12:00:00 AM","2019","64964","NYTIMES-USCENSUS"
"1/21/2022 12:00:00 AM","Green County","Wisconsin","Midwest","East North Central","55045","42.675522","-89.605074 ","7951","48","111","0","1/20/2022 12:00:00 AM","2019","36960","NYTIMES-USCENSUS"
"1/21/2022 12:00:00 AM","Carter County","Kentucky","South","East South Central","21043","38.314094","-83.038988 ","6535","87","114","0","1/20/2022 12:00:00 AM","2019","26797","NYTIMES-USCENSUS"
"1/21/2022 12:00:00 AM","Medina County","Ohio","Midwest","East North Central","39103","41.116174","-81.899764 ","38323","427","287","8","1/20/2022 12:00:00 AM","2019","179746","NYTIMES-USCENSUS"
"1/21/2022 12:00:00 AM","Pulaski County","Illinois","Midwest","East North Central","17153","37.215615","-89.127755 ","1519","15","11","0","1/20/2022 12:00:00 AM","2019","5335","NYTIMES-USCENSUS"
"1/21/2022 12:00:00 AM","Smith County","Texas","South","West South Central","48423","32.377016","-95.270041 ","39588","854","393","2","1/20/2022 12:00:00 AM","2019","232751","NYTIMES-USCENSUS"
"1/21/2022 12:00:00 AM","Columbia County","Florida","South","South Atlantic","12023","30.221651","-82.623371 ","18360","324","1216","0","1/20/2022 12:00:00 AM","2019","71686","NYTIMES-USCENSUS"
"1/21/2022 12:00:00 AM","Wilbarger County","Texas","South","West South Central","48487","34.08492","-99.24244 ","3189","77","10","0","1/20/2022 12:00:00 AM","2019","12769","NYTIMES-USCENSUS"
"1/21/2022 12:00:00 AM","Custer County","Colorado","West","Mountain","08027","38.101996","-105.373512 ","552","16","5","0","1/20/2022 12:00:00 AM","2019","5068","NYTIMES-USCENSUS"
"1/21/2022 12:00:00 AM","Wilkes County","Georgia","South","South Atlantic","13317","33.779031","-82.747921 ","1965","40","32","0","1/20/2022 12:00:00 AM","2019","9777","NYTIMES-USCENSUS"
"1/21/2022 12:00:00 AM","Dallas County","Texas","South","West South Central","48113","32.766987","-96.778424 ","514880","5930","3874","17","1/20/2022 12:00:00 AM","2019","2635516","NYTIMES-USCENSUS"
"1/21/2022 12:00:00 AM","Banks County","Georgia","South","South Atlantic","13011","34.351922","-83.498441 ","3538","73","40","0","1/20/2022 12:00:00 AM","2019","19234","NYTIMES-USCENSUS"
"1/21/2022 12:00:00 AM","Miami County","Ohio","Midwest","East North Central","39109","40.053326","-84.228413 ","23785","408","218","13","1/20/2022 12:00:00 AM","2019","106987","NYTIMES-USCENSUS"
"1/21/2022 12:00:00 AM","Garvin County","Oklahoma","South","West South Central","40049","34.70935","-97.312723 ","5781","115","0","0","1/20/2022 12:00:00 AM","2019","27711","NYTIMES-USCENSUS"
"1/21/2022 12:00:00 AM","Montague County","Texas","South","West South Central","48337","33.678356","-97.725014 ","4062","105","45","0","1/20/2022 12:00:00 AM","2019","19818","NYTIMES-USCENSUS"
"1/21/2022 12:00:00 AM","Harlan County","Kentucky","South","East South Central","21095","36.859223","-83.221497 ","7094","168","146","0","1/20/2022 12:00:00 AM","2019","26010","NYTIMES-USCENSUS"
"1/21/2022 12:00:00 AM","Atkinson County","Georgia","South","South Atlantic","13003","31.296806","-82.878151 ","1866","39","19","0","1/20/2022 12:00:00 AM","2019","8165","NYTIMES-USCENSUS"
"1/21/2022 12:00:00 AM","Floyd County","Virginia","South","South Atlantic","51063","36.931433","-80.350266 ","2133","33","28","0","1/20/2022 12:00:00 AM","2019","15749","NYTIMES-USCENSUS"
"1/21/2022 12:00:00 AM","Rogers County","Oklahoma","South","West South Central","40131","36.377794","-95.601383 ","20366","326","0","0","1/20/2022 12:00:00 AM","2019","92459","NYTIMES-USCENSUS"
"1/21/2022 12:00:00 AM","Deer Lodge County","Montana","West","Mountain","30023","46.094672","-113.141624 ","1968","29","32","1","1/20/2022 12:00:00 AM","2019","9140","NYTIMES-USCENSUS"
"1/21/2022 12:00:00 AM","Lancaster County","South Carolina","South","South Atlantic","45057","34.686818","-80.703688 ","21256","255","179","2","1/20/2022 12:00:00 AM","2019","98012","NYTIMES-USCENSUS"
"1/21/2022 12:00:00 AM","Lyon County","Kentucky","South","East South Central","21143","37.023976","-88.083391 ","2268","31","26","0","1/20/2022 12:00:00 AM","2019","8210","NYTIMES-USCENSUS"
"1/21/2022 12:00:00 AM","Carter County","Oklahoma","South","West South Central","40019","34.251848","-97.287927 ","11162","203","0","0","1/20/2022 12:00:00 AM","2019","48111","NYTIMES-USCENSUS"
"1/21/2022 12:00:00 AM","Vernon Parish","Louisiana","South","West South Central","22115","31.102841","-93.18833 ","8106","169","67","1","1/20/2022 12:00:00 AM","2019","47429","NYTIMES-USCENSUS"
"1/21/2022 12:00:00 AM","Brantley County","Georgia","South","South Atlantic","13025","31.197334","-81.982978 ","3556","93","27","1","1/20/2022 12:00:00 AM","2019","19109","NYTIMES-USCENSUS"
"1/21/2022 12:00:00 AM","Butler County","Kentucky","South","East South Central","21031","37.207013","-86.682471 ","2951","46","23","1","1/20/2022 12:00:00 AM","2019","12879","NYTIMES-USCENSUS"
"1/21/2022 12:00:00 AM","Delaware County","Oklahoma","South","West South Central","40041","36.393437","-94.808189 ","8985","174","0","0","1/20/2022 12:00:00 AM","2019","43009","NYTIMES-USCENSUS"
"1/21/2022 12:00:00 AM","Grady County","Oklahoma","South","West South Central","40051","35.021058","-97.88689 ","11277","210","0","0","1/20/2022 12:00:00 AM","2019","55834","NYTIMES-USCENSUS"
"1/21/2022 12:00:00 AM","Marathon County","Wisconsin","Midwest","East North Central","55073","44.898036","-89.757823 ","35391","438","342","1","1/20/2022 12:00:00 AM","2019","135692","NYTIMES-USCENSUS"
"1/21/2022 12:00:00 AM","Benson County","North Dakota","Midwest","West North Central","38005","48.071743","-99.351152 ","1651","22","17","0","1/20/2022 12:00:00 AM","2019","6832","NYTIMES-USCENSUS"
"1/21/2022 12:00:00 AM","Madison County","Nebraska","Midwest","West North Central","31119","41.909929","-97.606856 ","8419","58","105","0","1/20/2022 12:00:00 AM","2019","35099","NYTIMES-USCENSUS"
"1/21/2022 12:00:00 AM","Franklin Parish","Louisiana","South","West South Central","22041","32.139076","-91.672371 ","5788","146","62","1","1/20/2022 12:00:00 AM","2019","20015","NYTIMES-USCENSUS"
"1/21/2022 12:00:00 AM","Alamosa County","Colorado","West","Mountain","08003","37.568442","-105.788041 ","3700","58","63","0","1/20/2022 12:00:00 AM","2019","16233","NYTIMES-USCENSUS"
"1/21/2022 12:00:00 AM","Concordia Parish","Louisiana","South","West South Central","22029","31.469805","-91.626315 ","4287","81","51","0","1/20/2022 12:00:00 AM","2019","19259","NYTIMES-USCENSUS"
"1/21/2022 12:00:00 AM","Chelan County","Washington","West","Pacific","53007","47.860974","-120.619041 ","15893","142","94","0","1/20/2022 12:00:00 AM","2019","77200","NYTIMES-USCENSUS"
"1/21/2022 12:00:00 AM","Morgan County","West Virginia","South","South Atlantic","54065","39.557345","-78.256517 ","3763","57","45","0","1/20/2022 12:00:00 AM","2019","17884","NYTIMES-USCENSUS"
"1/21/2022 12:00:00 AM","Williams County","North Dakota","Midwest","West North Central","38105","48.355765","-103.501333 ","9347","66","130","1","1/20/2022 12:00:00 AM","2019","37589","NYTIMES-USCENSUS"
"1/21/2022 12:00:00 AM","Cimarron County","Oklahoma","South","West South Central","40025","36.74839","-102.517698 ","473","0","0","0","1/20/2022 12:00:00 AM","2019","2137","NYTIMES-USCENSUS"
"1/21/2022 12:00:00 AM","Latah County","Idaho","West","Mountain","16057","46.81892","-116.730974 ","5597","42","134","0","1/20/2022 12:00:00 AM","2019","40108","NYTIMES-USCENSUS"
"1/21/2022 12:00:00 AM","Grant County","Arkansas","South","West South Central","05053","34.285568","-92.422979 ","3863","52","56","0","1/20/2022 12:00:00 AM","2019","18265","NYTIMES-USCENSUS"
"1/21/2022 12:00:00 AM","Lyman County","South Dakota","Midwest","West North Central","46085","43.894812","-99.841925 ","1126","12","8","0","1/20/2022 12:00:00 AM","2019","3781","NYTIMES-USCENSUS"
"1/21/2022 12:00:00 AM","Carroll County","Maryland","South","South Atlantic","24013","39.563328","-77.01533 ","19242","356","112","2","1/20/2022 12:00:00 AM","2019","168447","NYTIMES-USCENSUS"
"1/21/2022 12:00:00 AM","Montmorency County","Michigan","Midwest","East North Central","26119","45.024134","-84.130107 ","1538","44","33","1","1/20/2022 12:00:00 AM","2019","9328","NYTIMES-USCENSUS"
"1/21/2022 12:00:00 AM","Chester County","Tennessee","South","East South Central","47023","35.420253","-88.611353 ","4562","83","0","0","1/20/2022 12:00:00 AM","2019","17297","NYTIMES-USCENSUS"
"1/21/2022 12:00:00 AM","Gooding County","Idaho","West","Mountain","16047","42.973185","-114.82142 ","2534","45","9","0","1/20/2022 12:00:00 AM","2019","15179","NYTIMES-USCENSUS"
"1/21/2022 12:00:00 AM","Fremont County","Colorado","West","Mountain","08043","38.45517","-105.424958 ","12047","164","143","0","1/20/2022 12:00:00 AM","2019","47839","NYTIMES-USCENSUS"
"1/21/2022 12:00:00 AM","Danville city","Virginia","South","South Atlantic","51590","36.583334","-79.408071 ","9270","213","144","0","1/20/2022 12:00:00 AM","2019","40044","NYTIMES-USCENSUS"
"1/21/2022 12:00:00 AM","Kandiyohi County","Minnesota","Midwest","West North Central","27067","45.152714","-95.004981 ","11503","127","153","1","1/20/2022 12:00:00 AM","2019","43199","NYTIMES-USCENSUS"
"1/21/2022 12:00:00 AM","Webster County","Mississippi","South","East South Central","28155","33.612061","-89.283961 ","2683","51","43","0","1/20/2022 12:00:00 AM","2019","9689","NYTIMES-USCENSUS"
"1/21/2022 12:00:00 AM","Donley County","Texas","South","West South Central","48129","34.955036","-100.815846 ","888","20","3","0","1/20/2022 12:00:00 AM","2019","3278","NYTIMES-USCENSUS"
"1/21/2022 12:00:00 AM","Taylor County","Iowa","Midwest","West North Central","19173","40.737949","-94.697108 ","1160","21","0","0","1/20/2022 12:00:00 AM","2019","6121","NYTIMES-USCENSUS"
"1/21/2022 12:00:00 AM","Yoakum County","Texas","South","West South Central","48501","33.162339","-102.832241 ","943","37","27","0","1/20/2022 12:00:00 AM","2019","8713","NYTIMES-USCENSUS"
"1/21/2022 12:00:00 AM","Macoupin County","Illinois","Midwest","East North Central","17117","39.265914","-89.92633 ","11376","157","144","1","1/20/2022 12:00:00 AM","2019","44926","NYTIMES-USCENSUS"
"1/21/2022 12:00:00 AM","King William County","Virginia","South","South Atlantic","51101","37.70826","-77.091054 ","3220","27","37","0","1/20/2022 12:00:00 AM","2019","17148","NYTIMES-USCENSUS"
"1/21/2022 12:00:00 AM","Maries County","Missouri","Midwest","West North Central","29125","38.162615","-91.923601 ","1402","27","22","0","1/20/2022 12:00:00 AM","2019","8697","NYTIMES-USCENSUS"
"1/21/2022 12:00:00 AM","Dodge County","Minnesota","Midwest","West North Central","27039","44.020706","-92.869353 ","4667","14","75","0","1/20/2022 12:00:00 AM","2019","20934","NYTIMES-USCENSUS"
"1/21/2022 12:00:00 AM","Marinette County","Wisconsin","Midwest","East North Central","55075","45.346899","-87.991198 ","10501","100","61","0","1/20/2022 12:00:00 AM","2019","40350","NYTIMES-USCENSUS"
"1/21/2022 12:00:00 AM","Yadkin County","North Carolina","South","South Atlantic","37197","36.158765","-80.665164 ","9148","95","74","0","1/20/2022 12:00:00 AM","2019","37667","NYTIMES-USCENSUS"
"1/21/2022 12:00:00 AM","San Bernardino County","California","West","Pacific","06071","34.856661","-116.181571 ","513848","6267","7363","2","1/20/2022 12:00:00 AM","2019","2180085","NYTIMES-USCENSUS"
"1/21/2022 12:00:00 AM","Grant County","Minnesota","Midwest","West North Central","27051","45.930743","-96.010699 ","1215","12","6","0","1/20/2022 12:00:00 AM","2019","5972","NYTIMES-USCENSUS"
"1/21/2022 12:00:00 AM","Graham County","North Carolina","South","South Atlantic","37075","35.348364","-83.830915 ","1825","29","57","0","1/20/2022 12:00:00 AM","2019","8441","NYTIMES-USCENSUS"
"1/21/2022 12:00:00 AM","Adams County","Pennsylvania","Northeast","Middle Atlantic","42001","39.869471","-77.21773 ","22448","309","171","5","1/20/2022 12:00:00 AM","2019","103009","NYTIMES-USCENSUS"
"1/21/2022 12:00:00 AM","Duplin County","North Carolina","South","South Atlantic","37061","34.934403","-77.933543 ","13541","203","211","0","1/20/2022 12:00:00 AM","2019","58741","NYTIMES-USCENSUS"
"1/21/2022 12:00:00 AM","Pointe Coupee Parish","Louisiana","South","West South Central","22077","30.708319","-91.604621 ","5127","85","65","0","1/20/2022 12:00:00 AM","2019","21730","NYTIMES-USCENSUS"
"1/21/2022 12:00:00 AM","Mohave County","Arizona","West","Mountain","04015","35.717705","-113.749689 ","47876","1255","490","10","1/20/2022 12:00:00 AM","2019","212181","NYTIMES-USCENSUS"
"1/21/2022 12:00:00 AM","Liberty County","Montana","West","Mountain","30051","48.559654","-111.036924 ","326","2","0","0","1/20/2022 12:00:00 AM","2019","2337","NYTIMES-USCENSUS"
"1/21/2022 12:00:00 AM","Bedford County","Tennessee","South","East South Central","47003","35.51366","-86.458294 ","11551","208","0","0","1/20/2022 12:00:00 AM","2019","49713","NYTIMES-USCENSUS"
"1/21/2022 12:00:00 AM","Ocean County","New Jersey","Northeast","Middle Atlantic","34029","39.865669","-74.258864 ","150682","2637","861","11","1/20/2022 12:00:00 AM","2019","607186","NYTIMES-USCENSUS"
"1/21/2022 12:00:00 AM","Todd County","Minnesota","Midwest","West North Central","27153","46.066569","-94.900576 ","5824","54","46","0","1/20/2022 12:00:00 AM","2019","24664","NYTIMES-USCENSUS"
"1/21/2022 12:00:00 AM","Fresno County","California","West","Pacific","06019","36.761006","-119.655019 ","201080","2429","3766","-1","1/20/2022 12:00:00 AM","2019","999101","NYTIMES-USCENSUS"
"1/21/2022 12:00:00 AM","Bledsoe County","Tennessee","South","East South Central","47007","35.593561","-85.20591 ","3988","41","0","0","1/20/2022 12:00:00 AM","2019","15064","NYTIMES-USCENSUS"
"1/21/2022 12:00:00 AM","Boundary County","Idaho","West","Mountain","16021","48.773131","-116.524668 ","1804","53","8","0","1/20/2022 12:00:00 AM","2019","12245","NYTIMES-USCENSUS"
"1/21/2022 12:00:00 AM","Morgan County","Indiana","Midwest","East North Central","18109","39.482646","-86.447457 ","14642","248","206","1","1/20/2022 12:00:00 AM","2019","70489","NYTIMES-USCENSUS"
"1/21/2022 12:00:00 AM","Ontario County","New York","Northeast","Middle Atlantic","36069","42.856357","-77.303497 ","17637","161","195","0","1/20/2022 12:00:00 AM","2019","109777","NYTIMES-USCENSUS"
"1/21/2022 12:00:00 AM","Smyth County","Virginia","South","South Atlantic","51173","36.842318","-81.539786 ","6622","142","128","0","1/20/2022 12:00:00 AM","2019","30104","NYTIMES-USCENSUS"
"1/21/2022 12:00:00 AM","Camas County","Idaho","West","Mountain","16025","43.502552","-114.772135 ","117","1","3","0","1/20/2022 12:00:00 AM","2019","1106","NYTIMES-USCENSUS"
"1/21/2022 12:00:00 AM","St. Landry Parish","Louisiana","South","West South Central","22097","30.583441","-91.989274 ","18520","356","246","-1","1/20/2022 12:00:00 AM","2019","82124","NYTIMES-USCENSUS"
"1/21/2022 12:00:00 AM","Alfalfa County","Oklahoma","South","West South Central","40003","36.729703","-98.323445 ","1532","10","0","0","1/20/2022 12:00:00 AM","2019","5702","NYTIMES-USCENSUS"
"1/21/2022 12:00:00 AM","Lowndes County","Mississippi","South","East South Central","28087","33.471424","-88.439723 ","14797","203","127","0","1/20/2022 12:00:00 AM","2019","58595","NYTIMES-USCENSUS"
"1/21/2022 12:00:00 AM","Malheur County","Oregon","West","Pacific","41045","43.188625","-117.603191 ","6970","96","99","0","1/20/2022 12:00:00 AM","2019","30571","NYTIMES-USCENSUS"
"1/21/2022 12:00:00 AM","Moultrie County","Illinois","Midwest","East North Central","17139","39.636896","-88.625726 ","3652","48","46","0","1/20/2022 12:00:00 AM","2019","14501","NYTIMES-USCENSUS"
"1/21/2022 12:00:00 AM","Nolan County","Texas","South","West South Central","48353","32.312338","-100.418108 ","2715","87","23","1","1/20/2022 12:00:00 AM","2019","14714","NYTIMES-USCENSUS"
"1/21/2022 12:00:00 AM","Preston County","West Virginia","South","South Atlantic","54077","39.46903","-79.668865 ","7619","113","76","1","1/20/2022 12:00:00 AM","2019","33432","NYTIMES-USCENSUS"
"1/21/2022 12:00:00 AM","Lewis and Clark County","Montana","West","Mountain","30049","47.132013","-112.373367 ","14202","161","140","2","1/20/2022 12:00:00 AM","2019","69432","NYTIMES-USCENSUS"
"1/21/2022 12:00:00 AM","Mecklenburg County","North Carolina","South","South Atlantic","37119","35.246862","-80.833832 ","237995","1394","4280","5","1/20/2022 12:00:00 AM","2019","1110356","NYTIMES-USCENSUS"
"1/21/2022 12:00:00 AM","McDuffie County","Georgia","South","South Atlantic","13189","33.480613","-82.479533 ","4567","83","33","1","1/20/2022 12:00:00 AM","2019","21312","NYTIMES-USCENSUS"
"1/21/2022 12:00:00 AM","Carroll County","Virginia","South","South Atlantic","51035","36.731963","-80.727831 ","5504","114","45","0","1/20/2022 12:00:00 AM","2019","29791","NYTIMES-USCENSUS"
"1/21/2022 12:00:00 AM","Berks County","Pennsylvania","Northeast","Middle Atlantic","42011","40.413957","-75.92686 ","95469","1447","510","9","1/20/2022 12:00:00 AM","2019","421164","NYTIMES-USCENSUS"
"1/21/2022 12:00:00 AM","Schenectady County","New York","Northeast","Middle Atlantic","36093","42.817552","-74.043559 ","29677","280","300","0","1/20/2022 12:00:00 AM","2019","155299","NYTIMES-USCENSUS"
"1/21/2022 12:00:00 AM","Fayette County","Tennessee","South","East South Central","47047","35.196993","-89.413803 ","9900","141","0","0","1/20/2022 12:00:00 AM","2019","41133","NYTIMES-USCENSUS"
"1/21/2022 12:00:00 AM","Grant County","Kansas","Midwest","West North Central","20067","37.547537","-101.299362 ","2016","33","50","0","1/20/2022 12:00:00 AM","2019","7150","NYTIMES-USCENSUS"
"1/21/2022 12:00:00 AM","Kendall County","Texas","South","West South Central","48259","29.943525","-98.709269 ","6887","104","83","0","1/20/2022 12:00:00 AM","2019","47431","NYTIMES-USCENSUS"
"1/21/2022 12:00:00 AM","Greer County","Oklahoma","South","West South Central","40055","34.933853","-99.552968 ","1012","29","0","0","1/20/2022 12:00:00 AM","2019","5712","NYTIMES-USCENSUS"
"1/21/2022 12:00:00 AM","Tripp County","South Dakota","Midwest","West North Central","46123","43.349729","-99.876219 ","1229","21","20","0","1/20/2022 12:00:00 AM","2019","5441","NYTIMES-USCENSUS"
"1/21/2022 12:00:00 AM","Pike County","Mississippi","South","East South Central","28113","31.177516","-90.397725 ","7830","160","84","0","1/20/2022 12:00:00 AM","2019","39288","NYTIMES-USCENSUS"
"1/21/2022 12:00:00 AM","Box Butte County","Nebraska","Midwest","West North Central","31013","42.21038","-103.081779 ","1993","16","59","0","1/20/2022 12:00:00 AM","2019","10783","NYTIMES-USCENSUS"
"1/21/2022 12:00:00 AM","Chautauqua County","New York","Northeast","Middle Atlantic","36013","42.304216","-79.407595 ","21345","246","203","1","1/20/2022 12:00:00 AM","2019","126903","NYTIMES-USCENSUS"
"1/21/2022 12:00:00 AM","Gallatin County","Kentucky","South","East South Central","21077","38.755663","-84.865143 ","1905","45","28","0","1/20/2022 12:00:00 AM","2019","8869","NYTIMES-USCENSUS"
"1/21/2022 12:00:00 AM","Labette County","Kansas","Midwest","West North Central","20099","37.191468","-95.297473 ","5702","68","216","0","1/20/2022 12:00:00 AM","2019","19618","NYTIMES-USCENSUS"
"1/21/2022 12:00:00 AM","Georgetown County","South Carolina","South","South Atlantic","45043","33.417531","-79.296333 ","13379","193","142","0","1/20/2022 12:00:00 AM","2019","62680","NYTIMES-USCENSUS"
"1/21/2022 12:00:00 AM","Martin County","North Carolina","South","South Atlantic","37117","35.847301","-77.119602 ","5202","77","112","0","1/20/2022 12:00:00 AM","2019","22440","NYTIMES-USCENSUS"
"1/21/2022 12:00:00 AM","Amherst County","Virginia","South","South Atlantic","51009","37.629304","-79.154667 ","5852","65","54","0","1/20/2022 12:00:00 AM","2019","31605","NYTIMES-USCENSUS"
"1/21/2022 12:00:00 AM","Ralls County","Missouri","Midwest","West North Central","29173","39.553455","-91.524787 ","2186","19","13","0","1/20/2022 12:00:00 AM","2019","10309","NYTIMES-USCENSUS"
"1/21/2022 12:00:00 AM","Glynn County","Georgia","South","South Atlantic","13127","31.21271","-81.49645 ","19886","356","151","0","1/20/2022 12:00:00 AM","2019","85292","NYTIMES-USCENSUS"
"1/21/2022 12:00:00 AM","Evangeline Parish","Louisiana","South","West South Central","22039","30.720693","-92.404086 ","7244","145","74","0","1/20/2022 12:00:00 AM","2019","33395","NYTIMES-USCENSUS"
"1/21/2022 12:00:00 AM","Heard County","Georgia","South","South Atlantic","13149","33.291347","-85.137886 ","1972","43","27","0","1/20/2022 12:00:00 AM","2019","11923","NYTIMES-USCENSUS"
"1/21/2022 12:00:00 AM","Ashland County","Wisconsin","Midwest","East North Central","55003","46.544424","-90.679691 ","2820","29","41","1","1/20/2022 12:00:00 AM","2019","15562","NYTIMES-USCENSUS"
"1/21/2022 12:00:00 AM","Lewis County","Tennessee","South","East South Central","47101","35.523244","-87.496983 ","2878","49","0","0","1/20/2022 12:00:00 AM","2019","12268","NYTIMES-USCENSUS"
"1/21/2022 12:00:00 AM","Madison County","Texas","South","West South Central","48313","30.966878","-95.930372 ","3400","49","14","0","1/20/2022 12:00:00 AM","2019","14284","NYTIMES-USCENSUS"
"1/21/2022 12:00:00 AM","Unicoi County","Tennessee","South","East South Central","47171","36.100129","-82.418218 ","3794","82","0","0","1/20/2022 12:00:00 AM","2019","17883","NYTIMES-USCENSUS"
"1/21/2022 12:00:00 AM","Marshall County","Minnesota","Midwest","West North Central","27089","48.362728","-96.357761 ","1763","23","9","0","1/20/2022 12:00:00 AM","2019","9336","NYTIMES-USCENSUS"
"1/21/2022 12:00:00 AM","Sullivan County","Pennsylvania","Northeast","Middle Atlantic","42113","41.439285","-76.511717 ","950","32","6","0","1/20/2022 12:00:00 AM","2019","6066","NYTIMES-USCENSUS"
"1/21/2022 12:00:00 AM","Blue Earth County","Minnesota","Midwest","West North Central","27013","44.03371","-94.064012 ","14627","85","225","0","1/20/2022 12:00:00 AM","2019","67653","NYTIMES-USCENSUS"
"1/21/2022 12:00:00 AM","Brown County","Wisconsin","Midwest","East North Central","55009","44.474024","-87.99613 ","76905","399","652","7","1/20/2022 12:00:00 AM","2019","264542","NYTIMES-USCENSUS"
"1/21/2022 12:00:00 AM","Clarke County","Georgia","South","South Atlantic","13059","33.952185","-83.367152 ","27272","194","234","2","1/20/2022 12:00:00 AM","2019","128331","NYTIMES-USCENSUS"
"1/21/2022 12:00:00 AM","Hancock County","Maine","Northeast","New England","23009","44.564906","-68.370703 ","4907","68","41","0","1/20/2022 12:00:00 AM","2019","54987","NYTIMES-USCENSUS"
"1/21/2022 12:00:00 AM","Juneau County","Wisconsin","Midwest","East North Central","55057","43.932836","-90.113984 ","7004","57","67","0","1/20/2022 12:00:00 AM","2019","26687","NYTIMES-USCENSUS"
"1/21/2022 12:00:00 AM","Caldwell County","Missouri","Midwest","West North Central","29025","39.658998","-93.979179 ","1467","29","8","0","1/20/2022 12:00:00 AM","2019","9020","NYTIMES-USCENSUS"
"1/21/2022 12:00:00 AM","Leon County","Texas","South","West South Central","48289","31.300493","-95.995622 ","3321","75","26","0","1/20/2022 12:00:00 AM","2019","17404","NYTIMES-USCENSUS"
"1/21/2022 12:00:00 AM","Crawford County","Ohio","Midwest","East North Central","39033","40.848524","-82.924783 ","10247","178","75","3","1/20/2022 12:00:00 AM","2019","41494","NYTIMES-USCENSUS"
"1/21/2022 12:00:00 AM","Clark County","Kansas","Midwest","West North Central","20025","37.233831","-99.813869 ","464","7","15","0","1/20/2022 12:00:00 AM","2019","1994","NYTIMES-USCENSUS"
"1/21/2022 12:00:00 AM","Tensas Parish","Louisiana","South","West South Central","22107","32.001489","-91.342576 ","830","10","31","0","1/20/2022 12:00:00 AM","2019","4334","NYTIMES-USCENSUS"
"1/21/2022 12:00:00 AM","Upson County","Georgia","South","South Atlantic","13293","32.881837","-84.292283 ","7079","198","41","2","1/20/2022 12:00:00 AM","2019","26320","NYTIMES-USCENSUS"
"1/21/2022 12:00:00 AM","McKenzie County","North Dakota","Midwest","West North Central","38053","47.742475","-103.403215 ","2966","23","7","0","1/20/2022 12:00:00 AM","2019","15024","NYTIMES-USCENSUS"
"1/21/2022 12:00:00 AM","Daviess County","Kentucky","South","East South Central","21059","37.731671","-87.087139 ","25368","332","425","0","1/20/2022 12:00:00 AM","2019","101511","NYTIMES-USCENSUS"
"1/21/2022 12:00:00 AM","Otoe County","Nebraska","Midwest","West North Central","31131","40.637992","-96.131027 ","2899","16","35","0","1/20/2022 12:00:00 AM","2019","16012","NYTIMES-USCENSUS"
"1/21/2022 12:00:00 AM","Hancock County","Kentucky","South","East South Central","21091","37.843325","-86.792761 ","2044","19","35","0","1/20/2022 12:00:00 AM","2019","8722","NYTIMES-USCENSUS"
"1/21/2022 12:00:00 AM","Sullivan County","New Hampshire","Northeast","New England","33019","43.361188","-72.222084 ","7557","57","84","0","1/20/2022 12:00:00 AM","2019","43146","NYTIMES-USCENSUS"
"1/21/2022 12:00:00 AM","Jasper County","Indiana","Midwest","East North Central","18073","41.017688","-87.118814 ","8334","122","73","1","1/20/2022 12:00:00 AM","2019","33562","NYTIMES-USCENSUS"
"1/21/2022 12:00:00 AM","Wagoner County","Oklahoma","South","West South Central","40145","35.963388","-95.514201 ","17553","228","0","0","1/20/2022 12:00:00 AM","2019","81289","NYTIMES-USCENSUS"
"1/21/2022 12:00:00 AM","Ottawa County","Kansas","Midwest","West North Central","20143","39.137963","-97.654802 ","1070","16","28","0","1/20/2022 12:00:00 AM","2019","5704","NYTIMES-USCENSUS"
"1/21/2022 12:00:00 AM","Swain County","North Carolina","South","South Atlantic","37173","35.568849","-83.465614 ","2810","33","27","0","1/20/2022 12:00:00 AM","2019","14271","NYTIMES-USCENSUS"
"1/21/2022 12:00:00 AM","Mercer County","North Dakota","Midwest","West North Central","38057","47.307147","-101.833328 ","2251","22","23","0","1/20/2022 12:00:00 AM","2019","8187","NYTIMES-USCENSUS"
"1/21/2022 12:00:00 AM","Amite County","Mississippi","South","East South Central","28005","31.203933","-90.795542 ","2724","59","20","0","1/20/2022 12:00:00 AM","2019","12297","NYTIMES-USCENSUS"
"1/21/2022 12:00:00 AM","Kent County","Maryland","South","South Atlantic","24029","39.241279","-76.125987 ","2714","62","20","0","1/20/2022 12:00:00 AM","2019","19422","NYTIMES-USCENSUS"
"1/21/2022 12:00:00 AM","Virginia Beach city","Virginia","South","South Atlantic","51810","36.779525","-76.029142 ","80392","623","973","0","1/20/2022 12:00:00 AM","2019","449974","NYTIMES-USCENSUS"
"1/21/2022 12:00:00 AM","Pacific County","Washington","West","Pacific","53049","46.556587","-123.782419 ","2592","43","45","0","1/20/2022 12:00:00 AM","2019","22471","NYTIMES-USCENSUS"
"1/21/2022 12:00:00 AM","Middlesex County","New Jersey","Northeast","Middle Atlantic","34023","40.439621","-74.40743 ","176259","2688","888","11","1/20/2022 12:00:00 AM","2019","825062","NYTIMES-USCENSUS"
"1/21/2022 12:00:00 AM","Adair County","Oklahoma","South","West South Central","40001","35.898043","-94.651026 ","6125","65","0","0","1/20/2022 12:00:00 AM","2019","22194","NYTIMES-USCENSUS"
"1/21/2022 12:00:00 AM","Greene County","Arkansas","South","West South Central","05055","36.120607","-90.566346 ","13978","140","155","0","1/20/2022 12:00:00 AM","2019","45325","NYTIMES-USCENSUS"
"1/21/2022 12:00:00 AM","Hampden County","Massachusetts","Northeast","New England","25013","42.136198","-72.635648 ","119794","1861","1308","6","1/20/2022 12:00:00 AM","2019","466372","NYTIMES-USCENSUS"
"1/21/2022 12:00:00 AM","Beaver County","Pennsylvania","Northeast","Middle Atlantic","42007","40.68414","-80.350721 ","35529","648","358","0","1/20/2022 12:00:00 AM","2019","163929","NYTIMES-USCENSUS"
"1/21/2022 12:00:00 AM","Bartow County","Georgia","South","South Atlantic","13015","34.240917","-84.838188 ","26609","395","192","1","1/20/2022 12:00:00 AM","2019","107738","NYTIMES-USCENSUS"
"1/21/2022 12:00:00 AM","Yankton County","South Dakota","Midwest","West North Central","46135","43.006603","-97.388361 ","5339","48","63","1","1/20/2022 12:00:00 AM","2019","22814","NYTIMES-USCENSUS"
"1/21/2022 12:00:00 AM","Darke County","Ohio","Midwest","East North Central","39037","40.131467","-84.621191 ","11233","202","122","4","1/20/2022 12:00:00 AM","2019","51113","NYTIMES-USCENSUS"
"1/21/2022 12:00:00 AM","Kodiak Island Borough","Alaska","West","Pacific","02150","57.7044","-153.918372 ","3912","10","211","0","1/20/2022 12:00:00 AM","2019","12998","NYTIMES-USCENSUS"
"1/21/2022 12:00:00 AM","Lake County","Michigan","Midwest","East North Central","26085","43.995187","-85.8114 ","1571","33","23","0","1/20/2022 12:00:00 AM","2019","11853","NYTIMES-USCENSUS"
"1/21/2022 12:00:00 AM","Wright County","Minnesota","Midwest","West North Central","27171","45.175091","-93.966396 ","32068","278","400","0","1/20/2022 12:00:00 AM","2019","138377","NYTIMES-USCENSUS"
"1/21/2022 12:00:00 AM","McClain County","Oklahoma","South","West South Central","40087","35.016436","-97.449803 ","9573","107","0","0","1/20/2022 12:00:00 AM","2019","40474","NYTIMES-USCENSUS"
"1/21/2022 12:00:00 AM","Livingston County","New York","Northeast","Middle Atlantic","36051","42.729042","-77.778463 ","10467","100","124","0","1/20/2022 12:00:00 AM","2019","62914","NYTIMES-USCENSUS"
"1/21/2022 12:00:00 AM","Stanley County","South Dakota","Midwest","West North Central","46117","44.413984","-100.747822 ","593","6","5","1","1/20/2022 12:00:00 AM","2019","3098","NYTIMES-USCENSUS"
"1/21/2022 12:00:00 AM","Iberville Parish","Louisiana","South","West South Central","22047","30.270653","-91.365872 ","7863","130","75","0","1/20/2022 12:00:00 AM","2019","32511","NYTIMES-USCENSUS"
"1/21/2022 12:00:00 AM","Sussex County","Delaware","South","South Atlantic","10005","38.673227","-75.337024 ","55486","736","458","1","1/20/2022 12:00:00 AM","2019","234225","NYTIMES-USCENSUS"
"1/21/2022 12:00:00 AM","Irion County","Texas","South","West South Central","48235","31.303424","-100.981304 ","346","2","8","0","1/20/2022 12:00:00 AM","2019","1536","NYTIMES-USCENSUS"
"1/21/2022 12:00:00 AM","Clinton County","Iowa","Midwest","West North Central","19045","41.898073","-90.534243 ","10261","126","0","0","1/20/2022 12:00:00 AM","2019","46429","NYTIMES-USCENSUS"
"1/21/2022 12:00:00 AM","Seward County","Nebraska","Midwest","West North Central","31159","40.871944","-97.140383 ","2876","40","14","0","1/20/2022 12:00:00 AM","2019","17284","NYTIMES-USCENSUS"
"1/21/2022 12:00:00 AM","Van Buren County","Tennessee","South","East South Central","47175","35.699234","-85.458409 ","1449","45","0","0","1/20/2022 12:00:00 AM","2019","5872","NYTIMES-USCENSUS"
"1/21/2022 12:00:00 AM","Barry County","Missouri","Midwest","West North Central","29009","36.699376","-93.834334 ","5859","101","117","1","1/20/2022 12:00:00 AM","2019","35789","NYTIMES-USCENSUS"
"1/21/2022 12:00:00 AM","New Castle County","Delaware","South","South Atlantic","10003","39.575915","-75.644132 ","134821","1199","1180","6","1/20/2022 12:00:00 AM","2019","558753","NYTIMES-USCENSUS"
"1/21/2022 12:00:00 AM","Barron County","Wisconsin","Midwest","East North Central","55005","45.437192","-91.852892 ","12194","123","112","0","1/20/2022 12:00:00 AM","2019","45244","NYTIMES-USCENSUS"
"1/21/2022 12:00:00 AM","Lafayette County","Arkansas","South","West South Central","05073","33.240629","-93.611514 ","1137","28","7","0","1/20/2022 12:00:00 AM","2019","6624","NYTIMES-USCENSUS"
"1/21/2022 12:00:00 AM","Hillsborough County","Florida","South","South Atlantic","12057","27.88761","-82.374417 ","333254","3162","18267","0","1/20/2022 12:00:00 AM","2019","1471968","NYTIMES-USCENSUS"
"1/21/2022 12:00:00 AM","Saratoga County","New York","Northeast","Middle Atlantic","36091","43.106135","-73.855387 ","40979","293","348","1","1/20/2022 12:00:00 AM","2019","229863","NYTIMES-USCENSUS"
"1/21/2022 12:00:00 AM","Estill County","Kentucky","South","East South Central","21065","37.692449","-83.963983 ","2970","38","33","0","1/20/2022 12:00:00 AM","2019","14106","NYTIMES-USCENSUS"
"1/21/2022 12:00:00 AM","Giles County","Tennessee","South","East South Central","47055","35.202723","-87.035319 ","7460","154","0","0","1/20/2022 12:00:00 AM","2019","29464","NYTIMES-USCENSUS"
"1/21/2022 12:00:00 AM","Christian County","Missouri","Midwest","West North Central","29043","36.969739","-93.187614 ","17917","220","447","5","1/20/2022 12:00:00 AM","2019","88595","NYTIMES-USCENSUS"
"1/21/2022 12:00:00 AM","Morgan County","Utah","West","Mountain","49029","41.091027","-111.577885 ","2551","13","32","0","1/20/2022 12:00:00 AM","2019","12124","NYTIMES-USCENSUS"
"1/21/2022 12:00:00 AM","Clarke County","Virginia","South","South Atlantic","51043","39.115307","-77.990748 ","2277","35","21","0","1/20/2022 12:00:00 AM","2019","14619","NYTIMES-USCENSUS"
"1/21/2022 12:00:00 AM","Davie County","North Carolina","South","South Atlantic","37059","35.929355","-80.542552 ","9391","82","144","0","1/20/2022 12:00:00 AM","2019","42846","NYTIMES-USCENSUS"
"1/21/2022 12:00:00 AM","Columbus County","North Carolina","South","South Atlantic","37047","34.261602","-78.639308 ","13551","235","194","0","1/20/2022 12:00:00 AM","2019","55508","NYTIMES-USCENSUS"
"1/21/2022 12:00:00 AM","Rooks County","Kansas","Midwest","West North Central","20163","39.346006","-99.324492 ","1204","18","57","0","1/20/2022 12:00:00 AM","2019","4920","NYTIMES-USCENSUS"
"1/21/2022 12:00:00 AM","Waupaca County","Wisconsin","Midwest","East North Central","55135","44.478004","-88.967005 ","12446","232","114","7","1/20/2022 12:00:00 AM","2019","50990","NYTIMES-USCENSUS"
"1/21/2022 12:00:00 AM","Crawford County","Iowa","Midwest","West North Central","19047","42.043119","-95.38909 ","4140","49","0","0","1/20/2022 12:00:00 AM","2019","16820","NYTIMES-USCENSUS"
"1/21/2022 12:00:00 AM","Franklin County","Mississippi","South","East South Central","28037","31.477773","-90.895457 ","1666","34","29","0","1/20/2022 12:00:00 AM","2019","7713","NYTIMES-USCENSUS"
"1/21/2022 12:00:00 AM","Moore County","Tennessee","South","East South Central","47127","35.288888","-86.358684 ","1769","33","0","0","1/20/2022 12:00:00 AM","2019","6488","NYTIMES-USCENSUS"
"1/21/2022 12:00:00 AM","Fergus County","Montana","West","Mountain","30027","47.221816","-109.232956 ","2026","52","1","0","1/20/2022 12:00:00 AM","2019","11050","NYTIMES-USCENSUS"
"1/21/2022 12:00:00 AM","Baltimore city","Maryland","South","South Atlantic","24510","39.300032","-76.610476 ","103104","1551","404","13","1/20/2022 12:00:00 AM","2019","593490","NYTIMES-USCENSUS"
"1/21/2022 12:00:00 AM","Gila County","Arizona","West","Mountain","04007","33.789618","-110.81187 ","14329","326","240","0","1/20/2022 12:00:00 AM","2019","54018","NYTIMES-USCENSUS"
"1/21/2022 12:00:00 AM","Forest County","Pennsylvania","Northeast","Middle Atlantic","42053","41.513304","-79.249705 ","2022","33","9","0","1/20/2022 12:00:00 AM","2019","7247","NYTIMES-USCENSUS"
"1/21/2022 12:00:00 AM","Saline County","Nebraska","Midwest","West North Central","31151","40.516802","-97.131755 ","3321","8","25","0","1/20/2022 12:00:00 AM","2019","14224","NYTIMES-USCENSUS"
"1/21/2022 12:00:00 AM","Llano County","Texas","South","West South Central","48299","30.707584","-98.68469 ","3417","87","26","0","1/20/2022 12:00:00 AM","2019","21795","NYTIMES-USCENSUS"
"1/21/2022 12:00:00 AM","Lamb County","Texas","South","West South Central","48279","34.068861","-102.348018 ","4054","102","37","0","1/20/2022 12:00:00 AM","2019","12893","NYTIMES-USCENSUS"
"1/21/2022 12:00:00 AM","Marshall County","West Virginia","South","South Atlantic","54051","39.854426","-80.671794 ","7480","142","93","0","1/20/2022 12:00:00 AM","2019","30531","NYTIMES-USCENSUS"
"1/21/2022 12:00:00 AM","New London County","Connecticut","Northeast","New England","09011","41.472652","-72.108634 ","48476","567","563","3","1/20/2022 12:00:00 AM","2019","265206","NYTIMES-USCENSUS"
"1/21/2022 12:00:00 AM","Bent County","Colorado","West","Mountain","08011","37.931891","-103.077584 ","2110","46","22","0","1/20/2022 12:00:00 AM","2019","5577","NYTIMES-USCENSUS"
"1/21/2022 12:00:00 AM","Wetzel County","West Virginia","South","South Atlantic","54103","39.59818","-80.635399 ","3574","68","56","0","1/20/2022 12:00:00 AM","2019","15065","NYTIMES-USCENSUS"
"1/21/2022 12:00:00 AM","Webster County","Georgia","South","South Atlantic","13307","32.046691","-84.553828 ","388","7","8","0","1/20/2022 12:00:00 AM","2019","2607","NYTIMES-USCENSUS"
"1/21/2022 12:00:00 AM","Ulster County","New York","Northeast","Middle Atlantic","36111","41.947212","-74.265458 ","28467","329","209","3","1/20/2022 12:00:00 AM","2019","177573","NYTIMES-USCENSUS"
"1/21/2022 12:00:00 AM","Monroe County","Ohio","Midwest","East North Central","39111","39.726253","-81.090983 ","3116","68","42","0","1/20/2022 12:00:00 AM","2019","13654","NYTIMES-USCENSUS"
"1/21/2022 12:00:00 AM","Columbia County","Wisconsin","Midwest","East North Central","55021","43.471882","-89.330472 ","13404","112","176","0","1/20/2022 12:00:00 AM","2019","57532","NYTIMES-USCENSUS"
"1/21/2022 12:00:00 AM","Adams County","Wisconsin","Midwest","East North Central","55001","43.973757","-89.767228 ","4103","46","46","0","1/20/2022 12:00:00 AM","2019","20220","NYTIMES-USCENSUS"
"1/21/2022 12:00:00 AM","Pottawatomie County","Kansas","Midwest","West North Central","20149","39.382187","-96.337113 ","4949","50","148","0","1/20/2022 12:00:00 AM","2019","24383","NYTIMES-USCENSUS"
"1/21/2022 12:00:00 AM","McMinn County","Tennessee","South","East South Central","47107","35.424472","-84.619949 ","12669","206","0","0","1/20/2022 12:00:00 AM","2019","53794","NYTIMES-USCENSUS"
"1/21/2022 12:00:00 AM","Blair County","Pennsylvania","Northeast","Middle Atlantic","42013","40.498683","-78.309597 ","26130","547","203","2","1/20/2022 12:00:00 AM","2019","121829","NYTIMES-USCENSUS"
"1/21/2022 12:00:00 AM","Hood County","Texas","South","West South Central","48221","32.430149","-97.831677 ","11710","225","52","0","1/20/2022 12:00:00 AM","2019","61643","NYTIMES-USCENSUS"
"1/21/2022 12:00:00 AM","Wyoming County","Pennsylvania","Northeast","Middle Atlantic","42131","41.525173","-76.008731 ","4560","94","36","1","1/20/2022 12:00:00 AM","2019","26794","NYTIMES-USCENSUS"
"1/21/2022 12:00:00 AM","Franklin County","Georgia","South","South Atlantic","13119","34.375266","-83.227532 ","4918","90","48","0","1/20/2022 12:00:00 AM","2019","23349","NYTIMES-USCENSUS"
"1/21/2022 12:00:00 AM","Vernon County","Missouri","Midwest","West North Central","29217","37.850196","-94.341597 ","4381","93","59","0","1/20/2022 12:00:00 AM","2019","20563","NYTIMES-USCENSUS"
"1/21/2022 12:00:00 AM","Ellis County","Texas","South","West South Central","48139","32.346878","-96.79694 ","43302","508","374","0","1/20/2022 12:00:00 AM","2019","184826","NYTIMES-USCENSUS"
"1/21/2022 12:00:00 AM","Clearfield County","Pennsylvania","Northeast","Middle Atlantic","42033","41.006862","-78.477724 ","16926","291","150","2","1/20/2022 12:00:00 AM","2019","79255","NYTIMES-USCENSUS"
"1/21/2022 12:00:00 AM","Jackson County","Florida","South","South Atlantic","12063","30.789249","-85.208814 ","12719","244","996","0","1/20/2022 12:00:00 AM","2019","46414","NYTIMES-USCENSUS"
"1/21/2022 12:00:00 AM","Thomas County","Georgia","South","South Atlantic","13275","30.864619","-83.919815 ","10171","186","90","0","1/20/2022 12:00:00 AM","2019","44451","NYTIMES-USCENSUS"
"1/21/2022 12:00:00 AM","DeKalb County","Tennessee","South","East South Central","47041","35.982219","-85.833596 ","4989","90","0","0","1/20/2022 12:00:00 AM","2019","20490","NYTIMES-USCENSUS"
"1/21/2022 12:00:00 AM","Jefferson County","Kentucky","South","East South Central","21111","38.189532","-85.657624 ","186398","1913","2220","8","1/20/2022 12:00:00 AM","2019","766757","NYTIMES-USCENSUS"
"1/21/2022 12:00:00 AM","Lee County","North Carolina","South","South Atlantic","37105","35.476336","-79.172117 ","13645","128","338","3","1/20/2022 12:00:00 AM","2019","61779","NYTIMES-USCENSUS"
"1/21/2022 12:00:00 AM","Scott County","Kentucky","South","East South Central","21209","38.28571","-84.57834 ","12612","80","262","0","1/20/2022 12:00:00 AM","2019","57004","NYTIMES-USCENSUS"
"1/21/2022 12:00:00 AM","Kemper County","Mississippi","South","East South Central","28069","32.750136","-88.625631 ","1893","42","34","0","1/20/2022 12:00:00 AM","2019","9742","NYTIMES-USCENSUS"
"1/21/2022 12:00:00 AM","Palo Alto County","Iowa","Midwest","West North Central","19147","43.075337","-94.669055 ","1849","34","0","0","1/20/2022 12:00:00 AM","2019","8886","NYTIMES-USCENSUS"
"1/21/2022 12:00:00 AM","Buchanan County","Iowa","Midwest","West North Central","19019","42.470328","-91.838666 ","4004","48","0","0","1/20/2022 12:00:00 AM","2019","21175","NYTIMES-USCENSUS"
"1/21/2022 12:00:00 AM","Cotton County","Oklahoma","South","West South Central","40033","34.290676","-98.373438 ","1195","24","0","0","1/20/2022 12:00:00 AM","2019","5666","NYTIMES-USCENSUS"
"1/21/2022 12:00:00 AM","Clay County","Nebraska","Midwest","West North Central","31035","40.523669","-98.050858 ","1285","17","15","0","1/20/2022 12:00:00 AM","2019","6203","NYTIMES-USCENSUS"
"1/21/2022 12:00:00 AM","New Kent County","Virginia","South","South Atlantic","51127","37.51016","-76.999331 ","3858","28","48","0","1/20/2022 12:00:00 AM","2019","23091","NYTIMES-USCENSUS"
"1/21/2022 12:00:00 AM","Fayette County","Indiana","Midwest","East North Central","18041","39.639655","-85.185032 ","6029","128","100","0","1/20/2022 12:00:00 AM","2019","23102","NYTIMES-USCENSUS"
"1/21/2022 12:00:00 AM","Sunflower County","Mississippi","South","East South Central","28133","33.605529","-90.59509 ","5308","111","23","0","1/20/2022 12:00:00 AM","2019","25110","NYTIMES-USCENSUS"
"1/21/2022 12:00:00 AM","Archuleta County","Colorado","West","Mountain","08007","37.202395","-107.050863 ","2581","9","29","0","1/20/2022 12:00:00 AM","2019","14029","NYTIMES-USCENSUS"
"1/21/2022 12:00:00 AM","Schuyler County","New York","Northeast","Middle Atlantic","36097","42.419776","-76.938603 ","3063","23","56","0","1/20/2022 12:00:00 AM","2019","17807","NYTIMES-USCENSUS"
"1/21/2022 12:00:00 AM","Nye County","Nevada","West","Mountain","32023","37.965864","-116.459011 ","6005","208","27","3","1/20/2022 12:00:00 AM","2019","46523","NYTIMES-USCENSUS"
"1/21/2022 12:00:00 AM","Washington County","Ohio","Midwest","East North Central","39167","39.450676","-81.490636 ","10911","172","75","4","1/20/2022 12:00:00 AM","2019","59911","NYTIMES-USCENSUS"
"1/21/2022 12:00:00 AM","Ransom County","North Dakota","Midwest","West North Central","38073","46.449276","-97.647554 ","1263","23","19","0","1/20/2022 12:00:00 AM","2019","5218","NYTIMES-USCENSUS"
"1/21/2022 12:00:00 AM","Iberia Parish","Louisiana","South","West South Central","22045","29.606013","-91.842706 ","16343","235","111","0","1/20/2022 12:00:00 AM","2019","69830","NYTIMES-USCENSUS"
"1/21/2022 12:00:00 AM","Asotin County","Washington","West","Pacific","53003","46.181861","-117.227781 ","3571","54","40","0","1/20/2022 12:00:00 AM","2019","22582","NYTIMES-USCENSUS"
"1/21/2022 12:00:00 AM","Fremont County","Iowa","Midwest","West North Central","19071","40.74259","-95.599182 ","1205","20","0","0","1/20/2022 12:00:00 AM","2019","6960","NYTIMES-USCENSUS"
"1/21/2022 12:00:00 AM","Camden County","North Carolina","South","South Atlantic","37029","36.342344","-76.162488 ","1563","9","10","0","1/20/2022 12:00:00 AM","2019","10867","NYTIMES-USCENSUS"
"1/21/2022 12:00:00 AM","Berrien County","Michigan","Midwest","East North Central","26021","41.791382","-86.742543 ","31021","447","632","3","1/20/2022 12:00:00 AM","2019","153401","NYTIMES-USCENSUS"
"1/21/2022 12:00:00 AM","Alcorn County","Mississippi","South","East South Central","28003","34.886569","-88.581109 ","8266","123","137","1","1/20/2022 12:00:00 AM","2019","36953","NYTIMES-USCENSUS"
"1/21/2022 12:00:00 AM","Marshall County","Tennessee","South","East South Central","47117","35.468343","-86.765865 ","8202","105","0","0","1/20/2022 12:00:00 AM","2019","34375","NYTIMES-USCENSUS"
"1/21/2022 12:00:00 AM","Kendall County","Illinois","Midwest","East North Central","17093","41.58814","-88.430626 ","27769","149","264","1","1/20/2022 12:00:00 AM","2019","128990","NYTIMES-USCENSUS"
"1/21/2022 12:00:00 AM","Holmes County","Ohio","Midwest","East North Central","39075","40.565597","-81.930001 ","4836","167","22","6","1/20/2022 12:00:00 AM","2019","43960","NYTIMES-USCENSUS"
"1/21/2022 12:00:00 AM","Suffolk city","Virginia","South","South Atlantic","51800","36.697157","-76.634781 ","16900","256","221","0","1/20/2022 12:00:00 AM","2019","92108","NYTIMES-USCENSUS"
"1/21/2022 12:00:00 AM","Moore County","North Carolina","South","South Atlantic","37125","35.308272","-79.492725 ","20525","272","472","5","1/20/2022 12:00:00 AM","2019","100880","NYTIMES-USCENSUS"
"1/21/2022 12:00:00 AM","Cooper County","Missouri","Midwest","West North Central","29053","38.847093","-92.810069 ","3723","70","62","2","1/20/2022 12:00:00 AM","2019","17709","NYTIMES-USCENSUS"
"1/21/2022 12:00:00 AM","Steele County","North Dakota","Midwest","West North Central","38091","47.451062","-97.71892 ","343","2","6","0","1/20/2022 12:00:00 AM","2019","1890","NYTIMES-USCENSUS"
"1/21/2022 12:00:00 AM","Fairfield County","Connecticut","Northeast","New England","09001","41.227413","-73.367061 ","186231","2490","905","18","1/20/2022 12:00:00 AM","2019","943332","NYTIMES-USCENSUS"
"1/21/2022 12:00:00 AM","Clinton County","Michigan","Midwest","East North Central","26037","42.950455","-84.591695 ","17355","178","380","1","1/20/2022 12:00:00 AM","2019","79595","NYTIMES-USCENSUS"
"1/21/2022 12:00:00 AM","Lenoir County","North Carolina","South","South Atlantic","37107","35.240066","-77.635514 ","13087","182","322","0","1/20/2022 12:00:00 AM","2019","55949","NYTIMES-USCENSUS"
"1/21/2022 12:00:00 AM","Perry County","Missouri","Midwest","West North Central","29157","37.71113","-89.802125 ","4281","44","4","2","1/20/2022 12:00:00 AM","2019","19136","NYTIMES-USCENSUS"
"1/21/2022 12:00:00 AM","Orleans Parish","Louisiana","South","West South Central","22071","30.05342","-89.934502 ","76754","1032","540","3","1/20/2022 12:00:00 AM","2019","390144","NYTIMES-USCENSUS"
"1/21/2022 12:00:00 AM","Fayette County","Texas","South","West South Central","48149","29.877886","-96.921231 ","4318","94","50","0","1/20/2022 12:00:00 AM","2019","25346","NYTIMES-USCENSUS"
"1/21/2022 12:00:00 AM","Charlton County","Georgia","South","South Atlantic","13049","30.779904","-82.139644 ","2586","58","30","0","1/20/2022 12:00:00 AM","2019","13392","NYTIMES-USCENSUS"
"1/21/2022 12:00:00 AM","Shawano County","Wisconsin","Midwest","East North Central","55115","44.789641","-88.755813 ","10801","118","99","0","1/20/2022 12:00:00 AM","2019","40899","NYTIMES-USCENSUS"
"1/21/2022 12:00:00 AM","Spink County","South Dakota","Midwest","West North Central","46115","44.923772","-98.339615 ","1294","32","9","0","1/20/2022 12:00:00 AM","2019","6376","NYTIMES-USCENSUS"
"1/21/2022 12:00:00 AM","Calvert County","Maryland","South","South Atlantic","24009","38.522719","-76.529762 ","9953","119","78","1","1/20/2022 12:00:00 AM","2019","92525","NYTIMES-USCENSUS"
"1/21/2022 12:00:00 AM","Lincoln County","Colorado","West","Mountain","08073","38.99374","-103.507555 ","1812","9","72","0","1/20/2022 12:00:00 AM","2019","5701","NYTIMES-USCENSUS"
"1/21/2022 12:00:00 AM","DeKalb County","Missouri","Midwest","West North Central","29063","39.894665","-94.40719 ","1945","40","10","0","1/20/2022 12:00:00 AM","2019","12547","NYTIMES-USCENSUS"
"1/21/2022 12:00:00 AM","Columbia County","Georgia","South","South Atlantic","13073","33.552075","-82.249608 ","31625","333","442","3","1/20/2022 12:00:00 AM","2019","156714","NYTIMES-USCENSUS"
"1/21/2022 12:00:00 AM","Crawford County","Michigan","Midwest","East North Central","26039","44.680175","-84.611343 ","2205","23","47","0","1/20/2022 12:00:00 AM","2019","14029","NYTIMES-USCENSUS"
"1/21/2022 12:00:00 AM","Lawrence County","South Dakota","Midwest","West North Central","46081","44.348514","-103.806362 ","5863","77","63","0","1/20/2022 12:00:00 AM","2019","25844","NYTIMES-USCENSUS"
"1/21/2022 12:00:00 AM","Harnett County","North Carolina","South","South Atlantic","37085","35.368635","-78.87161 ","26869","286","533","0","1/20/2022 12:00:00 AM","2019","135976","NYTIMES-USCENSUS"
"1/21/2022 12:00:00 AM","Campbell County","Wyoming","West","Mountain","56005","44.191999","-105.517014 ","10615","131","112","0","1/20/2022 12:00:00 AM","2019","46341","NYTIMES-USCENSUS"
"1/21/2022 12:00:00 AM","Nelson County","North Dakota","Midwest","West North Central","38063","47.918667","-98.204428 ","677","17","2","0","1/20/2022 12:00:00 AM","2019","2879","NYTIMES-USCENSUS"
"1/21/2022 12:00:00 AM","Florence County","South Carolina","South","South Atlantic","45041","34.028535","-79.710233 ","36007","564","377","1","1/20/2022 12:00:00 AM","2019","138293","NYTIMES-USCENSUS"
"1/21/2022 12:00:00 AM","Franklin County","New York","Northeast","Middle Atlantic","36033","44.594376","-74.31067 ","7916","37","85","0","1/20/2022 12:00:00 AM","2019","50022","NYTIMES-USCENSUS"
"1/21/2022 12:00:00 AM","Duchesne County","Utah","West","Mountain","49013","40.289393","-110.429584 ","3764","21","74","0","1/20/2022 12:00:00 AM","2019","19938","NYTIMES-USCENSUS"
"1/21/2022 12:00:00 AM","Bossier Parish","Louisiana","South","West South Central","22015","32.698481","-93.626561 ","31757","426","356","1","1/20/2022 12:00:00 AM","2019","127039","NYTIMES-USCENSUS"
"1/21/2022 12:00:00 AM","Posey County","Indiana","Midwest","East North Central","18129","38.027614","-87.868653 ","5616","48","90","0","1/20/2022 12:00:00 AM","2019","25427","NYTIMES-USCENSUS"
"1/21/2022 12:00:00 AM","Jefferson County","Georgia","South","South Atlantic","13163","33.058176","-82.420004 ","3345","98","23","0","1/20/2022 12:00:00 AM","2019","15362","NYTIMES-USCENSUS"
"1/21/2022 12:00:00 AM","Hancock County","Indiana","Midwest","East North Central","18059","39.822529","-85.77315 ","18888","227","171","0","1/20/2022 12:00:00 AM","2019","78168","NYTIMES-USCENSUS"
"1/21/2022 12:00:00 AM","Montrose County","Colorado","West","Mountain","08085","38.407507","-108.266282 ","8003","151","63","1","1/20/2022 12:00:00 AM","2019","42758","NYTIMES-USCENSUS"
"1/21/2022 12:00:00 AM","Franklin County","Indiana","Midwest","East North Central","18047","39.409762","-85.066964 ","3852","56","53","0","1/20/2022 12:00:00 AM","2019","22758","NYTIMES-USCENSUS"
"1/21/2022 12:00:00 AM","Orange County","Vermont","Northeast","New England","50017","44.003349","-72.369464 ","2727","10","49","0","1/20/2022 12:00:00 AM","2019","28892","NYTIMES-USCENSUS"
"1/21/2022 12:00:00 AM","McDowell County","North Carolina","South","South Atlantic","37111","35.682271","-82.048044 ","11048","141","113","1","1/20/2022 12:00:00 AM","2019","45756","NYTIMES-USCENSUS"
"1/21/2022 12:00:00 AM","Randolph County","North Carolina","South","South Atlantic","37151","35.709915","-79.806215 ","30097","357","502","1","1/20/2022 12:00:00 AM","2019","143667","NYTIMES-USCENSUS"
"1/21/2022 12:00:00 AM","Gallatin County","Illinois","Midwest","East North Central","17059","37.768677","-88.227964 ","1129","12","28","1","1/20/2022 12:00:00 AM","2019","4828","NYTIMES-USCENSUS"
"1/21/2022 12:00:00 AM","St. Louis County","Missouri","Midwest","West North Central","29189","38.640688","-90.446073 ","201929","2907","1947","9","1/20/2022 12:00:00 AM","2019","994205","NYTIMES-USCENSUS"
"1/21/2022 12:00:00 AM","Troup County","Georgia","South","South Atlantic","13285","33.034482","-85.02836 ","14433","335","87","0","1/20/2022 12:00:00 AM","2019","69922","NYTIMES-USCENSUS"
"1/21/2022 12:00:00 AM","Lincoln County","Washington","West","Pacific","53043","47.582743","-118.417692 ","1819","26","27","0","1/20/2022 12:00:00 AM","2019","10939","NYTIMES-USCENSUS"
"1/21/2022 12:00:00 AM","Monongalia County","West Virginia","South","South Atlantic","54061","39.633645","-80.059074 ","20481","167","288","1","1/20/2022 12:00:00 AM","2019","105612","NYTIMES-USCENSUS"
"1/21/2022 12:00:00 AM","Alleghany County","North Carolina","South","South Atlantic","37005","36.489356","-81.132299 ","2447","11","12","0","1/20/2022 12:00:00 AM","2019","11137","NYTIMES-USCENSUS"
"1/21/2022 12:00:00 AM","Mercer County","Illinois","Midwest","East North Central","17131","41.205605","-90.74177 ","3481","38","35","0","1/20/2022 12:00:00 AM","2019","15437","NYTIMES-USCENSUS"
"1/21/2022 12:00:00 AM","Conecuh County","Alabama","South","East South Central","01035","31.430926","-86.988722 ","2543","63","60","0","1/20/2022 12:00:00 AM","2019","12067","NYTIMES-USCENSUS"
"1/21/2022 12:00:00 AM","Logan County","West Virginia","South","South Atlantic","54045","37.830591","-81.940853 ","7557","156","141","0","1/20/2022 12:00:00 AM","2019","32019","NYTIMES-USCENSUS"
"1/21/2022 12:00:00 AM","Lancaster County","Nebraska","Midwest","West North Central","31109","40.783547","-96.688658 ","65467","382","825","3","1/20/2022 12:00:00 AM","2019","319090","NYTIMES-USCENSUS"
"1/21/2022 12:00:00 AM","Lee County","Georgia","South","South Atlantic","13177","31.818419","-84.146681 ","6128","90","103","0","1/20/2022 12:00:00 AM","2019","29992","NYTIMES-USCENSUS"
"1/21/2022 12:00:00 AM","Alexandria city","Virginia","South","South Atlantic","51510","38.819251","-77.08367 ","26871","165","254","-1","1/20/2022 12:00:00 AM","2019","159428","NYTIMES-USCENSUS"
"1/21/2022 12:00:00 AM","Coffee County","Georgia","South","South Atlantic","13069","31.549245","-82.84494 ","9528","250","75","1","1/20/2022 12:00:00 AM","2019","43273","NYTIMES-USCENSUS"
"1/21/2022 12:00:00 AM","Marshall County","South Dakota","Midwest","West North Central","46091","45.737044","-97.58087 ","665","8","5","0","1/20/2022 12:00:00 AM","2019","4935","NYTIMES-USCENSUS"
"1/21/2022 12:00:00 AM","Arkansas County","Arkansas","South","West South Central","05001","34.28957","-91.376547 ","5017","67","76","0","1/20/2022 12:00:00 AM","2019","17486","NYTIMES-USCENSUS"
"1/21/2022 12:00:00 AM","Blaine County","Oklahoma","South","West South Central","40011","35.877795","-98.429031 ","1983","32","0","0","1/20/2022 12:00:00 AM","2019","9429","NYTIMES-USCENSUS"
"1/21/2022 12:00:00 AM","Ontonagon County","Michigan","Midwest","East North Central","26131","46.835325","-89.276912 ","896","32","11","1","1/20/2022 12:00:00 AM","2019","5720","NYTIMES-USCENSUS"
"1/21/2022 12:00:00 AM","Greenup County","Kentucky","South","East South Central","21089","38.563562","-82.93382 ","9529","111","96","0","1/20/2022 12:00:00 AM","2019","35098","NYTIMES-USCENSUS"
"1/21/2022 12:00:00 AM","Washington County","Idaho","West","Mountain","16087","44.448223","-116.797792 ","2043","52","8","0","1/20/2022 12:00:00 AM","2019","10194","NYTIMES-USCENSUS"
"1/21/2022 12:00:00 AM","Fort Bend County","Texas","South","West South Central","48157","29.526602","-95.771015 ","156760","1086","1542","6","1/20/2022 12:00:00 AM","2019","811688","NYTIMES-USCENSUS"
"1/21/2022 12:00:00 AM","Newport County","Rhode Island","Northeast","New England","44005","41.501045","-71.283063 ","16443","67","0","0","1/20/2022 12:00:00 AM","2019","82082","NYTIMES-USCENSUS"
"1/21/2022 12:00:00 AM","Tolland County","Connecticut","Northeast","New England","09013","41.858081","-72.340978 ","18250","239","114","4","1/20/2022 12:00:00 AM","2019","150721","NYTIMES-USCENSUS"
"1/21/2022 12:00:00 AM","Trigg County","Kentucky","South","East South Central","21221","36.807681","-87.858652 ","2890","34","15","0","1/20/2022 12:00:00 AM","2019","14651","NYTIMES-USCENSUS"
"1/21/2022 12:00:00 AM","Rapides Parish","Louisiana","South","West South Central","22079","31.193204","-92.535953 ","28182","497","240","4","1/20/2022 12:00:00 AM","2019","129648","NYTIMES-USCENSUS"
"1/21/2022 12:00:00 AM","Franklin County","Texas","South","West South Central","48159","33.175846","-95.219066 ","1849","37","29","0","1/20/2022 12:00:00 AM","2019","10725","NYTIMES-USCENSUS"
"1/21/2022 12:00:00 AM","Washington County","Alabama","South","East South Central","01129","31.408503","-88.212404 ","3171","52","82","0","1/20/2022 12:00:00 AM","2019","16326","NYTIMES-USCENSUS"
"1/21/2022 12:00:00 AM","Cape Girardeau County","Missouri","Midwest","West North Central","29031","37.384141","-89.685658 ","16291","212","247","2","1/20/2022 12:00:00 AM","2019","78871","NYTIMES-USCENSUS"
"1/21/2022 12:00:00 AM","Oceana County","Michigan","Midwest","East North Central","26127","43.603954","-86.467177 ","5514","86","86","0","1/20/2022 12:00:00 AM","2019","26467","NYTIMES-USCENSUS"
"1/21/2022 12:00:00 AM","White County","Indiana","Midwest","East North Central","18181","40.75095","-86.864293 ","6246","86","40","1","1/20/2022 12:00:00 AM","2019","24102","NYTIMES-USCENSUS"
"1/21/2022 12:00:00 AM","Sioux County","Iowa","Midwest","West North Central","19167","43.082646","-96.17801 ","7375","80","0","0","1/20/2022 12:00:00 AM","2019","34855","NYTIMES-USCENSUS"
"1/21/2022 12:00:00 AM","Knox County","Texas","South","West South Central","48275","33.61189","-99.730356 ","446","22","17","0","1/20/2022 12:00:00 AM","2019","3664","NYTIMES-USCENSUS"
"1/21/2022 12:00:00 AM","Shelby County","Missouri","Midwest","West North Central","29205","39.797531","-92.088719 ","1355","13","12","0","1/20/2022 12:00:00 AM","2019","5930","NYTIMES-USCENSUS"
"1/21/2022 12:00:00 AM","Dubois County","Indiana","Midwest","East North Central","18037","38.373344","-86.873385 ","11421","154","161","0","1/20/2022 12:00:00 AM","2019","42736","NYTIMES-USCENSUS"
"1/21/2022 12:00:00 AM","Todd County","South Dakota","Midwest","West North Central","46121","43.208794","-100.707664 ","2513","43","74","1","1/20/2022 12:00:00 AM","2019","10177","NYTIMES-USCENSUS"
"1/21/2022 12:00:00 AM","Suffolk County","Massachusetts","Northeast","New England","25025","42.338551","-71.018253 ","190442","2099","1807","9","1/20/2022 12:00:00 AM","2019","803907","NYTIMES-USCENSUS"
"1/21/2022 12:00:00 AM","Okmulgee County","Oklahoma","South","West South Central","40111","35.6435","-95.965947 ","7417","157","0","0","1/20/2022 12:00:00 AM","2019","38465","NYTIMES-USCENSUS"
"1/21/2022 12:00:00 AM","Madison County","Virginia","South","South Atlantic","51113","38.412059","-78.276961 ","1747","25","31","0","1/20/2022 12:00:00 AM","2019","13261","NYTIMES-USCENSUS"
"1/21/2022 12:00:00 AM","Phelps County","Missouri","Midwest","West North Central","29161","37.866326","-91.790349 ","8938","212","20","1","1/20/2022 12:00:00 AM","2019","44573","NYTIMES-USCENSUS"
"1/21/2022 12:00:00 AM","Richland County","Ohio","Midwest","East North Central","39139","40.774159","-82.542781 ","29228","444","209","21","1/20/2022 12:00:00 AM","2019","121154","NYTIMES-USCENSUS"
"1/21/2022 12:00:00 AM","Winnebago County","Iowa","Midwest","West North Central","19189","43.378124","-93.743488 ","2661","41","0","0","1/20/2022 12:00:00 AM","2019","10354","NYTIMES-USCENSUS"
"1/21/2022 12:00:00 AM","Galax city","Virginia","South","South Atlantic","51640","36.66564","-80.914308 ","2136","71","46","0","1/20/2022 12:00:00 AM","2019","6347","NYTIMES-USCENSUS"
"1/21/2022 12:00:00 AM","Lyon County","Minnesota","Midwest","West North Central","27083","44.409195","-95.847268 ","6268","69","64","0","1/20/2022 12:00:00 AM","2019","25474","NYTIMES-USCENSUS"
"1/21/2022 12:00:00 AM","Butler County","Missouri","Midwest","West North Central","29023","36.71518","-90.40313 ","8732","138","107","3","1/20/2022 12:00:00 AM","2019","42478","NYTIMES-USCENSUS"
"1/21/2022 12:00:00 AM","Tucker County","West Virginia","South","South Atlantic","54093","39.111175","-79.559968 ","1591","33","21","0","1/20/2022 12:00:00 AM","2019","6839","NYTIMES-USCENSUS"
"1/21/2022 12:00:00 AM","Gove County","Kansas","Midwest","West North Central","20063","38.917239","-100.48736 ","717","23","19","0","1/20/2022 12:00:00 AM","2019","2636","NYTIMES-USCENSUS"
"1/21/2022 12:00:00 AM","Buena Vista city","Virginia","South","South Atlantic","51530","37.729345","-79.358134 ","1726","34","17","0","1/20/2022 12:00:00 AM","2019","6478","NYTIMES-USCENSUS"
"1/21/2022 12:00:00 AM","Washington County","Kansas","Midwest","West North Central","20201","39.776714","-97.095611 ","1234","20","48","0","1/20/2022 12:00:00 AM","2019","5406","NYTIMES-USCENSUS"
"1/21/2022 12:00:00 AM","San Juan County","New Mexico","West","Mountain","35045","36.511624","-108.324578 ","34011","676","492","2","1/20/2022 12:00:00 AM","2019","123958","NYTIMES-USCENSUS"
"1/21/2022 12:00:00 AM","Hopkins County","Texas","South","West South Central","48223","33.148967","-95.565434 ","6487","158","72","1","1/20/2022 12:00:00 AM","2019","37084","NYTIMES-USCENSUS"
"1/21/2022 12:00:00 AM","Grayson County","Texas","South","West South Central","48181","33.624524","-96.675693 ","23593","549","248","1","1/20/2022 12:00:00 AM","2019","136212","NYTIMES-USCENSUS"
"1/21/2022 12:00:00 AM","Penobscot County","Maine","Northeast","New England","23019","45.409284","-68.666616 ","19088","246","89","1","1/20/2022 12:00:00 AM","2019","152148","NYTIMES-USCENSUS"
"1/21/2022 12:00:00 AM","Lowndes County","Alabama","South","East South Central","01085","32.147888","-86.650586 ","2342","68","31","0","1/20/2022 12:00:00 AM","2019","9726","NYTIMES-USCENSUS"
"1/21/2022 12:00:00 AM","Madison County","Idaho","West","Mountain","16065","43.788614","-111.656993 ","10781","43","155","0","1/20/2022 12:00:00 AM","2019","39907","NYTIMES-USCENSUS"
"1/21/2022 12:00:00 AM","Massac County","Illinois","Midwest","East North Central","17127","37.216119","-88.705658 ","3303","64","85","0","1/20/2022 12:00:00 AM","2019","13772","NYTIMES-USCENSUS"
"1/21/2022 12:00:00 AM","Sussex County","Virginia","South","South Atlantic","51183","36.926645","-77.259732 ","2240","31","6","0","1/20/2022 12:00:00 AM","2019","11159","NYTIMES-USCENSUS"
"1/21/2022 12:00:00 AM","Emmons County","North Dakota","Midwest","West North Central","38029","46.284255","-100.237842 ","655","16","-1","0","1/20/2022 12:00:00 AM","2019","3241","NYTIMES-USCENSUS"
"1/21/2022 12:00:00 AM","Armstrong County","Texas","South","West South Central","48011","34.964179","-101.356636 ","453","8","3","0","1/20/2022 12:00:00 AM","2019","1887","NYTIMES-USCENSUS"
"1/21/2022 12:00:00 AM","Chatham County","North Carolina","South","South Atlantic","37037","35.704994","-79.251454 ","10545","99","228","0","1/20/2022 12:00:00 AM","2019","74470","NYTIMES-USCENSUS"
"1/21/2022 12:00:00 AM","Caroline County","Maryland","South","South Atlantic","24011","38.871531","-75.831662 ","5378","63","60","1","1/20/2022 12:00:00 AM","2019","33406","NYTIMES-USCENSUS"
"1/21/2022 12:00:00 AM","El Dorado County","California","West","Pacific","06017","38.785612","-120.534225 ","24845","179","320","2","1/20/2022 12:00:00 AM","2019","192843","NYTIMES-USCENSUS"
"1/21/2022 12:00:00 AM","Ottawa County","Oklahoma","South","West South Central","40115","36.835764","-94.802681 ","7417","108","0","0","1/20/2022 12:00:00 AM","2019","31127","NYTIMES-USCENSUS"
"1/21/2022 12:00:00 AM","Monroe County","Alabama","South","East South Central","01099","31.580332","-87.383266 ","4571","67","86","0","1/20/2022 12:00:00 AM","2019","20733","NYTIMES-USCENSUS"
"1/21/2022 12:00:00 AM","Wyoming County","West Virginia","South","South Atlantic","54109","37.60366","-81.549032 ","5318","80","147","0","1/20/2022 12:00:00 AM","2019","20394","NYTIMES-USCENSUS"
"1/21/2022 12:00:00 AM","Wichita County","Kansas","Midwest","West North Central","20203","38.481922","-101.347434 ","448","8","22","0","1/20/2022 12:00:00 AM","2019","2119","NYTIMES-USCENSUS"
"1/21/2022 12:00:00 AM","Bexar County","Texas","South","West South Central","48029","29.448671","-98.520147 ","459181","5450","6156","14","1/20/2022 12:00:00 AM","2019","2003554","NYTIMES-USCENSUS"
"1/21/2022 12:00:00 AM","Juniata County","Pennsylvania","Northeast","Middle Atlantic","42067","40.530673","-77.400438 ","4258","159","29","1","1/20/2022 12:00:00 AM","2019","24763","NYTIMES-USCENSUS"
"1/21/2022 12:00:00 AM","Alachua County","Florida","South","South Atlantic","12001","29.67574","-82.357221 ","58537","538","4951","0","1/20/2022 12:00:00 AM","2019","269043","NYTIMES-USCENSUS"
"1/21/2022 12:00:00 AM","Cross County","Arkansas","South","West South Central","05037","35.285692","-90.763984 ","4194","73","35","0","1/20/2022 12:00:00 AM","2019","16419","NYTIMES-USCENSUS"
"1/21/2022 12:00:00 AM","Watauga County","North Carolina","South","South Atlantic","37189","36.235368","-81.709888 ","9371","45","143","1","1/20/2022 12:00:00 AM","2019","56177","NYTIMES-USCENSUS"
"1/21/2022 12:00:00 AM","Will County","Illinois","Midwest","East North Central","17197","41.448474","-87.978456 ","149677","1410","1176","4","1/20/2022 12:00:00 AM","2019","690743","NYTIMES-USCENSUS"
"1/21/2022 12:00:00 AM","Abbeville County","South Carolina","South","South Atlantic","45001","34.229041","-82.454058 ","5703","57","104","0","1/20/2022 12:00:00 AM","2019","24527","NYTIMES-USCENSUS"
"1/21/2022 12:00:00 AM","Vinton County","Ohio","Midwest","East North Central","39163","39.252042","-82.485961 ","2506","46","27","1","1/20/2022 12:00:00 AM","2019","13085","NYTIMES-USCENSUS"
"1/21/2022 12:00:00 AM","Hamilton County","New York","Northeast","Middle Atlantic","36041","43.657879","-74.502456 ","766","4","9","0","1/20/2022 12:00:00 AM","2019","4416","NYTIMES-USCENSUS"
"1/21/2022 12:00:00 AM","Clarion County","Pennsylvania","Northeast","Middle Atlantic","42031","41.198159","-79.420369 ","7490","184","68","1","1/20/2022 12:00:00 AM","2019","38438","NYTIMES-USCENSUS"
"1/21/2022 12:00:00 AM","La Paz County","Arizona","West","Mountain","04012","33.72761","-114.038806 ","4383","114","94","1","1/20/2022 12:00:00 AM","2019","21108","NYTIMES-USCENSUS"
"1/21/2022 12:00:00 AM","Madison County","New York","Northeast","Middle Atlantic","36053","42.910026","-75.663575 ","11311","120","100","0","1/20/2022 12:00:00 AM","2019","70941","NYTIMES-USCENSUS"
"1/21/2022 12:00:00 AM","Goliad County","Texas","South","West South Central","48175","28.6607","-97.430415 ","963","28","17","0","1/20/2022 12:00:00 AM","2019","7658","NYTIMES-USCENSUS"
"1/21/2022 12:00:00 AM","Elk County","Pennsylvania","Northeast","Middle Atlantic","42047","41.427332","-78.653937 ","6362","83","51","0","1/20/2022 12:00:00 AM","2019","29910","NYTIMES-USCENSUS"
"1/21/2022 12:00:00 AM","Grayson County","Kentucky","South","East South Central","21085","37.458577","-86.344011 ","6321","113","110","0","1/20/2022 12:00:00 AM","2019","26427","NYTIMES-USCENSUS"
"1/21/2022 12:00:00 AM","Elkhart County","Indiana","Midwest","East North Central","18039","41.600693","-85.863986 ","50146","666","643","4","1/20/2022 12:00:00 AM","2019","206341","NYTIMES-USCENSUS"
"1/21/2022 12:00:00 AM","Pipestone County","Minnesota","Midwest","West North Central","27117","44.015361","-96.257015 ","1787","31","22","0","1/20/2022 12:00:00 AM","2019","9126","NYTIMES-USCENSUS"
"1/21/2022 12:00:00 AM","Berrien County","Georgia","South","South Atlantic","13019","31.288652","-83.22787 ","4406","72","59","0","1/20/2022 12:00:00 AM","2019","19397","NYTIMES-USCENSUS"
"1/21/2022 12:00:00 AM","Butler County","Nebraska","Midwest","West North Central","31023","41.226072","-97.132039 ","1648","12","25","0","1/20/2022 12:00:00 AM","2019","8016","NYTIMES-USCENSUS"
"1/21/2022 12:00:00 AM","Oneida County","New York","Northeast","Middle Atlantic","36065","43.242727","-75.434282 ","47935","728","376","2","1/20/2022 12:00:00 AM","2019","228671","NYTIMES-USCENSUS"
"1/21/2022 12:00:00 AM","Baker County","Oregon","West","Pacific","41001","44.703427","-117.691933 ","2744","40","40","0","1/20/2022 12:00:00 AM","2019","16124","NYTIMES-USCENSUS"
"1/21/2022 12:00:00 AM","Calhoun County","Iowa","Midwest","West North Central","19025","42.38617","-94.643683 ","2350","20","0","0","1/20/2022 12:00:00 AM","2019","9668","NYTIMES-USCENSUS"
"1/21/2022 12:00:00 AM","Major County","Oklahoma","South","West South Central","40093","36.313119","-98.542015 ","1928","34","0","0","1/20/2022 12:00:00 AM","2019","7629","NYTIMES-USCENSUS"
"1/21/2022 12:00:00 AM","Grady County","Georgia","South","South Atlantic","13131","30.875908","-84.24508 ","4830","95","59","0","1/20/2022 12:00:00 AM","2019","24633","NYTIMES-USCENSUS"
"1/21/2022 12:00:00 AM","Hansford County","Texas","South","West South Central","48195","36.272847","-101.35693 ","1534","27","4","0","1/20/2022 12:00:00 AM","2019","5399","NYTIMES-USCENSUS"
"1/21/2022 12:00:00 AM","Lincoln County","Maine","Northeast","New England","23015","43.994781","-69.513624 ","3456","19","37","0","1/20/2022 12:00:00 AM","2019","34634","NYTIMES-USCENSUS"
"1/21/2022 12:00:00 AM","Greene County","Ohio","Midwest","East North Central","39057","39.687479","-83.894894 ","33624","435","357","13","1/20/2022 12:00:00 AM","2019","168937","NYTIMES-USCENSUS"
"1/21/2022 12:00:00 AM","Bullock County","Alabama","South","East South Central","01011","32.101759","-85.717261 ","2108","46","35","0","1/20/2022 12:00:00 AM","2019","10101","NYTIMES-USCENSUS"
"1/21/2022 12:00:00 AM","Washington County","Maine","Northeast","New England","23029","44.967009","-67.609354 ","3000","44","19","0","1/20/2022 12:00:00 AM","2019","31379","NYTIMES-USCENSUS"
"1/21/2022 12:00:00 AM","DeKalb County","Georgia","South","South Atlantic","13089","33.770661","-84.226343 ","129828","1448","848","6","1/20/2022 12:00:00 AM","2019","759297","NYTIMES-USCENSUS"
"1/21/2022 12:00:00 AM","Morris County","Kansas","Midwest","West North Central","20127","38.688204","-96.651448 ","1315","23","29","0","1/20/2022 12:00:00 AM","2019","5620","NYTIMES-USCENSUS"
"1/21/2022 12:00:00 AM","Placer County","California","West","Pacific","06061","39.062032","-120.722718 ","58374","512","1012","1","1/20/2022 12:00:00 AM","2019","398329","NYTIMES-USCENSUS"
"1/21/2022 12:00:00 AM","Hancock County","Georgia","South","South Atlantic","13141","33.26922","-83.000465 ","1439","84","7","0","1/20/2022 12:00:00 AM","2019","8457","NYTIMES-USCENSUS"
"1/21/2022 12:00:00 AM","Bristol County","Massachusetts","Northeast","New England","25005","41.748588","-71.088894 ","136951","2204","1429","18","1/20/2022 12:00:00 AM","2019","565217","NYTIMES-USCENSUS"
"1/21/2022 12:00:00 AM","Macon County","Alabama","South","East South Central","01087","32.387027","-85.692887 ","3387","69","37","0","1/20/2022 12:00:00 AM","2019","18068","NYTIMES-USCENSUS"
"1/21/2022 12:00:00 AM","Scott County","Mississippi","South","East South Central","28123","32.411959","-89.533486 ","5928","101","64","0","1/20/2022 12:00:00 AM","2019","28124","NYTIMES-USCENSUS"
"1/21/2022 12:00:00 AM","Coleman County","Texas","South","West South Central","48083","31.914205","-99.346622 ","1487","62","6","0","1/20/2022 12:00:00 AM","2019","8175","NYTIMES-USCENSUS"
"1/21/2022 12:00:00 AM","Amelia County","Virginia","South","South Atlantic","51007","37.331927","-77.977462 ","2226","44","45","0","1/20/2022 12:00:00 AM","2019","13145","NYTIMES-USCENSUS"
"1/21/2022 12:00:00 AM","Fluvanna County","Virginia","South","South Atlantic","51065","37.830584","-78.283494 ","4045","33","86","0","1/20/2022 12:00:00 AM","2019","27270","NYTIMES-USCENSUS"
"1/21/2022 12:00:00 AM","Lac qui Parle County","Minnesota","Midwest","West North Central","27073","44.999856","-96.176836 ","1488","28","13","0","1/20/2022 12:00:00 AM","2019","6623","NYTIMES-USCENSUS"
"1/21/2022 12:00:00 AM","Platte County","Nebraska","Midwest","West North Central","31141","41.576866","-97.513467 ","7586","69","83","0","1/20/2022 12:00:00 AM","2019","33470","NYTIMES-USCENSUS"
"1/21/2022 12:00:00 AM","Knox County","Kentucky","South","East South Central","21121","36.8885","-83.855551 ","8966","113","163","0","1/20/2022 12:00:00 AM","2019","31145","NYTIMES-USCENSUS"
"1/21/2022 12:00:00 AM","Union County","Tennessee","South","East South Central","47173","36.28414","-83.836088 ","4102","67","0","0","1/20/2022 12:00:00 AM","2019","19972","NYTIMES-USCENSUS"
"1/21/2022 12:00:00 AM","Christian County","Kentucky","South","East South Central","21047","36.892059","-87.492986 ","12811","180","121","1","1/20/2022 12:00:00 AM","2019","70461","NYTIMES-USCENSUS"
"1/21/2022 12:00:00 AM","Worth County","Iowa","Midwest","West North Central","19195","43.373491","-93.248533 ","1572","11","0","0","1/20/2022 12:00:00 AM","2019","7381","NYTIMES-USCENSUS"
"1/21/2022 12:00:00 AM","Haralson County","Georgia","South","South Atlantic","13143","33.795165","-85.220063 ","4925","142","46","1","1/20/2022 12:00:00 AM","2019","29792","NYTIMES-USCENSUS"
"1/21/2022 12:00:00 AM","Chase County","Nebraska","Midwest","West North Central","31029","40.53039","-101.694192 ","694","6","4","0","1/20/2022 12:00:00 AM","2019","3924","NYTIMES-USCENSUS"
"1/21/2022 12:00:00 AM","George County","Mississippi","South","East South Central","28039","30.855431","-88.642268 ","6179","81","39","1","1/20/2022 12:00:00 AM","2019","24500","NYTIMES-USCENSUS"
"1/21/2022 12:00:00 AM","El Paso County","Texas","South","West South Central","48141","31.76648","-106.241423 ","175400","3306","1616","9","1/20/2022 12:00:00 AM","2019","839238","NYTIMES-USCENSUS"
"1/21/2022 12:00:00 AM","Saluda County","South Carolina","South","South Atlantic","45081","34.005278","-81.727903 ","3522","63","54","1","1/20/2022 12:00:00 AM","2019","20473","NYTIMES-USCENSUS"
"1/21/2022 12:00:00 AM","Buncombe County","North Carolina","South","South Atlantic","37021","35.609371","-82.530423 ","41764","482","421","2","1/20/2022 12:00:00 AM","2019","261191","NYTIMES-USCENSUS"
"1/21/2022 12:00:00 AM","Meeker County","Minnesota","Midwest","West North Central","27093","45.123155","-94.527346 ","5123","70","36","0","1/20/2022 12:00:00 AM","2019","23222","NYTIMES-USCENSUS"
"1/21/2022 12:00:00 AM","Wyoming County","New York","Northeast","Middle Atlantic","36121","42.701363","-78.228567 ","7651","77","64","0","1/20/2022 12:00:00 AM","2019","39859","NYTIMES-USCENSUS"
"1/21/2022 12:00:00 AM","Lee County","Iowa","Midwest","West North Central","19111","40.647588","-91.477157 ","7040","117","0","0","1/20/2022 12:00:00 AM","2019","33657","NYTIMES-USCENSUS"
"1/21/2022 12:00:00 AM","Riverside County","California","West","Pacific","06065","33.729828","-116.002239 ","535126","5730","9992","24","1/20/2022 12:00:00 AM","2019","2470546","NYTIMES-USCENSUS"
"1/21/2022 12:00:00 AM","Iron County","Missouri","Midwest","West North Central","29093","37.625971","-90.699587 ","1842","33","35","0","1/20/2022 12:00:00 AM","2019","10125","NYTIMES-USCENSUS"
"1/21/2022 12:00:00 AM","Macomb County","Michigan","Midwest","East North Central","26099","42.671553","-82.911456 ","205793","3477","3236","18","1/20/2022 12:00:00 AM","2019","873972","NYTIMES-USCENSUS"
"1/21/2022 12:00:00 AM","Hempstead County","Arkansas","South","West South Central","05057","33.735953","-93.664355 ","4031","51","56","0","1/20/2022 12:00:00 AM","2019","21532","NYTIMES-USCENSUS"
"1/21/2022 12:00:00 AM","Polk County","North Carolina","South","South Atlantic","37149","35.277901","-82.167621 ","3200","49","46","0","1/20/2022 12:00:00 AM","2019","20724","NYTIMES-USCENSUS"
"1/21/2022 12:00:00 AM","Reeves County","Texas","South","West South Central","48389","31.308366","-103.712706 ","4173","64","47","0","1/20/2022 12:00:00 AM","2019","15976","NYTIMES-USCENSUS"
"1/21/2022 12:00:00 AM","Albemarle County","Virginia","South","South Atlantic","51003","38.024184","-78.553506 ","12616","121","318","0","1/20/2022 12:00:00 AM","2019","109330","NYTIMES-USCENSUS"
"1/21/2022 12:00:00 AM","Jay County","Indiana","Midwest","East North Central","18075","40.434956","-85.002331 ","4215","71","53","0","1/20/2022 12:00:00 AM","2019","20436","NYTIMES-USCENSUS"
"1/21/2022 12:00:00 AM","Comanche County","Kansas","Midwest","West North Central","20033","37.181442","-99.251293 ","419","13","6","0","1/20/2022 12:00:00 AM","2019","1700","NYTIMES-USCENSUS"
"1/21/2022 12:00:00 AM","Shelby County","Iowa","Midwest","West North Central","19165","41.679014","-95.308917 ","2428","46","0","0","1/20/2022 12:00:00 AM","2019","11454","NYTIMES-USCENSUS"
"1/21/2022 12:00:00 AM","Granville County","North Carolina","South","South Atlantic","37077","36.299884","-78.657634 ","12148","108","346","0","1/20/2022 12:00:00 AM","2019","60443","NYTIMES-USCENSUS"
"1/21/2022 12:00:00 AM","Gray County","Kansas","Midwest","West North Central","20069","37.744513","-100.451716 ","1143","23","27","0","1/20/2022 12:00:00 AM","2019","5988","NYTIMES-USCENSUS"
"1/21/2022 12:00:00 AM","Loudon County","Tennessee","South","East South Central","47105","35.735085","-84.314085 ","11315","152","0","0","1/20/2022 12:00:00 AM","2019","54068","NYTIMES-USCENSUS"
"1/21/2022 12:00:00 AM","Tattnall County","Georgia","South","South Atlantic","13267","32.043768","-82.059208 ","4417","120","29","0","1/20/2022 12:00:00 AM","2019","25286","NYTIMES-USCENSUS"
"1/21/2022 12:00:00 AM","Lynchburg city","Virginia","South","South Atlantic","51680","37.399016","-79.195458 ","16617","224","222","0","1/20/2022 12:00:00 AM","2019","82168","NYTIMES-USCENSUS"
"1/21/2022 12:00:00 AM","Franklin County","Washington","West","Pacific","53021","46.537502","-118.903891 ","25978","190","686","0","1/20/2022 12:00:00 AM","2019","95222","NYTIMES-USCENSUS"
"1/21/2022 12:00:00 AM","Lamar County","Alabama","South","East South Central","01075","33.787085","-88.087431 ","3050","60","53","0","1/20/2022 12:00:00 AM","2019","13805","NYTIMES-USCENSUS"
"1/21/2022 12:00:00 AM","Jasper County","Missouri","Midwest","West North Central","29097","37.205197","-94.337259 ","17879","269","215","2","1/20/2022 12:00:00 AM","2019","121328","NYTIMES-USCENSUS"
"1/21/2022 12:00:00 AM","Lafourche Parish","Louisiana","South","West South Central","22057","29.491992","-90.394849 ","23792","325","218","0","1/20/2022 12:00:00 AM","2019","97614","NYTIMES-USCENSUS"
"1/21/2022 12:00:00 AM","Montgomery County","Texas","South","West South Central","48339","30.298801","-95.50295 ","122130","1170","1448","1","1/20/2022 12:00:00 AM","2019","607391","NYTIMES-USCENSUS"
"1/21/2022 12:00:00 AM","Rockingham County","New Hampshire","Northeast","New England","33015","42.988664","-71.09908 ","57479","450","631","3","1/20/2022 12:00:00 AM","2019","309769","NYTIMES-USCENSUS"
"1/21/2022 12:00:00 AM","Yuma County","Arizona","West","Mountain","04027","32.773942","-113.910905 ","53601","1024","633","1","1/20/2022 12:00:00 AM","2019","213787","NYTIMES-USCENSUS"
"1/21/2022 12:00:00 AM","LaGrange County","Indiana","Midwest","East North Central","18087","41.642462","-85.427845 ","5363","99","61","0","1/20/2022 12:00:00 AM","2019","39614","NYTIMES-USCENSUS"
"1/21/2022 12:00:00 AM","Cherokee County","Iowa","Midwest","West North Central","19035","42.742737","-95.633262 ","2661","54","0","0","1/20/2022 12:00:00 AM","2019","11235","NYTIMES-USCENSUS"
"1/21/2022 12:00:00 AM","Colquitt County","Georgia","South","South Atlantic","13071","31.189707","-83.769773 ","10153","209","103","1","1/20/2022 12:00:00 AM","2019","45600","NYTIMES-USCENSUS"
"1/21/2022 12:00:00 AM","Charlotte County","Virginia","South","South Atlantic","51037","37.009042","-78.658568 ","1977","32","25","0","1/20/2022 12:00:00 AM","2019","11880","NYTIMES-USCENSUS"
"1/21/2022 12:00:00 AM","Iron County","Wisconsin","Midwest","East North Central","55051","46.32655","-90.261298 ","1337","45","13","0","1/20/2022 12:00:00 AM","2019","5687","NYTIMES-USCENSUS"
"1/21/2022 12:00:00 AM","Emanuel County","Georgia","South","South Atlantic","13107","32.5911","-82.299763 ","5349","144","51","0","1/20/2022 12:00:00 AM","2019","22646","NYTIMES-USCENSUS"
"1/21/2022 12:00:00 AM","Hawkins County","Tennessee","South","East South Central","47073","36.452089","-82.931485 ","12843","250","0","0","1/20/2022 12:00:00 AM","2019","56786","NYTIMES-USCENSUS"
"1/21/2022 12:00:00 AM","Washington County","New York","Northeast","Middle Atlantic","36115","43.312377","-73.439428 ","10649","102","90","1","1/20/2022 12:00:00 AM","2019","61204","NYTIMES-USCENSUS"
"1/21/2022 12:00:00 AM","Montgomery County","Kentucky","South","East South Central","21173","38.038109","-83.912416 ","5527","83","48","0","1/20/2022 12:00:00 AM","2019","28157","NYTIMES-USCENSUS"
"1/21/2022 12:00:00 AM","Auglaize County","Ohio","Midwest","East North Central","39011","40.561309","-84.224018 ","10665","147","125","5","1/20/2022 12:00:00 AM","2019","45656","NYTIMES-USCENSUS"
"1/21/2022 12:00:00 AM","Bannock County","Idaho","West","Mountain","16005","42.692921","-112.228982 ","17479","222","356","1","1/20/2022 12:00:00 AM","2019","87808","NYTIMES-USCENSUS"
"1/21/2022 12:00:00 AM","Gratiot County","Michigan","Midwest","East North Central","26057","43.292326","-84.60469 ","11936","173","165","1","1/20/2022 12:00:00 AM","2019","40711","NYTIMES-USCENSUS"
"1/21/2022 12:00:00 AM","Morrill County","Nebraska","Midwest","West North Central","31123","41.732204","-102.990594 ","1051","17","11","0","1/20/2022 12:00:00 AM","2019","4642","NYTIMES-USCENSUS"
"1/21/2022 12:00:00 AM","Atoka County","Oklahoma","South","West South Central","40005","34.392469","-96.036558 ","3205","41","0","0","1/20/2022 12:00:00 AM","2019","13758","NYTIMES-USCENSUS"
"1/21/2022 12:00:00 AM","Burnet County","Texas","South","West South Central","48053","30.78963","-98.201187 ","9468","139","51","0","1/20/2022 12:00:00 AM","2019","48155","NYTIMES-USCENSUS"
"1/21/2022 12:00:00 AM","Freestone County","Texas","South","West South Central","48161","31.701749","-96.144957 ","3506","76","18","0","1/20/2022 12:00:00 AM","2019","19717","NYTIMES-USCENSUS"
"1/21/2022 12:00:00 AM","Metcalfe County","Kentucky","South","East South Central","21169","36.99243","-85.633456 ","2427","54","26","1","1/20/2022 12:00:00 AM","2019","10071","NYTIMES-USCENSUS"
"1/21/2022 12:00:00 AM","Howell County","Missouri","Midwest","West North Central","29091","36.774369","-91.887368 ","7694","183","62","6","1/20/2022 12:00:00 AM","2019","40117","NYTIMES-USCENSUS"
"1/21/2022 12:00:00 AM","Dickey County","North Dakota","Midwest","West North Central","38021","46.107756","-98.496518 ","1307","38","11","0","1/20/2022 12:00:00 AM","2019","4872","NYTIMES-USCENSUS"
"1/21/2022 12:00:00 AM","Jones County","Georgia","South","South Atlantic","13169","33.021664","-83.562196 ","4471","100","45","0","1/20/2022 12:00:00 AM","2019","28735","NYTIMES-USCENSUS"
"1/21/2022 12:00:00 AM","De Witt County","Illinois","Midwest","East North Central","17039","40.181499","-88.901853 ","3883","40","44","0","1/20/2022 12:00:00 AM","2019","15638","NYTIMES-USCENSUS"
"1/21/2022 12:00:00 AM","Cleveland County","Arkansas","South","West South Central","05025","33.893201","-92.188714 ","1988","33","23","0","1/20/2022 12:00:00 AM","2019","7956","NYTIMES-USCENSUS"
"1/21/2022 12:00:00 AM","Meade County","Kentucky","South","East South Central","21163","37.967476","-86.200863 ","4598","57","95","2","1/20/2022 12:00:00 AM","2019","28572","NYTIMES-USCENSUS"
"1/21/2022 12:00:00 AM","Brookings County","South Dakota","Midwest","West North Central","46011","44.376675","-96.797797 ","7425","41","72","0","1/20/2022 12:00:00 AM","2019","35077","NYTIMES-USCENSUS"
"1/21/2022 12:00:00 AM","Leake County","Mississippi","South","East South Central","28079","32.76063","-89.52225 ","5339","92","49","0","1/20/2022 12:00:00 AM","2019","22786","NYTIMES-USCENSUS"
"1/21/2022 12:00:00 AM","Bay County","Florida","South","South Atlantic","12005","30.15914","-85.534395 ","39904","711","2770","0","1/20/2022 12:00:00 AM","2019","174705","NYTIMES-USCENSUS"
"1/21/2022 12:00:00 AM","Phelps County","Nebraska","Midwest","West North Central","31137","40.516365","-99.406557 ","1959","11","18","0","1/20/2022 12:00:00 AM","2019","9034","NYTIMES-USCENSUS"
"1/21/2022 12:00:00 AM","Johnson County","Illinois","Midwest","East North Central","17087","37.460709","-88.882131 ","3406","43","42","0","1/20/2022 12:00:00 AM","2019","12417","NYTIMES-USCENSUS"
"1/21/2022 12:00:00 AM","Shiawassee County","Michigan","Midwest","East North Central","26155","42.951545","-84.146352 ","15698","204","439","1","1/20/2022 12:00:00 AM","2019","68122","NYTIMES-USCENSUS"
"1/21/2022 12:00:00 AM","Union County","New Mexico","West","Mountain","35059","36.488085","-103.475723 ","867","12","3","0","1/20/2022 12:00:00 AM","2019","4059","NYTIMES-USCENSUS"
"1/21/2022 12:00:00 AM","Greensville County","Virginia","South","South Atlantic","51081","36.680336","-77.560277 ","2991","30","59","0","1/20/2022 12:00:00 AM","2019","11336","NYTIMES-USCENSUS"
"1/21/2022 12:00:00 AM","Brown County","South Dakota","Midwest","West North Central","46013","45.589254","-98.352175 ","9149","110","100","0","1/20/2022 12:00:00 AM","2019","38839","NYTIMES-USCENSUS"
