"monitor_date","county","state_name","region","subregion","fips","latitude","longitude","case_count_to_date","death_count_to_date","case_count","death_count","previous_monitor_date","population_year","population","source"
"5/14/2021 12:00:00 AM","Jackson County","Oregon","West","Pacific","41029","42.411621","-122.675611 ","10901","139","39","0","5/13/2021 12:00:00 AM","2019","220944","NYTIMES-USCENSUS"
"5/14/2021 12:00:00 AM","Delta County","Texas","South","West South Central","48119","33.385933","-95.67335 ","320","12","0","0","5/13/2021 12:00:00 AM","2019","5331","NYTIMES-USCENSUS"
"5/14/2021 12:00:00 AM","Platte County","Wyoming","West","Mountain","56031","42.131593","-104.953963 ","630","11","-1","0","5/13/2021 12:00:00 AM","2019","8393","NYTIMES-USCENSUS"
"5/14/2021 12:00:00 AM","Allegan County","Michigan","Midwest","East North Central","26005","42.421251","-86.261403 ","10815","139","31","0","5/13/2021 12:00:00 AM","2019","118081","NYTIMES-USCENSUS"
"5/14/2021 12:00:00 AM","Taliaferro County","Georgia","South","South Atlantic","13265","33.559319","-82.875272 ","122","3","0","0","5/13/2021 12:00:00 AM","2019","1537","NYTIMES-USCENSUS"
"5/14/2021 12:00:00 AM","Woodford County","Kentucky","South","East South Central","21239","38.043103","-84.748855 ","2143","20","0","0","5/13/2021 12:00:00 AM","2019","26734","NYTIMES-USCENSUS"
"5/14/2021 12:00:00 AM","Brown County","South Dakota","Midwest","West North Central","46013","45.589254","-98.352175 ","5581","92","3","0","5/13/2021 12:00:00 AM","2019","38839","NYTIMES-USCENSUS"
"5/14/2021 12:00:00 AM","Montgomery County","Ohio","Midwest","East North Central","39113","39.753736","-84.290591 ","51726","1015","36","1","5/13/2021 12:00:00 AM","2019","531687","NYTIMES-USCENSUS"
"5/14/2021 12:00:00 AM","Hardin County","Illinois","Midwest","East North Central","17069","37.517852","-88.266148 ","386","12","0","0","5/13/2021 12:00:00 AM","2019","3821","NYTIMES-USCENSUS"
"5/14/2021 12:00:00 AM","Kosciusko County","Indiana","Midwest","East North Central","18085","41.244293","-85.861575 ","9471","121","12","0","5/13/2021 12:00:00 AM","2019","79456","NYTIMES-USCENSUS"
"5/14/2021 12:00:00 AM","Darke County","Ohio","Midwest","East North Central","39037","40.131467","-84.621191 ","5372","126","2","3","5/13/2021 12:00:00 AM","2019","51113","NYTIMES-USCENSUS"
"5/14/2021 12:00:00 AM","Chase County","Nebraska","Midwest","West North Central","31029","40.53039","-101.694192 ","463","5","0","0","5/13/2021 12:00:00 AM","2019","3924","NYTIMES-USCENSUS"
"5/14/2021 12:00:00 AM","Chariton County","Missouri","Midwest","West North Central","29041","39.517968","-92.96162 ","675","8","0","0","5/13/2021 12:00:00 AM","2019","7426","NYTIMES-USCENSUS"
"5/14/2021 12:00:00 AM","Montgomery County","Iowa","Midwest","West North Central","19137","41.021735","-95.15779 ","1033","38","0","0","5/13/2021 12:00:00 AM","2019","9917","NYTIMES-USCENSUS"
"5/14/2021 12:00:00 AM","Stafford County","Kansas","Midwest","West North Central","20185","38.03563","-98.719889 ","352","9","0","0","5/13/2021 12:00:00 AM","2019","4156","NYTIMES-USCENSUS"
"5/14/2021 12:00:00 AM","Overton County","Tennessee","South","East South Central","47133","36.34485","-85.283076 ","3025","61","1","0","5/13/2021 12:00:00 AM","2019","22241","NYTIMES-USCENSUS"
"5/14/2021 12:00:00 AM","York County","Maine","Northeast","New England","23031","43.426019","-70.668425 ","13058","129","20","0","5/13/2021 12:00:00 AM","2019","207641","NYTIMES-USCENSUS"
"5/14/2021 12:00:00 AM","Murray County","Oklahoma","South","West South Central","40099","34.485766","-97.071557 ","2017","38","0","0","5/13/2021 12:00:00 AM","2019","14073","NYTIMES-USCENSUS"
"5/14/2021 12:00:00 AM","Fremont County","Wyoming","West","Mountain","56013","43.054831","-108.608935 ","5191","84","2","0","5/13/2021 12:00:00 AM","2019","39261","NYTIMES-USCENSUS"
"5/14/2021 12:00:00 AM","Dodge County","Georgia","South","South Atlantic","13091","32.164369","-83.167866 ","2139","101","0","-1","5/13/2021 12:00:00 AM","2019","20605","NYTIMES-USCENSUS"
"5/14/2021 12:00:00 AM","Gray County","Kansas","Midwest","West North Central","20069","37.744513","-100.451716 ","611","14","0","0","5/13/2021 12:00:00 AM","2019","5988","NYTIMES-USCENSUS"
"5/14/2021 12:00:00 AM","Barbour County","West Virginia","South","South Atlantic","54001","39.139725","-79.996947 ","1441","27","5","0","5/13/2021 12:00:00 AM","2019","16441","NYTIMES-USCENSUS"
"5/14/2021 12:00:00 AM","Page County","Virginia","South","South Atlantic","51139","38.623209","-78.491872 ","2035","56","1","0","5/13/2021 12:00:00 AM","2019","23902","NYTIMES-USCENSUS"
"5/14/2021 12:00:00 AM","Phelps County","Nebraska","Midwest","West North Central","31137","40.516365","-99.406557 ","1002","10","0","0","5/13/2021 12:00:00 AM","2019","9034","NYTIMES-USCENSUS"
"5/14/2021 12:00:00 AM","Glenn County","California","West","Pacific","06021","39.602546","-122.4017 ","2923","25","5","0","5/13/2021 12:00:00 AM","2019","28393","NYTIMES-USCENSUS"
"5/14/2021 12:00:00 AM","McIntosh County","North Dakota","Midwest","West North Central","38051","46.108682","-99.416487 ","346","7","0","0","5/13/2021 12:00:00 AM","2019","2497","NYTIMES-USCENSUS"
"5/14/2021 12:00:00 AM","Moffat County","Colorado","West","Mountain","08081","40.610864","-108.217154 ","782","22","1","0","5/13/2021 12:00:00 AM","2019","13283","NYTIMES-USCENSUS"
"5/14/2021 12:00:00 AM","Cullman County","Alabama","South","East South Central","01043","34.131923","-86.869267 ","9730","194","25","0","5/13/2021 12:00:00 AM","2019","83768","NYTIMES-USCENSUS"
"5/14/2021 12:00:00 AM","Shenandoah County","Virginia","South","South Atlantic","51171","38.856204","-78.573987 ","4312","133","2","1","5/13/2021 12:00:00 AM","2019","43616","NYTIMES-USCENSUS"
"5/14/2021 12:00:00 AM","Pulaski County","Kentucky","South","East South Central","21199","37.107452","-84.576969 ","6447","107","14","0","5/13/2021 12:00:00 AM","2019","64979","NYTIMES-USCENSUS"
"5/14/2021 12:00:00 AM","Gallatin County","Montana","West","Mountain","30031","45.518054","-111.163921 ","14837","64","17","0","5/13/2021 12:00:00 AM","2019","114434","NYTIMES-USCENSUS"
"5/14/2021 12:00:00 AM","Colbert County","Alabama","South","East South Central","01033","34.703112","-87.801457 ","6317","134","7","0","5/13/2021 12:00:00 AM","2019","55241","NYTIMES-USCENSUS"
"5/14/2021 12:00:00 AM","Polk County","Minnesota","Midwest","West North Central","27119","47.774254","-96.400027 ","3841","68","6","0","5/13/2021 12:00:00 AM","2019","31364","NYTIMES-USCENSUS"
"5/14/2021 12:00:00 AM","Sumter County","South Carolina","South","South Atlantic","45085","33.91614","-80.382376 ","10439","206","4","1","5/13/2021 12:00:00 AM","2019","106721","NYTIMES-USCENSUS"
"5/14/2021 12:00:00 AM","Neosho County","Kansas","Midwest","West North Central","20133","37.564283","-95.315682 ","1806","35","2","0","5/13/2021 12:00:00 AM","2019","16007","NYTIMES-USCENSUS"
"5/14/2021 12:00:00 AM","Greene County","Ohio","Midwest","East North Central","39057","39.687479","-83.894894 ","15128","244","9","0","5/13/2021 12:00:00 AM","2019","168937","NYTIMES-USCENSUS"
"5/14/2021 12:00:00 AM","Forrest County","Mississippi","South","East South Central","28035","31.18858","-89.259447 ","7689","152","6","0","5/13/2021 12:00:00 AM","2019","74897","NYTIMES-USCENSUS"
"5/14/2021 12:00:00 AM","Rio Blanco County","Colorado","West","Mountain","08103","39.972622","-108.200716 ","571","4","1","0","5/13/2021 12:00:00 AM","2019","6324","NYTIMES-USCENSUS"
"5/14/2021 12:00:00 AM","Howard County","Indiana","Midwest","East North Central","18067","40.483537","-86.114118 ","9969","222","13","2","5/13/2021 12:00:00 AM","2019","82544","NYTIMES-USCENSUS"
"5/14/2021 12:00:00 AM","Claiborne County","Tennessee","South","East South Central","47025","36.501572","-83.660698 ","3188","73","-1","0","5/13/2021 12:00:00 AM","2019","31959","NYTIMES-USCENSUS"
"5/14/2021 12:00:00 AM","Phillips County","Colorado","West","Mountain","08095","40.594712","-102.345105 ","382","13","1","0","5/13/2021 12:00:00 AM","2019","4265","NYTIMES-USCENSUS"
"5/14/2021 12:00:00 AM","Hamlin County","South Dakota","Midwest","West North Central","46057","44.680619","-97.178598 ","797","39","0","0","5/13/2021 12:00:00 AM","2019","6164","NYTIMES-USCENSUS"
"5/14/2021 12:00:00 AM","Dougherty County","Georgia","South","South Atlantic","13095","31.532588","-84.20904 ","7621","304","6","0","5/13/2021 12:00:00 AM","2019","87956","NYTIMES-USCENSUS"
"5/14/2021 12:00:00 AM","Prowers County","Colorado","West","Mountain","08099","37.958181","-102.392161 ","1241","21","4","0","5/13/2021 12:00:00 AM","2019","12172","NYTIMES-USCENSUS"
"5/14/2021 12:00:00 AM","Telfair County","Georgia","South","South Atlantic","13271","31.913641","-82.931063 ","1317","58","1","1","5/13/2021 12:00:00 AM","2019","15860","NYTIMES-USCENSUS"
"5/14/2021 12:00:00 AM","Charles City County","Virginia","South","South Atlantic","51036","37.361054","-77.05417 ","502","16","2","0","5/13/2021 12:00:00 AM","2019","6963","NYTIMES-USCENSUS"
"5/14/2021 12:00:00 AM","Sarpy County","Nebraska","Midwest","West North Central","31153","41.115064","-96.109125 ","22777","132","14","0","5/13/2021 12:00:00 AM","2019","187196","NYTIMES-USCENSUS"
"5/14/2021 12:00:00 AM","Crane County","Texas","South","West South Central","48103","31.422796","-102.487774 ","532","12","0","0","5/13/2021 12:00:00 AM","2019","4797","NYTIMES-USCENSUS"
"5/14/2021 12:00:00 AM","Randolph County","West Virginia","South","South Atlantic","54083","38.781095","-79.867788 ","2619","12","9","0","5/13/2021 12:00:00 AM","2019","28695","NYTIMES-USCENSUS"
"5/14/2021 12:00:00 AM","Clay County","West Virginia","South","South Atlantic","54015","38.459826","-81.081866 ","508","9","2","0","5/13/2021 12:00:00 AM","2019","8508","NYTIMES-USCENSUS"
"5/14/2021 12:00:00 AM","Audubon County","Iowa","Midwest","West North Central","19009","41.679178","-94.904312 ","511","10","1","0","5/13/2021 12:00:00 AM","2019","5496","NYTIMES-USCENSUS"
"5/14/2021 12:00:00 AM","Hopkins County","Kentucky","South","East South Central","21107","37.31107","-87.542196 ","4496","147","6","0","5/13/2021 12:00:00 AM","2019","44686","NYTIMES-USCENSUS"
"5/14/2021 12:00:00 AM","Chester County","South Carolina","South","South Atlantic","45023","34.689342","-81.161249 ","4200","76","0","0","5/13/2021 12:00:00 AM","2019","32244","NYTIMES-USCENSUS"
"5/14/2021 12:00:00 AM","Henry County","Kentucky","South","East South Central","21103","38.451383","-85.119647 ","1361","13","0","0","5/13/2021 12:00:00 AM","2019","16126","NYTIMES-USCENSUS"
"5/14/2021 12:00:00 AM","Medina County","Texas","South","West South Central","48325","29.353661","-99.111085 ","5033","103","11","0","5/13/2021 12:00:00 AM","2019","51584","NYTIMES-USCENSUS"
"5/14/2021 12:00:00 AM","Johnson County","Illinois","Midwest","East North Central","17087","37.460709","-88.882131 ","1444","21","5","0","5/13/2021 12:00:00 AM","2019","12417","NYTIMES-USCENSUS"
"5/14/2021 12:00:00 AM","Cibola County","New Mexico","West","Mountain","35006","34.928272","-107.99268 ","3528","112","4","0","5/13/2021 12:00:00 AM","2019","26675","NYTIMES-USCENSUS"
"5/14/2021 12:00:00 AM","Hinds County","Mississippi","South","East South Central","28049","32.267788","-90.466017 ","20369","416","10","1","5/13/2021 12:00:00 AM","2019","231840","NYTIMES-USCENSUS"
"5/14/2021 12:00:00 AM","Putnam County","Tennessee","South","East South Central","47141","36.14094","-85.49618 ","11437","175","2","0","5/13/2021 12:00:00 AM","2019","80245","NYTIMES-USCENSUS"
"5/14/2021 12:00:00 AM","Morgan County","Indiana","Midwest","East North Central","18109","39.482646","-86.447457 ","6613","144","3","0","5/13/2021 12:00:00 AM","2019","70489","NYTIMES-USCENSUS"
"5/14/2021 12:00:00 AM","Cameron Parish","Louisiana","South","West South Central","22023","29.871812","-93.164948 ","604","6","0","0","5/13/2021 12:00:00 AM","2019","6973","NYTIMES-USCENSUS"
"5/14/2021 12:00:00 AM","Columbia County","Florida","South","South Atlantic","12023","30.221651","-82.623371 ","8174","169","12","0","5/13/2021 12:00:00 AM","2019","71686","NYTIMES-USCENSUS"
"5/14/2021 12:00:00 AM","Travis County","Texas","South","West South Central","48453","30.239513","-97.69127 ","83201","1013","56","2","5/13/2021 12:00:00 AM","2019","1273954","NYTIMES-USCENSUS"
"5/14/2021 12:00:00 AM","Cumberland County","New Jersey","Northeast","Middle Atlantic","34011","39.328434","-75.121628 ","16894","429","13","1","5/13/2021 12:00:00 AM","2019","149527","NYTIMES-USCENSUS"
"5/14/2021 12:00:00 AM","Josephine County","Oregon","West","Pacific","41033","42.386983","-123.57162 ","3355","70","10","0","5/13/2021 12:00:00 AM","2019","87487","NYTIMES-USCENSUS"
"5/14/2021 12:00:00 AM","Summit County","Colorado","West","Mountain","08117","39.621023","-106.137555 ","3706","7","1","-1","5/13/2021 12:00:00 AM","2019","31011","NYTIMES-USCENSUS"
"5/14/2021 12:00:00 AM","Oregon County","Missouri","Midwest","West North Central","29149","36.68531","-91.401827 ","798","3","2","0","5/13/2021 12:00:00 AM","2019","10529","NYTIMES-USCENSUS"
"5/14/2021 12:00:00 AM","Ford County","Kansas","Midwest","West North Central","20057","37.688416","-99.884748 ","5761","75","3","0","5/13/2021 12:00:00 AM","2019","33619","NYTIMES-USCENSUS"
"5/14/2021 12:00:00 AM","Wayne County","Tennessee","South","East South Central","47181","35.242847","-87.819843 ","2970","34","2","0","5/13/2021 12:00:00 AM","2019","16673","NYTIMES-USCENSUS"
"5/14/2021 12:00:00 AM","Yell County","Arkansas","South","West South Central","05149","34.997713","-93.408303 ","3437","65","0","0","5/13/2021 12:00:00 AM","2019","21341","NYTIMES-USCENSUS"
"5/14/2021 12:00:00 AM","Saline County","Kansas","Midwest","West North Central","20169","38.791804","-97.651478 ","6270","140","3","0","5/13/2021 12:00:00 AM","2019","54224","NYTIMES-USCENSUS"
"5/14/2021 12:00:00 AM","Jersey County","Illinois","Midwest","East North Central","17083","39.080195","-90.361385 ","2689","69","0","1","5/13/2021 12:00:00 AM","2019","21773","NYTIMES-USCENSUS"
"5/14/2021 12:00:00 AM","Clay County","Texas","South","West South Central","48077","33.785904","-98.212917 ","1032","16","0","0","5/13/2021 12:00:00 AM","2019","10471","NYTIMES-USCENSUS"
"5/14/2021 12:00:00 AM","Napa County","California","West","Pacific","06055","38.5071","-122.325904 ","9878","82","7","0","5/13/2021 12:00:00 AM","2019","137744","NYTIMES-USCENSUS"
"5/14/2021 12:00:00 AM","Ellsworth County","Kansas","Midwest","West North Central","20053","38.700845","-98.205355 ","1222","26","1","1","5/13/2021 12:00:00 AM","2019","6102","NYTIMES-USCENSUS"
"5/14/2021 12:00:00 AM","Richland County","Montana","West","Mountain","30083","47.785633","-104.563408 ","1231","17","0","0","5/13/2021 12:00:00 AM","2019","10803","NYTIMES-USCENSUS"
"5/14/2021 12:00:00 AM","Lexington County","South Carolina","South","South Atlantic","45063","33.899246","-81.266118 ","33385","485","26","1","5/13/2021 12:00:00 AM","2019","298750","NYTIMES-USCENSUS"
"5/14/2021 12:00:00 AM","Marion County","Kansas","Midwest","West North Central","20115","38.359647","-97.102771 ","1104","24","0","0","5/13/2021 12:00:00 AM","2019","11884","NYTIMES-USCENSUS"
"5/14/2021 12:00:00 AM","Union County","South Carolina","South","South Atlantic","45087","34.690397","-81.615896 ","3143","83","3","0","5/13/2021 12:00:00 AM","2019","27316","NYTIMES-USCENSUS"
"5/14/2021 12:00:00 AM","Iosco County","Michigan","Midwest","East North Central","26069","44.386912","-83.380141 ","1947","70","14","0","5/13/2021 12:00:00 AM","2019","25127","NYTIMES-USCENSUS"
"5/14/2021 12:00:00 AM","Bartholomew County","Indiana","Midwest","East North Central","18005","39.205843","-85.897999 ","8106","161","7","0","5/13/2021 12:00:00 AM","2019","83779","NYTIMES-USCENSUS"
"5/14/2021 12:00:00 AM","Caroline County","Maryland","South","South Atlantic","24011","38.871531","-75.831662 ","2302","25","8","0","5/13/2021 12:00:00 AM","2019","33406","NYTIMES-USCENSUS"
"5/14/2021 12:00:00 AM","Tuscarawas County","Ohio","Midwest","East North Central","39157","40.44749","-81.471105 ","8500","245","2","1","5/13/2021 12:00:00 AM","2019","91987","NYTIMES-USCENSUS"
"5/14/2021 12:00:00 AM","Caldwell County","Missouri","Midwest","West North Central","29025","39.658998","-93.979179 ","777","14","0","0","5/13/2021 12:00:00 AM","2019","9020","NYTIMES-USCENSUS"
"5/14/2021 12:00:00 AM","Morgan County","Tennessee","South","East South Central","47129","36.138697","-84.639262 ","2513","39","1","0","5/13/2021 12:00:00 AM","2019","21403","NYTIMES-USCENSUS"
"5/14/2021 12:00:00 AM","Coos County","New Hampshire","Northeast","New England","33007","44.652548","-71.289431 ","1970","41","5","0","5/13/2021 12:00:00 AM","2019","31563","NYTIMES-USCENSUS"
"5/14/2021 12:00:00 AM","Franklin County","Washington","West","Pacific","53021","46.537502","-118.903891 ","12380","113","8","2","5/13/2021 12:00:00 AM","2019","95222","NYTIMES-USCENSUS"
"5/14/2021 12:00:00 AM","St. Louis County","Missouri","Midwest","West North Central","29189","38.640688","-90.446073 ","99023","2207","96","1","5/13/2021 12:00:00 AM","2019","994205","NYTIMES-USCENSUS"
"5/14/2021 12:00:00 AM","Autauga County","Alabama","South","East South Central","01001","32.532237","-86.64644 ","6971","108","33","0","5/13/2021 12:00:00 AM","2019","55869","NYTIMES-USCENSUS"
"5/14/2021 12:00:00 AM","Vigo County","Indiana","Midwest","East North Central","18167","39.429143","-87.390375 ","12494","253","12","0","5/13/2021 12:00:00 AM","2019","107038","NYTIMES-USCENSUS"
"5/14/2021 12:00:00 AM","Lee County","Illinois","Midwest","East North Central","17103","41.747447","-89.299362 ","4169","91","4","0","5/13/2021 12:00:00 AM","2019","34096","NYTIMES-USCENSUS"
"5/14/2021 12:00:00 AM","Pacific County","Washington","West","Pacific","53049","46.556587","-123.782419 ","934","11","6","0","5/13/2021 12:00:00 AM","2019","22471","NYTIMES-USCENSUS"
"5/14/2021 12:00:00 AM","Mason County","Michigan","Midwest","East North Central","26105","43.957196","-86.442937 ","2100","36","1","0","5/13/2021 12:00:00 AM","2019","29144","NYTIMES-USCENSUS"
"5/14/2021 12:00:00 AM","Laclede County","Missouri","Midwest","West North Central","29105","37.659698","-92.594843 ","3301","68","3","0","5/13/2021 12:00:00 AM","2019","35723","NYTIMES-USCENSUS"
"5/14/2021 12:00:00 AM","Anderson County","Kansas","Midwest","West North Central","20003","38.215114","-95.292046 ","837","18","0","0","5/13/2021 12:00:00 AM","2019","7858","NYTIMES-USCENSUS"
"5/14/2021 12:00:00 AM","Essex County","New York","Northeast","Middle Atlantic","36031","44.109601","-73.778431 ","1583","26","2","0","5/13/2021 12:00:00 AM","2019","36885","NYTIMES-USCENSUS"
"5/14/2021 12:00:00 AM","Burnett County","Wisconsin","Midwest","East North Central","55013","45.866897","-92.37573 ","1533","22","2","0","5/13/2021 12:00:00 AM","2019","15414","NYTIMES-USCENSUS"
"5/14/2021 12:00:00 AM","Stark County","North Dakota","Midwest","West North Central","38089","46.817031","-102.662026 ","4822","51","10","0","5/13/2021 12:00:00 AM","2019","31489","NYTIMES-USCENSUS"
"5/14/2021 12:00:00 AM","Pickaway County","Ohio","Midwest","East North Central","39129","39.648947","-83.052827 ","8589","121","0","0","5/13/2021 12:00:00 AM","2019","58457","NYTIMES-USCENSUS"
"5/14/2021 12:00:00 AM","Audrain County","Missouri","Midwest","West North Central","29007","39.214481","-91.843418 ","2706","57","1","0","5/13/2021 12:00:00 AM","2019","25388","NYTIMES-USCENSUS"
"5/14/2021 12:00:00 AM","Osceola County","Florida","South","South Atlantic","12097","28.059027","-81.139312 ","45288","515","70","0","5/13/2021 12:00:00 AM","2019","375751","NYTIMES-USCENSUS"
"5/14/2021 12:00:00 AM","Peach County","Georgia","South","South Atlantic","13225","32.571324","-83.831978 ","2664","59","5","0","5/13/2021 12:00:00 AM","2019","27546","NYTIMES-USCENSUS"
"5/14/2021 12:00:00 AM","Sheridan County","Nebraska","Midwest","West North Central","31161","42.512289","-102.36828 ","523","15","0","-4","5/13/2021 12:00:00 AM","2019","5246","NYTIMES-USCENSUS"
"5/14/2021 12:00:00 AM","Cherokee County","Oklahoma","South","West South Central","40021","35.904367","-94.996796 ","5628","74","0","0","5/13/2021 12:00:00 AM","2019","48657","NYTIMES-USCENSUS"
"5/14/2021 12:00:00 AM","Benton County","Oregon","West","Pacific","41003","44.493882","-123.424664 ","3108","20","8","1","5/13/2021 12:00:00 AM","2019","93053","NYTIMES-USCENSUS"
"5/14/2021 12:00:00 AM","Fayette County","Kentucky","South","East South Central","21067","38.040678","-84.458272 ","35810","314","31","5","5/13/2021 12:00:00 AM","2019","323152","NYTIMES-USCENSUS"
"5/14/2021 12:00:00 AM","Black Hawk County","Iowa","Midwest","West North Central","19013","42.471132","-92.3076 ","15813","308","9","0","5/13/2021 12:00:00 AM","2019","131228","NYTIMES-USCENSUS"
"5/14/2021 12:00:00 AM","Sumner County","Tennessee","South","East South Central","47165","36.472423","-86.458405 ","24135","349","13","0","5/13/2021 12:00:00 AM","2019","191283","NYTIMES-USCENSUS"
"5/14/2021 12:00:00 AM","Reagan County","Texas","South","West South Central","48383","31.375191","-101.514395 ","383","8","0","0","5/13/2021 12:00:00 AM","2019","3849","NYTIMES-USCENSUS"
"5/14/2021 12:00:00 AM","Bedford County","Virginia","South","South Atlantic","51019","37.312257","-79.527223 ","6387","102","8","0","5/13/2021 12:00:00 AM","2019","78997","NYTIMES-USCENSUS"
"5/14/2021 12:00:00 AM","Taylor County","Florida","South","South Atlantic","12123","29.967146","-83.639573 ","2743","47","2","0","5/13/2021 12:00:00 AM","2019","21569","NYTIMES-USCENSUS"
"5/14/2021 12:00:00 AM","Montgomery County","Pennsylvania","Northeast","Middle Atlantic","42091","40.209999","-75.370201 ","69374","1690","73","2","5/13/2021 12:00:00 AM","2019","830915","NYTIMES-USCENSUS"
"5/14/2021 12:00:00 AM","Allen County","Ohio","Midwest","East North Central","39003","40.771627","-84.106103 ","11713","232","9","0","5/13/2021 12:00:00 AM","2019","102351","NYTIMES-USCENSUS"
"5/14/2021 12:00:00 AM","Mason County","West Virginia","South","South Atlantic","54053","38.770914","-82.029007 ","2006","37","0","1","5/13/2021 12:00:00 AM","2019","26516","NYTIMES-USCENSUS"
"5/14/2021 12:00:00 AM","Macon County","Alabama","South","East South Central","01087","32.387027","-85.692887 ","1607","50","8","0","5/13/2021 12:00:00 AM","2019","18068","NYTIMES-USCENSUS"
"5/14/2021 12:00:00 AM","Fairfield County","Ohio","Midwest","East North Central","39045","39.747694","-82.626685 ","16284","200","20","0","5/13/2021 12:00:00 AM","2019","157574","NYTIMES-USCENSUS"
"5/14/2021 12:00:00 AM","Baldwin County","Georgia","South","South Atlantic","13009","33.05949","-83.255457 ","4537","130","1","0","5/13/2021 12:00:00 AM","2019","44890","NYTIMES-USCENSUS"
"5/14/2021 12:00:00 AM","Broward County","Florida","South","South Atlantic","12011","26.193535","-80.476683 ","241476","3002","344","16","5/13/2021 12:00:00 AM","2019","1952778","NYTIMES-USCENSUS"
"5/14/2021 12:00:00 AM","Colquitt County","Georgia","South","South Atlantic","13071","31.189707","-83.769773 ","4724","121","-2","0","5/13/2021 12:00:00 AM","2019","45600","NYTIMES-USCENSUS"
"5/14/2021 12:00:00 AM","Ware County","Georgia","South","South Atlantic","13299","31.050881","-82.421507 ","4909","178","3","0","5/13/2021 12:00:00 AM","2019","35734","NYTIMES-USCENSUS"
"5/14/2021 12:00:00 AM","Sutter County","California","West","Pacific","06101","39.03619","-121.70394 ","9433","112","6","0","5/13/2021 12:00:00 AM","2019","96971","NYTIMES-USCENSUS"
"5/14/2021 12:00:00 AM","Newport News city","Virginia","South","South Atlantic","51700","37.076136","-76.52198 ","13962","227","9","0","5/13/2021 12:00:00 AM","2019","179225","NYTIMES-USCENSUS"
"5/14/2021 12:00:00 AM","Jackson County","Alabama","South","East South Central","01071","34.764114","-85.980056 ","6830","112","15","0","5/13/2021 12:00:00 AM","2019","51626","NYTIMES-USCENSUS"
"5/14/2021 12:00:00 AM","Madera County","California","West","Pacific","06039","37.209821","-119.749802 ","16467","242","5","0","5/13/2021 12:00:00 AM","2019","157327","NYTIMES-USCENSUS"
"5/14/2021 12:00:00 AM","Johnston County","North Carolina","South","South Atlantic","37101","35.513419","-78.367348 ","21622","221","18","0","5/13/2021 12:00:00 AM","2019","209339","NYTIMES-USCENSUS"
"5/14/2021 12:00:00 AM","Faribault County","Minnesota","Midwest","West North Central","27043","43.676522","-93.947234 ","1523","19","2","0","5/13/2021 12:00:00 AM","2019","13653","NYTIMES-USCENSUS"
"5/14/2021 12:00:00 AM","Noxubee County","Mississippi","South","East South Central","28103","33.106606","-88.566152 ","1267","34","0","0","5/13/2021 12:00:00 AM","2019","10417","NYTIMES-USCENSUS"
"5/14/2021 12:00:00 AM","Wichita County","Kansas","Midwest","West North Central","20203","38.481922","-101.347434 ","216","6","0","0","5/13/2021 12:00:00 AM","2019","2119","NYTIMES-USCENSUS"
"5/14/2021 12:00:00 AM","Lincoln County","Wisconsin","Midwest","East North Central","55069","45.333148","-89.73224 ","3280","92","3","0","5/13/2021 12:00:00 AM","2019","27593","NYTIMES-USCENSUS"
"5/14/2021 12:00:00 AM","Grayson County","Kentucky","South","East South Central","21085","37.458577","-86.344011 ","2162","55","4","0","5/13/2021 12:00:00 AM","2019","26427","NYTIMES-USCENSUS"
"5/14/2021 12:00:00 AM","Wheeler County","Georgia","South","South Atlantic","13309","32.105258","-82.733849 ","628","24","0","0","5/13/2021 12:00:00 AM","2019","7855","NYTIMES-USCENSUS"
"5/14/2021 12:00:00 AM","Major County","Oklahoma","South","West South Central","40093","36.313119","-98.542015 ","955","21","0","0","5/13/2021 12:00:00 AM","2019","7629","NYTIMES-USCENSUS"
"5/14/2021 12:00:00 AM","De Witt County","Illinois","Midwest","East North Central","17039","40.181499","-88.901853 ","1513","31","5","0","5/13/2021 12:00:00 AM","2019","15638","NYTIMES-USCENSUS"
"5/14/2021 12:00:00 AM","Custer County","Colorado","West","Mountain","08027","38.101996","-105.373512 ","198","1","0","0","5/13/2021 12:00:00 AM","2019","5068","NYTIMES-USCENSUS"
"5/14/2021 12:00:00 AM","Ford County","Illinois","Midwest","East North Central","17053","40.596539","-88.224588 ","1786","55","4","1","5/13/2021 12:00:00 AM","2019","12961","NYTIMES-USCENSUS"
"5/14/2021 12:00:00 AM","Clinch County","Georgia","South","South Atlantic","13065","30.917653","-82.702614 ","987","26","0","0","5/13/2021 12:00:00 AM","2019","6618","NYTIMES-USCENSUS"
"5/14/2021 12:00:00 AM","Berkeley County","South Carolina","South","South Atlantic","45015","33.2077","-79.953655 ","17591","197","18","0","5/13/2021 12:00:00 AM","2019","227907","NYTIMES-USCENSUS"
"5/14/2021 12:00:00 AM","Yavapai County","Arizona","West","Mountain","04025","34.631071","-112.577225 ","18982","505","30","0","5/13/2021 12:00:00 AM","2019","235099","NYTIMES-USCENSUS"
"5/14/2021 12:00:00 AM","St. Clair County","Illinois","Midwest","East North Central","17163","38.470198","-89.928546 ","30812","558","15","1","5/13/2021 12:00:00 AM","2019","259686","NYTIMES-USCENSUS"
"5/14/2021 12:00:00 AM","Pueblo County","Colorado","West","Mountain","08101","38.162765","-104.484668 ","18691","392","31","1","5/13/2021 12:00:00 AM","2019","168424","NYTIMES-USCENSUS"
"5/14/2021 12:00:00 AM","Dickey County","North Dakota","Midwest","West North Central","38021","46.107756","-98.496518 ","795","33","1","0","5/13/2021 12:00:00 AM","2019","4872","NYTIMES-USCENSUS"
"5/14/2021 12:00:00 AM","Lee County","Virginia","South","South Atlantic","51105","36.701721","-83.130112 ","2423","47","2","0","5/13/2021 12:00:00 AM","2019","23423","NYTIMES-USCENSUS"
"5/14/2021 12:00:00 AM","Jefferson County","Texas","South","West South Central","48245","29.854","-94.149331 ","19704","429","15","1","5/13/2021 12:00:00 AM","2019","251565","NYTIMES-USCENSUS"
"5/14/2021 12:00:00 AM","Lucas County","Iowa","Midwest","West North Central","19117","41.033344","-93.331467 ","772","23","-1","0","5/13/2021 12:00:00 AM","2019","8600","NYTIMES-USCENSUS"
"5/14/2021 12:00:00 AM","San Diego County","California","West","Pacific","06073","33.023604","-116.776117 ","278655","3729","190","0","5/13/2021 12:00:00 AM","2019","3338330","NYTIMES-USCENSUS"
"5/14/2021 12:00:00 AM","Coal County","Oklahoma","South","West South Central","40029","34.582861","-96.288039 ","698","15","0","0","5/13/2021 12:00:00 AM","2019","5495","NYTIMES-USCENSUS"
"5/14/2021 12:00:00 AM","Sacramento County","California","West","Pacific","06067","38.450136","-121.344329 ","104957","1691","118","5","5/13/2021 12:00:00 AM","2019","1552058","NYTIMES-USCENSUS"
"5/14/2021 12:00:00 AM","Boone County","Arkansas","South","West South Central","05009","36.304299","-93.079236 ","3835","80","3","0","5/13/2021 12:00:00 AM","2019","37432","NYTIMES-USCENSUS"
"5/14/2021 12:00:00 AM","Jackson County","South Dakota","Midwest","West North Central","46071","43.677506","-101.626323 ","289","14","0","0","5/13/2021 12:00:00 AM","2019","3344","NYTIMES-USCENSUS"
"5/14/2021 12:00:00 AM","West Baton Rouge Parish","Louisiana","South","West South Central","22121","30.464052","-91.309808 ","2883","60","5","0","5/13/2021 12:00:00 AM","2019","26465","NYTIMES-USCENSUS"
"5/14/2021 12:00:00 AM","Lubbock County","Texas","South","West South Central","48303","33.611469","-101.819944 ","49146","787","10","1","5/13/2021 12:00:00 AM","2019","310569","NYTIMES-USCENSUS"
"5/14/2021 12:00:00 AM","Leon County","Texas","South","West South Central","48289","31.300493","-95.995622 ","1637","43","1","0","5/13/2021 12:00:00 AM","2019","17404","NYTIMES-USCENSUS"
"5/14/2021 12:00:00 AM","Washington County","Indiana","Midwest","East North Central","18175","38.600613","-86.104751 ","2418","32","2","0","5/13/2021 12:00:00 AM","2019","28036","NYTIMES-USCENSUS"
"5/14/2021 12:00:00 AM","Van Zandt County","Texas","South","West South Central","48467","32.558787","-95.836906 ","4346","117","19","0","5/13/2021 12:00:00 AM","2019","56590","NYTIMES-USCENSUS"
"5/14/2021 12:00:00 AM","Pike County","Indiana","Midwest","East North Central","18125","38.397961","-87.232547 ","1351","34","2","0","5/13/2021 12:00:00 AM","2019","12389","NYTIMES-USCENSUS"
"5/14/2021 12:00:00 AM","Hancock County","Illinois","Midwest","East North Central","17067","40.401318","-91.168801 ","1760","42","1","1","5/13/2021 12:00:00 AM","2019","17708","NYTIMES-USCENSUS"
"5/14/2021 12:00:00 AM","Jasper County","Texas","South","West South Central","48241","30.752932","-94.022294 ","2483","90","0","0","5/13/2021 12:00:00 AM","2019","35529","NYTIMES-USCENSUS"
"5/14/2021 12:00:00 AM","Nicollet County","Minnesota","Midwest","West North Central","27103","44.35882","-94.245684 ","3261","43","5","0","5/13/2021 12:00:00 AM","2019","34274","NYTIMES-USCENSUS"
"5/14/2021 12:00:00 AM","Pushmataha County","Oklahoma","South","West South Central","40127","34.377899","-95.408082 ","1011","20","0","0","5/13/2021 12:00:00 AM","2019","11096","NYTIMES-USCENSUS"
"5/14/2021 12:00:00 AM","Eau Claire County","Wisconsin","Midwest","East North Central","55035","44.726355","-91.286414 ","11897","119","10","0","5/13/2021 12:00:00 AM","2019","104646","NYTIMES-USCENSUS"
"5/14/2021 12:00:00 AM","Traill County","North Dakota","Midwest","West North Central","38097","47.446215","-97.164754 ","1046","18","0","0","5/13/2021 12:00:00 AM","2019","8036","NYTIMES-USCENSUS"
"5/14/2021 12:00:00 AM","Robertson County","Tennessee","South","East South Central","47147","36.527509","-86.869354 ","9793","132","8","0","5/13/2021 12:00:00 AM","2019","71813","NYTIMES-USCENSUS"
"5/14/2021 12:00:00 AM","Gordon County","Georgia","South","South Atlantic","13129","34.509667","-84.873862 ","8225","116","3","0","5/13/2021 12:00:00 AM","2019","57963","NYTIMES-USCENSUS"
"5/14/2021 12:00:00 AM","Marshall County","Alabama","South","East South Central","01095","34.309564","-86.321668 ","12262","223","12","0","5/13/2021 12:00:00 AM","2019","96774","NYTIMES-USCENSUS"
"5/14/2021 12:00:00 AM","San Patricio County","Texas","South","West South Central","48409","28.011794","-97.517157 ","4383","150","23","0","5/13/2021 12:00:00 AM","2019","66730","NYTIMES-USCENSUS"
"5/14/2021 12:00:00 AM","Tillman County","Oklahoma","South","West South Central","40141","34.371085","-98.931701 ","803","17","0","0","5/13/2021 12:00:00 AM","2019","7250","NYTIMES-USCENSUS"
"5/14/2021 12:00:00 AM","Morrow County","Ohio","Midwest","East North Central","39117","40.525266","-82.797729 ","2868","39","0","0","5/13/2021 12:00:00 AM","2019","35328","NYTIMES-USCENSUS"
"5/14/2021 12:00:00 AM","Grady County","Georgia","South","South Atlantic","13131","30.875908","-84.24508 ","2187","60","4","0","5/13/2021 12:00:00 AM","2019","24633","NYTIMES-USCENSUS"
"5/14/2021 12:00:00 AM","Washington County","Florida","South","South Atlantic","12133","30.602102","-85.655805 ","2739","52","0","0","5/13/2021 12:00:00 AM","2019","25473","NYTIMES-USCENSUS"
"5/14/2021 12:00:00 AM","Weakley County","Tennessee","South","East South Central","47183","36.303596","-88.721194 ","4163","65","7","0","5/13/2021 12:00:00 AM","2019","33328","NYTIMES-USCENSUS"
"5/14/2021 12:00:00 AM","Newberry County","South Carolina","South","South Atlantic","45071","34.289881","-81.599676 ","5028","104","12","0","5/13/2021 12:00:00 AM","2019","38440","NYTIMES-USCENSUS"
"5/14/2021 12:00:00 AM","Stanly County","North Carolina","South","South Atlantic","37167","35.310449","-80.254374 ","7823","132","9","0","5/13/2021 12:00:00 AM","2019","62806","NYTIMES-USCENSUS"
"5/14/2021 12:00:00 AM","Lincoln County","Arkansas","South","West South Central","05079","33.956385","-91.742355 ","3204","48","0","0","5/13/2021 12:00:00 AM","2019","13024","NYTIMES-USCENSUS"
"5/14/2021 12:00:00 AM","Licking County","Ohio","Midwest","East North Central","39089","40.091505","-82.483435 ","16470","212","15","0","5/13/2021 12:00:00 AM","2019","176862","NYTIMES-USCENSUS"
"5/14/2021 12:00:00 AM","Panola County","Texas","South","West South Central","48365","32.163978","-94.305156 ","1615","75","1","0","5/13/2021 12:00:00 AM","2019","23194","NYTIMES-USCENSUS"
"5/14/2021 12:00:00 AM","Knox County","Illinois","Midwest","East North Central","17095","40.930945","-90.213792 ","5565","176","12","0","5/13/2021 12:00:00 AM","2019","49699","NYTIMES-USCENSUS"
"5/14/2021 12:00:00 AM","Greene County","Illinois","Midwest","East North Central","17061","39.355439","-90.387682 ","1437","46","1","0","5/13/2021 12:00:00 AM","2019","12969","NYTIMES-USCENSUS"
"5/14/2021 12:00:00 AM","Latimer County","Oklahoma","South","West South Central","40077","34.875137","-95.272262 ","836","13","0","0","5/13/2021 12:00:00 AM","2019","10073","NYTIMES-USCENSUS"
"5/14/2021 12:00:00 AM","Greenwood County","Kansas","Midwest","West North Central","20073","37.879347","-96.241732 ","589","11","0","0","5/13/2021 12:00:00 AM","2019","5982","NYTIMES-USCENSUS"
"5/14/2021 12:00:00 AM","Meade County","Kansas","Midwest","West North Central","20119","37.243886","-100.360094 ","514","12","0","0","5/13/2021 12:00:00 AM","2019","4033","NYTIMES-USCENSUS"
"5/14/2021 12:00:00 AM","Lafayette County","Arkansas","South","West South Central","05073","33.240629","-93.611514 ","550","9","2","0","5/13/2021 12:00:00 AM","2019","6624","NYTIMES-USCENSUS"
"5/14/2021 12:00:00 AM","Angelina County","Texas","South","West South Central","48005","31.251896","-94.611134 ","8597","280","0","0","5/13/2021 12:00:00 AM","2019","86715","NYTIMES-USCENSUS"
"5/14/2021 12:00:00 AM","Fayette County","Georgia","South","South Atlantic","13113","33.412717","-84.493941 ","9010","169","5","0","5/13/2021 12:00:00 AM","2019","114421","NYTIMES-USCENSUS"
"5/14/2021 12:00:00 AM","Clarendon County","South Carolina","South","South Atlantic","45027","33.664682","-80.217889 ","3424","113","1","0","5/13/2021 12:00:00 AM","2019","33745","NYTIMES-USCENSUS"
"5/14/2021 12:00:00 AM","Scott County","Virginia","South","South Atlantic","51169","36.712776","-82.613624 ","1835","54","0","0","5/13/2021 12:00:00 AM","2019","21566","NYTIMES-USCENSUS"
"5/14/2021 12:00:00 AM","Dane County","Wisconsin","Midwest","East North Central","55025","43.067468","-89.417852 ","46201","329","36","0","5/13/2021 12:00:00 AM","2019","546695","NYTIMES-USCENSUS"
"5/14/2021 12:00:00 AM","Perry County","Ohio","Midwest","East North Central","39127","39.743187","-82.237952 ","2957","50","1","0","5/13/2021 12:00:00 AM","2019","36134","NYTIMES-USCENSUS"
"5/14/2021 12:00:00 AM","Polk County","Oregon","West","Pacific","41053","44.900372","-123.39864 ","3772","53","15","1","5/13/2021 12:00:00 AM","2019","86085","NYTIMES-USCENSUS"
"5/14/2021 12:00:00 AM","Amherst County","Virginia","South","South Atlantic","51009","37.629304","-79.154667 ","2927","37","4","0","5/13/2021 12:00:00 AM","2019","31605","NYTIMES-USCENSUS"
"5/14/2021 12:00:00 AM","Somerset County","New Jersey","Northeast","Middle Atlantic","34035","40.565527","-74.619938 ","29831","837","16","1","5/13/2021 12:00:00 AM","2019","328934","NYTIMES-USCENSUS"
"5/14/2021 12:00:00 AM","Greene County","New York","Northeast","Middle Atlantic","36039","42.279821","-74.142025 ","3360","75","6","0","5/13/2021 12:00:00 AM","2019","47188","NYTIMES-USCENSUS"
"5/14/2021 12:00:00 AM","Ward County","North Dakota","Midwest","West North Central","38101","48.216686","-101.540537 ","9748","194","8","0","5/13/2021 12:00:00 AM","2019","67641","NYTIMES-USCENSUS"
"5/14/2021 12:00:00 AM","Clark County","Ohio","Midwest","East North Central","39023","39.917032","-83.783676 ","14062","299","14","0","5/13/2021 12:00:00 AM","2019","134083","NYTIMES-USCENSUS"
"5/14/2021 12:00:00 AM","Kankakee County","Illinois","Midwest","East North Central","17091","41.13951","-87.861117 ","14193","218","17","0","5/13/2021 12:00:00 AM","2019","109862","NYTIMES-USCENSUS"
"5/14/2021 12:00:00 AM","Hancock County","Tennessee","South","East South Central","47067","36.521353","-83.227493 ","593","12","0","0","5/13/2021 12:00:00 AM","2019","6620","NYTIMES-USCENSUS"
"5/14/2021 12:00:00 AM","Surry County","North Carolina","South","South Atlantic","37171","36.415416","-80.686463 ","8223","161","11","0","5/13/2021 12:00:00 AM","2019","71783","NYTIMES-USCENSUS"
"5/14/2021 12:00:00 AM","Costilla County","Colorado","West","Mountain","08023","37.277547","-105.42894 ","221","3","5","0","5/13/2021 12:00:00 AM","2019","3887","NYTIMES-USCENSUS"
"5/14/2021 12:00:00 AM","Jasper County","Georgia","South","South Atlantic","13159","33.316981","-83.689151 ","1410","39","0","0","5/13/2021 12:00:00 AM","2019","14219","NYTIMES-USCENSUS"
"5/14/2021 12:00:00 AM","Aroostook County","Maine","Northeast","New England","23003","46.709193","-68.612409 ","1779","45","7","0","5/13/2021 12:00:00 AM","2019","67055","NYTIMES-USCENSUS"
"5/14/2021 12:00:00 AM","Bedford County","Tennessee","South","East South Central","47003","35.51366","-86.458294 ","6522","128","1","0","5/13/2021 12:00:00 AM","2019","49713","NYTIMES-USCENSUS"
"5/14/2021 12:00:00 AM","Tipton County","Tennessee","South","East South Central","47167","35.498763","-89.747145 ","7397","104","9","0","5/13/2021 12:00:00 AM","2019","61599","NYTIMES-USCENSUS"
"5/14/2021 12:00:00 AM","Webster County","Nebraska","Midwest","West North Central","31181","40.180646","-98.49859 ","387","7","0","0","5/13/2021 12:00:00 AM","2019","3487","NYTIMES-USCENSUS"
"5/14/2021 12:00:00 AM","Kit Carson County","Colorado","West","Mountain","08063","39.30534","-102.603023 ","619","11","1","0","5/13/2021 12:00:00 AM","2019","7097","NYTIMES-USCENSUS"
"5/14/2021 12:00:00 AM","Barber County","Kansas","Midwest","West North Central","20007","37.222906","-98.685052 ","374","6","0","0","5/13/2021 12:00:00 AM","2019","4427","NYTIMES-USCENSUS"
"5/14/2021 12:00:00 AM","Emmet County","Iowa","Midwest","West North Central","19063","43.377984","-94.66937 ","1343","40","1","0","5/13/2021 12:00:00 AM","2019","9208","NYTIMES-USCENSUS"
"5/14/2021 12:00:00 AM","Lake County","South Dakota","Midwest","West North Central","46079","44.02845","-97.123223 ","1370","20","4","0","5/13/2021 12:00:00 AM","2019","12797","NYTIMES-USCENSUS"
"5/14/2021 12:00:00 AM","Hardin County","Ohio","Midwest","East North Central","39065","40.660415","-83.664077 ","2715","64","1","0","5/13/2021 12:00:00 AM","2019","31365","NYTIMES-USCENSUS"
"5/14/2021 12:00:00 AM","Calhoun County","South Carolina","South","South Atlantic","45017","33.67478","-80.780347 ","1320","37","0","0","5/13/2021 12:00:00 AM","2019","14553","NYTIMES-USCENSUS"
"5/14/2021 12:00:00 AM","Franklin County","Ohio","Midwest","East North Central","39049","39.969875","-83.009086 ","126561","1406","113","6","5/13/2021 12:00:00 AM","2019","1316756","NYTIMES-USCENSUS"
"5/14/2021 12:00:00 AM","Tom Green County","Texas","South","West South Central","48451","31.398823","-100.463788 ","16833","269","1","0","5/13/2021 12:00:00 AM","2019","119200","NYTIMES-USCENSUS"
"5/14/2021 12:00:00 AM","Floyd County","Kentucky","South","East South Central","21071","37.552456","-82.739724 ","3422","69","3","0","5/13/2021 12:00:00 AM","2019","35589","NYTIMES-USCENSUS"
"5/14/2021 12:00:00 AM","Hampton city","Virginia","South","South Atlantic","51650","37.047961","-76.297293 ","10453","178","9","0","5/13/2021 12:00:00 AM","2019","134510","NYTIMES-USCENSUS"
"5/14/2021 12:00:00 AM","Sequatchie County","Tennessee","South","East South Central","47153","35.372336","-85.410082 ","1718","29","2","0","5/13/2021 12:00:00 AM","2019","15026","NYTIMES-USCENSUS"
"5/14/2021 12:00:00 AM","Buena Vista city","Virginia","South","South Atlantic","51530","37.729345","-79.358134 ","908","20","1","0","5/13/2021 12:00:00 AM","2019","6478","NYTIMES-USCENSUS"
"5/14/2021 12:00:00 AM","Washington County","Iowa","Midwest","West North Central","19183","41.329401","-91.725052 ","2541","50","-1","0","5/13/2021 12:00:00 AM","2019","21965","NYTIMES-USCENSUS"
"5/14/2021 12:00:00 AM","Norton County","Kansas","Midwest","West North Central","20137","39.783867","-99.899235 ","1221","27","0","0","5/13/2021 12:00:00 AM","2019","5361","NYTIMES-USCENSUS"
"5/14/2021 12:00:00 AM","Crawford County","Georgia","South","South Atlantic","13079","32.709428","-83.979187 ","659","19","0","0","5/13/2021 12:00:00 AM","2019","12404","NYTIMES-USCENSUS"
"5/14/2021 12:00:00 AM","Newton County","Missouri","Midwest","West North Central","29145","36.908371","-94.335034 ","5317","77","4","0","5/13/2021 12:00:00 AM","2019","58236","NYTIMES-USCENSUS"
"5/14/2021 12:00:00 AM","Athens County","Ohio","Midwest","East North Central","39009","39.332755","-82.045885 ","5204","58","0","0","5/13/2021 12:00:00 AM","2019","65327","NYTIMES-USCENSUS"
"5/14/2021 12:00:00 AM","Centre County","Pennsylvania","Northeast","Middle Atlantic","42027","40.909128","-77.847877 ","16666","221","11","0","5/13/2021 12:00:00 AM","2019","162385","NYTIMES-USCENSUS"
"5/14/2021 12:00:00 AM","Grant County","West Virginia","South","South Atlantic","54023","39.105988","-79.195064 ","1281","28","2","1","5/13/2021 12:00:00 AM","2019","11568","NYTIMES-USCENSUS"
"5/14/2021 12:00:00 AM","Dunklin County","Missouri","Midwest","West North Central","29069","36.153025","-90.062254 ","2839","22","4","0","5/13/2021 12:00:00 AM","2019","29131","NYTIMES-USCENSUS"
"5/14/2021 12:00:00 AM","Clay County","South Dakota","Midwest","West North Central","46027","42.91615","-96.980468 ","1921","15","-1","0","5/13/2021 12:00:00 AM","2019","14070","NYTIMES-USCENSUS"
"5/14/2021 12:00:00 AM","Chelan County","Washington","West","Pacific","53007","47.860974","-120.619041 ","6895","67","18","0","5/13/2021 12:00:00 AM","2019","77200","NYTIMES-USCENSUS"
"5/14/2021 12:00:00 AM","Broomfield County","Colorado","West","Mountain","08014","39.953593","-105.050787 ","4809","75","6","0","5/13/2021 12:00:00 AM","2019","70465","NYTIMES-USCENSUS"
"5/14/2021 12:00:00 AM","Windham County","Connecticut","Northeast","New England","09015","41.824999","-71.990702 ","10783","193","8","0","5/13/2021 12:00:00 AM","2019","116782","NYTIMES-USCENSUS"
"5/14/2021 12:00:00 AM","Grant County","Kansas","Midwest","West North Central","20067","37.547537","-101.299362 ","978","18","0","0","5/13/2021 12:00:00 AM","2019","7150","NYTIMES-USCENSUS"
"5/14/2021 12:00:00 AM","Benson County","North Dakota","Midwest","West North Central","38005","48.071743","-99.351152 ","1093","19","0","1","5/13/2021 12:00:00 AM","2019","6832","NYTIMES-USCENSUS"
"5/14/2021 12:00:00 AM","Owen County","Indiana","Midwest","East North Central","18119","39.317339","-86.838845 ","2024","58","2","0","5/13/2021 12:00:00 AM","2019","20799","NYTIMES-USCENSUS"
"5/14/2021 12:00:00 AM","Buncombe County","North Carolina","South","South Atlantic","37021","35.609371","-82.530423 ","17737","326","22","0","5/13/2021 12:00:00 AM","2019","261191","NYTIMES-USCENSUS"
"5/14/2021 12:00:00 AM","Butler County","Missouri","Midwest","West North Central","29023","36.71518","-90.40313 ","4189","43","1","0","5/13/2021 12:00:00 AM","2019","42478","NYTIMES-USCENSUS"
"5/14/2021 12:00:00 AM","Williamson County","Illinois","Midwest","East North Central","17199","37.730353","-88.930018 ","7433","142","5","1","5/13/2021 12:00:00 AM","2019","66597","NYTIMES-USCENSUS"
"5/14/2021 12:00:00 AM","Bottineau County","North Dakota","Midwest","West North Central","38009","48.794412","-100.831257 ","716","20","1","0","5/13/2021 12:00:00 AM","2019","6282","NYTIMES-USCENSUS"
"5/14/2021 12:00:00 AM","Scotland County","Missouri","Midwest","West North Central","29199","40.447686","-92.142824 ","305","3","0","0","5/13/2021 12:00:00 AM","2019","4902","NYTIMES-USCENSUS"
"5/14/2021 12:00:00 AM","Starke County","Indiana","Midwest","East North Central","18149","41.284478","-86.644636 ","2181","56","7","0","5/13/2021 12:00:00 AM","2019","22995","NYTIMES-USCENSUS"
"5/14/2021 12:00:00 AM","Marshall County","Iowa","Midwest","West North Central","19127","42.0417","-92.981403 ","4830","75","1","0","5/13/2021 12:00:00 AM","2019","39369","NYTIMES-USCENSUS"
"5/14/2021 12:00:00 AM","Mason County","Texas","South","West South Central","48319","30.703916","-99.237302 ","401","6","0","0","5/13/2021 12:00:00 AM","2019","4274","NYTIMES-USCENSUS"
"5/14/2021 12:00:00 AM","Montgomery County","Virginia","South","South Atlantic","51121","37.175538","-80.387794 ","9371","96","2","1","5/13/2021 12:00:00 AM","2019","98535","NYTIMES-USCENSUS"
"5/14/2021 12:00:00 AM","Placer County","California","West","Pacific","06061","39.062032","-120.722718 ","22679","292","0","0","5/13/2021 12:00:00 AM","2019","398329","NYTIMES-USCENSUS"
"5/14/2021 12:00:00 AM","Allen Parish","Louisiana","South","West South Central","22003","30.652744","-92.819605 ","3192","92","0","0","5/13/2021 12:00:00 AM","2019","25627","NYTIMES-USCENSUS"
"5/14/2021 12:00:00 AM","Hamblen County","Tennessee","South","East South Central","47063","36.218397","-83.266071 ","8632","173","1","0","5/13/2021 12:00:00 AM","2019","64934","NYTIMES-USCENSUS"
"5/14/2021 12:00:00 AM","Norton city","Virginia","South","South Atlantic","51720","36.931549","-82.625996 ","286","7","2","0","5/13/2021 12:00:00 AM","2019","3981","NYTIMES-USCENSUS"
"5/14/2021 12:00:00 AM","Decatur County","Tennessee","South","East South Central","47039","35.603136","-88.110292 ","1593","39","1","0","5/13/2021 12:00:00 AM","2019","11663","NYTIMES-USCENSUS"
"5/14/2021 12:00:00 AM","Mitchell County","Kansas","Midwest","West North Central","20123","39.393026","-98.207362 ","562","18","1","0","5/13/2021 12:00:00 AM","2019","5979","NYTIMES-USCENSUS"
"5/14/2021 12:00:00 AM","Washita County","Oklahoma","South","West South Central","40149","35.289497","-98.991436 ","1083","22","0","0","5/13/2021 12:00:00 AM","2019","10916","NYTIMES-USCENSUS"
"5/14/2021 12:00:00 AM","Seminole County","Georgia","South","South Atlantic","13253","30.93396","-84.867685 ","955","19","-1","0","5/13/2021 12:00:00 AM","2019","8090","NYTIMES-USCENSUS"
"5/14/2021 12:00:00 AM","Warren County","Mississippi","South","East South Central","28149","32.356095","-90.852384 ","4393","121","0","0","5/13/2021 12:00:00 AM","2019","45381","NYTIMES-USCENSUS"
"5/14/2021 12:00:00 AM","Evangeline Parish","Louisiana","South","West South Central","22039","30.720693","-92.404086 ","3614","93","2","0","5/13/2021 12:00:00 AM","2019","33395","NYTIMES-USCENSUS"
"5/14/2021 12:00:00 AM","Bryan County","Oklahoma","South","West South Central","40013","33.964004","-96.265135 ","6109","72","0","0","5/13/2021 12:00:00 AM","2019","47995","NYTIMES-USCENSUS"
"5/14/2021 12:00:00 AM","Giles County","Virginia","South","South Atlantic","51071","37.318072","-80.698321 ","1282","22","2","0","5/13/2021 12:00:00 AM","2019","16720","NYTIMES-USCENSUS"
"5/14/2021 12:00:00 AM","Douglas County","Colorado","West","Mountain","08035","39.325414","-104.925987 ","29472","255","61","0","5/13/2021 12:00:00 AM","2019","351154","NYTIMES-USCENSUS"
"5/14/2021 12:00:00 AM","Johnson County","Tennessee","South","East South Central","47091","36.453203","-81.861247 ","2419","39","2","0","5/13/2021 12:00:00 AM","2019","17788","NYTIMES-USCENSUS"
"5/14/2021 12:00:00 AM","Lancaster County","Virginia","South","South Atlantic","51103","37.704843","-76.412663 ","713","16","0","0","5/13/2021 12:00:00 AM","2019","10603","NYTIMES-USCENSUS"
"5/14/2021 12:00:00 AM","Ottawa County","Oklahoma","South","West South Central","40115","36.835764","-94.802681 ","3902","66","0","0","5/13/2021 12:00:00 AM","2019","31127","NYTIMES-USCENSUS"
"5/14/2021 12:00:00 AM","Pike County","Arkansas","South","West South Central","05109","34.158191","-93.658659 ","1012","22","0","0","5/13/2021 12:00:00 AM","2019","10718","NYTIMES-USCENSUS"
"5/14/2021 12:00:00 AM","Schoharie County","New York","Northeast","Middle Atlantic","36095","42.591294","-74.438172 ","1660","16","5","0","5/13/2021 12:00:00 AM","2019","30999","NYTIMES-USCENSUS"
"5/14/2021 12:00:00 AM","Deaf Smith County","Texas","South","West South Central","48117","34.940766","-102.607564 ","2816","66","0","0","5/13/2021 12:00:00 AM","2019","18546","NYTIMES-USCENSUS"
"5/14/2021 12:00:00 AM","Gillespie County","Texas","South","West South Central","48171","30.325093","-98.94185 ","2560","50","2","0","5/13/2021 12:00:00 AM","2019","26988","NYTIMES-USCENSUS"
"5/14/2021 12:00:00 AM","Kern County","California","West","Pacific","06029","35.346629","-118.729506 ","109186","1374","9","0","5/13/2021 12:00:00 AM","2019","900202","NYTIMES-USCENSUS"
"5/14/2021 12:00:00 AM","Jackson County","North Carolina","South","South Atlantic","37099","35.285454","-83.123966 ","3601","56","0","0","5/13/2021 12:00:00 AM","2019","43938","NYTIMES-USCENSUS"
"5/14/2021 12:00:00 AM","Simpson County","Kentucky","South","East South Central","21213","36.740937","-86.581793 ","2117","38","-1","0","5/13/2021 12:00:00 AM","2019","18572","NYTIMES-USCENSUS"
"5/14/2021 12:00:00 AM","Catahoula Parish","Louisiana","South","West South Central","22025","31.666517","-91.846703 ","1159","38","-2","0","5/13/2021 12:00:00 AM","2019","9494","NYTIMES-USCENSUS"
"5/14/2021 12:00:00 AM","Chattahoochee County","Georgia","South","South Atlantic","13053","32.347445","-84.788021 ","4057","15","11","0","5/13/2021 12:00:00 AM","2019","10907","NYTIMES-USCENSUS"
"5/14/2021 12:00:00 AM","Cabell County","West Virginia","South","South Atlantic","54011","38.419578","-82.243397 ","8711","171","10","0","5/13/2021 12:00:00 AM","2019","91945","NYTIMES-USCENSUS"
"5/14/2021 12:00:00 AM","Crisp County","Georgia","South","South Atlantic","13081","31.920268","-83.75653 ","2098","80","2","0","5/13/2021 12:00:00 AM","2019","22372","NYTIMES-USCENSUS"
"5/14/2021 12:00:00 AM","Morgan County","Illinois","Midwest","East North Central","17137","39.717668","-90.205005 ","3994","103","2","1","5/13/2021 12:00:00 AM","2019","33658","NYTIMES-USCENSUS"
"5/14/2021 12:00:00 AM","Polk County","Texas","South","West South Central","48373","30.784553","-94.837338 ","3331","114","0","0","5/13/2021 12:00:00 AM","2019","51353","NYTIMES-USCENSUS"
"5/14/2021 12:00:00 AM","Bertie County","North Carolina","South","South Atlantic","37015","36.059043","-76.962364 ","1768","43","3","0","5/13/2021 12:00:00 AM","2019","18947","NYTIMES-USCENSUS"
"5/14/2021 12:00:00 AM","Pike County","Pennsylvania","Northeast","Middle Atlantic","42103","41.325949","-75.031514 ","3907","54","11","0","5/13/2021 12:00:00 AM","2019","55809","NYTIMES-USCENSUS"
"5/14/2021 12:00:00 AM","Crawford County","Arkansas","South","West South Central","05033","35.583011","-94.236219 ","7085","119","0","0","5/13/2021 12:00:00 AM","2019","63257","NYTIMES-USCENSUS"
"5/14/2021 12:00:00 AM","Livingston County","Missouri","Midwest","West North Central","29117","39.778587","-93.548201 ","1682","42","6","0","5/13/2021 12:00:00 AM","2019","15227","NYTIMES-USCENSUS"
"5/14/2021 12:00:00 AM","Clinton County","Michigan","Midwest","East North Central","26037","42.950455","-84.591695 ","7456","85","14","0","5/13/2021 12:00:00 AM","2019","79595","NYTIMES-USCENSUS"
"5/14/2021 12:00:00 AM","Jasper County","South Carolina","South","South Atlantic","45053","32.43059","-81.021627 ","2352","45","4","0","5/13/2021 12:00:00 AM","2019","30073","NYTIMES-USCENSUS"
"5/14/2021 12:00:00 AM","Bullock County","Alabama","South","East South Central","01011","32.101759","-85.717261 ","1230","41","2","0","5/13/2021 12:00:00 AM","2019","10101","NYTIMES-USCENSUS"
"5/14/2021 12:00:00 AM","Brunswick County","Virginia","South","South Atlantic","51025","36.764204","-77.861483 ","1314","22","2","0","5/13/2021 12:00:00 AM","2019","16231","NYTIMES-USCENSUS"
"5/14/2021 12:00:00 AM","Montgomery County","Georgia","South","South Atlantic","13209","32.172108","-82.533349 ","894","23","2","0","5/13/2021 12:00:00 AM","2019","9172","NYTIMES-USCENSUS"
"5/14/2021 12:00:00 AM","Martin County","North Carolina","South","South Atlantic","37117","35.847301","-77.119602 ","2247","40","2","0","5/13/2021 12:00:00 AM","2019","22440","NYTIMES-USCENSUS"
"5/14/2021 12:00:00 AM","Fannin County","Georgia","South","South Atlantic","13111","34.866543","-84.317331 ","2399","72","2","0","5/13/2021 12:00:00 AM","2019","26188","NYTIMES-USCENSUS"
"5/14/2021 12:00:00 AM","Saline County","Nebraska","Midwest","West North Central","31151","40.516802","-97.131755 ","2038","2","0","0","5/13/2021 12:00:00 AM","2019","14224","NYTIMES-USCENSUS"
"5/14/2021 12:00:00 AM","Dyer County","Tennessee","South","East South Central","47045","36.054196","-89.398306 ","5440","106","0","0","5/13/2021 12:00:00 AM","2019","37159","NYTIMES-USCENSUS"
"5/14/2021 12:00:00 AM","Warren County","Kentucky","South","East South Central","21227","36.995634","-86.423579 ","16013","171","17","0","5/13/2021 12:00:00 AM","2019","132896","NYTIMES-USCENSUS"
"5/14/2021 12:00:00 AM","Glynn County","Georgia","South","South Atlantic","13127","31.21271","-81.49645 ","8202","173","7","0","5/13/2021 12:00:00 AM","2019","85292","NYTIMES-USCENSUS"
"5/14/2021 12:00:00 AM","Bradley County","Tennessee","South","East South Central","47011","35.153914","-84.859414 ","15100","151","4","0","5/13/2021 12:00:00 AM","2019","108110","NYTIMES-USCENSUS"
"5/14/2021 12:00:00 AM","Putnam County","Florida","South","South Atlantic","12107","29.593896","-81.732039 ","6584","152","12","0","5/13/2021 12:00:00 AM","2019","74521","NYTIMES-USCENSUS"
"5/14/2021 12:00:00 AM","Desha County","Arkansas","South","West South Central","05041","33.828752","-91.244103 ","1363","24","0","0","5/13/2021 12:00:00 AM","2019","11361","NYTIMES-USCENSUS"
"5/14/2021 12:00:00 AM","De Soto Parish","Louisiana","South","West South Central","22031","32.059248","-93.740797 ","2793","78","6","0","5/13/2021 12:00:00 AM","2019","27463","NYTIMES-USCENSUS"
"5/14/2021 12:00:00 AM","Harrison County","Ohio","Midwest","East North Central","39067","40.292318","-81.091565 ","1092","37","2","0","5/13/2021 12:00:00 AM","2019","15040","NYTIMES-USCENSUS"
"5/14/2021 12:00:00 AM","Carver County","Minnesota","Midwest","West North Central","27019","44.82132","-93.800091 ","10491","45","16","0","5/13/2021 12:00:00 AM","2019","105089","NYTIMES-USCENSUS"
"5/14/2021 12:00:00 AM","Heard County","Georgia","South","South Atlantic","13149","33.291347","-85.137886 ","880","20","0","0","5/13/2021 12:00:00 AM","2019","11923","NYTIMES-USCENSUS"
"5/14/2021 12:00:00 AM","Marion County","Alabama","South","East South Central","01093","34.138219","-87.881551 ","3137","101","7","0","5/13/2021 12:00:00 AM","2019","29709","NYTIMES-USCENSUS"
"5/14/2021 12:00:00 AM","Lincoln County","Idaho","West","Mountain","16063","42.990782","-114.153089 ","508","11","0","0","5/13/2021 12:00:00 AM","2019","5366","NYTIMES-USCENSUS"
"5/14/2021 12:00:00 AM","Schuyler County","Missouri","Midwest","West North Central","29197","40.469361","-92.519016 ","338","7","0","0","5/13/2021 12:00:00 AM","2019","4660","NYTIMES-USCENSUS"
"5/14/2021 12:00:00 AM","Bremer County","Iowa","Midwest","West North Central","19017","42.780895","-92.327356 ","2846","60","3","0","5/13/2021 12:00:00 AM","2019","25062","NYTIMES-USCENSUS"
"5/14/2021 12:00:00 AM","Colusa County","California","West","Pacific","06011","39.177739","-122.237563 ","2234","16","1","0","5/13/2021 12:00:00 AM","2019","21547","NYTIMES-USCENSUS"
"5/14/2021 12:00:00 AM","Lewis County","Tennessee","South","East South Central","47101","35.523244","-87.496983 ","1584","26","1","0","5/13/2021 12:00:00 AM","2019","12268","NYTIMES-USCENSUS"
"5/14/2021 12:00:00 AM","White County","Illinois","Midwest","East North Central","17193","38.087326","-88.178623 ","1697","36","1","0","5/13/2021 12:00:00 AM","2019","13537","NYTIMES-USCENSUS"
"5/14/2021 12:00:00 AM","Atchison County","Missouri","Midwest","West North Central","29005","40.431846","-95.437555 ","455","6","0","0","5/13/2021 12:00:00 AM","2019","5143","NYTIMES-USCENSUS"
"5/14/2021 12:00:00 AM","Washington County","Colorado","West","Mountain","08121","39.96579","-103.209744 ","456","13","0","0","5/13/2021 12:00:00 AM","2019","4908","NYTIMES-USCENSUS"
"5/14/2021 12:00:00 AM","Ohio County","Kentucky","South","East South Central","21183","37.477859","-86.844871 ","2473","55","3","0","5/13/2021 12:00:00 AM","2019","23994","NYTIMES-USCENSUS"
"5/14/2021 12:00:00 AM","Harrison County","Texas","South","West South Central","48203","32.547991","-94.374434 ","4875","109","2","0","5/13/2021 12:00:00 AM","2019","66553","NYTIMES-USCENSUS"
"5/14/2021 12:00:00 AM","Wright County","Missouri","Midwest","West North Central","29229","37.267633","-92.479989 ","1589","32","5","0","5/13/2021 12:00:00 AM","2019","18289","NYTIMES-USCENSUS"
"5/14/2021 12:00:00 AM","Valley County","Nebraska","Midwest","West North Central","31175","41.564094","-98.983484 ","329","2","0","0","5/13/2021 12:00:00 AM","2019","4158","NYTIMES-USCENSUS"
"5/14/2021 12:00:00 AM","Washington County","Illinois","Midwest","East North Central","17189","38.35314","-89.417187 ","1645","31","0","0","5/13/2021 12:00:00 AM","2019","13887","NYTIMES-USCENSUS"
"5/14/2021 12:00:00 AM","Clearwater County","Minnesota","Midwest","West North Central","27029","47.575873","-95.371117 ","868","16","2","0","5/13/2021 12:00:00 AM","2019","8818","NYTIMES-USCENSUS"
"5/14/2021 12:00:00 AM","Runnels County","Texas","South","West South Central","48399","31.845119","-99.982715 ","1291","37","0","0","5/13/2021 12:00:00 AM","2019","10264","NYTIMES-USCENSUS"
"5/14/2021 12:00:00 AM","Brown County","Ohio","Midwest","East North Central","39015","38.931377","-83.866772 ","3966","57","6","0","5/13/2021 12:00:00 AM","2019","43432","NYTIMES-USCENSUS"
"5/14/2021 12:00:00 AM","Ste. Genevieve County","Missouri","Midwest","West North Central","29186","37.885845","-90.161531 ","1818","16","0","0","5/13/2021 12:00:00 AM","2019","17894","NYTIMES-USCENSUS"
"5/14/2021 12:00:00 AM","Tuscola County","Michigan","Midwest","East North Central","26157","43.487902","-83.436618 ","5576","168","6","0","5/13/2021 12:00:00 AM","2019","52245","NYTIMES-USCENSUS"
"5/14/2021 12:00:00 AM","Frederick County","Virginia","South","South Atlantic","51069","39.20366","-78.263829 ","7960","100","12","0","5/13/2021 12:00:00 AM","2019","89313","NYTIMES-USCENSUS"
"5/14/2021 12:00:00 AM","Iberia Parish","Louisiana","South","West South Central","22045","29.606013","-91.842706 ","7145","153","11","0","5/13/2021 12:00:00 AM","2019","69830","NYTIMES-USCENSUS"
"5/14/2021 12:00:00 AM","Carroll County","Georgia","South","South Atlantic","13045","33.582237","-85.080527 ","11425","242","8","0","5/13/2021 12:00:00 AM","2019","119992","NYTIMES-USCENSUS"
"5/14/2021 12:00:00 AM","Divide County","North Dakota","Midwest","West North Central","38023","48.814754","-103.509326 ","181","2","0","0","5/13/2021 12:00:00 AM","2019","2264","NYTIMES-USCENSUS"
"5/14/2021 12:00:00 AM","Box Butte County","Nebraska","Midwest","West North Central","31013","42.21038","-103.081779 ","937","11","0","0","5/13/2021 12:00:00 AM","2019","10783","NYTIMES-USCENSUS"
"5/14/2021 12:00:00 AM","Kearny County","Kansas","Midwest","West North Central","20093","37.994461","-101.308136 ","570","10","0","0","5/13/2021 12:00:00 AM","2019","3838","NYTIMES-USCENSUS"
"5/14/2021 12:00:00 AM","West Feliciana Parish","Louisiana","South","West South Central","22125","30.873364","-91.421776 ","1158","34","-11","0","5/13/2021 12:00:00 AM","2019","15568","NYTIMES-USCENSUS"
"5/14/2021 12:00:00 AM","Spotsylvania County","Virginia","South","South Atlantic","51177","38.182431","-77.657226 ","9976","118","13","1","5/13/2021 12:00:00 AM","2019","136215","NYTIMES-USCENSUS"
"5/14/2021 12:00:00 AM","Payette County","Idaho","West","Mountain","16075","44.00243","-116.750238 ","2570","37","5","0","5/13/2021 12:00:00 AM","2019","23951","NYTIMES-USCENSUS"
"5/14/2021 12:00:00 AM","Johnson County","Indiana","Midwest","East North Central","18081","39.496092","-86.094264 ","18094","397","21","2","5/13/2021 12:00:00 AM","2019","158167","NYTIMES-USCENSUS"
"5/14/2021 12:00:00 AM","Johnson County","Georgia","South","South Atlantic","13167","32.694584","-82.66397 ","1124","49","0","0","5/13/2021 12:00:00 AM","2019","9643","NYTIMES-USCENSUS"
"5/14/2021 12:00:00 AM","Childress County","Texas","South","West South Central","48075","34.524624","-100.208166 ","1378","17","-2","0","5/13/2021 12:00:00 AM","2019","7306","NYTIMES-USCENSUS"
"5/14/2021 12:00:00 AM","Jefferson County","Alabama","South","East South Central","01073","33.553444","-86.896536 ","79169","1529","2026","1","5/13/2021 12:00:00 AM","2019","658573","NYTIMES-USCENSUS"
"5/14/2021 12:00:00 AM","Fulton County","Ohio","Midwest","East North Central","39051","41.597264","-84.124267 ","4259","69","8","0","5/13/2021 12:00:00 AM","2019","42126","NYTIMES-USCENSUS"
"5/14/2021 12:00:00 AM","Ashland County","Wisconsin","Midwest","East North Central","55003","46.544424","-90.679691 ","1362","15","0","0","5/13/2021 12:00:00 AM","2019","15562","NYTIMES-USCENSUS"
"5/14/2021 12:00:00 AM","Clarke County","Georgia","South","South Atlantic","13059","33.952185","-83.367152 ","15087","145","8","1","5/13/2021 12:00:00 AM","2019","128331","NYTIMES-USCENSUS"
"5/14/2021 12:00:00 AM","Chickasaw County","Iowa","Midwest","West North Central","19037","43.059741","-92.31721 ","1241","16","1","1","5/13/2021 12:00:00 AM","2019","11933","NYTIMES-USCENSUS"
"5/14/2021 12:00:00 AM","Edwards County","Illinois","Midwest","East North Central","17047","38.417095","-88.047941 ","571","13","2","0","5/13/2021 12:00:00 AM","2019","6395","NYTIMES-USCENSUS"
"5/14/2021 12:00:00 AM","Floyd County","Texas","South","West South Central","48153","34.07373","-101.303274 ","853","30","0","0","5/13/2021 12:00:00 AM","2019","5712","NYTIMES-USCENSUS"
"5/14/2021 12:00:00 AM","Fulton County","Illinois","Midwest","East North Central","17057","40.46524","-90.202269 ","3927","64","8","1","5/13/2021 12:00:00 AM","2019","34340","NYTIMES-USCENSUS"
"5/14/2021 12:00:00 AM","Scott County","Arkansas","South","West South Central","05127","34.858869","-94.063641 ","938","14","0","0","5/13/2021 12:00:00 AM","2019","10281","NYTIMES-USCENSUS"
"5/14/2021 12:00:00 AM","Lewis County","Kentucky","South","East South Central","21135","38.535047","-83.370143 ","1336","35","3","0","5/13/2021 12:00:00 AM","2019","13275","NYTIMES-USCENSUS"
"5/14/2021 12:00:00 AM","Henry County","Indiana","Midwest","East North Central","18065","39.929591","-85.397363 ","5781","106","9","1","5/13/2021 12:00:00 AM","2019","47972","NYTIMES-USCENSUS"
"5/14/2021 12:00:00 AM","Cameron County","Texas","South","West South Central","48061","26.102923","-97.478958 ","40789","1641","15","1","5/13/2021 12:00:00 AM","2019","423163","NYTIMES-USCENSUS"
"5/14/2021 12:00:00 AM","Lyon County","Kentucky","South","East South Central","21143","37.023976","-88.083391 ","1535","19","1","0","5/13/2021 12:00:00 AM","2019","8210","NYTIMES-USCENSUS"
"5/14/2021 12:00:00 AM","Concordia Parish","Louisiana","South","West South Central","22029","31.469805","-91.626315 ","1868","61","0","0","5/13/2021 12:00:00 AM","2019","19259","NYTIMES-USCENSUS"
"5/14/2021 12:00:00 AM","King William County","Virginia","South","South Atlantic","51101","37.70826","-77.091054 ","1223","12","1","1","5/13/2021 12:00:00 AM","2019","17148","NYTIMES-USCENSUS"
"5/14/2021 12:00:00 AM","Madison County","Idaho","West","Mountain","16065","43.788614","-111.656993 ","7205","28","4","0","5/13/2021 12:00:00 AM","2019","39907","NYTIMES-USCENSUS"
"5/14/2021 12:00:00 AM","Tyler County","Texas","South","West South Central","48457","30.769295","-94.375656 ","1326","41","0","0","5/13/2021 12:00:00 AM","2019","21672","NYTIMES-USCENSUS"
"5/14/2021 12:00:00 AM","Windham County","Vermont","Northeast","New England","50025","42.995335","-72.721955 ","1353","14","3","0","5/13/2021 12:00:00 AM","2019","42222","NYTIMES-USCENSUS"
"5/14/2021 12:00:00 AM","Leslie County","Kentucky","South","East South Central","21131","37.087846","-83.388617 ","918","8","0","0","5/13/2021 12:00:00 AM","2019","9877","NYTIMES-USCENSUS"
"5/14/2021 12:00:00 AM","Clinton County","Pennsylvania","Northeast","Middle Atlantic","42035","41.239508","-77.629009 ","3626","63","7","0","5/13/2021 12:00:00 AM","2019","38632","NYTIMES-USCENSUS"
"5/14/2021 12:00:00 AM","Sullivan County","Indiana","Midwest","East North Central","18153","39.089225","-87.415843 ","2125","42","1","0","5/13/2021 12:00:00 AM","2019","20669","NYTIMES-USCENSUS"
"5/14/2021 12:00:00 AM","Rutland County","Vermont","Northeast","New England","50021","43.580858","-73.038202 ","2200","20","9","0","5/13/2021 12:00:00 AM","2019","58191","NYTIMES-USCENSUS"
"5/14/2021 12:00:00 AM","Hamilton County","Tennessee","South","East South Central","47065","35.163472","-85.201843 ","44733","496","25","0","5/13/2021 12:00:00 AM","2019","367804","NYTIMES-USCENSUS"
"5/14/2021 12:00:00 AM","Wayne County","Mississippi","South","East South Central","28153","31.642503","-88.678214 ","2628","41","2","0","5/13/2021 12:00:00 AM","2019","20183","NYTIMES-USCENSUS"
"5/14/2021 12:00:00 AM","Warren County","New Jersey","Northeast","Middle Atlantic","34041","40.853491","-75.009498 ","9857","235","10","0","5/13/2021 12:00:00 AM","2019","105267","NYTIMES-USCENSUS"
"5/14/2021 12:00:00 AM","St. Tammany Parish","Louisiana","South","West South Central","22103","30.410022","-89.951962 ","25775","525","16","1","5/13/2021 12:00:00 AM","2019","260419","NYTIMES-USCENSUS"
"5/14/2021 12:00:00 AM","Union County","Tennessee","South","East South Central","47173","36.28414","-83.836088 ","1922","34","6","0","5/13/2021 12:00:00 AM","2019","19972","NYTIMES-USCENSUS"
"5/14/2021 12:00:00 AM","Calloway County","Kentucky","South","East South Central","21035","36.620978","-88.274086 ","3524","51","0","0","5/13/2021 12:00:00 AM","2019","39001","NYTIMES-USCENSUS"
"5/14/2021 12:00:00 AM","Idaho County","Idaho","West","Mountain","16049","45.849644","-115.467337 ","1253","18","2","0","5/13/2021 12:00:00 AM","2019","16667","NYTIMES-USCENSUS"
"5/14/2021 12:00:00 AM","Gosper County","Nebraska","Midwest","West North Central","31073","40.509095","-99.823206 ","183","5","0","0","5/13/2021 12:00:00 AM","2019","1990","NYTIMES-USCENSUS"
"5/14/2021 12:00:00 AM","Ramsey County","Minnesota","Midwest","West North Central","27123","45.015204","-93.099965 ","51369","875","157","0","5/13/2021 12:00:00 AM","2019","550321","NYTIMES-USCENSUS"
"5/14/2021 12:00:00 AM","Bell County","Kentucky","South","East South Central","21013","36.728928","-83.680718 ","3108","54","1","0","5/13/2021 12:00:00 AM","2019","26032","NYTIMES-USCENSUS"
"5/14/2021 12:00:00 AM","Hamilton County","Kansas","Midwest","West North Central","20075","37.995244","-101.793689 ","202","1","0","0","5/13/2021 12:00:00 AM","2019","2539","NYTIMES-USCENSUS"
"5/14/2021 12:00:00 AM","Henry County","Iowa","Midwest","West North Central","19087","40.984802","-91.547259 ","2917","37","2","0","5/13/2021 12:00:00 AM","2019","19954","NYTIMES-USCENSUS"
"5/14/2021 12:00:00 AM","Howard County","Texas","South","West South Central","48227","32.30343","-101.438721 ","4654","101","2","0","5/13/2021 12:00:00 AM","2019","36664","NYTIMES-USCENSUS"
"5/14/2021 12:00:00 AM","Lawrence County","Ohio","Midwest","East North Central","39087","38.603866","-82.517186 ","5583","102","5","0","5/13/2021 12:00:00 AM","2019","59463","NYTIMES-USCENSUS"
"5/14/2021 12:00:00 AM","Louisa County","Virginia","South","South Atlantic","51109","37.972704","-77.959795 ","1972","32","1","0","5/13/2021 12:00:00 AM","2019","37591","NYTIMES-USCENSUS"
"5/14/2021 12:00:00 AM","Newton County","Indiana","Midwest","East North Central","18111","40.962399","-87.402172 ","1085","36","2","0","5/13/2021 12:00:00 AM","2019","13984","NYTIMES-USCENSUS"
"5/14/2021 12:00:00 AM","Baltimore County","Maryland","South","South Atlantic","24005","39.443167","-76.616569 ","64918","1504","75","2","5/13/2021 12:00:00 AM","2019","827370","NYTIMES-USCENSUS"
"5/14/2021 12:00:00 AM","Walker County","Alabama","South","East South Central","01127","33.791558","-87.301094 ","7259","277","13","0","5/13/2021 12:00:00 AM","2019","63521","NYTIMES-USCENSUS"
"5/14/2021 12:00:00 AM","Crockett County","Tennessee","South","East South Central","47033","35.818795","-89.132494 ","2035","49","0","0","5/13/2021 12:00:00 AM","2019","14230","NYTIMES-USCENSUS"
"5/14/2021 12:00:00 AM","Churchill County","Nevada","West","Mountain","32001","39.53771","-118.264166 ","2055","49","0","0","5/13/2021 12:00:00 AM","2019","24909","NYTIMES-USCENSUS"
"5/14/2021 12:00:00 AM","El Paso County","Colorado","West","Mountain","08041","38.827383","-104.527472 ","67407","813","252","-1","5/13/2021 12:00:00 AM","2019","720403","NYTIMES-USCENSUS"
"5/14/2021 12:00:00 AM","Wyandot County","Ohio","Midwest","East North Central","39175","40.839782","-83.313681 ","2320","55","2","0","5/13/2021 12:00:00 AM","2019","21772","NYTIMES-USCENSUS"
"5/14/2021 12:00:00 AM","Lincoln County","New Mexico","West","Mountain","35027","33.740841","-105.449805 ","1705","19","3","0","5/13/2021 12:00:00 AM","2019","19572","NYTIMES-USCENSUS"
"5/14/2021 12:00:00 AM","Iredell County","North Carolina","South","South Atlantic","37097","35.806251","-80.874524 ","18820","208","17","0","5/13/2021 12:00:00 AM","2019","181806","NYTIMES-USCENSUS"
"5/14/2021 12:00:00 AM","Cape May County","New Jersey","Northeast","Middle Atlantic","34009","39.085841","-74.846354 ","9100","205","10","1","5/13/2021 12:00:00 AM","2019","92039","NYTIMES-USCENSUS"
"5/14/2021 12:00:00 AM","Clackamas County","Oregon","West","Pacific","41005","45.160493","-122.195127 ","17554","216","114","2","5/13/2021 12:00:00 AM","2019","418187","NYTIMES-USCENSUS"
"5/14/2021 12:00:00 AM","Coke County","Texas","South","West South Central","48081","31.87711","-100.635231 ","467","13","0","1","5/13/2021 12:00:00 AM","2019","3387","NYTIMES-USCENSUS"
"5/14/2021 12:00:00 AM","Orleans Parish","Louisiana","South","West South Central","22071","30.05342","-89.934502 ","30239","792","35","0","5/13/2021 12:00:00 AM","2019","390144","NYTIMES-USCENSUS"
"5/14/2021 12:00:00 AM","Prince William County","Virginia","South","South Atlantic","51153","38.701119","-77.479579 ","45070","490","-28","1","5/13/2021 12:00:00 AM","2019","470335","NYTIMES-USCENSUS"
"5/14/2021 12:00:00 AM","Bledsoe County","Tennessee","South","East South Central","47007","35.593561","-85.20591 ","2158","11","2","0","5/13/2021 12:00:00 AM","2019","15064","NYTIMES-USCENSUS"
"5/14/2021 12:00:00 AM","Grant County","North Dakota","Midwest","West North Central","38037","46.357827","-101.639049 ","210","7","1","0","5/13/2021 12:00:00 AM","2019","2274","NYTIMES-USCENSUS"
"5/14/2021 12:00:00 AM","Lincoln County","Oklahoma","South","West South Central","40081","35.703117","-96.881392 ","3245","71","0","0","5/13/2021 12:00:00 AM","2019","34877","NYTIMES-USCENSUS"
"5/14/2021 12:00:00 AM","Smith County","Texas","South","West South Central","48423","32.377016","-95.270041 ","20334","473","47","1","5/13/2021 12:00:00 AM","2019","232751","NYTIMES-USCENSUS"
"5/14/2021 12:00:00 AM","Blaine County","Idaho","West","Mountain","16013","43.394192","-113.955371 ","2377","18","0","0","5/13/2021 12:00:00 AM","2019","23021","NYTIMES-USCENSUS"
"5/14/2021 12:00:00 AM","La Crosse County","Wisconsin","Midwest","East North Central","55063","43.908222","-91.111758 ","13601","88","11","0","5/13/2021 12:00:00 AM","2019","118016","NYTIMES-USCENSUS"
"5/14/2021 12:00:00 AM","Union County","Indiana","Midwest","East North Central","18161","39.623111","-84.925152 ","739","11","1","0","5/13/2021 12:00:00 AM","2019","7054","NYTIMES-USCENSUS"
"5/14/2021 12:00:00 AM","Colleton County","South Carolina","South","South Atlantic","45029","32.835018","-80.655244 ","3629","127","7","0","5/13/2021 12:00:00 AM","2019","37677","NYTIMES-USCENSUS"
"5/14/2021 12:00:00 AM","Red Willow County","Nebraska","Midwest","West North Central","31145","40.16942","-100.468576 ","1209","15","0","0","5/13/2021 12:00:00 AM","2019","10724","NYTIMES-USCENSUS"
"5/14/2021 12:00:00 AM","St. Mary Parish","Louisiana","South","West South Central","22101","29.629349","-91.463804 ","4753","138","15","0","5/13/2021 12:00:00 AM","2019","49348","NYTIMES-USCENSUS"
"5/14/2021 12:00:00 AM","Morgan County","Ohio","Midwest","East North Central","39115","39.624946","-81.861697 ","1085","23","0","0","5/13/2021 12:00:00 AM","2019","14508","NYTIMES-USCENSUS"
"5/14/2021 12:00:00 AM","Carroll County","Mississippi","South","East South Central","28015","33.440795","-89.918887 ","1218","29","0","0","5/13/2021 12:00:00 AM","2019","9947","NYTIMES-USCENSUS"
"5/14/2021 12:00:00 AM","Fremont County","Iowa","Midwest","West North Central","19071","40.74259","-95.599182 ","622","9","0","0","5/13/2021 12:00:00 AM","2019","6960","NYTIMES-USCENSUS"
"5/14/2021 12:00:00 AM","Glasscock County","Texas","South","West South Central","48173","31.868006","-101.521494 ","104","2","0","0","5/13/2021 12:00:00 AM","2019","1409","NYTIMES-USCENSUS"
"5/14/2021 12:00:00 AM","Hamilton County","New York","Northeast","Middle Atlantic","36041","43.657879","-74.502456 ","307","2","0","0","5/13/2021 12:00:00 AM","2019","4416","NYTIMES-USCENSUS"
"5/14/2021 12:00:00 AM","Gooding County","Idaho","West","Mountain","16047","42.973185","-114.82142 ","1316","23","1","0","5/13/2021 12:00:00 AM","2019","15179","NYTIMES-USCENSUS"
"5/14/2021 12:00:00 AM","Lake County","Indiana","Midwest","East North Central","18089","41.472247","-87.374337 ","54101","1016","89","0","5/13/2021 12:00:00 AM","2019","485493","NYTIMES-USCENSUS"
"5/14/2021 12:00:00 AM","Vermilion Parish","Louisiana","South","West South Central","22113","29.789722","-92.291568 ","5424","119","-3","0","5/13/2021 12:00:00 AM","2019","59511","NYTIMES-USCENSUS"
"5/14/2021 12:00:00 AM","DeWitt County","Texas","South","West South Central","48123","29.082346","-97.361654 ","1931","59","1","0","5/13/2021 12:00:00 AM","2019","20160","NYTIMES-USCENSUS"
"5/14/2021 12:00:00 AM","Jim Wells County","Texas","South","West South Central","48249","27.733516","-98.090814 ","4290","102","5","0","5/13/2021 12:00:00 AM","2019","40482","NYTIMES-USCENSUS"
"5/14/2021 12:00:00 AM","Yazoo County","Mississippi","South","East South Central","28163","32.765675","-90.387928 ","3117","70","1","1","5/13/2021 12:00:00 AM","2019","29690","NYTIMES-USCENSUS"
"5/14/2021 12:00:00 AM","Anne Arundel County","Maryland","South","South Atlantic","24003","38.991617","-76.560894 ","43373","608","58","2","5/13/2021 12:00:00 AM","2019","579234","NYTIMES-USCENSUS"
"5/14/2021 12:00:00 AM","Johnson County","Iowa","Midwest","West North Central","19103","41.670668","-91.590529 ","14483","83","8","0","5/13/2021 12:00:00 AM","2019","151140","NYTIMES-USCENSUS"
"5/14/2021 12:00:00 AM","Yukon-Koyukuk Census Area","Alaska","West","Pacific","02290","65.375727","-151.57785 ","363","4","0","0","5/13/2021 12:00:00 AM","2019","5230","NYTIMES-USCENSUS"
"5/14/2021 12:00:00 AM","Erath County","Texas","South","West South Central","48143","32.236661","-98.220507 ","4196","69","0","0","5/13/2021 12:00:00 AM","2019","42698","NYTIMES-USCENSUS"
"5/14/2021 12:00:00 AM","Perry County","Tennessee","South","East South Central","47135","35.663752","-87.869326 ","1072","28","1","0","5/13/2021 12:00:00 AM","2019","8076","NYTIMES-USCENSUS"
"5/14/2021 12:00:00 AM","Gunnison County","Colorado","West","Mountain","08051","38.670499","-107.05688 ","1338","6","2","0","5/13/2021 12:00:00 AM","2019","17462","NYTIMES-USCENSUS"
"5/14/2021 12:00:00 AM","Grundy County","Illinois","Midwest","East North Central","17063","41.29241","-88.401054 ","5893","79","6","0","5/13/2021 12:00:00 AM","2019","51054","NYTIMES-USCENSUS"
"5/14/2021 12:00:00 AM","Henry County","Alabama","South","East South Central","01067","31.516978","-85.239971 ","1896","44","6","0","5/13/2021 12:00:00 AM","2019","17205","NYTIMES-USCENSUS"
"5/14/2021 12:00:00 AM","Bleckley County","Georgia","South","South Atlantic","13023","32.435403","-83.331717 ","1477","51","0","0","5/13/2021 12:00:00 AM","2019","12873","NYTIMES-USCENSUS"
"5/14/2021 12:00:00 AM","Wake County","North Carolina","South","South Atlantic","37183","35.789846","-78.650624 ","94750","732","0","0","5/13/2021 12:00:00 AM","2019","1111761","NYTIMES-USCENSUS"
"5/14/2021 12:00:00 AM","Rockingham County","North Carolina","South","South Atlantic","37157","36.381806","-79.782754 ","7668","110","57","0","5/13/2021 12:00:00 AM","2019","91010","NYTIMES-USCENSUS"
"5/14/2021 12:00:00 AM","Green Lake County","Wisconsin","Midwest","East North Central","55047","43.780247","-88.97038 ","2015","22","1","0","5/13/2021 12:00:00 AM","2019","18913","NYTIMES-USCENSUS"
"5/14/2021 12:00:00 AM","Jefferson County","Idaho","West","Mountain","16051","43.796965","-112.318588 ","3004","28","0","0","5/13/2021 12:00:00 AM","2019","29871","NYTIMES-USCENSUS"
"5/14/2021 12:00:00 AM","Beaufort County","North Carolina","South","South Atlantic","37013","35.482313","-76.842014 ","4614","95","9","0","5/13/2021 12:00:00 AM","2019","46994","NYTIMES-USCENSUS"
"5/14/2021 12:00:00 AM","Ouachita County","Arkansas","South","West South Central","05103","33.591168","-92.878413 ","2313","63","0","0","5/13/2021 12:00:00 AM","2019","23382","NYTIMES-USCENSUS"
"5/14/2021 12:00:00 AM","Rusk County","Wisconsin","Midwest","East North Central","55107","45.472734","-91.136745 ","1382","18","8","0","5/13/2021 12:00:00 AM","2019","14178","NYTIMES-USCENSUS"
"5/14/2021 12:00:00 AM","McLennan County","Texas","South","West South Central","48309","31.549596","-97.201511 ","27244","472","20","1","5/13/2021 12:00:00 AM","2019","256623","NYTIMES-USCENSUS"
"5/14/2021 12:00:00 AM","Florence County","South Carolina","South","South Atlantic","45041","34.028535","-79.710233 ","17752","415","10","0","5/13/2021 12:00:00 AM","2019","138293","NYTIMES-USCENSUS"
"5/14/2021 12:00:00 AM","Tripp County","South Dakota","Midwest","West North Central","46123","43.349729","-99.876219 ","755","17","0","0","5/13/2021 12:00:00 AM","2019","5441","NYTIMES-USCENSUS"
"5/14/2021 12:00:00 AM","Providence County","Rhode Island","Northeast","New England","44007","41.869768","-71.578625 ","97640","1971","0","0","5/13/2021 12:00:00 AM","2019","638931","NYTIMES-USCENSUS"
"5/14/2021 12:00:00 AM","Jasper County","Mississippi","South","East South Central","28061","32.016748","-89.119176 ","2211","48","0","0","5/13/2021 12:00:00 AM","2019","16383","NYTIMES-USCENSUS"
"5/14/2021 12:00:00 AM","Westmoreland County","Pennsylvania","Northeast","Middle Atlantic","42129","40.311068","-79.466688 ","33547","753","40","1","5/13/2021 12:00:00 AM","2019","348899","NYTIMES-USCENSUS"
"5/14/2021 12:00:00 AM","Millard County","Utah","West","Mountain","49027","38.956744","-113.133092 ","1438","14","1","0","5/13/2021 12:00:00 AM","2019","13188","NYTIMES-USCENSUS"
"5/14/2021 12:00:00 AM","Cheyenne County","Colorado","West","Mountain","08017","38.835646","-102.601791 ","128","6","0","0","5/13/2021 12:00:00 AM","2019","1831","NYTIMES-USCENSUS"
"5/14/2021 12:00:00 AM","Richland County","Illinois","Midwest","East North Central","17159","38.712187","-88.085452 ","1750","49","-1","0","5/13/2021 12:00:00 AM","2019","15513","NYTIMES-USCENSUS"
"5/14/2021 12:00:00 AM","Clinton County","New York","Northeast","Middle Atlantic","36019","44.752712","-73.705643 ","4789","33","5","0","5/13/2021 12:00:00 AM","2019","80485","NYTIMES-USCENSUS"
"5/14/2021 12:00:00 AM","Lake County","Ohio","Midwest","East North Central","39085","41.778142","-81.19733 ","20791","371","26","2","5/13/2021 12:00:00 AM","2019","230149","NYTIMES-USCENSUS"
"5/14/2021 12:00:00 AM","Burleson County","Texas","South","West South Central","48051","30.493487","-96.622091 ","2418","48","-2","0","5/13/2021 12:00:00 AM","2019","18443","NYTIMES-USCENSUS"
"5/14/2021 12:00:00 AM","McDowell County","West Virginia","South","South Atlantic","54047","37.38276","-81.658204 ","1576","24","3","1","5/13/2021 12:00:00 AM","2019","17624","NYTIMES-USCENSUS"
"5/14/2021 12:00:00 AM","Bell County","Texas","South","West South Central","48027","31.04275","-97.481268 ","22582","434","16","0","5/13/2021 12:00:00 AM","2019","362924","NYTIMES-USCENSUS"
"5/14/2021 12:00:00 AM","Cumberland County","Virginia","South","South Atlantic","51049","37.520189","-78.252836 ","494","9","1","0","5/13/2021 12:00:00 AM","2019","9932","NYTIMES-USCENSUS"
"5/14/2021 12:00:00 AM","Ohio County","Indiana","Midwest","East North Central","18115","38.940527","-84.964299 ","571","11","0","0","5/13/2021 12:00:00 AM","2019","5875","NYTIMES-USCENSUS"
"5/14/2021 12:00:00 AM","Meriwether County","Georgia","South","South Atlantic","13199","33.029267","-84.667058 ","2024","85","1","0","5/13/2021 12:00:00 AM","2019","21167","NYTIMES-USCENSUS"
"5/14/2021 12:00:00 AM","Hot Spring County","Arkansas","South","West South Central","05059","34.315177","-92.944147 ","5140","74","14","1","5/13/2021 12:00:00 AM","2019","33771","NYTIMES-USCENSUS"
"5/14/2021 12:00:00 AM","Geneva County","Alabama","South","East South Central","01061","31.092382","-85.821022 ","2525","77","11","0","5/13/2021 12:00:00 AM","2019","26271","NYTIMES-USCENSUS"
"5/14/2021 12:00:00 AM","Alcona County","Michigan","Midwest","East North Central","26001","44.657509","-83.29458 ","726","29","0","0","5/13/2021 12:00:00 AM","2019","10405","NYTIMES-USCENSUS"
"5/14/2021 12:00:00 AM","Worth County","Missouri","Midwest","West North Central","29227","40.480499","-94.419198 ","162","2","0","0","5/13/2021 12:00:00 AM","2019","2013","NYTIMES-USCENSUS"
"5/14/2021 12:00:00 AM","Somerset County","Maine","Northeast","New England","23025","45.503646","-69.95611 ","2073","30","8","0","5/13/2021 12:00:00 AM","2019","50484","NYTIMES-USCENSUS"
"5/14/2021 12:00:00 AM","Bailey County","Texas","South","West South Central","48017","34.067521","-102.830345 ","823","19","0","0","5/13/2021 12:00:00 AM","2019","7000","NYTIMES-USCENSUS"
"5/14/2021 12:00:00 AM","Pickens County","Georgia","South","South Atlantic","13227","34.456746","-84.490351 ","3476","79","6","0","5/13/2021 12:00:00 AM","2019","32591","NYTIMES-USCENSUS"
"5/14/2021 12:00:00 AM","Henderson County","Illinois","Midwest","East North Central","17071","40.814471","-90.941246 ","525","23","0","0","5/13/2021 12:00:00 AM","2019","6646","NYTIMES-USCENSUS"
"5/14/2021 12:00:00 AM","Washington County","Maryland","South","South Atlantic","24043","39.603621","-77.814671 ","14421","280","5","0","5/13/2021 12:00:00 AM","2019","151049","NYTIMES-USCENSUS"
"5/14/2021 12:00:00 AM","Webster County","Missouri","Midwest","West North Central","29225","37.280804","-92.87608 ","3599","54","3","0","5/13/2021 12:00:00 AM","2019","39592","NYTIMES-USCENSUS"
"5/14/2021 12:00:00 AM","Waldo County","Maine","Northeast","New England","23027","44.505822","-69.138961 ","944","20","14","0","5/13/2021 12:00:00 AM","2019","39715","NYTIMES-USCENSUS"
"5/14/2021 12:00:00 AM","Todd County","Kentucky","South","East South Central","21219","36.840338","-87.183642 ","1146","26","2","0","5/13/2021 12:00:00 AM","2019","12294","NYTIMES-USCENSUS"
"5/14/2021 12:00:00 AM","Freestone County","Texas","South","West South Central","48161","31.701749","-96.144957 ","1924","50","1","0","5/13/2021 12:00:00 AM","2019","19717","NYTIMES-USCENSUS"
"5/14/2021 12:00:00 AM","Alleghany County","Virginia","South","South Atlantic","51005","37.787905","-80.008669 ","1349","48","7","0","5/13/2021 12:00:00 AM","2019","14860","NYTIMES-USCENSUS"
"5/14/2021 12:00:00 AM","Andrew County","Missouri","Midwest","West North Central","29003","39.988863","-94.803551 ","1862","20","1","0","5/13/2021 12:00:00 AM","2019","17712","NYTIMES-USCENSUS"
"5/14/2021 12:00:00 AM","Roanoke County","Virginia","South","South Atlantic","51161","37.330792","-80.191237 ","8241","144","2","0","5/13/2021 12:00:00 AM","2019","94186","NYTIMES-USCENSUS"
"5/14/2021 12:00:00 AM","Breckinridge County","Kentucky","South","East South Central","21027","37.777988","-86.432919 ","1283","16","0","0","5/13/2021 12:00:00 AM","2019","20477","NYTIMES-USCENSUS"
"5/14/2021 12:00:00 AM","Radford city","Virginia","South","South Atlantic","51750","37.120119","-80.559147 ","2145","18","1","0","5/13/2021 12:00:00 AM","2019","18249","NYTIMES-USCENSUS"
"5/14/2021 12:00:00 AM","Anderson County","Texas","South","West South Central","48001","31.841261","-95.661727 ","6212","123","11","0","5/13/2021 12:00:00 AM","2019","57735","NYTIMES-USCENSUS"
"5/14/2021 12:00:00 AM","Stephens County","Texas","South","West South Central","48429","32.738052","-98.839344 ","809","26","0","0","5/13/2021 12:00:00 AM","2019","9366","NYTIMES-USCENSUS"
"5/14/2021 12:00:00 AM","Ralls County","Missouri","Midwest","West North Central","29173","39.553455","-91.524787 ","1061","12","1","0","5/13/2021 12:00:00 AM","2019","10309","NYTIMES-USCENSUS"
"5/14/2021 12:00:00 AM","Graham County","Arizona","West","Mountain","04009","32.931828","-109.87831 ","5607","81","36","1","5/13/2021 12:00:00 AM","2019","38837","NYTIMES-USCENSUS"
"5/14/2021 12:00:00 AM","Ventura County","California","West","Pacific","06111","34.358748","-119.133145 ","81033","1016","32","3","5/13/2021 12:00:00 AM","2019","846006","NYTIMES-USCENSUS"
"5/14/2021 12:00:00 AM","Hamilton County","Ohio","Midwest","East North Central","39061","39.196927","-84.544187 ","80328","1211","44","5","5/13/2021 12:00:00 AM","2019","817473","NYTIMES-USCENSUS"
"5/14/2021 12:00:00 AM","Montague County","Texas","South","West South Central","48337","33.678356","-97.725014 ","2089","71","1","0","5/13/2021 12:00:00 AM","2019","19818","NYTIMES-USCENSUS"
"5/14/2021 12:00:00 AM","McKean County","Pennsylvania","Northeast","Middle Atlantic","42083","41.81459","-78.572463 ","3672","69","10","0","5/13/2021 12:00:00 AM","2019","40625","NYTIMES-USCENSUS"
"5/14/2021 12:00:00 AM","Arthur County","Nebraska","Midwest","West North Central","31005","41.57193","-101.695917 ","22","1","0","0","5/13/2021 12:00:00 AM","2019","463","NYTIMES-USCENSUS"
"5/14/2021 12:00:00 AM","Lawrence County","Pennsylvania","Northeast","Middle Atlantic","42073","40.992735","-80.334446 ","7425","207","13","0","5/13/2021 12:00:00 AM","2019","85512","NYTIMES-USCENSUS"
"5/14/2021 12:00:00 AM","Randolph County","Arkansas","South","West South Central","05121","36.341298","-91.028441 ","2132","47","2","0","5/13/2021 12:00:00 AM","2019","17958","NYTIMES-USCENSUS"
"5/14/2021 12:00:00 AM","DeSoto County","Mississippi","South","East South Central","28033","34.874922","-89.991211 ","21646","260","20","1","5/13/2021 12:00:00 AM","2019","184945","NYTIMES-USCENSUS"
"5/14/2021 12:00:00 AM","Sunflower County","Mississippi","South","East South Central","28133","33.605529","-90.59509 ","3362","90","2","0","5/13/2021 12:00:00 AM","2019","25110","NYTIMES-USCENSUS"
"5/14/2021 12:00:00 AM","Hancock County","Indiana","Midwest","East North Central","18059","39.822529","-85.77315 ","8349","146","15","1","5/13/2021 12:00:00 AM","2019","78168","NYTIMES-USCENSUS"
"5/14/2021 12:00:00 AM","Bureau County","Illinois","Midwest","East North Central","17011","41.401304","-89.528377 ","3720","95","4","0","5/13/2021 12:00:00 AM","2019","32628","NYTIMES-USCENSUS"
"5/14/2021 12:00:00 AM","Monroe County","Alabama","South","East South Central","01099","31.580332","-87.383266 ","1781","40","1","0","5/13/2021 12:00:00 AM","2019","20733","NYTIMES-USCENSUS"
"5/14/2021 12:00:00 AM","Hoke County","North Carolina","South","South Atlantic","37093","35.017233","-79.241964 ","4682","55","6","0","5/13/2021 12:00:00 AM","2019","55234","NYTIMES-USCENSUS"
"5/14/2021 12:00:00 AM","Coleman County","Texas","South","West South Central","48083","31.914205","-99.346622 ","749","33","0","0","5/13/2021 12:00:00 AM","2019","8175","NYTIMES-USCENSUS"
"5/14/2021 12:00:00 AM","Wilkinson County","Georgia","South","South Atlantic","13319","32.804266","-83.175512 ","929","28","0","0","5/13/2021 12:00:00 AM","2019","8954","NYTIMES-USCENSUS"
"5/14/2021 12:00:00 AM","Gregory County","South Dakota","Midwest","West North Central","46053","43.175142","-99.206591 ","579","30","-1","0","5/13/2021 12:00:00 AM","2019","4185","NYTIMES-USCENSUS"
"5/14/2021 12:00:00 AM","Madison County","Kentucky","South","East South Central","21151","37.725511","-84.278362 ","9352","109","3","0","5/13/2021 12:00:00 AM","2019","92987","NYTIMES-USCENSUS"
"5/14/2021 12:00:00 AM","Cleburne County","Alabama","South","East South Central","01029","33.671964","-85.516126 ","1492","41","1","0","5/13/2021 12:00:00 AM","2019","14910","NYTIMES-USCENSUS"
"5/14/2021 12:00:00 AM","Pottawattamie County","Iowa","Midwest","West North Central","19155","41.340184","-95.544905 ","11123","168","10","0","5/13/2021 12:00:00 AM","2019","93206","NYTIMES-USCENSUS"
"5/14/2021 12:00:00 AM","Johnson County","Kentucky","South","East South Central","21115","37.847756","-82.830121 ","1958","35","3","1","5/13/2021 12:00:00 AM","2019","22188","NYTIMES-USCENSUS"
"5/14/2021 12:00:00 AM","Racine County","Wisconsin","Midwest","East North Central","55101","42.780392","-87.771599 ","24963","377","19","0","5/13/2021 12:00:00 AM","2019","196311","NYTIMES-USCENSUS"
"5/14/2021 12:00:00 AM","Madison County","Nebraska","Midwest","West North Central","31119","41.909929","-97.606856 ","4295","42","0","0","5/13/2021 12:00:00 AM","2019","35099","NYTIMES-USCENSUS"
"5/14/2021 12:00:00 AM","Fauquier County","Virginia","South","South Atlantic","51061","38.744096","-77.8215 ","4669","69","6","1","5/13/2021 12:00:00 AM","2019","71222","NYTIMES-USCENSUS"
"5/14/2021 12:00:00 AM","Webster County","Iowa","Midwest","West North Central","19187","42.433579","-94.175831 ","5124","93","0","0","5/13/2021 12:00:00 AM","2019","35904","NYTIMES-USCENSUS"
"5/14/2021 12:00:00 AM","Philadelphia County","Pennsylvania","Northeast","Middle Atlantic","42101","40.009376","-75.133346 ","150796","3581","0","5","5/13/2021 12:00:00 AM","2019","1584064","NYTIMES-USCENSUS"
"5/14/2021 12:00:00 AM","San Juan County","New Mexico","West","Mountain","35045","36.511624","-108.324578 ","15070","473","36","1","5/13/2021 12:00:00 AM","2019","123958","NYTIMES-USCENSUS"
"5/14/2021 12:00:00 AM","Sierra County","California","West","Pacific","06091","39.576925","-120.521993 ","54","0","0","0","5/13/2021 12:00:00 AM","2019","3005","NYTIMES-USCENSUS"
"5/14/2021 12:00:00 AM","Richland County","Wisconsin","Midwest","East North Central","55103","43.376199","-90.435693 ","1380","15","3","0","5/13/2021 12:00:00 AM","2019","17252","NYTIMES-USCENSUS"
"5/14/2021 12:00:00 AM","Bent County","Colorado","West","Mountain","08011","37.931891","-103.077584 ","1535","21","2","0","5/13/2021 12:00:00 AM","2019","5577","NYTIMES-USCENSUS"
"5/14/2021 12:00:00 AM","Martin County","Indiana","Midwest","East North Central","18101","38.705322","-86.801847 ","896","15","5","0","5/13/2021 12:00:00 AM","2019","10255","NYTIMES-USCENSUS"
"5/14/2021 12:00:00 AM","Abbeville County","South Carolina","South","South Atlantic","45001","34.229041","-82.454058 ","2578","41","2","0","5/13/2021 12:00:00 AM","2019","24527","NYTIMES-USCENSUS"
"5/14/2021 12:00:00 AM","Beaver County","Pennsylvania","Northeast","Middle Atlantic","42007","40.68414","-80.350721 ","15161","380","36","0","5/13/2021 12:00:00 AM","2019","163929","NYTIMES-USCENSUS"
"5/14/2021 12:00:00 AM","Umatilla County","Oregon","West","Pacific","41059","45.5912","-118.73388 ","8219","84","17","0","5/13/2021 12:00:00 AM","2019","77950","NYTIMES-USCENSUS"
"5/14/2021 12:00:00 AM","Yuma County","Colorado","West","Mountain","08125","40.00077","-102.421649 ","911","17","1","0","5/13/2021 12:00:00 AM","2019","10019","NYTIMES-USCENSUS"
"5/14/2021 12:00:00 AM","Humboldt County","Nevada","West","Mountain","32013","41.407914","-118.127591 ","1178","14","0","0","5/13/2021 12:00:00 AM","2019","16831","NYTIMES-USCENSUS"
"5/14/2021 12:00:00 AM","McPherson County","South Dakota","Midwest","West North Central","46089","45.784249","-99.211421 ","246","4","0","0","5/13/2021 12:00:00 AM","2019","2379","NYTIMES-USCENSUS"
"5/14/2021 12:00:00 AM","Wyoming County","Pennsylvania","Northeast","Middle Atlantic","42131","41.525173","-76.008731 ","1891","50","6","1","5/13/2021 12:00:00 AM","2019","26794","NYTIMES-USCENSUS"
"5/14/2021 12:00:00 AM","Stevens County","Kansas","Midwest","West North Central","20189","37.2017","-101.317268 ","586","10","0","0","5/13/2021 12:00:00 AM","2019","5485","NYTIMES-USCENSUS"
"5/14/2021 12:00:00 AM","Wright County","Iowa","Midwest","West North Central","19197","42.733007","-93.734735 ","1847","37","2","0","5/13/2021 12:00:00 AM","2019","12562","NYTIMES-USCENSUS"
"5/14/2021 12:00:00 AM","Yolo County","California","West","Pacific","06113","38.679609","-121.90275 ","13914","210","4","0","5/13/2021 12:00:00 AM","2019","220500","NYTIMES-USCENSUS"
"5/14/2021 12:00:00 AM","Edmonson County","Kentucky","South","East South Central","21061","37.227514","-86.218015 ","914","23","1","0","5/13/2021 12:00:00 AM","2019","12150","NYTIMES-USCENSUS"
"5/14/2021 12:00:00 AM","Perry County","Illinois","Midwest","East North Central","17145","38.084381","-89.368525 ","3175","69","6","0","5/13/2021 12:00:00 AM","2019","20916","NYTIMES-USCENSUS"
"5/14/2021 12:00:00 AM","Knox County","Tennessee","South","East South Central","47093","35.992726","-83.937721 ","52047","636","28","0","5/13/2021 12:00:00 AM","2019","470313","NYTIMES-USCENSUS"
"5/14/2021 12:00:00 AM","Richmond County","North Carolina","South","South Atlantic","37153","35.004636","-79.755695 ","4664","93","0","0","5/13/2021 12:00:00 AM","2019","44829","NYTIMES-USCENSUS"
"5/14/2021 12:00:00 AM","Franklin County","Iowa","Midwest","West North Central","19069","42.736545","-93.271415 ","1205","21","5","0","5/13/2021 12:00:00 AM","2019","10070","NYTIMES-USCENSUS"
"5/14/2021 12:00:00 AM","Big Stone County","Minnesota","Midwest","West North Central","27011","45.419925","-96.402226 ","600","4","0","0","5/13/2021 12:00:00 AM","2019","4991","NYTIMES-USCENSUS"
"5/14/2021 12:00:00 AM","Sanilac County","Michigan","Midwest","East North Central","26151","43.449155","-82.642815 ","4193","110","2","0","5/13/2021 12:00:00 AM","2019","41170","NYTIMES-USCENSUS"
"5/14/2021 12:00:00 AM","Saratoga County","New York","Northeast","Middle Atlantic","36091","43.106135","-73.855387 ","15090","166","19","0","5/13/2021 12:00:00 AM","2019","229863","NYTIMES-USCENSUS"
"5/14/2021 12:00:00 AM","Conecuh County","Alabama","South","East South Central","01035","31.430926","-86.988722 ","1106","29","0","0","5/13/2021 12:00:00 AM","2019","12067","NYTIMES-USCENSUS"
"5/14/2021 12:00:00 AM","Harnett County","North Carolina","South","South Atlantic","37085","35.368635","-78.87161 ","11647","173","24","0","5/13/2021 12:00:00 AM","2019","135976","NYTIMES-USCENSUS"
"5/14/2021 12:00:00 AM","Pierce County","Georgia","South","South Atlantic","13229","31.353998","-82.21037 ","2490","57","3","0","5/13/2021 12:00:00 AM","2019","19465","NYTIMES-USCENSUS"
"5/14/2021 12:00:00 AM","Vinton County","Ohio","Midwest","East North Central","39163","39.252042","-82.485961 ","842","15","1","0","5/13/2021 12:00:00 AM","2019","13085","NYTIMES-USCENSUS"
"5/14/2021 12:00:00 AM","Chester County","Pennsylvania","Northeast","Middle Atlantic","42029","39.974029","-75.749751 ","40134","796","58","1","5/13/2021 12:00:00 AM","2019","524989","NYTIMES-USCENSUS"
"5/14/2021 12:00:00 AM","Madison County","Mississippi","South","East South Central","28089","32.63437","-90.03416 ","10113","217","14","0","5/13/2021 12:00:00 AM","2019","106272","NYTIMES-USCENSUS"
"5/14/2021 12:00:00 AM","San Juan County","Colorado","West","Mountain","08111","37.781049","-107.670257 ","47","0","0","0","5/13/2021 12:00:00 AM","2019","728","NYTIMES-USCENSUS"
"5/14/2021 12:00:00 AM","Silver Bow County","Montana","West","Mountain","30093","45.896232","-112.660071 ","4099","86","3","0","5/13/2021 12:00:00 AM","2019","34915","NYTIMES-USCENSUS"
"5/14/2021 12:00:00 AM","Bay County","Florida","South","South Atlantic","12005","30.15914","-85.534395 ","20349","392","25","0","5/13/2021 12:00:00 AM","2019","174705","NYTIMES-USCENSUS"
"5/14/2021 12:00:00 AM","Lyman County","South Dakota","Midwest","West North Central","46085","43.894812","-99.841925 ","653","11","1","0","5/13/2021 12:00:00 AM","2019","3781","NYTIMES-USCENSUS"
"5/14/2021 12:00:00 AM","Jefferson Davis Parish","Louisiana","South","West South Central","22053","30.269529","-92.816221 ","3176","97","5","0","5/13/2021 12:00:00 AM","2019","31368","NYTIMES-USCENSUS"
"5/14/2021 12:00:00 AM","St. Lawrence County","New York","Northeast","Middle Atlantic","36089","44.488112","-75.074311 ","6493","96","13","0","5/13/2021 12:00:00 AM","2019","107740","NYTIMES-USCENSUS"
"5/14/2021 12:00:00 AM","Maverick County","Texas","South","West South Central","48323","28.729787","-100.316678 ","10442","356","0","0","5/13/2021 12:00:00 AM","2019","58722","NYTIMES-USCENSUS"
"5/14/2021 12:00:00 AM","Geary County","Kansas","Midwest","West North Central","20061","39.002139","-96.7681 ","3419","40","7","0","5/13/2021 12:00:00 AM","2019","31670","NYTIMES-USCENSUS"
"5/14/2021 12:00:00 AM","Pierce County","Washington","West","Pacific","53053","47.051413","-122.15324 ","52769","668","702","-1","5/13/2021 12:00:00 AM","2019","904980","NYTIMES-USCENSUS"
"5/14/2021 12:00:00 AM","Clarke County","Virginia","South","South Atlantic","51043","39.115307","-77.990748 ","979","19","3","0","5/13/2021 12:00:00 AM","2019","14619","NYTIMES-USCENSUS"
"5/14/2021 12:00:00 AM","Freeborn County","Minnesota","Midwest","West North Central","27047","43.674202","-93.350289 ","3417","29","2","0","5/13/2021 12:00:00 AM","2019","30281","NYTIMES-USCENSUS"
"5/14/2021 12:00:00 AM","Vermillion County","Indiana","Midwest","East North Central","18165","39.854045","-87.462071 ","1698","43","1","0","5/13/2021 12:00:00 AM","2019","15498","NYTIMES-USCENSUS"
"5/14/2021 12:00:00 AM","Garland County","Arkansas","South","West South Central","05051","34.578852","-93.146932 ","10165","259","8","0","5/13/2021 12:00:00 AM","2019","99386","NYTIMES-USCENSUS"
"5/14/2021 12:00:00 AM","Berks County","Pennsylvania","Northeast","Middle Atlantic","42011","40.413957","-75.92686 ","47136","1012","101","2","5/13/2021 12:00:00 AM","2019","421164","NYTIMES-USCENSUS"
"5/14/2021 12:00:00 AM","Island County","Washington","West","Pacific","53029","48.158554","-122.670649 ","1738","30","11","0","5/13/2021 12:00:00 AM","2019","85141","NYTIMES-USCENSUS"
