"monitor_date","county","state_name","region","subregion","fips","latitude","longitude","case_count_to_date","death_count_to_date","case_count","death_count","previous_monitor_date","population_year","population","source"
"8/29/2022 12:00:00 AM","Adair County","Iowa","Midwest","West North Central","19001","41.328528","-94.478164 ","1688","51","1688","51","","2019","7152","NYTIMES-USCENSUS"
"8/29/2022 12:00:00 AM","West Feliciana Parish","Louisiana","South","West South Central","22125","30.873364","-91.421776 ","3078","48","3078","48","","2019","15568","NYTIMES-USCENSUS"
"8/29/2022 12:00:00 AM","West Carroll Parish","Louisiana","South","West South Central","22123","32.79248","-91.451998 ","4243","70","4243","70","","2019","10830","NYTIMES-USCENSUS"
"8/29/2022 12:00:00 AM","West Baton Rouge Parish","Louisiana","South","West South Central","22121","30.464052","-91.309808 ","8357","93","8357","93","","2019","26465","NYTIMES-USCENSUS"
"8/29/2022 12:00:00 AM","Wells County","Indiana","Midwest","East North Central","18179","40.735273","-85.212974 ","7028","136","7028","136","","2019","28296","NYTIMES-USCENSUS"
"8/29/2022 12:00:00 AM","Weld County","Colorado","West","Mountain","08123","40.555961","-104.383666 ","98225","723","98225","723","","2019","324492","NYTIMES-USCENSUS"
"8/29/2022 12:00:00 AM","Webster Parish","Louisiana","South","West South Central","22119","32.732152","-93.339825 ","13272","192","13272","192","","2019","38340","NYTIMES-USCENSUS"
"8/29/2022 12:00:00 AM","Webster County","Georgia","South","South Atlantic","13307","32.046691","-84.553828 ","502","9","502","9","","2019","2607","NYTIMES-USCENSUS"
"8/29/2022 12:00:00 AM","Weber County","Utah","West","Mountain","49057","41.270325","-111.876883 ","79356","457","79356","457","","2019","260213","NYTIMES-USCENSUS"
"8/29/2022 12:00:00 AM","Webb County","Texas","South","West South Central","48479","27.760799","-99.340752 ","104640","1053","104640","1053","","2019","276652","NYTIMES-USCENSUS"
"8/29/2022 12:00:00 AM","Weakley County","Tennessee","South","East South Central","47183","36.303596","-88.721194 ","10519","167","10519","167","","2019","33328","NYTIMES-USCENSUS"
"8/29/2022 12:00:00 AM","Waynesboro city","Virginia","South","South Atlantic","51820","38.067157","-78.90142 ","6400","70","6400","70","","2019","22630","NYTIMES-USCENSUS"
"8/29/2022 12:00:00 AM","Wayne County","Kentucky","South","East South Central","21231","36.800772","-84.82659 ","6998","97","6998","97","","2019","20333","NYTIMES-USCENSUS"
"8/29/2022 12:00:00 AM","Waushara County","Wisconsin","Midwest","East North Central","55137","44.112823","-89.239786 ","7083","88","7083","88","","2019","24443","NYTIMES-USCENSUS"
"8/29/2022 12:00:00 AM","Waupaca County","Wisconsin","Midwest","East North Central","55135","44.478004","-88.967005 ","15016","257","15016","257","","2019","50990","NYTIMES-USCENSUS"
"8/29/2022 12:00:00 AM","Waukesha County","Wisconsin","Midwest","East North Central","55133","43.018368","-88.30424 ","128644","1142","128644","1142","","2019","404198","NYTIMES-USCENSUS"
"8/29/2022 12:00:00 AM","Watonwan County","Minnesota","Midwest","West North Central","27165","43.978109","-94.613798 ","3198","24","3198","24","","2019","10897","NYTIMES-USCENSUS"
"8/29/2022 12:00:00 AM","Watauga County","North Carolina","South","South Atlantic","37189","36.235368","-81.709888 ","13304","72","13304","72","","2019","56177","NYTIMES-USCENSUS"
"8/29/2022 12:00:00 AM","Washtenaw County","Michigan","Midwest","East North Central","26161","42.252217","-83.843423 ","98163","566","98163","566","","2019","367601","NYTIMES-USCENSUS"
"8/29/2022 12:00:00 AM","Washoe County","Nevada","West","Mountain","32031","40.73132","-119.663269 ","120611","1267","120611","1267","","2019","471519","NYTIMES-USCENSUS"
"8/29/2022 12:00:00 AM","Washita County","Oklahoma","South","West South Central","40149","35.289497","-98.991436 ","2898","56","2898","56","","2019","10916","NYTIMES-USCENSUS"
"8/29/2022 12:00:00 AM","Washington Parish","Louisiana","South","West South Central","22117","30.852144","-90.046253 ","15031","263","15031","263","","2019","46194","NYTIMES-USCENSUS"
"8/29/2022 12:00:00 AM","Washington County","Maine","Northeast","New England","23029","44.967009","-67.609354 ","5009","60","5009","60","","2019","31379","NYTIMES-USCENSUS"
"8/29/2022 12:00:00 AM","Washburn County","Wisconsin","Midwest","East North Central","55129","45.892489","-91.796422 ","4592","47","4592","47","","2019","15720","NYTIMES-USCENSUS"
"8/29/2022 12:00:00 AM","Washakie County","Wyoming","West","Mountain","56043","43.878831","-107.669052 ","2615","47","2615","47","","2019","7805","NYTIMES-USCENSUS"
"8/29/2022 12:00:00 AM","Waseca County","Minnesota","Midwest","West North Central","27161","44.01846","-93.589844 ","6000","39","6000","39","","2019","18612","NYTIMES-USCENSUS"
"8/29/2022 12:00:00 AM","Wasco County","Oregon","West","Pacific","41065","45.164536","-121.165069 ","6190","68","6190","68","","2019","26682","NYTIMES-USCENSUS"
"8/29/2022 12:00:00 AM","Wasatch County","Utah","West","Mountain","49051","40.334884","-111.161568 ","11622","37","11622","37","","2019","34091","NYTIMES-USCENSUS"
"8/29/2022 12:00:00 AM","Warrick County","Indiana","Midwest","East North Central","18173","38.097728","-87.272049 ","22816","245","22816","245","","2019","62998","NYTIMES-USCENSUS"
"8/29/2022 12:00:00 AM","Toombs County","Georgia","South","South Atlantic","13279","32.117753","-82.330597 ","7654","208","7654","208","","2019","26830","NYTIMES-USCENSUS"
"8/29/2022 12:00:00 AM","Toole County","Montana","West","Mountain","30101","48.645125","-111.733472 ","1333","25","1333","25","","2019","4736","NYTIMES-USCENSUS"
"8/29/2022 12:00:00 AM","Tooele County","Utah","West","Mountain","49045","40.467753","-113.123979 ","23604","108","23604","108","","2019","72259","NYTIMES-USCENSUS"
"8/29/2022 12:00:00 AM","Tompkins County","New York","Northeast","Middle Atlantic","36109","42.453006","-76.473483 ","23922","91","23922","91","","2019","102180","NYTIMES-USCENSUS"
"8/29/2022 12:00:00 AM","Tom Green County","Texas","South","West South Central","48451","31.398823","-100.463788 ","46619","557","46619","557","","2019","119200","NYTIMES-USCENSUS"
"8/29/2022 12:00:00 AM","Tolland County","Connecticut","Northeast","New England","09013","41.858081","-72.340978 ","24891","291","24891","291","","2019","150721","NYTIMES-USCENSUS"
"8/29/2022 12:00:00 AM","Todd County","Minnesota","Midwest","West North Central","27153","46.066569","-94.900576 ","7690","63","7690","63","","2019","24664","NYTIMES-USCENSUS"
"8/29/2022 12:00:00 AM","Titus County","Texas","South","West South Central","48449","33.214599","-94.966783 ","9516","130","9516","130","","2019","32750","NYTIMES-USCENSUS"
"8/29/2022 12:00:00 AM","Tishomingo County","Mississippi","South","East South Central","28141","34.738835","-88.234827 ","6936","122","6936","122","","2019","19383","NYTIMES-USCENSUS"
"8/29/2022 12:00:00 AM","Tipton County","Indiana","Midwest","East North Central","18159","40.310229","-86.056207 ","3790","89","3790","89","","2019","15148","NYTIMES-USCENSUS"
"8/29/2022 12:00:00 AM","Tippecanoe County","Indiana","Midwest","East North Central","18157","40.389133","-86.893554 ","56810","422","56810","422","","2019","195732","NYTIMES-USCENSUS"
"8/29/2022 12:00:00 AM","Tippah County","Mississippi","South","East South Central","28139","34.763618","-88.918819 ","8187","109","8187","109","","2019","22015","NYTIMES-USCENSUS"
"8/29/2022 12:00:00 AM","Tioga County","Pennsylvania","Northeast","Middle Atlantic","42117","41.766859","-77.257288 ","9027","200","9027","200","","2019","40591","NYTIMES-USCENSUS"
"8/29/2022 12:00:00 AM","Tillman County","Oklahoma","South","West South Central","40141","34.371085","-98.931701 ","1673","36","1673","36","","2019","7250","NYTIMES-USCENSUS"
"8/29/2022 12:00:00 AM","Tillamook County","Oregon","West","Pacific","41057","45.45589","-123.759299 ","4612","73","4612","73","","2019","27036","NYTIMES-USCENSUS"
"8/29/2022 12:00:00 AM","Caldwell County","Kentucky","South","East South Central","21033","37.148642","-87.870509 ","4624","63","4624","63","","2019","12747","NYTIMES-USCENSUS"
"8/29/2022 12:00:00 AM","Caldwell County","Texas","South","West South Central","48055","29.832399","-97.628141 ","16540","182","16540","182","","2019","43664","NYTIMES-USCENSUS"
"8/29/2022 12:00:00 AM","Butte County","South Dakota","Midwest","West North Central","46019","44.896226","-103.501436 ","3002","47","3002","47","","2019","10429","NYTIMES-USCENSUS"
"8/29/2022 12:00:00 AM","Bristol County","Rhode Island","Northeast","New England","44001","41.70684","-71.286687 ","16100","181","16100","181","","2019","48479","NYTIMES-USCENSUS"
"8/29/2022 12:00:00 AM","Bradley County","Arkansas","South","West South Central","05011","33.466549","-92.169156 ","3342","54","3342","54","","2019","10763","NYTIMES-USCENSUS"
"8/29/2022 12:00:00 AM","Bradford County","Florida","South","South Atlantic","12007","29.952386","-82.166698 ","8576","161","8576","161","","2019","28201","NYTIMES-USCENSUS"
"8/29/2022 12:00:00 AM","Boyd County","Nebraska","Midwest","West North Central","31015","42.894448","-98.773022 ","435","7","435","7","","2019","1919","NYTIMES-USCENSUS"
"8/29/2022 12:00:00 AM","Bourbon County","Kentucky","South","East South Central","21017","38.202562","-84.20986 ","7020","62","7020","62","","2019","19788","NYTIMES-USCENSUS"
"8/29/2022 12:00:00 AM","Berrien County","Georgia","South","South Atlantic","13019","31.288652","-83.22787 ","5475","86","5475","86","","2019","19397","NYTIMES-USCENSUS"
"8/29/2022 12:00:00 AM","Berkeley County","South Carolina","South","South Atlantic","45015","33.2077","-79.953655 ","60235","456","60235","456","","2019","227907","NYTIMES-USCENSUS"
"8/29/2022 12:00:00 AM","Benton County","Minnesota","Midwest","West North Central","27009","45.701225","-94.00144 ","15625","183","15625","183","","2019","40889","NYTIMES-USCENSUS"
"8/29/2022 12:00:00 AM","Benton County","Mississippi","South","East South Central","28009","34.809593","-89.200213 ","2537","49","2537","49","","2019","8259","NYTIMES-USCENSUS"
"8/29/2022 12:00:00 AM","Benton County","Missouri","Midwest","West North Central","29015","38.301036","-93.287942 ","4900","109","4900","109","","2019","19443","NYTIMES-USCENSUS"
"8/29/2022 12:00:00 AM","Benton County","Tennessee","South","East South Central","47005","36.070948","-88.071232 ","5102","97","5102","97","","2019","16160","NYTIMES-USCENSUS"
"8/29/2022 12:00:00 AM","Benton County","Indiana","Midwest","East North Central","18007","40.600939","-87.314786 ","2747","23","2747","23","","2019","8748","NYTIMES-USCENSUS"
"8/29/2022 12:00:00 AM","Benton County","Iowa","Midwest","West North Central","19011","42.092547","-92.05763 ","6613","80","6613","80","","2019","25645","NYTIMES-USCENSUS"
"8/29/2022 12:00:00 AM","Benton County","Oregon","West","Pacific","41003","44.493882","-123.424664 ","20027","82","20027","82","","2019","93053","NYTIMES-USCENSUS"
"8/29/2022 12:00:00 AM","Benton County","Arkansas","South","West South Central","05007","36.337819","-94.256298 ","72553","889","72553","889","","2019","279141","NYTIMES-USCENSUS"
"8/29/2022 12:00:00 AM","Bell County","Texas","South","West South Central","48027","31.04275","-97.481268 ","77663","920","77663","920","","2019","362924","NYTIMES-USCENSUS"
"8/29/2022 12:00:00 AM","Bedford County","Tennessee","South","East South Central","47003","35.51366","-86.458294 ","16457","242","16457","242","","2019","49713","NYTIMES-USCENSUS"
"8/29/2022 12:00:00 AM","Bedford County","Pennsylvania","Northeast","Middle Atlantic","42009","39.998634","-78.494747 ","11870","282","11870","282","","2019","47888","NYTIMES-USCENSUS"
"8/29/2022 12:00:00 AM","Beaver County","Pennsylvania","Northeast","Middle Atlantic","42007","40.68414","-80.350721 ","44854","771","44854","771","","2019","163929","NYTIMES-USCENSUS"
"8/29/2022 12:00:00 AM","Beaver County","Oklahoma","South","West South Central","40007","36.748334","-100.483056 ","1068","11","1068","11","","2019","5311","NYTIMES-USCENSUS"
"8/29/2022 12:00:00 AM","Beaufort County","North Carolina","South","South Atlantic","37013","35.482313","-76.842014 ","14520","178","14520","178","","2019","46994","NYTIMES-USCENSUS"
"8/29/2022 12:00:00 AM","Allen County","Indiana","Midwest","East North Central","18003","41.091909","-85.071791 ","114502","1214","114502","1214","","2019","379299","NYTIMES-USCENSUS"
"8/29/2022 12:00:00 AM","Allen County","Ohio","Midwest","East North Central","39003","40.771627","-84.106103 ","30193","481","30193","481","","2019","102351","NYTIMES-USCENSUS"
"8/29/2022 12:00:00 AM","Alleghany County","North Carolina","South","South Atlantic","37005","36.489356","-81.132299 ","3278","18","3278","18","","2019","11137","NYTIMES-USCENSUS"
"8/29/2022 12:00:00 AM","Allegany County","Maryland","South","South Atlantic","24001","39.612313","-78.703104 ","19447","372","19447","372","","2019","70416","NYTIMES-USCENSUS"
"8/29/2022 12:00:00 AM","Alexander County","Illinois","Midwest","East North Central","17003","37.183658","-89.349516 ","1452","16","1452","16","","2019","5761","NYTIMES-USCENSUS"
"8/29/2022 12:00:00 AM","Albany County","Wyoming","West","Mountain","56001","41.665514","-105.721883 ","10942","51","10942","51","","2019","38880","NYTIMES-USCENSUS"
"8/29/2022 12:00:00 AM","Adams County","Pennsylvania","Northeast","Middle Atlantic","42001","39.869471","-77.21773 ","27954","387","27954","387","","2019","103009","NYTIMES-USCENSUS"
"8/29/2022 12:00:00 AM","Adams County","Illinois","Midwest","East North Central","17001","39.986052","-91.194961 ","25393","245","25393","245","","2019","65435","NYTIMES-USCENSUS"
"8/29/2022 12:00:00 AM","Adams County","Iowa","Midwest","West North Central","19003","41.021656","-94.696906 ","869","14","869","14","","2019","3602","NYTIMES-USCENSUS"
"8/29/2022 12:00:00 AM","Adams County","Indiana","Midwest","East North Central","18001","40.745733","-84.93613 ","7946","117","7946","117","","2019","35777","NYTIMES-USCENSUS"
"8/29/2022 12:00:00 AM","Adams County","Ohio","Midwest","East North Central","39001","38.834468","-83.478082 ","7996","153","7996","153","","2019","27698","NYTIMES-USCENSUS"
"8/29/2022 12:00:00 AM","Adams County","Idaho","West","Mountain","16003","44.877004","-116.461624 ","758","15","758","15","","2019","4294","NYTIMES-USCENSUS"
"8/29/2022 12:00:00 AM","Adams County","Washington","West","Pacific","53001","47.011238","-118.512861 ","5441","40","5441","40","","2019","19983","NYTIMES-USCENSUS"
"8/29/2022 12:00:00 AM","Adams County","Nebraska","Midwest","West North Central","31001","40.520632","-98.500044 ","7153","74","7153","74","","2019","31363","NYTIMES-USCENSUS"
"8/29/2022 12:00:00 AM","Adams County","Mississippi","South","East South Central","28001","31.486224","-91.351797 ","8157","148","8157","148","","2019","30693","NYTIMES-USCENSUS"
"8/29/2022 12:00:00 AM","Adams County","Wisconsin","Midwest","East North Central","55001","43.973757","-89.767228 ","5290","65","5290","65","","2019","20220","NYTIMES-USCENSUS"
"8/29/2022 12:00:00 AM","Adair County","Oklahoma","South","West South Central","40001","35.898043","-94.651026 ","8967","78","8967","78","","2019","22194","NYTIMES-USCENSUS"
"8/29/2022 12:00:00 AM","Adair County","Kentucky","South","East South Central","21001","37.105559","-85.28138 ","6877","110","6877","110","","2019","19202","NYTIMES-USCENSUS"
"8/29/2022 12:00:00 AM","San Bernardino County","California","West","Pacific","06071","34.856661","-116.181571 ","683407","8018","683407","8018","","2019","2180085","NYTIMES-USCENSUS"
"8/29/2022 12:00:00 AM","San Benito County","California","West","Pacific","06069","36.611651","-121.085811 ","16727","103","16727","103","","2019","62808","NYTIMES-USCENSUS"
"8/29/2022 12:00:00 AM","San Augustine County","Texas","South","West South Central","48405","31.382449","-94.16318 ","1157","45","1157","45","","2019","8237","NYTIMES-USCENSUS"
"8/29/2022 12:00:00 AM","Sampson County","North Carolina","South","South Atlantic","37163","34.989298","-78.371261 ","21206","189","21206","189","","2019","63531","NYTIMES-USCENSUS"
"8/29/2022 12:00:00 AM","Saluda County","South Carolina","South","South Atlantic","45081","34.005278","-81.727903 ","4246","78","4246","78","","2019","20473","NYTIMES-USCENSUS"
"8/29/2022 12:00:00 AM","Salt Lake County","Utah","West","Mountain","49035","40.667883","-111.92424 ","385299","1709","385299","1709","","2019","1160437","NYTIMES-USCENSUS"
"8/29/2022 12:00:00 AM","Saline County","Arkansas","South","West South Central","05125","34.648525","-92.674463 ","34260","350","34260","350","","2019","122437","NYTIMES-USCENSUS"
"8/29/2022 12:00:00 AM","Salem County","New Jersey","Northeast","Middle Atlantic","34033","39.573828","-75.357356 ","16451","256","16451","256","","2019","62385","NYTIMES-USCENSUS"
"8/29/2022 12:00:00 AM","Salem city","Virginia","South","South Atlantic","51775","37.285333","-80.055241 ","6545","100","6545","100","","2019","25301","NYTIMES-USCENSUS"
"8/29/2022 12:00:00 AM","Saguache County","Colorado","West","Mountain","08109","38.031651","-106.234666 ","1391","12","1391","12","","2019","6824","NYTIMES-USCENSUS"
"8/29/2022 12:00:00 AM","Saginaw County","Michigan","Midwest","East North Central","26145","43.328267","-84.05541 ","56745","984","56745","984","","2019","190539","NYTIMES-USCENSUS"
"8/29/2022 12:00:00 AM","Sagadahoc County","Maine","Northeast","New England","23023","43.916845","-69.844227 ","6191","40","6191","40","","2019","35856","NYTIMES-USCENSUS"
"8/29/2022 12:00:00 AM","Sacramento County","California","West","Pacific","06067","38.450136","-121.344329 ","372441","3395","372441","3395","","2019","1552058","NYTIMES-USCENSUS"
"8/29/2022 12:00:00 AM","Sac County","Iowa","Midwest","West North Central","19161","42.387526","-95.105224 ","2664","37","2664","37","","2019","9721","NYTIMES-USCENSUS"
"8/29/2022 12:00:00 AM","Sabine Parish","Louisiana","South","West South Central","22085","31.560402","-93.559579 ","7428","120","7428","120","","2019","23884","NYTIMES-USCENSUS"
"8/29/2022 12:00:00 AM","Sabine County","Texas","South","West South Central","48403","31.3433","-93.851913 ","1431","89","1431","89","","2019","10542","NYTIMES-USCENSUS"
"8/29/2022 12:00:00 AM","Rutland County","Vermont","Northeast","New England","50021","43.580858","-73.038202 ","15095","80","15095","80","","2019","58191","NYTIMES-USCENSUS"
"8/29/2022 12:00:00 AM","Rutherford County","North Carolina","South","South Atlantic","37161","35.402747","-81.919582 ","19549","409","19549","409","","2019","67029","NYTIMES-USCENSUS"
"8/29/2022 12:00:00 AM","Rusk County","Wisconsin","Midwest","East North Central","55107","45.472734","-91.136745 ","3835","59","3835","59","","2019","14178","NYTIMES-USCENSUS"
"8/29/2022 12:00:00 AM","Rush County","Indiana","Midwest","East North Central","18139","39.622362","-85.466529 ","5419","59","5419","59","","2019","16581","NYTIMES-USCENSUS"
"8/29/2022 12:00:00 AM","Runnels County","Texas","South","West South Central","48399","31.845119","-99.982715 ","2589","68","2589","68","","2019","10264","NYTIMES-USCENSUS"
"8/29/2022 12:00:00 AM","Rowan County","Kentucky","South","East South Central","21205","38.204266","-83.428079 ","8180","74","8180","74","","2019","24460","NYTIMES-USCENSUS"
"8/29/2022 12:00:00 AM","Routt County","Colorado","West","Mountain","08107","40.483664","-106.987702 ","7390","31","7390","31","","2019","25638","NYTIMES-USCENSUS"
"8/29/2022 12:00:00 AM","Presidio County","Texas","South","West South Central","48377","30.005891","-104.261619 ","1084","39","1084","39","","2019","6704","NYTIMES-USCENSUS"
"8/29/2022 12:00:00 AM","Prentiss County","Mississippi","South","East South Central","28117","34.620566","-88.522184 ","9225","106","9225","106","","2019","25126","NYTIMES-USCENSUS"
"8/29/2022 12:00:00 AM","Preble County","Ohio","Midwest","East North Central","39135","39.73881","-84.644758 ","10535","203","10535","203","","2019","40882","NYTIMES-USCENSUS"
"8/29/2022 12:00:00 AM","Pratt County","Kansas","Midwest","West North Central","20151","37.647594","-98.74012 ","2066","35","2066","35","","2019","9164","NYTIMES-USCENSUS"
"8/29/2022 12:00:00 AM","Powhatan County","Virginia","South","South Atlantic","51145","37.549404","-77.912855 ","5868","64","5868","64","","2019","29652","NYTIMES-USCENSUS"
"8/29/2022 12:00:00 AM","Poweshiek County","Iowa","Midwest","West North Central","19157","41.684642","-92.522934 ","4183","63","4183","63","","2019","18504","NYTIMES-USCENSUS"
"8/29/2022 12:00:00 AM","Power County","Idaho","West","Mountain","16077","42.694126","-112.844407 ","1581","21","1581","21","","2019","7681","NYTIMES-USCENSUS"
"8/29/2022 12:00:00 AM","Potter County","Texas","South","West South Central","48375","35.398675","-101.893804 ","39283","753","39283","753","","2019","117415","NYTIMES-USCENSUS"
"8/29/2022 12:00:00 AM","Pottawattamie County","Iowa","Midwest","West North Central","19155","41.340184","-95.544905 ","26117","324","26117","324","","2019","93206","NYTIMES-USCENSUS"
"8/29/2022 12:00:00 AM","Pottawatomie County","Kansas","Midwest","West North Central","20149","39.382187","-96.337113 ","6396","62","6396","62","","2019","24383","NYTIMES-USCENSUS"
"8/29/2022 12:00:00 AM","Posey County","Indiana","Midwest","East North Central","18129","38.027614","-87.868653 ","7294","60","7294","60","","2019","25427","NYTIMES-USCENSUS"
"8/29/2022 12:00:00 AM","Portsmouth city","Virginia","South","South Atlantic","51740","36.859339","-76.356973 ","24003","347","24003","347","","2019","94398","NYTIMES-USCENSUS"
"8/29/2022 12:00:00 AM","Porter County","Indiana","Midwest","East North Central","18127","41.509914","-87.071313 ","43507","578","43507","578","","2019","170389","NYTIMES-USCENSUS"
"8/29/2022 12:00:00 AM","Poquoson city","Virginia","South","South Atlantic","51735","37.12836","-76.303534 ","2688","31","2688","31","","2019","12271","NYTIMES-USCENSUS"
"8/29/2022 12:00:00 AM","Pope County","Illinois","Midwest","East North Central","17151","37.417169","-88.542374 ","1100","9","1100","9","","2019","4177","NYTIMES-USCENSUS"
"8/29/2022 12:00:00 AM","Pontotoc County","Oklahoma","South","West South Central","40123","34.721415","-96.69178 ","14083","158","14083","158","","2019","38284","NYTIMES-USCENSUS"
"8/29/2022 12:00:00 AM","Tift County","Georgia","South","South Atlantic","13277","31.457003","-83.525931 ","12960","231","12960","231","","2019","40644","NYTIMES-USCENSUS"
"8/29/2022 12:00:00 AM","Thurston County","Nebraska","Midwest","West North Central","31173","42.154061","-96.533943 ","1913","23","1913","23","","2019","7224","NYTIMES-USCENSUS"
"8/29/2022 12:00:00 AM","Thomas County","Nebraska","Midwest","West North Central","31171","41.85573","-100.524703 ","105","1","105","1","","2019","722","NYTIMES-USCENSUS"
"8/29/2022 12:00:00 AM","Thayer County","Nebraska","Midwest","West North Central","31169","40.173845","-97.596263 ","1191","8","1191","8","","2019","5003","NYTIMES-USCENSUS"
"8/29/2022 12:00:00 AM","Texas County","Missouri","Midwest","West North Central","29215","37.314257","-91.964478 ","5179","107","5179","107","","2019","25398","NYTIMES-USCENSUS"
"8/29/2022 12:00:00 AM","Teton County","Idaho","West","Mountain","16081","43.760994","-111.211765 ","2841","9","2841","9","","2019","12142","NYTIMES-USCENSUS"
"8/29/2022 12:00:00 AM","Terry County","Texas","South","West South Central","48445","33.171229","-102.339284 ","2865","85","2865","85","","2019","12337","NYTIMES-USCENSUS"
"8/29/2022 12:00:00 AM","Terrell County","Georgia","South","South Atlantic","13273","31.777191","-84.439446 ","2346","70","2346","70","","2019","8531","NYTIMES-USCENSUS"
"8/29/2022 12:00:00 AM","Terrebonne Parish","Louisiana","South","West South Central","22109","29.33413","-90.843674 ","36170","427","36170","427","","2019","110461","NYTIMES-USCENSUS"
"8/29/2022 12:00:00 AM","Tensas Parish","Louisiana","South","West South Central","22107","32.001489","-91.342576 ","1191","13","1191","13","","2019","4334","NYTIMES-USCENSUS"
"8/29/2022 12:00:00 AM","Teller County","Colorado","West","Mountain","08119","38.869976","-105.187365 ","5541","60","5541","60","","2019","25388","NYTIMES-USCENSUS"
"8/29/2022 12:00:00 AM","Telfair County","Georgia","South","South Atlantic","13271","31.913641","-82.931063 ","3328","87","3328","87","","2019","15860","NYTIMES-USCENSUS"
"8/29/2022 12:00:00 AM","Spartanburg County","South Carolina","South","South Atlantic","45083","34.932014","-81.991624 ","105308","1565","105308","1565","","2019","319785","NYTIMES-USCENSUS"
"8/29/2022 12:00:00 AM","Spalding County","Georgia","South","South Atlantic","13255","33.262348","-84.284905 ","17970","429","17970","429","","2019","66703","NYTIMES-USCENSUS"
"8/29/2022 12:00:00 AM","Southeast Fairbanks Census Area","Alaska","West","Pacific","02240","63.864997","-143.218628 ","2308","20","2308","20","","2019","6893","NYTIMES-USCENSUS"
"8/29/2022 12:00:00 AM","Southampton County","Virginia","South","South Atlantic","51175","36.720068","-77.103813 ","4048","97","4048","97","","2019","17631","NYTIMES-USCENSUS"
"8/29/2022 12:00:00 AM","Sonoma County","California","West","Pacific","06097","38.525182","-122.92611 ","109694","557","109694","557","","2019","494336","NYTIMES-USCENSUS"
"8/29/2022 12:00:00 AM","Somerset County","New Jersey","Northeast","Middle Atlantic","34035","40.565527","-74.619938 ","85335","996","85335","996","","2019","328934","NYTIMES-USCENSUS"
"8/29/2022 12:00:00 AM","Solano County","California","West","Pacific","06095","38.267226","-121.939594 ","110347","460","110347","460","","2019","447643","NYTIMES-USCENSUS"
"8/29/2022 12:00:00 AM","Socorro County","New Mexico","West","Mountain","35053","33.991658","-106.939136 ","4343","95","4343","95","","2019","16637","NYTIMES-USCENSUS"
"8/29/2022 12:00:00 AM","Snyder County","Pennsylvania","Northeast","Middle Atlantic","42109","40.755407","-77.072929 ","8792","161","8792","161","","2019","40372","NYTIMES-USCENSUS"
"8/29/2022 12:00:00 AM","Snohomish County","Washington","West","Pacific","53061","48.054913","-121.765038 ","188303","1268","188303","1268","","2019","822083","NYTIMES-USCENSUS"
"8/29/2022 12:00:00 AM","Smyth County","Virginia","South","South Atlantic","51173","36.842318","-81.539786 ","10535","177","10535","177","","2019","30104","NYTIMES-USCENSUS"
"8/29/2022 12:00:00 AM","Smith County","Mississippi","South","East South Central","28129","32.019029","-89.494876 ","4596","69","4596","69","","2019","15916","NYTIMES-USCENSUS"
"8/29/2022 12:00:00 AM","Slope County","North Dakota","Midwest","West North Central","38087","46.445834","-103.462462 ","67","0","67","0","","2019","750","NYTIMES-USCENSUS"
"8/29/2022 12:00:00 AM","Skamania County","Washington","West","Pacific","53059","46.024785","-121.953232 ","1703","15","1703","15","","2019","12083","NYTIMES-USCENSUS"
"8/29/2022 12:00:00 AM","Skagit County","Washington","West","Pacific","53057","48.493292","-121.81577 ","26126","221","26126","221","","2019","129205","NYTIMES-USCENSUS"
"8/29/2022 12:00:00 AM","Sitka City and Borough","Alaska","West","Pacific","02220","57.193204","-135.367396 ","3230","6","3230","6","","2019","8493","NYTIMES-USCENSUS"
"8/29/2022 12:00:00 AM","Siskiyou County","California","West","Pacific","06093","41.587986","-122.533287 ","8401","107","8401","107","","2019","43539","NYTIMES-USCENSUS"
"8/29/2022 12:00:00 AM","Sioux County","North Dakota","Midwest","West North Central","38085","46.110618","-101.061284 ","1467","19","1467","19","","2019","4230","NYTIMES-USCENSUS"
"8/29/2022 12:00:00 AM","Simpson County","Kentucky","South","East South Central","21213","36.740937","-86.581793 ","6469","97","6469","97","","2019","18572","NYTIMES-USCENSUS"
"8/29/2022 12:00:00 AM","Silver Bow County","Montana","West","Mountain","30093","45.896232","-112.660071 ","9232","135","9232","135","","2019","34915","NYTIMES-USCENSUS"
"8/29/2022 12:00:00 AM","Sierra County","California","West","Pacific","06091","39.576925","-120.521993 ","360","5","360","5","","2019","3005","NYTIMES-USCENSUS"
"8/29/2022 12:00:00 AM","Sibley County","Minnesota","Midwest","West North Central","27143","44.575734","-94.230123 ","3884","27","3884","27","","2019","14865","NYTIMES-USCENSUS"
"8/29/2022 12:00:00 AM","Shiawassee County","Michigan","Midwest","East North Central","26155","42.951545","-84.146352 ","19828","235","19828","235","","2019","68122","NYTIMES-USCENSUS"
"8/29/2022 12:00:00 AM","Sherman County","Nebraska","Midwest","West North Central","31163","41.218743","-98.972849 ","635","4","635","4","","2019","3001","NYTIMES-USCENSUS"
"8/29/2022 12:00:00 AM","San Juan County","New Mexico","West","Mountain","35045","36.511624","-108.324578 ","46794","819","46794","819","","2019","123958","NYTIMES-USCENSUS"
"8/29/2022 12:00:00 AM","San Joaquin County","California","West","Pacific","06077","37.934982","-121.272244 ","207627","2296","207627","2296","","2019","762148","NYTIMES-USCENSUS"
"8/29/2022 12:00:00 AM","San Jacinto County","Texas","South","West South Central","48407","30.574388","-95.163136 ","6291","106","6291","106","","2019","28859","NYTIMES-USCENSUS"
"8/29/2022 12:00:00 AM","San Francisco County","California","West","Pacific","06075","37.727239","-123.032229 ","186992","1000","186992","1000","","2019","881549","NYTIMES-USCENSUS"
"8/29/2022 12:00:00 AM","San Diego County","California","West","Pacific","06073","33.023604","-116.776117 ","978572","5456","978572","5456","","2019","3338330","NYTIMES-USCENSUS"
"8/29/2022 12:00:00 AM","Jackson County","Georgia","South","South Atlantic","13157","34.130905","-83.562557 ","23203","296","23203","296","","2019","72977","NYTIMES-USCENSUS"
"8/29/2022 12:00:00 AM","Harrison County","Mississippi","South","East South Central","28047","30.416536","-89.083376 ","61281","685","61281","685","","2019","208080","NYTIMES-USCENSUS"
"8/29/2022 12:00:00 AM","Harrison County","Ohio","Midwest","East North Central","39067","40.292318","-81.091565 ","3650","75","3650","75","","2019","15040","NYTIMES-USCENSUS"
"8/29/2022 12:00:00 AM","Harrison County","West Virginia","South","South Atlantic","54033","39.279182","-80.386498 ","23503","264","23503","264","","2019","67256","NYTIMES-USCENSUS"
"8/29/2022 12:00:00 AM","Harrison County","Kentucky","South","East South Central","21097","38.444578","-84.334131 ","7671","85","7671","85","","2019","18886","NYTIMES-USCENSUS"
"8/29/2022 12:00:00 AM","Harrison County","Iowa","Midwest","West North Central","19085","41.688584","-95.827149 ","3610","95","3610","95","","2019","14049","NYTIMES-USCENSUS"
"8/29/2022 12:00:00 AM","Harrison County","Indiana","Midwest","East North Central","18061","38.186454","-86.103766 ","12119","144","12119","144","","2019","40515","NYTIMES-USCENSUS"
"8/29/2022 12:00:00 AM","Harrison County","Missouri","Midwest","West North Central","29081","40.34562","-93.992582 ","2154","35","2154","35","","2019","8352","NYTIMES-USCENSUS"
"8/29/2022 12:00:00 AM","Harris County","Texas","South","West South Central","48201","29.857273","-95.393037 ","1193417","11232","1193417","11232","","2019","4713325","NYTIMES-USCENSUS"
"8/29/2022 12:00:00 AM","Harper County","Oklahoma","South","West South Central","40059","36.80035","-99.662805 ","776","12","776","12","","2019","3688","NYTIMES-USCENSUS"
"8/29/2022 12:00:00 AM","Harlan County","Kentucky","South","East South Central","21095","36.859223","-83.221497 ","10979","217","10979","217","","2019","26010","NYTIMES-USCENSUS"
"8/29/2022 12:00:00 AM","Hardin County","Ohio","Midwest","East North Central","39065","40.660415","-83.664077 ","7818","162","7818","162","","2019","31365","NYTIMES-USCENSUS"
"8/29/2022 12:00:00 AM","Hardin County","Iowa","Midwest","West North Central","19083","42.390208","-93.241669 ","4564","63","4564","63","","2019","16846","NYTIMES-USCENSUS"
"8/29/2022 12:00:00 AM","Hardin County","Tennessee","South","East South Central","47071","35.201893","-88.185696 ","9829","163","9829","163","","2019","25652","NYTIMES-USCENSUS"
"8/29/2022 12:00:00 AM","Hardin County","Kentucky","South","East South Central","21093","37.695836","-85.963183 ","39226","461","39226","461","","2019","110958","NYTIMES-USCENSUS"
"8/29/2022 12:00:00 AM","Hardin County","Texas","South","West South Central","48199","30.329648","-94.393178 ","13831","253","13831","253","","2019","57602","NYTIMES-USCENSUS"
"8/29/2022 12:00:00 AM","Hardeman County","Texas","South","West South Central","48197","34.289904","-99.745697 ","583","20","583","20","","2019","3933","NYTIMES-USCENSUS"
"8/29/2022 12:00:00 AM","Hancock County","Ohio","Midwest","East North Central","39063","41.000217","-83.665947 ","19024","279","19024","279","","2019","75783","NYTIMES-USCENSUS"
"8/29/2022 12:00:00 AM","Hancock County","Maine","Northeast","New England","23009","44.564906","-68.370703 ","8956","95","8956","95","","2019","54987","NYTIMES-USCENSUS"
"8/29/2022 12:00:00 AM","Hancock County","Mississippi","South","East South Central","28045","30.391641","-89.482791 ","14030","156","14030","156","","2019","47632","NYTIMES-USCENSUS"
"8/29/2022 12:00:00 AM","Hancock County","Tennessee","South","East South Central","47067","36.521353","-83.227493 ","2344","39","2344","39","","2019","6620","NYTIMES-USCENSUS"
"8/29/2022 12:00:00 AM","Hancock County","Georgia","South","South Atlantic","13141","33.26922","-83.000465 ","1843","90","1843","90","","2019","8457","NYTIMES-USCENSUS"
"8/29/2022 12:00:00 AM","Hancock County","West Virginia","South","South Atlantic","54029","40.516958","-80.570164 ","7645","144","7645","144","","2019","28810","NYTIMES-USCENSUS"
"8/29/2022 12:00:00 AM","Hancock County","Indiana","Midwest","East North Central","18059","39.822529","-85.77315 ","23069","270","23069","270","","2019","78168","NYTIMES-USCENSUS"
"8/29/2022 12:00:00 AM","Hancock County","Illinois","Midwest","East North Central","17067","40.401318","-91.168801 ","4909","58","4909","58","","2019","17708","NYTIMES-USCENSUS"
"8/29/2022 12:00:00 AM","Hancock County","Iowa","Midwest","West North Central","19081","43.075411","-93.743697 ","3085","49","3085","49","","2019","10630","NYTIMES-USCENSUS"
"8/29/2022 12:00:00 AM","Hampshire County","West Virginia","South","South Atlantic","54027","39.312139","-78.611989 ","6668","74","6668","74","","2019","23175","NYTIMES-USCENSUS"
"8/29/2022 12:00:00 AM","Hamilton County","Ohio","Midwest","East North Central","39061","39.196927","-84.544187 ","215318","2114","215318","2114","","2019","817473","NYTIMES-USCENSUS"
"8/29/2022 12:00:00 AM","Hamilton County","Nebraska","Midwest","West North Central","31081","40.872817","-98.022329 ","2522","26","2522","26","","2019","9324","NYTIMES-USCENSUS"
"8/29/2022 12:00:00 AM","Hamilton County","Florida","South","South Atlantic","12047","30.491187","-82.951071 ","4288","56","4288","56","","2019","14428","NYTIMES-USCENSUS"
"8/29/2022 12:00:00 AM","Hamilton County","Texas","South","West South Central","48193","31.707342","-98.111756 ","2030","35","2030","35","","2019","8461","NYTIMES-USCENSUS"
"8/29/2022 12:00:00 AM","Hamilton County","Illinois","Midwest","East North Central","17065","38.085227","-88.539009 ","2417","35","2417","35","","2019","8116","NYTIMES-USCENSUS"
"8/29/2022 12:00:00 AM","Hamilton County","New York","Northeast","Middle Atlantic","36041","43.657879","-74.502456 ","994","5","994","5","","2019","4416","NYTIMES-USCENSUS"
"8/29/2022 12:00:00 AM","Hamilton County","Iowa","Midwest","West North Central","19079","42.390789","-93.70913 ","3697","78","3697","78","","2019","14773","NYTIMES-USCENSUS"
"8/29/2022 12:00:00 AM","Hamilton County","Tennessee","South","East South Central","47065","35.163472","-85.201843 ","113343","1207","113343","1207","","2019","367804","NYTIMES-USCENSUS"
"8/29/2022 12:00:00 AM","Hamilton County","Kansas","Midwest","West North Central","20075","37.995244","-101.793689 ","524","3","524","3","","2019","2539","NYTIMES-USCENSUS"
"8/29/2022 12:00:00 AM","Hall County","Georgia","South","South Atlantic","13139","34.317569","-83.8185 ","60268","869","60268","869","","2019","204441","NYTIMES-USCENSUS"
"8/29/2022 12:00:00 AM","Hall County","Nebraska","Midwest","West North Central","31079","40.866027","-98.502664 ","17730","147","17730","147","","2019","61353","NYTIMES-USCENSUS"
"8/29/2022 12:00:00 AM","Halifax County","Virginia","South","South Atlantic","51083","36.766461","-78.939614 ","8540","171","8540","171","","2019","33911","NYTIMES-USCENSUS"
"8/29/2022 12:00:00 AM","Hale County","Alabama","South","East South Central","01065","32.752796","-87.623061 ","5283","109","5283","109","","2019","14651","NYTIMES-USCENSUS"
"8/29/2022 12:00:00 AM","Gallatin County","Illinois","Midwest","East North Central","17059","37.768677","-88.227964 ","1679","21","1679","21","","2019","4828","NYTIMES-USCENSUS"
"8/29/2022 12:00:00 AM","Gallatin County","Montana","West","Mountain","30031","45.518054","-111.163921 ","38986","127","38986","127","","2019","114434","NYTIMES-USCENSUS"
"8/29/2022 12:00:00 AM","Fulton County","Pennsylvania","Northeast","Middle Atlantic","42057","39.91075","-78.122617 ","4540","66","4540","66","","2019","14530","NYTIMES-USCENSUS"
"8/29/2022 12:00:00 AM","Jefferson County","Florida","South","South Atlantic","12065","30.396898","-83.921761 ","4642","62","4642","62","","2019","14246","NYTIMES-USCENSUS"
"8/29/2022 12:00:00 AM","Jefferson County","Kansas","Midwest","West North Central","20087","39.239644","-95.375314 ","5273","68","5273","68","","2019","19043","NYTIMES-USCENSUS"
"8/29/2022 12:00:00 AM","Jefferson County","Oregon","West","Pacific","41031","44.645151","-121.178632 ","8299","100","8299","100","","2019","24658","NYTIMES-USCENSUS"
"8/29/2022 12:00:00 AM","Jefferson County","Montana","West","Mountain","30043","46.124232","-112.059428 ","2913","25","2913","25","","2019","12221","NYTIMES-USCENSUS"
"8/29/2022 12:00:00 AM","Jefferson County","Washington","West","Pacific","53031","47.805708","-123.527057 ","4143","30","4143","30","","2019","32221","NYTIMES-USCENSUS"
"8/29/2022 12:00:00 AM","Jefferson County","New York","Northeast","Middle Atlantic","36045","43.996389","-76.052968 ","23698","144","23698","144","","2019","109834","NYTIMES-USCENSUS"
"8/29/2022 12:00:00 AM","Jefferson County","Oklahoma","South","West South Central","40067","34.105082","-97.83889 ","1436","26","1436","26","","2019","6002","NYTIMES-USCENSUS"
"8/29/2022 12:00:00 AM","Jefferson County","West Virginia","South","South Atlantic","54037","39.307398","-77.86322 ","16518","137","16518","137","","2019","57146","NYTIMES-USCENSUS"
"8/29/2022 12:00:00 AM","Jefferson County","Texas","South","West South Central","48245","29.854","-94.149331 ","58788","861","58788","861","","2019","251565","NYTIMES-USCENSUS"
"8/29/2022 12:00:00 AM","Jefferson County","Idaho","West","Mountain","16051","43.796965","-112.318588 ","6444","65","6444","65","","2019","29871","NYTIMES-USCENSUS"
"8/29/2022 12:00:00 AM","Jefferson County","Georgia","South","South Atlantic","13163","33.058176","-82.420004 ","4012","115","4012","115","","2019","15362","NYTIMES-USCENSUS"
"8/29/2022 12:00:00 AM","Jefferson County","Indiana","Midwest","East North Central","18077","38.783604","-85.44009 ","10373","166","10373","166","","2019","32308","NYTIMES-USCENSUS"
"8/29/2022 12:00:00 AM","Jefferson County","Wisconsin","Midwest","East North Central","55055","43.013804","-88.773985 ","24394","248","24394","248","","2019","84769","NYTIMES-USCENSUS"
"8/29/2022 12:00:00 AM","Jefferson County","Iowa","Midwest","West North Central","19101","41.006376","-91.966628 ","3880","53","3880","53","","2019","18295","NYTIMES-USCENSUS"
"8/29/2022 12:00:00 AM","Jefferson County","Arkansas","South","West South Central","05069","34.277239","-91.929673 ","20778","287","20778","287","","2019","66824","NYTIMES-USCENSUS"
"8/29/2022 12:00:00 AM","Jefferson County","Colorado","West","Mountain","08059","39.579511","-105.245462 ","149082","1433","149082","1433","","2019","582881","NYTIMES-USCENSUS"
"8/29/2022 12:00:00 AM","Jeff Davis County","Georgia","South","South Atlantic","13161","31.811615","-82.636825 ","4241","74","4241","74","","2019","15115","NYTIMES-USCENSUS"
"8/29/2022 12:00:00 AM","Jasper County","Mississippi","South","East South Central","28061","32.016748","-89.119176 ","5645","76","5645","76","","2019","16383","NYTIMES-USCENSUS"
"8/29/2022 12:00:00 AM","Jasper County","Georgia","South","South Atlantic","13159","33.316981","-83.689151 ","3497","75","3497","75","","2019","14219","NYTIMES-USCENSUS"
"8/29/2022 12:00:00 AM","Jasper County","Iowa","Midwest","West North Central","19099","41.685551","-93.054147 ","9591","117","9591","117","","2019","37185","NYTIMES-USCENSUS"
"8/29/2022 12:00:00 AM","Jasper County","Texas","South","West South Central","48241","30.752932","-94.022294 ","7523","195","7523","195","","2019","35529","NYTIMES-USCENSUS"
"8/29/2022 12:00:00 AM","Jasper County","Missouri","Midwest","West North Central","29097","37.205197","-94.337259 ","22535","329","22535","329","","2019","121328","NYTIMES-USCENSUS"
"8/29/2022 12:00:00 AM","Jasper County","Illinois","Midwest","East North Central","17079","39.004886","-88.150725 ","3006","33","3006","33","","2019","9610","NYTIMES-USCENSUS"
"8/29/2022 12:00:00 AM","Jasper County","South Carolina","South","South Atlantic","45053","32.43059","-81.021627 ","6635","95","6635","95","","2019","30073","NYTIMES-USCENSUS"
"8/29/2022 12:00:00 AM","Jackson County","Ohio","Midwest","East North Central","39079","39.013477","-82.614142 ","10508","143","10508","143","","2019","32413","NYTIMES-USCENSUS"
"8/29/2022 12:00:00 AM","Jackson County","Kansas","Midwest","West North Central","20085","39.411145","-95.794485 ","4265","31","4265","31","","2019","13171","NYTIMES-USCENSUS"
"8/29/2022 12:00:00 AM","Jackson County","Alabama","South","East South Central","01071","34.764114","-85.980056 ","16567","246","16567","246","","2019","51626","NYTIMES-USCENSUS"
"8/29/2022 12:00:00 AM","Jackson County","Kentucky","South","East South Central","21109","37.403458","-84.020576 ","4768","84","4768","84","","2019","13329","NYTIMES-USCENSUS"
"8/29/2022 12:00:00 AM","Jackson County","Oregon","West","Pacific","41029","42.411621","-122.675611 ","50047","575","50047","575","","2019","220944","NYTIMES-USCENSUS"
"8/29/2022 12:00:00 AM","Jackson County","South Dakota","Midwest","West North Central","46071","43.677506","-101.626323 ","672","21","672","21","","2019","3344","NYTIMES-USCENSUS"
"8/29/2022 12:00:00 AM","Jackson County","Florida","South","South Atlantic","12063","30.789249","-85.208814 ","16757","289","16757","289","","2019","46414","NYTIMES-USCENSUS"
"8/29/2022 12:00:00 AM","Jackson County","Tennessee","South","East South Central","47087","36.35425","-85.674128 ","3502","65","3502","65","","2019","11786","NYTIMES-USCENSUS"
"8/29/2022 12:00:00 AM","Jackson County","Illinois","Midwest","East North Central","17077","37.786096","-89.381212 ","18218","138","18218","138","","2019","56750","NYTIMES-USCENSUS"
"8/29/2022 12:00:00 AM","Jackson County","Missouri","Midwest","West North Central","29095","39.005364","-94.343211 ","107699","1252","107699","1252","","2019","703011","NYTIMES-USCENSUS"
"8/29/2022 12:00:00 AM","Jackson County","Minnesota","Midwest","West North Central","27063","43.671111","-95.149731 ","2373","17","2373","17","","2019","9846","NYTIMES-USCENSUS"
"8/29/2022 12:00:00 AM","Jackson County","North Carolina","South","South Atlantic","37099","35.285454","-83.123966 ","10932","101","10932","101","","2019","43938","NYTIMES-USCENSUS"
"8/29/2022 12:00:00 AM","Jackson County","Texas","South","West South Central","48239","28.959802","-96.58908 ","3627","59","3627","59","","2019","14760","NYTIMES-USCENSUS"
"8/29/2022 12:00:00 AM","Jackson County","Wisconsin","Midwest","East North Central","55053","44.32459","-90.79951 ","6314","43","6314","43","","2019","20643","NYTIMES-USCENSUS"
"8/29/2022 12:00:00 AM","Jackson County","West Virginia","South","South Atlantic","54035","38.834234","-81.677717 ","7969","141","7969","141","","2019","28576","NYTIMES-USCENSUS"
"8/29/2022 12:00:00 AM","Jackson County","Mississippi","South","East South Central","28059","30.456005","-88.625101 ","42569","481","42569","481","","2019","143617","NYTIMES-USCENSUS"
"8/29/2022 12:00:00 AM","Jackson County","Arkansas","South","West South Central","05067","35.596467","-91.223205 ","6665","67","6665","67","","2019","16719","NYTIMES-USCENSUS"
"8/29/2022 12:00:00 AM","Jackson County","Indiana","Midwest","East North Central","18071","38.911957","-86.042516 ","13900","134","13900","134","","2019","44231","NYTIMES-USCENSUS"
"8/29/2022 12:00:00 AM","Jackson County","Oklahoma","South","West South Central","40065","34.594006","-99.412235 ","7327","109","7327","109","","2019","24530","NYTIMES-USCENSUS"
"8/29/2022 12:00:00 AM","Jackson County","Michigan","Midwest","East North Central","26075","42.248474","-84.420868 ","49955","626","49955","626","","2019","158510","NYTIMES-USCENSUS"
"8/29/2022 12:00:00 AM","Dickinson County","Michigan","Midwest","East North Central","26043","46.012833","-87.866139 ","8285","116","8285","116","","2019","25239","NYTIMES-USCENSUS"
"8/29/2022 12:00:00 AM","Dewey County","Oklahoma","South","West South Central","40043","35.97796","-99.014385 ","1141","34","1141","34","","2019","4891","NYTIMES-USCENSUS"
"8/29/2022 12:00:00 AM","DeSoto County","Mississippi","South","East South Central","28033","34.874922","-89.991211 ","56142","563","56142","563","","2019","184945","NYTIMES-USCENSUS"
"8/29/2022 12:00:00 AM","Delta County","Colorado","West","Mountain","08029","38.861595","-107.864892 ","6728","147","6728","147","","2019","31162","NYTIMES-USCENSUS"
"8/29/2022 12:00:00 AM","Delta County","Texas","South","West South Central","48119","33.385933","-95.67335 ","1939","27","1939","27","","2019","5331","NYTIMES-USCENSUS"
"8/29/2022 12:00:00 AM","Delaware County","Indiana","Midwest","East North Central","18035","40.227543","-85.399262 ","27668","462","27668","462","","2019","114135","NYTIMES-USCENSUS"
"8/29/2022 12:00:00 AM","Delaware County","Ohio","Midwest","East North Central","39041","40.278941","-83.007462 ","51168","276","51168","276","","2019","209177","NYTIMES-USCENSUS"
"8/29/2022 12:00:00 AM","Delaware County","New York","Northeast","Middle Atlantic","36025","42.193986","-74.966728 ","9159","82","9159","82","","2019","44135","NYTIMES-USCENSUS"
"8/29/2022 12:00:00 AM","Delaware County","Oklahoma","South","West South Central","40041","36.393437","-94.808189 ","12310","208","12310","208","","2019","43009","NYTIMES-USCENSUS"
"8/29/2022 12:00:00 AM","Delaware County","Pennsylvania","Northeast","Middle Atlantic","42045","39.916685","-75.398818 ","127416","1918","127416","1918","","2019","566747","NYTIMES-USCENSUS"
"8/29/2022 12:00:00 AM","Colfax County","Nebraska","Midwest","West North Central","31037","41.57496","-97.088945 ","2828","28","2828","28","","2019","10709","NYTIMES-USCENSUS"
"8/29/2022 12:00:00 AM","Coffee County","Tennessee","South","East South Central","47031","35.488765","-86.078202 ","18909","277","18909","277","","2019","56520","NYTIMES-USCENSUS"
"8/29/2022 12:00:00 AM","Coffee County","Georgia","South","South Atlantic","13069","31.549245","-82.84494 ","11535","291","11535","291","","2019","43273","NYTIMES-USCENSUS"
"8/29/2022 12:00:00 AM","Clinton County","New York","Northeast","Middle Atlantic","36019","44.752712","-73.705643 ","20087","100","20087","100","","2019","80485","NYTIMES-USCENSUS"
"8/29/2022 12:00:00 AM","Clinton County","Missouri","Midwest","West North Central","29049","39.608723","-94.395803 ","5265","123","5265","123","","2019","20387","NYTIMES-USCENSUS"
"8/29/2022 12:00:00 AM","Clinton County","Kentucky","South","East South Central","21053","36.727258","-85.136098 ","4206","54","4206","54","","2019","10218","NYTIMES-USCENSUS"
"8/29/2022 12:00:00 AM","Clinton County","Illinois","Midwest","East North Central","17027","38.606295","-89.426228 ","13176","124","13176","124","","2019","37562","NYTIMES-USCENSUS"
"8/29/2022 12:00:00 AM","Clinton County","Michigan","Midwest","East North Central","26037","42.950455","-84.591695 ","24469","214","24469","214","","2019","79595","NYTIMES-USCENSUS"
"8/29/2022 12:00:00 AM","Clinton County","Iowa","Midwest","West North Central","19045","41.898073","-90.534243 ","12856","151","12856","151","","2019","46429","NYTIMES-USCENSUS"
"8/29/2022 12:00:00 AM","Clinton County","Indiana","Midwest","East North Central","18023","40.305944","-86.477567 ","10076","138","10076","138","","2019","32399","NYTIMES-USCENSUS"
"8/29/2022 12:00:00 AM","Clinton County","Pennsylvania","Northeast","Middle Atlantic","42035","41.239508","-77.629009 ","10040","131","10040","131","","2019","38632","NYTIMES-USCENSUS"
"8/29/2022 12:00:00 AM","Cleveland County","Oklahoma","South","West South Central","40027","35.206376","-97.323088 ","89517","838","89517","838","","2019","284014","NYTIMES-USCENSUS"
"8/29/2022 12:00:00 AM","Cleveland County","North Carolina","South","South Atlantic","37045","35.33463","-81.557114 ","33309","411","33309","411","","2019","97947","NYTIMES-USCENSUS"
"8/29/2022 12:00:00 AM","Cleburne County","Alabama","South","East South Central","01029","33.671964","-85.516126 ","3811","69","3811","69","","2019","14910","NYTIMES-USCENSUS"
"8/29/2022 12:00:00 AM","Clearwater County","Minnesota","Midwest","West North Central","27029","47.575873","-95.371117 ","2283","31","2283","31","","2019","8818","NYTIMES-USCENSUS"
"8/29/2022 12:00:00 AM","Campbell County","Tennessee","South","East South Central","47013","36.401592","-84.159249 ","13905","176","13905","176","","2019","39842","NYTIMES-USCENSUS"
"8/29/2022 12:00:00 AM","Campbell County","Virginia","South","South Atlantic","51031","37.210152","-79.095428 ","15318","226","15318","226","","2019","54885","NYTIMES-USCENSUS"
"8/29/2022 12:00:00 AM","Campbell County","Wyoming","West","Mountain","56005","44.191999","-105.517014 ","13198","151","13198","151","","2019","46341","NYTIMES-USCENSUS"
"8/29/2022 12:00:00 AM","Campbell County","Kentucky","South","East South Central","21037","38.946981","-84.379583 ","28227","193","28227","193","","2019","93584","NYTIMES-USCENSUS"
"8/29/2022 12:00:00 AM","Cameron County","Texas","South","West South Central","48061","26.102923","-97.478958 ","122279","2072","122279","2072","","2019","423163","NYTIMES-USCENSUS"
"8/29/2022 12:00:00 AM","Camden County","North Carolina","South","South Atlantic","37029","36.342344","-76.162488 ","1996","9","1996","9","","2019","10867","NYTIMES-USCENSUS"
"8/29/2022 12:00:00 AM","Camden County","Missouri","Midwest","West North Central","29029","38.026527","-92.765327 ","10151","189","10151","189","","2019","46305","NYTIMES-USCENSUS"
"8/29/2022 12:00:00 AM","Camden County","Georgia","South","South Atlantic","13039","30.913358","-81.642019 ","12948","127","12948","127","","2019","54666","NYTIMES-USCENSUS"
"8/29/2022 12:00:00 AM","Calhoun County","Florida","South","South Atlantic","12013","30.388801","-85.197915 ","4606","101","4606","101","","2019","14105","NYTIMES-USCENSUS"
"8/29/2022 12:00:00 AM","Calhoun County","Mississippi","South","East South Central","28013","33.936634","-89.337114 ","5078","73","5078","73","","2019","14361","NYTIMES-USCENSUS"
"8/29/2022 12:00:00 AM","Calhoun County","Alabama","South","East South Central","01015","33.770516","-85.827909 ","35737","640","35737","640","","2019","113605","NYTIMES-USCENSUS"
"8/29/2022 12:00:00 AM","Calhoun County","Georgia","South","South Atlantic","13037","31.521279","-84.62629 ","1496","24","1496","24","","2019","6189","NYTIMES-USCENSUS"
"8/29/2022 12:00:00 AM","Calhoun County","South Carolina","South","South Atlantic","45017","33.67478","-80.780347 ","3189","61","3189","61","","2019","14553","NYTIMES-USCENSUS"
"8/29/2022 12:00:00 AM","Calhoun County","Michigan","Midwest","East North Central","26025","42.24299","-85.012385 ","38433","608","38433","608","","2019","134159","NYTIMES-USCENSUS"
"8/29/2022 12:00:00 AM","Calhoun County","Iowa","Midwest","West North Central","19025","42.38617","-94.643683 ","2837","26","2837","26","","2019","9668","NYTIMES-USCENSUS"
"8/29/2022 12:00:00 AM","Calhoun County","Illinois","Midwest","East North Central","17013","39.164262","-90.666295 ","1728","8","1728","8","","2019","4739","NYTIMES-USCENSUS"
"8/29/2022 12:00:00 AM","Calhoun County","Texas","South","West South Central","48057","28.441719","-96.579574 ","6559","52","6559","52","","2019","21290","NYTIMES-USCENSUS"
"8/29/2022 12:00:00 AM","Caldwell County","Missouri","Midwest","West North Central","29025","39.658998","-93.979179 ","1906","40","1906","40","","2019","9020","NYTIMES-USCENSUS"
"8/29/2022 12:00:00 AM","Fulton County","New York","Northeast","Middle Atlantic","36035","43.115609","-74.423678 ","14780","174","14780","174","","2019","53383","NYTIMES-USCENSUS"
"8/29/2022 12:00:00 AM","Fulton County","Georgia","South","South Atlantic","13121","33.790034","-84.468182 ","256384","2471","256384","2471","","2019","1063937","NYTIMES-USCENSUS"
"8/29/2022 12:00:00 AM","Fulton County","Indiana","Midwest","East North Central","18049","41.050384","-86.265006 ","5336","109","5336","109","","2019","19974","NYTIMES-USCENSUS"
"8/29/2022 12:00:00 AM","Fulton County","Ohio","Midwest","East North Central","39051","41.597264","-84.124267 ","11384","180","11384","180","","2019","42126","NYTIMES-USCENSUS"
"8/29/2022 12:00:00 AM","Fulton County","Illinois","Midwest","East North Central","17057","40.46524","-90.202269 ","11646","140","11646","140","","2019","34340","NYTIMES-USCENSUS"
"8/29/2022 12:00:00 AM","Fulton County","Arkansas","South","West South Central","05049","36.381322","-91.819285 ","2930","95","2930","95","","2019","12477","NYTIMES-USCENSUS"
"8/29/2022 12:00:00 AM","Fremont County","Idaho","West","Mountain","16043","44.218091","-111.484429 ","2320","30","2320","30","","2019","13099","NYTIMES-USCENSUS"
"8/29/2022 12:00:00 AM","Fremont County","Iowa","Midwest","West North Central","19071","40.74259","-95.599182 ","1504","26","1504","26","","2019","6960","NYTIMES-USCENSUS"
"8/29/2022 12:00:00 AM","Fremont County","Wyoming","West","Mountain","56013","43.054831","-108.608935 ","15643","198","15643","198","","2019","39261","NYTIMES-USCENSUS"
"8/29/2022 12:00:00 AM","Frederick County","Maryland","South","South Atlantic","24021","39.470177","-77.397636 ","53003","549","53003","549","","2019","259547","NYTIMES-USCENSUS"
"8/29/2022 12:00:00 AM","Franklin County","Washington","West","Pacific","53021","46.537502","-118.903891 ","35457","217","35457","217","","2019","95222","NYTIMES-USCENSUS"
"8/29/2022 12:00:00 AM","Franklin County","Alabama","South","East South Central","01059","34.441989","-87.842814 ","10728","140","10728","140","","2019","31362","NYTIMES-USCENSUS"
"8/29/2022 12:00:00 AM","Franklin County","North Carolina","South","South Atlantic","37069","36.088241","-78.28309 ","23898","83","23898","83","","2019","69685","NYTIMES-USCENSUS"
"8/29/2022 12:00:00 AM","Franklin County","Idaho","West","Mountain","16041","42.173609","-111.822965 ","2489","30","2489","30","","2019","13876","NYTIMES-USCENSUS"
"8/29/2022 12:00:00 AM","Franklin County","Vermont","Northeast","New England","50011","44.858964","-72.909402 ","10821","69","10821","69","","2019","49402","NYTIMES-USCENSUS"
"8/29/2022 12:00:00 AM","Franklin County","Pennsylvania","Northeast","Middle Atlantic","42055","39.926772","-77.724521 ","45270","725","45270","725","","2019","155027","NYTIMES-USCENSUS"
"8/29/2022 12:00:00 AM","Franklin County","New York","Northeast","Middle Atlantic","36033","44.594376","-74.31067 ","10906","49","10906","49","","2019","50022","NYTIMES-USCENSUS"
"8/29/2022 12:00:00 AM","Franklin County","Missouri","Midwest","West North Central","29071","38.413003","-91.072832 ","28553","387","28553","387","","2019","103967","NYTIMES-USCENSUS"
"8/29/2022 12:00:00 AM","Franklin County","Maine","Northeast","New England","23007","44.976724","-70.414935 ","6615","65","6615","65","","2019","30199","NYTIMES-USCENSUS"
"8/29/2022 12:00:00 AM","Franklin County","Virginia","South","South Atlantic","51067","36.991186","-79.882715 ","12769","206","12769","206","","2019","56042","NYTIMES-USCENSUS"
"8/29/2022 12:00:00 AM","Franklin County","Florida","South","South Atlantic","12037","29.677794","-84.815213 ","3362","55","3362","55","","2019","12125","NYTIMES-USCENSUS"
"8/29/2022 12:00:00 AM","Franklin County","Tennessee","South","East South Central","47051","35.155926","-86.099203 ","14245","193","14245","193","","2019","42208","NYTIMES-USCENSUS"
"8/29/2022 12:00:00 AM","Franklin County","Kentucky","South","East South Central","21073","38.234919","-84.868786 ","16496","164","16496","164","","2019","50991","NYTIMES-USCENSUS"
"8/29/2022 12:00:00 AM","Franklin County","Arkansas","South","West South Central","05047","35.508558","-93.887665 ","4165","74","4165","74","","2019","17715","NYTIMES-USCENSUS"
"8/29/2022 12:00:00 AM","Franklin County","Georgia","South","South Atlantic","13119","34.375266","-83.227532 ","5797","105","5797","105","","2019","23349","NYTIMES-USCENSUS"
"8/29/2022 12:00:00 AM","Franklin County","Iowa","Midwest","West North Central","19069","42.736545","-93.271415 ","2746","44","2746","44","","2019","10070","NYTIMES-USCENSUS"
"8/29/2022 12:00:00 AM","Franklin County","Ohio","Midwest","East North Central","39049","39.969875","-83.009086 ","332715","2672","332715","2672","","2019","1316756","NYTIMES-USCENSUS"
"8/29/2022 12:00:00 AM","Franklin County","Nebraska","Midwest","West North Central","31061","40.183203","-98.96208 ","460","13","460","13","","2019","2979","NYTIMES-USCENSUS"
"8/29/2022 12:00:00 AM","Franklin County","Texas","South","West South Central","48159","33.175846","-95.219066 ","2420","45","2420","45","","2019","10725","NYTIMES-USCENSUS"
"8/29/2022 12:00:00 AM","Franklin County","Kansas","Midwest","West North Central","20059","38.558019","-95.278962 ","7519","92","7519","92","","2019","25544","NYTIMES-USCENSUS"
"8/29/2022 12:00:00 AM","Franklin County","Indiana","Midwest","East North Central","18047","39.409762","-85.066964 ","4847","67","4847","67","","2019","22758","NYTIMES-USCENSUS"
"8/29/2022 12:00:00 AM","Franklin County","Mississippi","South","East South Central","28037","31.477773","-90.895457 ","2158","39","2158","39","","2019","7713","NYTIMES-USCENSUS"
"8/29/2022 12:00:00 AM","Franklin County","Massachusetts","Northeast","New England","25011","42.584504","-72.591792 ","12933","159","12933","159","","2019","70180","NYTIMES-USCENSUS"
"8/29/2022 12:00:00 AM","Forsyth County","North Carolina","South","South Atlantic","37067","36.132466","-80.256961 ","109314","862","109314","862","","2019","382295","NYTIMES-USCENSUS"
"8/29/2022 12:00:00 AM","Forest County","Pennsylvania","Northeast","Middle Atlantic","42053","41.513304","-79.249705 ","2405","36","2405","36","","2019","7247","NYTIMES-USCENSUS"
"8/29/2022 12:00:00 AM","Ford County","Illinois","Midwest","East North Central","17053","40.596539","-88.224588 ","4971","77","4971","77","","2019","12961","NYTIMES-USCENSUS"
"8/29/2022 12:00:00 AM","Floyd County","Texas","South","West South Central","48153","34.07373","-101.303274 ","2156","48","2156","48","","2019","5712","NYTIMES-USCENSUS"
"8/29/2022 12:00:00 AM","Floyd County","Indiana","Midwest","East North Central","18043","38.318081","-85.911847 ","21910","311","21910","311","","2019","78522","NYTIMES-USCENSUS"
"8/29/2022 12:00:00 AM","Floyd County","Georgia","South","South Atlantic","13115","34.263692","-85.213685 ","30239","536","30239","536","","2019","98498","NYTIMES-USCENSUS"
"8/29/2022 12:00:00 AM","Floyd County","Iowa","Midwest","West North Central","19067","43.052741","-92.787367 ","3944","63","3944","63","","2019","15642","NYTIMES-USCENSUS"
"8/29/2022 12:00:00 AM","Floyd County","Kentucky","South","East South Central","21071","37.552456","-82.739724 ","14591","230","14591","230","","2019","35589","NYTIMES-USCENSUS"
"8/29/2022 12:00:00 AM","Dodge County","Wisconsin","Midwest","East North Central","55027","43.429628","-88.701939 ","29700","345","29700","345","","2019","87839","NYTIMES-USCENSUS"
"8/29/2022 12:00:00 AM","Dodge County","Minnesota","Midwest","West North Central","27039","44.020706","-92.869353 ","6318","22","6318","22","","2019","20934","NYTIMES-USCENSUS"
"8/29/2022 12:00:00 AM","Dodge County","Georgia","South","South Atlantic","13091","32.164369","-83.167866 ","5676","161","5676","161","","2019","20605","NYTIMES-USCENSUS"
"8/29/2022 12:00:00 AM","Dickinson County","Iowa","Midwest","West North Central","19059","43.389611","-95.196057 ","4409","76","4409","76","","2019","17258","NYTIMES-USCENSUS"
"8/29/2022 12:00:00 AM","Coffee County","Alabama","South","East South Central","01031","31.402258","-85.989602 ","15623","237","15623","237","","2019","52342","NYTIMES-USCENSUS"
"8/29/2022 12:00:00 AM","Codington County","South Dakota","Midwest","West North Central","46029","44.966285","-97.198837 ","9376","102","9376","102","","2019","28009","NYTIMES-USCENSUS"
"8/29/2022 12:00:00 AM","Coconino County","Arizona","West","Mountain","04005","35.829692","-111.773728 ","49100","491","49100","491","","2019","143476","NYTIMES-USCENSUS"
"8/29/2022 12:00:00 AM","Cocke County","Tennessee","South","East South Central","47029","35.916198","-83.119224 ","13103","230","13103","230","","2019","36004","NYTIMES-USCENSUS"
"8/29/2022 12:00:00 AM","Cochran County","Texas","South","West South Central","48079","33.60844","-102.830449 ","950","23","950","23","","2019","2853","NYTIMES-USCENSUS"
"8/29/2022 12:00:00 AM","Cochise County","Arizona","West","Mountain","04003","31.840129","-109.775163 ","35546","590","35546","590","","2019","125922","NYTIMES-USCENSUS"
"8/29/2022 12:00:00 AM","Cobb County","Georgia","South","South Atlantic","13067","33.939929","-84.574121 ","201489","1930","201489","1930","","2019","760141","NYTIMES-USCENSUS"
"8/29/2022 12:00:00 AM","Coal County","Oklahoma","South","West South Central","40029","34.582861","-96.288039 ","1875","24","1875","24","","2019","5495","NYTIMES-USCENSUS"
"8/29/2022 12:00:00 AM","Coahoma County","Mississippi","South","East South Central","28027","34.230316","-90.60401 ","7294","131","7294","131","","2019","22124","NYTIMES-USCENSUS"
"8/29/2022 12:00:00 AM","Cloud County","Kansas","Midwest","West North Central","20029","39.487329","-97.64139 ","2412","43","2412","43","","2019","8786","NYTIMES-USCENSUS"
"8/29/2022 12:00:00 AM","Clinton County","Ohio","Midwest","East North Central","39027","39.416681","-83.804583 ","11492","172","11492","172","","2019","41968","NYTIMES-USCENSUS"
"8/29/2022 12:00:00 AM","Clinch County","Georgia","South","South Atlantic","13065","30.917653","-82.702614 ","2355","43","2355","43","","2019","6618","NYTIMES-USCENSUS"
"8/29/2022 12:00:00 AM","Cleveland County","Arkansas","South","West South Central","05025","33.893201","-92.188714 ","2481","39","2481","39","","2019","7956","NYTIMES-USCENSUS"
"8/29/2022 12:00:00 AM","Clermont County","Ohio","Midwest","East North Central","39025","39.052054","-84.149485 ","58610","569","58610","569","","2019","206428","NYTIMES-USCENSUS"
"8/29/2022 12:00:00 AM","Cleburne County","Arkansas","South","West South Central","05023","35.566315","-92.05995 ","7358","133","7358","133","","2019","24919","NYTIMES-USCENSUS"
"8/29/2022 12:00:00 AM","Clearfield County","Pennsylvania","Northeast","Middle Atlantic","42033","41.006862","-78.477724 ","21559","363","21559","363","","2019","79255","NYTIMES-USCENSUS"
"8/29/2022 12:00:00 AM","Canyon County","Idaho","West","Mountain","16027","43.625796","-116.709058 ","66513","701","66513","701","","2019","229849","NYTIMES-USCENSUS"
"8/29/2022 12:00:00 AM","Cannon County","Tennessee","South","East South Central","47015","35.808394","-86.062404 ","4712","68","4712","68","","2019","14678","NYTIMES-USCENSUS"
"8/29/2022 12:00:00 AM","Candler County","Georgia","South","South Atlantic","13043","32.40395","-82.071266 ","2454","104","2454","104","","2019","10803","NYTIMES-USCENSUS"
"8/29/2022 12:00:00 AM","Canadian County","Oklahoma","South","West South Central","40017","35.543354","-97.979889 ","44109","396","44109","396","","2019","148306","NYTIMES-USCENSUS"
"8/29/2022 12:00:00 AM","Camp County","Texas","South","West South Central","48063","32.974581","-94.979085 ","3236","76","3236","76","","2019","13094","NYTIMES-USCENSUS"
"8/29/2022 12:00:00 AM","Cameron Parish","Louisiana","South","West South Central","22023","29.871812","-93.164948 ","1307","8","1307","8","","2019","6973","NYTIMES-USCENSUS"
"8/29/2022 12:00:00 AM","Cameron County","Pennsylvania","Northeast","Middle Atlantic","42023","41.438291","-78.198323 ","913","21","913","21","","2019","4447","NYTIMES-USCENSUS"
"8/29/2022 12:00:00 AM","Camden County","New Jersey","Northeast","Middle Atlantic","34007","39.802407","-74.961249 ","149451","1886","149451","1886","","2019","506471","NYTIMES-USCENSUS"
"8/29/2022 12:00:00 AM","Cambria County","Pennsylvania","Northeast","Middle Atlantic","42021","40.510227","-78.710477 ","38538","754","38538","754","","2019","130192","NYTIMES-USCENSUS"
"8/29/2022 12:00:00 AM","Camas County","Idaho","West","Mountain","16025","43.502552","-114.772135 ","167","2","167","2","","2019","1106","NYTIMES-USCENSUS"
"8/29/2022 12:00:00 AM","Calvert County","Maryland","South","South Atlantic","24009","38.522719","-76.529762 ","13214","153","13214","153","","2019","92525","NYTIMES-USCENSUS"
"8/29/2022 12:00:00 AM","Calumet County","Wisconsin","Midwest","East North Central","55015","44.07841","-88.212132 ","15818","126","15818","126","","2019","50089","NYTIMES-USCENSUS"
"8/29/2022 12:00:00 AM","Calloway County","Kentucky","South","East South Central","21035","36.620978","-88.274086 ","10381","98","10381","98","","2019","39001","NYTIMES-USCENSUS"
"8/29/2022 12:00:00 AM","Callaway County","Missouri","Midwest","West North Central","29027","38.835547","-91.923446 ","13213","135","13213","135","","2019","44743","NYTIMES-USCENSUS"
"8/29/2022 12:00:00 AM","Callahan County","Texas","South","West South Central","48059","32.29315","-99.372249 ","3238","74","3238","74","","2019","13943","NYTIMES-USCENSUS"
"8/29/2022 12:00:00 AM","Calhoun County","West Virginia","South","South Atlantic","54013","38.844159","-81.115478 ","2109","15","2109","15","","2019","7109","NYTIMES-USCENSUS"
"8/29/2022 12:00:00 AM","Caledonia County","Vermont","Northeast","New England","50005","44.468791","-72.112168 ","6244","31","6244","31","","2019","29993","NYTIMES-USCENSUS"
"8/29/2022 12:00:00 AM","Caldwell Parish","Louisiana","South","West South Central","22021","32.101219","-92.114231 ","4110","55","4110","55","","2019","9918","NYTIMES-USCENSUS"
"8/29/2022 12:00:00 AM","Caldwell County","North Carolina","South","South Atlantic","37027","35.966396","-81.51254 ","25644","316","25644","316","","2019","82178","NYTIMES-USCENSUS"
"8/29/2022 12:00:00 AM","Calcasieu Parish","Louisiana","South","West South Central","22019","30.229559","-93.358015 ","61961","719","61961","719","","2019","203436","NYTIMES-USCENSUS"
"8/29/2022 12:00:00 AM","Calaveras County","California","West","Pacific","06009","38.191068","-120.554107 ","8872","133","8872","133","","2019","45905","NYTIMES-USCENSUS"
"8/29/2022 12:00:00 AM","Caddo Parish","Louisiana","South","West South Central","22017","32.580106","-93.88497 ","79663","1189","79663","1189","","2019","240204","NYTIMES-USCENSUS"
"8/29/2022 12:00:00 AM","Caddo County","Oklahoma","South","West South Central","40015","35.16792","-98.381045 ","9134","173","9134","173","","2019","28762","NYTIMES-USCENSUS"
"8/29/2022 12:00:00 AM","Cache County","Utah","West","Mountain","49005","41.734117","-111.745399 ","39796","113","39796","113","","2019","128289","NYTIMES-USCENSUS"
"8/29/2022 12:00:00 AM","Cabell County","West Virginia","South","South Atlantic","54011","38.419578","-82.243397 ","31567","401","31567","401","","2019","91945","NYTIMES-USCENSUS"
"8/29/2022 12:00:00 AM","Cabarrus County","North Carolina","South","South Atlantic","37025","35.388346","-80.552728 ","64706","515","64706","515","","2019","216453","NYTIMES-USCENSUS"
"8/29/2022 12:00:00 AM","Ford County","Kansas","Midwest","West North Central","20057","37.688416","-99.884748 ","11530","117","11530","117","","2019","33619","NYTIMES-USCENSUS"
"8/29/2022 12:00:00 AM","Fond du Lac County","Wisconsin","Midwest","East North Central","55039","43.754722","-88.493284 ","35603","291","35603","291","","2019","103403","NYTIMES-USCENSUS"
"8/29/2022 12:00:00 AM","Fluvanna County","Virginia","South","South Atlantic","51065","37.830584","-78.283494 ","6226","48","6226","48","","2019","27270","NYTIMES-USCENSUS"
"8/29/2022 12:00:00 AM","Floyd County","Virginia","South","South Atlantic","51063","36.931433","-80.350266 ","2962","50","2962","50","","2019","15749","NYTIMES-USCENSUS"
"8/29/2022 12:00:00 AM","Dodge County","Nebraska","Midwest","West North Central","31053","41.577008","-96.645852 ","10922","111","10922","111","","2019","36565","NYTIMES-USCENSUS"
"8/29/2022 12:00:00 AM","Dixon County","Nebraska","Midwest","West North Central","31051","42.485086","-96.855784 ","1302","11","1302","11","","2019","5636","NYTIMES-USCENSUS"
"8/29/2022 12:00:00 AM","Dixie County","Florida","South","South Atlantic","12029","29.552675","-83.236232 ","4627","75","4627","75","","2019","16826","NYTIMES-USCENSUS"
"8/29/2022 12:00:00 AM","Divide County","North Dakota","Midwest","West North Central","38023","48.814754","-103.509326 ","527","4","527","4","","2019","2264","NYTIMES-USCENSUS"
"8/29/2022 12:00:00 AM","Dinwiddie County","Virginia","South","South Atlantic","51053","37.073498","-77.635492 ","6546","96","6546","96","","2019","28544","NYTIMES-USCENSUS"
"8/29/2022 12:00:00 AM","Dimmit County","Texas","South","West South Central","48127","28.423587","-99.765871 ","6052","51","6052","51","","2019","10124","NYTIMES-USCENSUS"
"8/29/2022 12:00:00 AM","Dillon County","South Carolina","South","South Atlantic","45033","34.390172","-79.374964 ","10707","146","10707","146","","2019","30479","NYTIMES-USCENSUS"
"8/29/2022 12:00:00 AM","Dillingham Census Area","Alaska","West","Pacific","02070","59.543326","-158.267123 ","2111","12","2111","12","","2019","4916","NYTIMES-USCENSUS"
"8/29/2022 12:00:00 AM","Dickson County","Tennessee","South","East South Central","47043","36.145533","-87.364155 ","17839","252","17839","252","","2019","53948","NYTIMES-USCENSUS"
"8/29/2022 12:00:00 AM","Dickinson County","Kansas","Midwest","West North Central","20041","38.867735","-97.157943 ","5349","86","5349","86","","2019","18466","NYTIMES-USCENSUS"
"8/29/2022 12:00:00 AM","Dickey County","North Dakota","Midwest","West North Central","38021","46.107756","-98.496518 ","1649","39","1649","39","","2019","4872","NYTIMES-USCENSUS"
"8/29/2022 12:00:00 AM","Dickens County","Texas","South","West South Central","48125","33.615363","-100.787617 ","490","16","490","16","","2019","2211","NYTIMES-USCENSUS"
"8/29/2022 12:00:00 AM","DeWitt County","Texas","South","West South Central","48123","29.082346","-97.361654 ","6987","101","6987","101","","2019","20160","NYTIMES-USCENSUS"
"8/29/2022 12:00:00 AM","Dewey County","South Dakota","Midwest","West North Central","46041","45.148049","-100.837953 ","3241","44","3241","44","","2019","5892","NYTIMES-USCENSUS"
"8/29/2022 12:00:00 AM","Deuel County","South Dakota","Midwest","West North Central","46039","44.75629","-96.690239 ","1101","12","1101","12","","2019","4351","NYTIMES-USCENSUS"
"8/29/2022 12:00:00 AM","DeSoto County","Florida","South","South Atlantic","12027","27.190581","-81.806253 ","10635","157","10635","157","","2019","38001","NYTIMES-USCENSUS"
"8/29/2022 12:00:00 AM","Desha County","Arkansas","South","West South Central","05041","33.828752","-91.244103 ","3396","41","3396","41","","2019","11361","NYTIMES-USCENSUS"
"8/29/2022 12:00:00 AM","Deschutes County","Oregon","West","Pacific","41017","43.915118","-121.225575 ","56941","328","56941","328","","2019","197692","NYTIMES-USCENSUS"
"8/29/2022 12:00:00 AM","Des Moines County","Iowa","Midwest","West North Central","19057","40.915339","-91.186925 ","10157","146","10157","146","","2019","38967","NYTIMES-USCENSUS"
"8/29/2022 12:00:00 AM","Denver County","Colorado","West","Mountain","08031","39.76185","-104.881105 ","208083","1426","208083","1426","","2019","727211","NYTIMES-USCENSUS"
"8/29/2022 12:00:00 AM","Denton County","Texas","South","West South Central","48121","33.205132","-97.12114 ","206564","1390","206564","1390","","2019","887207","NYTIMES-USCENSUS"
"8/29/2022 12:00:00 AM","Dent County","Missouri","Midwest","West North Central","29065","37.603072","-91.489717 ","3609","89","3609","89","","2019","15573","NYTIMES-USCENSUS"
"8/29/2022 12:00:00 AM","Delta County","Michigan","Midwest","East North Central","26041","45.805229","-86.901938 ","11080","164","11080","164","","2019","35784","NYTIMES-USCENSUS"
"8/29/2022 12:00:00 AM","Delaware County","Iowa","Midwest","West North Central","19055","42.472937","-91.366767 ","4421","69","4421","69","","2019","17011","NYTIMES-USCENSUS"
"8/29/2022 12:00:00 AM","Colonial Heights city","Virginia","South","South Atlantic","51570","37.261685","-77.396804 ","5791","104","5791","104","","2019","17370","NYTIMES-USCENSUS"
"8/29/2022 12:00:00 AM","Collingsworth County","Texas","South","West South Central","48087","34.963358","-100.272135 ","801","16","801","16","","2019","2920","NYTIMES-USCENSUS"
"8/29/2022 12:00:00 AM","Collin County","Texas","South","West South Central","48085","33.194494","-96.579428 ","250995","1540","250995","1540","","2019","1034730","NYTIMES-USCENSUS"
"8/29/2022 12:00:00 AM","Collier County","Florida","South","South Atlantic","12021","26.118786","-81.400955 ","97078","1062","97078","1062","","2019","384902","NYTIMES-USCENSUS"
"8/29/2022 12:00:00 AM","Colleton County","South Carolina","South","South Atlantic","45029","32.835018","-80.655244 ","10132","222","10132","222","","2019","37677","NYTIMES-USCENSUS"
"8/29/2022 12:00:00 AM","Colfax County","New Mexico","West","Mountain","35007","36.612964","-104.64011 ","2879","68","2879","68","","2019","11941","NYTIMES-USCENSUS"
"8/29/2022 12:00:00 AM","Coles County","Illinois","Midwest","East North Central","17029","39.51368","-88.220782 ","17350","180","17350","180","","2019","50621","NYTIMES-USCENSUS"
"8/29/2022 12:00:00 AM","Coleman County","Texas","South","West South Central","48083","31.914205","-99.346622 ","1836","73","1836","73","","2019","8175","NYTIMES-USCENSUS"
"8/29/2022 12:00:00 AM","Cole County","Missouri","Midwest","West North Central","29051","38.503233","-92.280027 ","21991","293","21991","293","","2019","76745","NYTIMES-USCENSUS"
"8/29/2022 12:00:00 AM","Colbert County","Alabama","South","East South Central","01033","34.703112","-87.801457 ","18935","266","18935","266","","2019","55241","NYTIMES-USCENSUS"
"8/29/2022 12:00:00 AM","Coke County","Texas","South","West South Central","48081","31.87711","-100.635231 ","974","20","974","20","","2019","3387","NYTIMES-USCENSUS"
"8/29/2022 12:00:00 AM","Coffey County","Kansas","Midwest","West North Central","20031","38.23645","-95.729137 ","2605","44","2605","44","","2019","8179","NYTIMES-USCENSUS"
"8/29/2022 12:00:00 AM","Beltrami County","Minnesota","Midwest","West North Central","27007","47.879508","-95.00505 ","13114","129","13114","129","","2019","47188","NYTIMES-USCENSUS"
"8/29/2022 12:00:00 AM","Belmont County","Ohio","Midwest","East North Central","39013","40.017682","-80.967727 ","17467","320","17467","320","","2019","67006","NYTIMES-USCENSUS"
"8/29/2022 12:00:00 AM","Bell County","Kentucky","South","East South Central","21013","36.728928","-83.680718 ","10010","163","10010","163","","2019","26032","NYTIMES-USCENSUS"
"8/29/2022 12:00:00 AM","Belknap County","New Hampshire","Northeast","New England","33001","43.519109","-71.425366 ","15703","189","15703","189","","2019","61303","NYTIMES-USCENSUS"
"8/29/2022 12:00:00 AM","Bee County","Texas","South","West South Central","48025","28.416077","-97.742586 ","9373","154","9373","154","","2019","32565","NYTIMES-USCENSUS"
"8/29/2022 12:00:00 AM","Bedford County","Virginia","South","South Atlantic","51019","37.312257","-79.527223 ","19672","256","19672","256","","2019","78997","NYTIMES-USCENSUS"
"8/29/2022 12:00:00 AM","Beckham County","Oklahoma","South","West South Central","40009","35.270601","-99.690057 ","6505","107","6505","107","","2019","21859","NYTIMES-USCENSUS"
"8/29/2022 12:00:00 AM","Becker County","Minnesota","Midwest","West North Central","27005","46.937629","-95.741757 ","9714","99","9714","99","","2019","34423","NYTIMES-USCENSUS"
"8/29/2022 12:00:00 AM","Beaverhead County","Montana","West","Mountain","30001","45.133863","-112.892869 ","2325","30","2325","30","","2019","9453","NYTIMES-USCENSUS"
"8/29/2022 12:00:00 AM","Beauregard Parish","Louisiana","South","West South Central","22011","30.645018","-93.340253 ","10424","144","10424","144","","2019","37497","NYTIMES-USCENSUS"
"8/29/2022 12:00:00 AM","Beaufort County","South Carolina","South","South Atlantic","45013","32.358112","-80.689422 ","49121","389","49121","389","","2019","192122","NYTIMES-USCENSUS"
"8/29/2022 12:00:00 AM","Beadle County","South Dakota","Midwest","West North Central","46005","44.418265","-98.279422 ","5028","62","5028","62","","2019","18453","NYTIMES-USCENSUS"
"8/29/2022 12:00:00 AM","Allen County","Kentucky","South","East South Central","21003","36.75077","-86.192458 ","7606","112","7606","112","","2019","21315","NYTIMES-USCENSUS"
"8/29/2022 12:00:00 AM","Allegheny County","Pennsylvania","Northeast","Middle Atlantic","42003","40.469757","-79.980451 ","309499","3483","309499","3483","","2019","1216045","NYTIMES-USCENSUS"
"8/29/2022 12:00:00 AM","Alleghany County","Virginia","South","South Atlantic","51005","37.787905","-80.008669 ","3913","103","3913","103","","2019","14860","NYTIMES-USCENSUS"
"8/29/2022 12:00:00 AM","Allegany County","New York","Northeast","Middle Atlantic","36003","42.247853","-78.026153 ","9882","159","9882","159","","2019","46091","NYTIMES-USCENSUS"
"8/29/2022 12:00:00 AM","Allegan County","Michigan","Midwest","East North Central","26005","42.421251","-86.261403 ","29978","372","29978","372","","2019","118081","NYTIMES-USCENSUS"
"8/29/2022 12:00:00 AM","Allamakee County","Iowa","Midwest","West North Central","19005","43.274964","-91.382751 ","3052","62","3052","62","","2019","13687","NYTIMES-USCENSUS"
"8/29/2022 12:00:00 AM","Alfalfa County","Oklahoma","South","West South Central","40003","36.729703","-98.323445 ","1770","16","1770","16","","2019","5702","NYTIMES-USCENSUS"
"8/29/2022 12:00:00 AM","Alexandria city","Virginia","South","South Atlantic","51510","38.819251","-77.08367 ","40664","200","40664","200","","2019","159428","NYTIMES-USCENSUS"
"8/29/2022 12:00:00 AM","Alexander County","North Carolina","South","South Atlantic","37003","35.920951","-81.177467 ","11535","145","11535","145","","2019","37497","NYTIMES-USCENSUS"
"8/29/2022 12:00:00 AM","Alcorn County","Mississippi","South","East South Central","28003","34.886569","-88.581109 ","11596","162","11596","162","","2019","36953","NYTIMES-USCENSUS"
"8/29/2022 12:00:00 AM","Alcona County","Michigan","Midwest","East North Central","26001","44.657509","-83.29458 ","1824","73","1824","73","","2019","10405","NYTIMES-USCENSUS"
"8/29/2022 12:00:00 AM","Albemarle County","Virginia","South","South Atlantic","51003","38.024184","-78.553506 ","22280","180","22280","180","","2019","109330","NYTIMES-USCENSUS"
"8/29/2022 12:00:00 AM","Albany County","New York","Northeast","Middle Atlantic","36001","42.58824","-73.97401 ","71095","554","71095","554","","2019","305506","NYTIMES-USCENSUS"
"8/29/2022 12:00:00 AM","Alamosa County","Colorado","West","Mountain","08003","37.568442","-105.788041 ","5279","62","5279","62","","2019","16233","NYTIMES-USCENSUS"
"8/29/2022 12:00:00 AM","Alameda County","California","West","Pacific","06001","37.647139","-121.912488 ","359347","1988","359347","1988","","2019","1671329","NYTIMES-USCENSUS"
"8/29/2022 12:00:00 AM","Alamance County","North Carolina","South","South Atlantic","37001","36.043954","-79.400573 ","54226","512","54226","512","","2019","169509","NYTIMES-USCENSUS"
"8/29/2022 12:00:00 AM","Alachua County","Florida","South","South Atlantic","12001","29.67574","-82.357221 ","82098","716","82098","716","","2019","269043","NYTIMES-USCENSUS"
"8/29/2022 12:00:00 AM","Aitkin County","Minnesota","Midwest","West North Central","27001","46.602446","-93.41976 ","3347","63","3347","63","","2019","15886","NYTIMES-USCENSUS"
"8/29/2022 12:00:00 AM","Aiken County","South Carolina","South","South Atlantic","45003","33.550013","-81.632983 ","46870","442","46870","442","","2019","170872","NYTIMES-USCENSUS"
"8/29/2022 12:00:00 AM","Addison County","Vermont","Northeast","New England","50001","44.031248","-73.141581 ","6437","22","6437","22","","2019","36777","NYTIMES-USCENSUS"
"8/29/2022 12:00:00 AM","Adams County","Colorado","West","Mountain","08001","39.874325","-104.331872 ","157053","1439","157053","1439","","2019","517421","NYTIMES-USCENSUS"
"8/29/2022 12:00:00 AM","Adair County","Missouri","Midwest","West North Central","29001","40.190666","-92.603592 ","6131","68","6131","68","","2019","25343","NYTIMES-USCENSUS"
"8/29/2022 12:00:00 AM","Ada County","Idaho","West","Mountain","16001","43.451477","-116.244376 ","150142","1056","150142","1056","","2019","481587","NYTIMES-USCENSUS"
"8/29/2022 12:00:00 AM","Accomack County","Virginia","South","South Atlantic","51001","37.765944","-75.757807 ","8057","111","8057","111","","2019","32316","NYTIMES-USCENSUS"
"8/29/2022 12:00:00 AM","Acadia Parish","Louisiana","South","West South Central","22001","30.291497","-92.411037 ","17788","298","17788","298","","2019","62045","NYTIMES-USCENSUS"
"8/29/2022 12:00:00 AM","Abbeville County","South Carolina","South","South Atlantic","45001","34.229041","-82.454058 ","7147","69","7147","69","","2019","24527","NYTIMES-USCENSUS"
"8/29/2022 12:00:00 AM","Butts County","Georgia","South","South Atlantic","13035","33.290355","-83.958221 ","7213","166","7213","166","","2019","24936","NYTIMES-USCENSUS"
"8/29/2022 12:00:00 AM","Butte County","California","West","Pacific","06007","39.665336","-121.603209 ","47265","452","47265","452","","2019","219186","NYTIMES-USCENSUS"
"8/29/2022 12:00:00 AM","Broadwater County","Montana","West","Mountain","30007","46.329849","-111.497873 ","1425","22","1425","22","","2019","6237","NYTIMES-USCENSUS"
"8/29/2022 12:00:00 AM","Bristol County","Massachusetts","Northeast","New England","25005","41.748588","-71.088894 ","167235","2249","167235","2249","","2019","565217","NYTIMES-USCENSUS"
"8/29/2022 12:00:00 AM","Bristol city","Virginia","South","South Atlantic","51520","36.616954","-82.157564 ","5218","84","5218","84","","2019","16762","NYTIMES-USCENSUS"
"8/29/2022 12:00:00 AM","Briscoe County","Texas","South","West South Central","48045","34.525172","-101.205893 ","501","8","501","8","","2019","1546","NYTIMES-USCENSUS"
"8/29/2022 12:00:00 AM","Brevard County","Florida","South","South Atlantic","12009","28.298311","-80.700333 ","162249","2274","162249","2274","","2019","601942","NYTIMES-USCENSUS"
"8/29/2022 12:00:00 AM","Bremer County","Iowa","Midwest","West North Central","19017","42.780895","-92.327356 ","5992","85","5992","85","","2019","25062","NYTIMES-USCENSUS"
"8/29/2022 12:00:00 AM","Breckinridge County","Kentucky","South","East South Central","21027","37.777988","-86.432919 ","5947","85","5947","85","","2019","20477","NYTIMES-USCENSUS"
"8/29/2022 12:00:00 AM","Breathitt County","Kentucky","South","East South Central","21025","37.517807","-83.317158 ","4626","56","4626","56","","2019","12630","NYTIMES-USCENSUS"
"8/29/2022 12:00:00 AM","Brazoria County","Texas","South","West South Central","48039","29.167817","-95.434647 ","109442","1008","109442","1008","","2019","374264","NYTIMES-USCENSUS"
"8/29/2022 12:00:00 AM","Braxton County","West Virginia","South","South Atlantic","54007","38.69933","-80.73166 ","4635","48","4635","48","","2019","13957","NYTIMES-USCENSUS"
"8/29/2022 12:00:00 AM","Brantley County","Georgia","South","South Atlantic","13025","31.197334","-81.982978 ","4520","113","4520","113","","2019","19109","NYTIMES-USCENSUS"
"8/29/2022 12:00:00 AM","Branch County","Michigan","Midwest","East North Central","26023","41.918455","-85.066885 ","13263","219","13263","219","","2019","43517","NYTIMES-USCENSUS"
"8/29/2022 12:00:00 AM","Bradley County","Tennessee","South","East South Central","47011","35.153914","-84.859414 ","36157","428","36157","428","","2019","108110","NYTIMES-USCENSUS"
"8/29/2022 12:00:00 AM","Bradford County","Pennsylvania","Northeast","Middle Atlantic","42015","41.791504","-76.502123 ","17880","215","17880","215","","2019","60323","NYTIMES-USCENSUS"
"8/29/2022 12:00:00 AM","Bracken County","Kentucky","South","East South Central","21023","38.680365","-84.115235 ","2483","28","2483","28","","2019","8303","NYTIMES-USCENSUS"
"8/29/2022 12:00:00 AM","Boyle County","Kentucky","South","East South Central","21021","37.618104","-84.868352 ","10118","143","10118","143","","2019","30060","NYTIMES-USCENSUS"
"8/29/2022 12:00:00 AM","Boyd County","Kentucky","South","East South Central","21019","38.360003","-82.681406 ","19604","191","19604","191","","2019","46718","NYTIMES-USCENSUS"
"8/29/2022 12:00:00 AM","Box Elder County","Utah","West","Mountain","49003","41.622623","-113.060252 ","15172","127","15172","127","","2019","56046","NYTIMES-USCENSUS"
"8/29/2022 12:00:00 AM","Box Butte County","Nebraska","Midwest","West North Central","31013","42.21038","-103.081779 ","2365","17","2365","17","","2019","10783","NYTIMES-USCENSUS"
"8/29/2022 12:00:00 AM","Bowman County","North Dakota","Midwest","West North Central","38011","46.110144","-103.505943 ","883","9","883","9","","2019","3024","NYTIMES-USCENSUS"
"8/29/2022 12:00:00 AM","Bowie County","Texas","South","West South Central","48037","33.446065","-94.422393 ","22553","442","22553","442","","2019","93245","NYTIMES-USCENSUS"
"8/29/2022 12:00:00 AM","Bourbon County","Kansas","Midwest","West North Central","20011","37.8561","-94.850928 ","4996","55","4996","55","","2019","14534","NYTIMES-USCENSUS"
"8/29/2022 12:00:00 AM","Boundary County","Idaho","West","Mountain","16021","48.773131","-116.524668 ","2262","64","2262","64","","2019","12245","NYTIMES-USCENSUS"
"8/29/2022 12:00:00 AM","Boulder County","Colorado","West","Mountain","08013","40.094962","-105.397704 ","83137","396","83137","396","","2019","326196","NYTIMES-USCENSUS"
"8/29/2022 12:00:00 AM","Bottineau County","North Dakota","Midwest","West North Central","38009","48.794412","-100.831257 ","1750","26","1750","26","","2019","6282","NYTIMES-USCENSUS"
"8/29/2022 12:00:00 AM","Botetourt County","Virginia","South","South Atlantic","51023","37.565482","-79.797546 ","8786","107","8786","107","","2019","33419","NYTIMES-USCENSUS"
"8/29/2022 12:00:00 AM","Bertie County","North Carolina","South","South Atlantic","37015","36.059043","-76.962364 ","4892","72","4892","72","","2019","18947","NYTIMES-USCENSUS"
"8/29/2022 12:00:00 AM","Berrien County","Michigan","Midwest","East North Central","26021","41.791382","-86.742543 ","38596","606","38596","606","","2019","153401","NYTIMES-USCENSUS"
"8/29/2022 12:00:00 AM","Bernalillo County","New Mexico","West","Mountain","35001","35.053628","-106.66908 ","177347","2055","177347","2055","","2019","679121","NYTIMES-USCENSUS"
"8/29/2022 12:00:00 AM","Berkshire County","Massachusetts","Northeast","New England","25003","42.371493","-73.217928 ","30702","409","30702","409","","2019","124944","NYTIMES-USCENSUS"
"8/29/2022 12:00:00 AM","Berks County","Pennsylvania","Northeast","Middle Atlantic","42011","40.413957","-75.92686 ","113869","1649","113869","1649","","2019","421164","NYTIMES-USCENSUS"
"8/29/2022 12:00:00 AM","Berkeley County","West Virginia","South","South Atlantic","54003","39.447938","-78.037754 ","40780","319","40780","319","","2019","119171","NYTIMES-USCENSUS"
"8/29/2022 12:00:00 AM","Bergen County","New Jersey","Northeast","Middle Atlantic","34003","40.959698","-74.074727 ","281246","3540","281246","3540","","2019","932202","NYTIMES-USCENSUS"
"8/29/2022 12:00:00 AM","Benzie County","Michigan","Midwest","East North Central","26019","44.636844","-86.231999 ","3858","74","3858","74","","2019","17766","NYTIMES-USCENSUS"
"8/29/2022 12:00:00 AM","Benton County","Washington","West","Pacific","53005","46.228125","-119.516659 ","58661","501","58661","501","","2019","204390","NYTIMES-USCENSUS"
"8/29/2022 12:00:00 AM","Bent County","Colorado","West","Mountain","08011","37.931891","-103.077584 ","2712","47","2712","47","","2019","5577","NYTIMES-USCENSUS"
"8/29/2022 12:00:00 AM","Benson County","North Dakota","Midwest","West North Central","38005","48.071743","-99.351152 ","2143","23","2143","23","","2019","6832","NYTIMES-USCENSUS"
"8/29/2022 12:00:00 AM","Bennington County","Vermont","Northeast","New England","50003","43.035325","-73.11146 ","11196","74","11196","74","","2019","35470","NYTIMES-USCENSUS"
"8/29/2022 12:00:00 AM","Benewah County","Idaho","West","Mountain","16009","47.218451","-116.633541 ","2633","41","2633","41","","2019","9298","NYTIMES-USCENSUS"
"8/29/2022 12:00:00 AM","Ben Hill County","Georgia","South","South Atlantic","13017","31.740772","-83.147197 ","4730","123","4730","123","","2019","16700","NYTIMES-USCENSUS"
"8/29/2022 12:00:00 AM","McIntosh County","Georgia","South","South Atlantic","13191","31.485629","-81.372141 ","2722","39","2722","39","","2019","14378","NYTIMES-USCENSUS"
"8/29/2022 12:00:00 AM","McHenry County","North Dakota","Midwest","West North Central","38049","48.233842","-100.633267 ","1447","31","1447","31","","2019","5745","NYTIMES-USCENSUS"
"8/29/2022 12:00:00 AM","McDuffie County","Georgia","South","South Atlantic","13189","33.480613","-82.479533 ","5709","107","5709","107","","2019","21312","NYTIMES-USCENSUS"
"8/29/2022 12:00:00 AM","McDowell County","North Carolina","South","South Atlantic","37111","35.682271","-82.048044 ","15546","178","15546","178","","2019","45756","NYTIMES-USCENSUS"
"8/29/2022 12:00:00 AM","McDonough County","Illinois","Midwest","East North Central","17109","40.455808","-90.678954 ","8274","114","8274","114","","2019","29682","NYTIMES-USCENSUS"
"8/29/2022 12:00:00 AM","McDonald County","Missouri","Midwest","West North Central","29119","36.627955","-94.343716 ","6256","81","6256","81","","2019","22837","NYTIMES-USCENSUS"
"8/29/2022 12:00:00 AM","McCurtain County","Oklahoma","South","West South Central","40089","34.117073","-94.766086 ","8811","167","8811","167","","2019","32832","NYTIMES-USCENSUS"
"8/29/2022 12:00:00 AM","McCulloch County","Texas","South","West South Central","48307","31.205477","-99.359856 ","1565","48","1565","48","","2019","7984","NYTIMES-USCENSUS"
"8/29/2022 12:00:00 AM","McCreary County","Kentucky","South","East South Central","21147","36.731136","-84.491052 ","6710","85","6710","85","","2019","17231","NYTIMES-USCENSUS"
"8/29/2022 12:00:00 AM","McCracken County","Kentucky","South","East South Central","21145","37.054111","-88.712454 ","22157","290","22157","290","","2019","65418","NYTIMES-USCENSUS"
"8/29/2022 12:00:00 AM","McCormick County","South Carolina","South","South Atlantic","45065","33.897599","-82.316196 ","2492","40","2492","40","","2019","9463","NYTIMES-USCENSUS"
"8/29/2022 12:00:00 AM","McCook County","South Dakota","Midwest","West North Central","46087","43.680416","-97.358048 ","1422","31","1422","31","","2019","5586","NYTIMES-USCENSUS"
"8/29/2022 12:00:00 AM","McClain County","Oklahoma","South","West South Central","40087","35.016436","-97.449803 ","12883","141","12883","141","","2019","40474","NYTIMES-USCENSUS"
"8/29/2022 12:00:00 AM","Mayes County","Oklahoma","South","West South Central","40097","36.303804","-95.235638 ","11604","167","11604","167","","2019","41100","NYTIMES-USCENSUS"
"8/29/2022 12:00:00 AM","Maverick County","Texas","South","West South Central","48323","28.729787","-100.316678 ","23149","471","23149","471","","2019","58722","NYTIMES-USCENSUS"
"8/29/2022 12:00:00 AM","Maury County","Tennessee","South","East South Central","47119","35.615696","-87.077763 ","32253","360","32253","360","","2019","96387","NYTIMES-USCENSUS"
"8/29/2022 12:00:00 AM","Maui County","Hawaii","West","Pacific","15009","20.855931","-156.60155 ","40465","152","40465","152","","2019","167417","NYTIMES-USCENSUS"
"8/29/2022 12:00:00 AM","Mathews County","Virginia","South","South Atlantic","51115","37.425348","-76.268808 ","1741","27","1741","27","","2019","8834","NYTIMES-USCENSUS"
"8/29/2022 12:00:00 AM","Matanuska-Susitna Borough","Alaska","West","Pacific","02170","62.265626","-149.503993 ","38947","246","38947","246","","2019","108317","NYTIMES-USCENSUS"
"8/29/2022 12:00:00 AM","Matagorda County","Texas","South","West South Central","48321","28.77476","-96.001532 ","9645","180","9645","180","","2019","36643","NYTIMES-USCENSUS"
"8/29/2022 12:00:00 AM","Lebanon County","Pennsylvania","Northeast","Middle Atlantic","42075","40.371448","-76.464819 ","40653","532","40653","532","","2019","141793","NYTIMES-USCENSUS"
"8/29/2022 12:00:00 AM","Leavenworth County","Kansas","Midwest","West North Central","20103","39.189511","-95.038977 ","21902","196","21902","196","","2019","81758","NYTIMES-USCENSUS"
"8/29/2022 12:00:00 AM","Leake County","Mississippi","South","East South Central","28079","32.76063","-89.52225 ","7115","122","7115","122","","2019","22786","NYTIMES-USCENSUS"
"8/29/2022 12:00:00 AM","Lea County","New Mexico","West","Mountain","35025","32.795687","-103.413271 ","22294","393","22294","393","","2019","71070","NYTIMES-USCENSUS"
"8/29/2022 12:00:00 AM","Le Sueur County","Minnesota","Midwest","West North Central","27079","44.373424","-93.730143 ","7012","52","7012","52","","2019","28887","NYTIMES-USCENSUS"
"8/29/2022 12:00:00 AM","Le Flore County","Oklahoma","South","West South Central","40079","34.897356","-94.695074 ","14068","109","14068","109","","2019","49853","NYTIMES-USCENSUS"
"8/29/2022 12:00:00 AM","Lawrence County","Arkansas","South","West South Central","05075","36.041098","-91.101153 ","5957","84","5957","84","","2019","16406","NYTIMES-USCENSUS"
"8/29/2022 12:00:00 AM","Lavaca County","Texas","South","West South Central","48285","29.382578","-96.923633 ","4595","123","4595","123","","2019","20154","NYTIMES-USCENSUS"
"8/29/2022 12:00:00 AM","Laurens County","Georgia","South","South Atlantic","13175","32.39322","-82.926317 ","15229","315","15229","315","","2019","47546","NYTIMES-USCENSUS"
"8/29/2022 12:00:00 AM","Laurel County","Kentucky","South","East South Central","21125","37.113268","-84.119395 ","23770","263","23770","263","","2019","60813","NYTIMES-USCENSUS"
"8/29/2022 12:00:00 AM","Lauderdale County","Mississippi","South","East South Central","28075","32.403998","-88.660449 ","20469","374","20469","374","","2019","74125","NYTIMES-USCENSUS"
"8/29/2022 12:00:00 AM","Latimer County","Oklahoma","South","West South Central","40077","34.875137","-95.272262 ","2469","35","2469","35","","2019","10073","NYTIMES-USCENSUS"
"8/29/2022 12:00:00 AM","Latah County","Idaho","West","Mountain","16057","46.81892","-116.730974 ","7339","51","7339","51","","2019","40108","NYTIMES-USCENSUS"
"8/29/2022 12:00:00 AM","Lassen County","California","West","Pacific","06035","40.715287","-120.621223 ","11338","69","11338","69","","2019","30573","NYTIMES-USCENSUS"
"8/29/2022 12:00:00 AM","LaSalle Parish","Louisiana","South","West South Central","22059","31.680083","-92.161596 ","4790","64","4790","64","","2019","14892","NYTIMES-USCENSUS"
"8/29/2022 12:00:00 AM","LaSalle County","Illinois","Midwest","East North Central","17099","41.343341","-88.885931 ","33561","450","33561","450","","2019","108669","NYTIMES-USCENSUS"
"8/29/2022 12:00:00 AM","Las Animas County","Colorado","West","Mountain","08071","37.318831","-104.04411 ","3943","45","3943","45","","2019","14506","NYTIMES-USCENSUS"
"8/29/2022 12:00:00 AM","Larue County","Kentucky","South","East South Central","21123","37.544462","-85.696841 ","4323","74","4323","74","","2019","14398","NYTIMES-USCENSUS"
"8/29/2022 12:00:00 AM","Larimer County","Colorado","West","Mountain","08069","40.658093","-105.486764 ","98308","545","98308","545","","2019","356899","NYTIMES-USCENSUS"
"8/29/2022 12:00:00 AM","Laramie County","Wyoming","West","Mountain","56021","41.29283","-104.660395 ","29659","304","29659","304","","2019","99500","NYTIMES-USCENSUS"
"8/29/2022 12:00:00 AM","LaPorte County","Indiana","Midwest","East North Central","18091","41.549013","-86.744739 ","29102","377","29102","377","","2019","109888","NYTIMES-USCENSUS"
"8/29/2022 12:00:00 AM","Lapeer County","Michigan","Midwest","East North Central","26087","43.088633","-83.224325 ","22591","437","22591","437","","2019","87607","NYTIMES-USCENSUS"
"8/29/2022 12:00:00 AM","Lanier County","Georgia","South","South Atlantic","13173","31.038197","-83.063164 ","2557","27","2557","27","","2019","10423","NYTIMES-USCENSUS"
"8/29/2022 12:00:00 AM","Pondera County","Montana","West","Mountain","30073","48.228604","-112.220761 ","1346","9","1346","9","","2019","5911","NYTIMES-USCENSUS"
"8/29/2022 12:00:00 AM","Polk County","Tennessee","South","East South Central","47139","35.109437","-84.541112 ","5161","84","5161","84","","2019","16832","NYTIMES-USCENSUS"
"8/29/2022 12:00:00 AM","Pointe Coupee Parish","Louisiana","South","West South Central","22077","30.708319","-91.604621 ","7292","96","7292","96","","2019","21730","NYTIMES-USCENSUS"
"8/29/2022 12:00:00 AM","Poinsett County","Arkansas","South","West South Central","05111","35.56887","-90.681104 ","9084","133","9084","133","","2019","23528","NYTIMES-USCENSUS"
"8/29/2022 12:00:00 AM","Pocahontas County","Iowa","Midwest","West North Central","19151","42.734033","-94.678279 ","1779","27","1779","27","","2019","6619","NYTIMES-USCENSUS"
"8/29/2022 12:00:00 AM","Plymouth County","Massachusetts","Northeast","New England","25023","41.987196","-70.741942 ","130851","1757","130851","1757","","2019","521202","NYTIMES-USCENSUS"
"8/29/2022 12:00:00 AM","Plumas County","California","West","Pacific","06063","39.992295","-120.824371 ","4001","13","4001","13","","2019","18807","NYTIMES-USCENSUS"
"8/29/2022 12:00:00 AM","Pleasants County","West Virginia","South","South Atlantic","54073","39.368133","-81.161172 ","2293","38","2293","38","","2019","7460","NYTIMES-USCENSUS"
"8/29/2022 12:00:00 AM","Platte County","Missouri","Midwest","West North Central","29165","39.37869","-94.761477 ","11750","104","11750","104","","2019","104418","NYTIMES-USCENSUS"
"8/29/2022 12:00:00 AM","Ontonagon County","Michigan","Midwest","East North Central","26131","46.835325","-89.276912 ","1174","40","1174","40","","2019","5720","NYTIMES-USCENSUS"
"8/29/2022 12:00:00 AM","Ontario County","New York","Northeast","Middle Atlantic","36069","42.856357","-77.303497 ","23476","192","23476","192","","2019","109777","NYTIMES-USCENSUS"
"8/29/2022 12:00:00 AM","Onslow County","North Carolina","South","South Atlantic","37133","34.763109","-77.499469 ","59982","400","59982","400","","2019","197938","NYTIMES-USCENSUS"
"8/29/2022 12:00:00 AM","Onondaga County","New York","Northeast","Middle Atlantic","36067","43.006516","-76.196134 ","130312","1113","130312","1113","","2019","460528","NYTIMES-USCENSUS"
"8/29/2022 12:00:00 AM","Oneida County","Wisconsin","Midwest","East North Central","55085","45.716176","-89.534533 ","9842","142","9842","142","","2019","35595","NYTIMES-USCENSUS"
"8/29/2022 12:00:00 AM","Olmsted County","Minnesota","Midwest","West North Central","27109","43.999499","-92.410098 ","48819","195","48819","195","","2019","158293","NYTIMES-USCENSUS"
