"monitor_date","county","state_name","region","subregion","fips","latitude","longitude","case_count_to_date","death_count_to_date","case_count","death_count","previous_monitor_date","population_year","population","source"
"4/28/2022 12:00:00 AM","Stone County","Arkansas","South","West South Central","05137","35.857001","-92.140482 ","2914","68","0","0","4/27/2022 12:00:00 AM","2019","12506","NYTIMES-USCENSUS"
"4/28/2022 12:00:00 AM","Steuben County","Indiana","Midwest","East North Central","18151","41.643467","-85.002405 ","9623","121","0","0","4/27/2022 12:00:00 AM","2019","34594","NYTIMES-USCENSUS"
"4/28/2022 12:00:00 AM","McPherson County","Kansas","Midwest","West North Central","20113","38.395812","-97.647489 ","7944","126","0","0","4/27/2022 12:00:00 AM","2019","28542","NYTIMES-USCENSUS"
"4/28/2022 12:00:00 AM","Newaygo County","Michigan","Midwest","East North Central","26123","43.562712","-85.791372 ","11514","158","0","0","4/27/2022 12:00:00 AM","2019","48980","NYTIMES-USCENSUS"
"4/28/2022 12:00:00 AM","Merrick County","Nebraska","Midwest","West North Central","31121","41.16979","-98.031057 ","1703","17","0","0","4/27/2022 12:00:00 AM","2019","7755","NYTIMES-USCENSUS"
"4/28/2022 12:00:00 AM","Garfield County","Utah","West","Mountain","49017","37.831664","-111.450908 ","928","16","0","0","4/27/2022 12:00:00 AM","2019","5051","NYTIMES-USCENSUS"
"4/28/2022 12:00:00 AM","Bibb County","Georgia","South","South Atlantic","13021","32.808845","-83.694194 ","37277","784","0","0","4/27/2022 12:00:00 AM","2019","153159","NYTIMES-USCENSUS"
"4/28/2022 12:00:00 AM","Harney County","Oregon","West","Pacific","41025","43.064449","-118.987169 ","1606","38","0","0","4/27/2022 12:00:00 AM","2019","7393","NYTIMES-USCENSUS"
"4/28/2022 12:00:00 AM","Harvey County","Kansas","Midwest","West North Central","20079","38.050144","-97.436706 ","9603","124","0","0","4/27/2022 12:00:00 AM","2019","34429","NYTIMES-USCENSUS"
"4/28/2022 12:00:00 AM","Jones County","Georgia","South","South Atlantic","13169","33.021664","-83.562196 ","5065","108","0","0","4/27/2022 12:00:00 AM","2019","28735","NYTIMES-USCENSUS"
"4/28/2022 12:00:00 AM","Casey County","Kentucky","South","East South Central","21045","37.321962","-84.92822 ","4211","72","0","0","4/27/2022 12:00:00 AM","2019","16159","NYTIMES-USCENSUS"
"4/28/2022 12:00:00 AM","Winnebago County","Iowa","Midwest","West North Central","19189","43.378124","-93.743488 ","2964","47","0","0","4/27/2022 12:00:00 AM","2019","10354","NYTIMES-USCENSUS"
"4/28/2022 12:00:00 AM","Holmes County","Florida","South","South Atlantic","12059","30.862007","-85.815939 ","5421","87","0","0","4/27/2022 12:00:00 AM","2019","19617","NYTIMES-USCENSUS"
"4/28/2022 12:00:00 AM","Iron County","Wisconsin","Midwest","East North Central","55051","46.32655","-90.261298 ","1473","47","2","0","4/27/2022 12:00:00 AM","2019","5687","NYTIMES-USCENSUS"
"4/28/2022 12:00:00 AM","Perry County","Kentucky","South","East South Central","21193","37.241282","-83.217772 ","11022","172","0","0","4/27/2022 12:00:00 AM","2019","25758","NYTIMES-USCENSUS"
"4/28/2022 12:00:00 AM","Morris County","Kansas","Midwest","West North Central","20127","38.688204","-96.651448 ","1504","28","0","0","4/27/2022 12:00:00 AM","2019","5620","NYTIMES-USCENSUS"
"4/28/2022 12:00:00 AM","Monroe County","Arkansas","South","West South Central","05095","34.679512","-91.20331 ","1929","35","1","0","4/27/2022 12:00:00 AM","2019","6701","NYTIMES-USCENSUS"
"4/28/2022 12:00:00 AM","Sacramento County","California","West","Pacific","06067","38.450136","-121.344329 ","309120","3147","1","18","4/27/2022 12:00:00 AM","2019","1552058","NYTIMES-USCENSUS"
"4/28/2022 12:00:00 AM","Pike County","Illinois","Midwest","East North Central","17149","39.625106","-90.889034 ","5038","70","0","0","4/27/2022 12:00:00 AM","2019","15561","NYTIMES-USCENSUS"
"4/28/2022 12:00:00 AM","Morgan County","Ohio","Midwest","East North Central","39115","39.624946","-81.861697 ","3271","60","5","0","4/27/2022 12:00:00 AM","2019","14508","NYTIMES-USCENSUS"
"4/28/2022 12:00:00 AM","Benton County","Oregon","West","Pacific","41003","44.493882","-123.424664 ","15750","70","39","0","4/27/2022 12:00:00 AM","2019","93053","NYTIMES-USCENSUS"
"4/28/2022 12:00:00 AM","Luce County","Michigan","Midwest","East North Central","26095","46.510988","-85.517552 ","2292","14","0","0","4/27/2022 12:00:00 AM","2019","6229","NYTIMES-USCENSUS"
"4/28/2022 12:00:00 AM","Carroll County","Kentucky","South","East South Central","21041","38.668394","-85.124024 ","3500","45","0","0","4/27/2022 12:00:00 AM","2019","10631","NYTIMES-USCENSUS"
"4/28/2022 12:00:00 AM","Clallam County","Washington","West","Pacific","53009","48.110903","-123.88986 ","11498","140","0","0","4/27/2022 12:00:00 AM","2019","77331","NYTIMES-USCENSUS"
"4/28/2022 12:00:00 AM","Willacy County","Texas","South","West South Central","48489","26.481861","-97.594731 ","7032","130","7","0","4/27/2022 12:00:00 AM","2019","21358","NYTIMES-USCENSUS"
"4/28/2022 12:00:00 AM","Howell County","Missouri","Midwest","West North Central","29091","36.774369","-91.887368 ","9002","210","0","0","4/27/2022 12:00:00 AM","2019","40117","NYTIMES-USCENSUS"
"4/28/2022 12:00:00 AM","Jefferson County","Kansas","Midwest","West North Central","20087","39.239644","-95.375314 ","4787","64","0","0","4/27/2022 12:00:00 AM","2019","19043","NYTIMES-USCENSUS"
"4/28/2022 12:00:00 AM","Snyder County","Pennsylvania","Northeast","Middle Atlantic","42109","40.755407","-77.072929 ","8112","157","0","0","4/27/2022 12:00:00 AM","2019","40372","NYTIMES-USCENSUS"
"4/28/2022 12:00:00 AM","Mercer County","Missouri","Midwest","West North Central","29129","40.421413","-93.567631 ","697","13","0","0","4/27/2022 12:00:00 AM","2019","3617","NYTIMES-USCENSUS"
"4/28/2022 12:00:00 AM","Sibley County","Minnesota","Midwest","West North Central","27143","44.575734","-94.230123 ","3547","24","2","0","4/27/2022 12:00:00 AM","2019","14865","NYTIMES-USCENSUS"
"4/28/2022 12:00:00 AM","Page County","Virginia","South","South Atlantic","51139","38.623209","-78.491872 ","5618","120","6","0","4/27/2022 12:00:00 AM","2019","23902","NYTIMES-USCENSUS"
"4/28/2022 12:00:00 AM","Izard County","Arkansas","South","West South Central","05065","36.094879","-91.913625 ","3901","69","2","0","4/27/2022 12:00:00 AM","2019","13629","NYTIMES-USCENSUS"
"4/28/2022 12:00:00 AM","Middlesex County","Connecticut","Northeast","New England","09007","41.433003","-72.52278 ","28846","480","56","0","4/27/2022 12:00:00 AM","2019","162436","NYTIMES-USCENSUS"
"4/28/2022 12:00:00 AM","Jefferson County","Arkansas","South","West South Central","05069","34.277239","-91.929673 ","18596","276","3","0","4/27/2022 12:00:00 AM","2019","66824","NYTIMES-USCENSUS"
"4/28/2022 12:00:00 AM","Marion County","Kentucky","South","East South Central","21155","37.552604","-85.268959 ","6416","82","0","0","4/27/2022 12:00:00 AM","2019","19273","NYTIMES-USCENSUS"
"4/28/2022 12:00:00 AM","Ross County","Ohio","Midwest","East North Central","39141","39.323895","-83.059538 ","19320","298","39","1","4/27/2022 12:00:00 AM","2019","76666","NYTIMES-USCENSUS"
"4/28/2022 12:00:00 AM","Callaway County","Missouri","Midwest","West North Central","29027","38.835547","-91.923446 ","12072","127","0","0","4/27/2022 12:00:00 AM","2019","44743","NYTIMES-USCENSUS"
"4/28/2022 12:00:00 AM","Beadle County","South Dakota","Midwest","West North Central","46005","44.418265","-98.279422 ","4593","60","0","0","4/27/2022 12:00:00 AM","2019","18453","NYTIMES-USCENSUS"
"4/28/2022 12:00:00 AM","Early County","Georgia","South","South Atlantic","13099","31.324191","-84.906723 ","2765","62","0","0","4/27/2022 12:00:00 AM","2019","10190","NYTIMES-USCENSUS"
"4/28/2022 12:00:00 AM","Teller County","Colorado","West","Mountain","08119","38.869976","-105.187365 ","4856","57","0","0","4/27/2022 12:00:00 AM","2019","25388","NYTIMES-USCENSUS"
"4/28/2022 12:00:00 AM","Crow Wing County","Minnesota","Midwest","West North Central","27035","46.491653","-94.070718 ","16047","169","9","0","4/27/2022 12:00:00 AM","2019","65055","NYTIMES-USCENSUS"
"4/28/2022 12:00:00 AM","Orange County","New York","Northeast","Middle Atlantic","36071","41.40241","-74.306252 ","108902","953","153","1","4/27/2022 12:00:00 AM","2019","384940","NYTIMES-USCENSUS"
"4/28/2022 12:00:00 AM","Stevens County","Kansas","Midwest","West North Central","20189","37.2017","-101.317268 ","1463","20","0","0","4/27/2022 12:00:00 AM","2019","5485","NYTIMES-USCENSUS"
"4/28/2022 12:00:00 AM","Boone County","Missouri","Midwest","West North Central","29019","38.989861","-92.310202 ","43350","250","0","0","4/27/2022 12:00:00 AM","2019","180463","NYTIMES-USCENSUS"
"4/28/2022 12:00:00 AM","Henry County","Missouri","Midwest","West North Central","29083","38.386491","-93.792628 ","5741","83","0","0","4/27/2022 12:00:00 AM","2019","21824","NYTIMES-USCENSUS"
"4/28/2022 12:00:00 AM","York County","Nebraska","Midwest","West North Central","31185","40.873056","-97.596742 ","3943","21","0","0","4/27/2022 12:00:00 AM","2019","13679","NYTIMES-USCENSUS"
"4/28/2022 12:00:00 AM","Miami County","Ohio","Midwest","East North Central","39109","40.053326","-84.228413 ","25782","483","51","1","4/27/2022 12:00:00 AM","2019","106987","NYTIMES-USCENSUS"
"4/28/2022 12:00:00 AM","Stark County","North Dakota","Midwest","West North Central","38089","46.817031","-102.662026 ","11650","86","0","0","4/27/2022 12:00:00 AM","2019","31489","NYTIMES-USCENSUS"
"4/28/2022 12:00:00 AM","Nacogdoches County","Texas","South","West South Central","48347","31.62056","-94.62025 ","12349","258","1","0","4/27/2022 12:00:00 AM","2019","65204","NYTIMES-USCENSUS"
"4/28/2022 12:00:00 AM","Will County","Illinois","Midwest","East North Central","17197","41.448474","-87.978456 ","165058","1607","238","0","4/27/2022 12:00:00 AM","2019","690743","NYTIMES-USCENSUS"
"4/28/2022 12:00:00 AM","Davison County","South Dakota","Midwest","West North Central","46035","43.680439","-98.155868 ","5893","79","0","0","4/27/2022 12:00:00 AM","2019","19775","NYTIMES-USCENSUS"
"4/28/2022 12:00:00 AM","Neosho County","Kansas","Midwest","West North Central","20133","37.564283","-95.315682 ","5152","66","0","0","4/27/2022 12:00:00 AM","2019","16007","NYTIMES-USCENSUS"
"4/28/2022 12:00:00 AM","Venango County","Pennsylvania","Northeast","Middle Atlantic","42121","41.400714","-79.765813 ","11292","238","7","0","4/27/2022 12:00:00 AM","2019","50668","NYTIMES-USCENSUS"
"4/28/2022 12:00:00 AM","Davidson County","North Carolina","South","South Atlantic","37057","35.795131","-80.207107 ","43217","395","0","0","4/27/2022 12:00:00 AM","2019","167609","NYTIMES-USCENSUS"
"4/28/2022 12:00:00 AM","Prairie County","Arkansas","South","West South Central","05117","34.831116","-91.55362 ","1963","43","0","0","4/27/2022 12:00:00 AM","2019","8062","NYTIMES-USCENSUS"
"4/28/2022 12:00:00 AM","Baxter County","Arkansas","South","West South Central","05005","36.280268","-92.329949 ","8798","247","2","0","4/27/2022 12:00:00 AM","2019","41932","NYTIMES-USCENSUS"
"4/28/2022 12:00:00 AM","Winnebago County","Wisconsin","Midwest","East North Central","55139","44.085707","-88.668149 ","52184","380","75","0","4/27/2022 12:00:00 AM","2019","171907","NYTIMES-USCENSUS"
"4/28/2022 12:00:00 AM","Cleburne County","Arkansas","South","West South Central","05023","35.566315","-92.05995 ","6456","128","4","0","4/27/2022 12:00:00 AM","2019","24919","NYTIMES-USCENSUS"
"4/28/2022 12:00:00 AM","Shelby County","Iowa","Midwest","West North Central","19165","41.679014","-95.308917 ","2716","50","0","0","4/27/2022 12:00:00 AM","2019","11454","NYTIMES-USCENSUS"
"4/28/2022 12:00:00 AM","Lincoln County","Oregon","West","Pacific","41041","44.641061","-123.911212 ","7083","85","10","0","4/27/2022 12:00:00 AM","2019","49962","NYTIMES-USCENSUS"
"4/28/2022 12:00:00 AM","Elbert County","Colorado","West","Mountain","08039","39.315157","-104.114076 ","4813","39","3","0","4/27/2022 12:00:00 AM","2019","26729","NYTIMES-USCENSUS"
"4/28/2022 12:00:00 AM","Sumner County","Kansas","Midwest","West North Central","20191","37.236662","-97.493352 ","5710","70","0","0","4/27/2022 12:00:00 AM","2019","22836","NYTIMES-USCENSUS"
"4/28/2022 12:00:00 AM","Shenandoah County","Virginia","South","South Atlantic","51171","38.856204","-78.573987 ","10847","221","7","0","4/27/2022 12:00:00 AM","2019","43616","NYTIMES-USCENSUS"
"4/28/2022 12:00:00 AM","Cumberland County","Kentucky","South","East South Central","21057","36.782372","-85.388484 ","2237","31","0","0","4/27/2022 12:00:00 AM","2019","6614","NYTIMES-USCENSUS"
"4/28/2022 12:00:00 AM","Lyon County","Iowa","Midwest","West North Central","19119","43.38358","-96.207201 ","2742","50","0","0","4/27/2022 12:00:00 AM","2019","11755","NYTIMES-USCENSUS"
"4/28/2022 12:00:00 AM","Schuyler County","New York","Northeast","Middle Atlantic","36097","42.419776","-76.938603 ","3656","25","8","0","4/27/2022 12:00:00 AM","2019","17807","NYTIMES-USCENSUS"
"4/28/2022 12:00:00 AM","Imperial County","California","West","Pacific","06025","33.040814","-115.3554 ","66925","909","0","0","4/27/2022 12:00:00 AM","2019","181215","NYTIMES-USCENSUS"
"4/28/2022 12:00:00 AM","Lake County","Florida","South","South Atlantic","12069","28.764113","-81.712282 ","85479","1504","0","0","4/27/2022 12:00:00 AM","2019","367118","NYTIMES-USCENSUS"
"4/28/2022 12:00:00 AM","Overton County","Tennessee","South","East South Central","47133","36.34485","-85.283076 ","7146","123","0","0","4/27/2022 12:00:00 AM","2019","22241","NYTIMES-USCENSUS"
"4/28/2022 12:00:00 AM","Hudson County","New Jersey","Northeast","Middle Atlantic","34017","40.731375","-74.078601 ","175169","2721","182","0","4/27/2022 12:00:00 AM","2019","672391","NYTIMES-USCENSUS"
"4/28/2022 12:00:00 AM","Pinal County","Arizona","West","Mountain","04021","32.918521","-111.36634 ","132365","1651","0","0","4/27/2022 12:00:00 AM","2019","462789","NYTIMES-USCENSUS"
"4/28/2022 12:00:00 AM","Giles County","Virginia","South","South Atlantic","51071","37.318072","-80.698321 ","4068","50","2","0","4/27/2022 12:00:00 AM","2019","16720","NYTIMES-USCENSUS"
"4/28/2022 12:00:00 AM","Floyd County","Iowa","Midwest","West North Central","19067","43.052741","-92.787367 ","3560","62","0","0","4/27/2022 12:00:00 AM","2019","15642","NYTIMES-USCENSUS"
"4/28/2022 12:00:00 AM","Pawnee County","Oklahoma","South","West South Central","40117","36.313704","-96.696669 ","4113","85","7","0","4/27/2022 12:00:00 AM","2019","16376","NYTIMES-USCENSUS"
"4/28/2022 12:00:00 AM","Park County","Montana","West","Mountain","30067","45.463081","-110.53493 ","4211","35","3","0","4/27/2022 12:00:00 AM","2019","16606","NYTIMES-USCENSUS"
"4/28/2022 12:00:00 AM","Dixon County","Nebraska","Midwest","West North Central","31051","42.485086","-96.855784 ","1181","11","0","0","4/27/2022 12:00:00 AM","2019","5636","NYTIMES-USCENSUS"
"4/28/2022 12:00:00 AM","Hughes County","South Dakota","Midwest","West North Central","46065","44.384452","-99.975684 ","4327","58","0","0","4/27/2022 12:00:00 AM","2019","17526","NYTIMES-USCENSUS"
"4/28/2022 12:00:00 AM","Walker County","Texas","South","West South Central","48471","30.743163","-95.569825 ","18517","212","6","0","4/27/2022 12:00:00 AM","2019","72971","NYTIMES-USCENSUS"
"4/28/2022 12:00:00 AM","Texas County","Oklahoma","South","West South Central","40139","36.746317","-101.483855 ","5992","54","1","0","4/27/2022 12:00:00 AM","2019","19983","NYTIMES-USCENSUS"
"4/28/2022 12:00:00 AM","Washington County","Missouri","Midwest","West North Central","29221","37.942611","-90.897018 ","5983","137","0","0","4/27/2022 12:00:00 AM","2019","24730","NYTIMES-USCENSUS"
"4/28/2022 12:00:00 AM","Grant County","Washington","West","Pacific","53025","47.213633","-119.467788 ","27094","259","0","0","4/27/2022 12:00:00 AM","2019","97733","NYTIMES-USCENSUS"
"4/28/2022 12:00:00 AM","Audrain County","Missouri","Midwest","West North Central","29007","39.214481","-91.843418 ","5734","111","0","0","4/27/2022 12:00:00 AM","2019","25388","NYTIMES-USCENSUS"
"4/28/2022 12:00:00 AM","Lane County","Kansas","Midwest","West North Central","20101","38.481286","-100.466185 ","294","12","0","0","4/27/2022 12:00:00 AM","2019","1535","NYTIMES-USCENSUS"
"4/28/2022 12:00:00 AM","Roscommon County","Michigan","Midwest","East North Central","26143","44.339517","-84.611271 ","4635","114","0","0","4/27/2022 12:00:00 AM","2019","24019","NYTIMES-USCENSUS"
"4/28/2022 12:00:00 AM","Burt County","Nebraska","Midwest","West North Central","31021","41.854179","-96.337746 ","1346","16","0","0","4/27/2022 12:00:00 AM","2019","6459","NYTIMES-USCENSUS"
"4/28/2022 12:00:00 AM","Faulk County","South Dakota","Midwest","West North Central","46049","45.065476","-99.153564 ","571","16","0","0","4/27/2022 12:00:00 AM","2019","2299","NYTIMES-USCENSUS"
"4/28/2022 12:00:00 AM","Jackson County","Iowa","Midwest","West North Central","19097","42.164226","-90.574582 ","4611","69","0","0","4/27/2022 12:00:00 AM","2019","19439","NYTIMES-USCENSUS"
"4/28/2022 12:00:00 AM","Kearney County","Nebraska","Midwest","West North Central","31099","40.50912","-98.947602 ","1180","9","0","0","4/27/2022 12:00:00 AM","2019","6495","NYTIMES-USCENSUS"
"4/28/2022 12:00:00 AM","El Dorado County","California","West","Pacific","06017","38.785612","-120.534225 ","30123","209","0","0","4/27/2022 12:00:00 AM","2019","192843","NYTIMES-USCENSUS"
"4/28/2022 12:00:00 AM","Calhoun County","Georgia","South","South Atlantic","13037","31.521279","-84.62629 ","1361","22","0","0","4/27/2022 12:00:00 AM","2019","6189","NYTIMES-USCENSUS"
"4/28/2022 12:00:00 AM","Genesee County","Michigan","Midwest","East North Central","26049","43.021077","-83.706372 ","102026","1715","0","0","4/27/2022 12:00:00 AM","2019","405813","NYTIMES-USCENSUS"
"4/28/2022 12:00:00 AM","McCulloch County","Texas","South","West South Central","48307","31.205477","-99.359856 ","1306","47","0","0","4/27/2022 12:00:00 AM","2019","7984","NYTIMES-USCENSUS"
"4/28/2022 12:00:00 AM","Gilpin County","Colorado","West","Mountain","08047","39.861156","-105.528878 ","957","4","0","0","4/27/2022 12:00:00 AM","2019","6243","NYTIMES-USCENSUS"
"4/28/2022 12:00:00 AM","Moniteau County","Missouri","Midwest","West North Central","29135","38.633037","-92.583642 ","3814","56","0","0","4/27/2022 12:00:00 AM","2019","16132","NYTIMES-USCENSUS"
"4/28/2022 12:00:00 AM","Union County","Tennessee","South","East South Central","47173","36.28414","-83.836088 ","5400","75","0","0","4/27/2022 12:00:00 AM","2019","19972","NYTIMES-USCENSUS"
"4/28/2022 12:00:00 AM","Duval County","Florida","South","South Atlantic","12031","30.335245","-81.648113 ","253519","3403","0","0","4/27/2022 12:00:00 AM","2019","957755","NYTIMES-USCENSUS"
"4/28/2022 12:00:00 AM","Fulton County","New York","Northeast","Middle Atlantic","36035","43.115609","-74.423678 ","13098","169","52","0","4/27/2022 12:00:00 AM","2019","53383","NYTIMES-USCENSUS"
"4/28/2022 12:00:00 AM","Ford County","Illinois","Midwest","East North Central","17053","40.596539","-88.224588 ","4447","74","4","0","4/27/2022 12:00:00 AM","2019","12961","NYTIMES-USCENSUS"
"4/28/2022 12:00:00 AM","Gilchrist County","Florida","South","South Atlantic","12041","29.723456","-82.795801 ","4553","93","0","0","4/27/2022 12:00:00 AM","2019","18582","NYTIMES-USCENSUS"
"4/28/2022 12:00:00 AM","Los Angeles County","California","West","Pacific","06037","34.196398","-118.261862 ","2870489","31959","2370","8","4/27/2022 12:00:00 AM","2019","10039107","NYTIMES-USCENSUS"
"4/28/2022 12:00:00 AM","Bell County","Texas","South","West South Central","48027","31.04275","-97.481268 ","67056","901","14","1","4/27/2022 12:00:00 AM","2019","362924","NYTIMES-USCENSUS"
"4/28/2022 12:00:00 AM","Robertson County","Tennessee","South","East South Central","47147","36.527509","-86.869354 ","21567","302","0","0","4/27/2022 12:00:00 AM","2019","71813","NYTIMES-USCENSUS"
"4/28/2022 12:00:00 AM","Nassau County","New York","Northeast","Middle Atlantic","36059","40.729612","-73.589414 ","414671","3835","835","1","4/27/2022 12:00:00 AM","2019","1356924","NYTIMES-USCENSUS"
"4/28/2022 12:00:00 AM","Scott County","Mississippi","South","East South Central","28123","32.411959","-89.533486 ","6534","118","0","0","4/27/2022 12:00:00 AM","2019","28124","NYTIMES-USCENSUS"
"4/28/2022 12:00:00 AM","Dickson County","Tennessee","South","East South Central","47043","36.145533","-87.364155 ","15911","245","0","0","4/27/2022 12:00:00 AM","2019","53948","NYTIMES-USCENSUS"
"4/28/2022 12:00:00 AM","Lac qui Parle County","Minnesota","Midwest","West North Central","27073","44.999856","-96.176836 ","1750","29","0","0","4/27/2022 12:00:00 AM","2019","6623","NYTIMES-USCENSUS"
"4/28/2022 12:00:00 AM","Bourbon County","Kentucky","South","East South Central","21017","38.202562","-84.20986 ","5982","56","0","0","4/27/2022 12:00:00 AM","2019","19788","NYTIMES-USCENSUS"
"4/28/2022 12:00:00 AM","Burnett County","Wisconsin","Midwest","East North Central","55013","45.866897","-92.37573 ","4006","43","2","0","4/27/2022 12:00:00 AM","2019","15414","NYTIMES-USCENSUS"
"4/28/2022 12:00:00 AM","San Juan County","New Mexico","West","Mountain","35045","36.511624","-108.324578 ","40822","747","36","2","4/27/2022 12:00:00 AM","2019","123958","NYTIMES-USCENSUS"
"4/28/2022 12:00:00 AM","Laclede County","Missouri","Midwest","West North Central","29105","37.659698","-92.594843 ","8102","175","0","0","4/27/2022 12:00:00 AM","2019","35723","NYTIMES-USCENSUS"
"4/28/2022 12:00:00 AM","Hardeman County","Texas","South","West South Central","48197","34.289904","-99.745697 ","555","19","0","0","4/27/2022 12:00:00 AM","2019","3933","NYTIMES-USCENSUS"
"4/28/2022 12:00:00 AM","Starke County","Indiana","Midwest","East North Central","18149","41.284478","-86.644636 ","4761","99","0","0","4/27/2022 12:00:00 AM","2019","22995","NYTIMES-USCENSUS"
"4/28/2022 12:00:00 AM","Albany County","Wyoming","West","Mountain","56001","41.665514","-105.721883 ","9905","48","0","0","4/27/2022 12:00:00 AM","2019","38880","NYTIMES-USCENSUS"
"4/28/2022 12:00:00 AM","Bon Homme County","South Dakota","Midwest","West North Central","46009","42.985799","-97.884199 ","2291","39","0","0","4/27/2022 12:00:00 AM","2019","6901","NYTIMES-USCENSUS"
"4/28/2022 12:00:00 AM","Andrew County","Missouri","Midwest","West North Central","29003","39.988863","-94.803551 ","4758","56","0","0","4/27/2022 12:00:00 AM","2019","17712","NYTIMES-USCENSUS"
"4/28/2022 12:00:00 AM","Loudon County","Tennessee","South","East South Central","47105","35.735085","-84.314085 ","14516","192","0","0","4/27/2022 12:00:00 AM","2019","54068","NYTIMES-USCENSUS"
"4/28/2022 12:00:00 AM","Madison County","Indiana","Midwest","East North Central","18095","40.166203","-85.722454 ","32749","652","0","0","4/27/2022 12:00:00 AM","2019","129569","NYTIMES-USCENSUS"
"4/28/2022 12:00:00 AM","Clinton County","Pennsylvania","Northeast","Middle Atlantic","42035","41.239508","-77.629009 ","9077","126","0","0","4/27/2022 12:00:00 AM","2019","38632","NYTIMES-USCENSUS"
"4/28/2022 12:00:00 AM","Perry County","Ohio","Midwest","East North Central","39127","39.743187","-82.237952 ","8326","125","8","0","4/27/2022 12:00:00 AM","2019","36134","NYTIMES-USCENSUS"
"4/28/2022 12:00:00 AM","Douglas County","Colorado","West","Mountain","08035","39.325414","-104.925987 ","79934","437","76","1","4/27/2022 12:00:00 AM","2019","351154","NYTIMES-USCENSUS"
"4/28/2022 12:00:00 AM","Lea County","New Mexico","West","Mountain","35025","32.795687","-103.413271 ","20162","334","7","1","4/27/2022 12:00:00 AM","2019","71070","NYTIMES-USCENSUS"
"4/28/2022 12:00:00 AM","Jackson County","Kentucky","South","East South Central","21109","37.403458","-84.020576 ","4279","78","0","0","4/27/2022 12:00:00 AM","2019","13329","NYTIMES-USCENSUS"
"4/28/2022 12:00:00 AM","Paulding County","Ohio","Midwest","East North Central","39125","41.118948","-84.582125 ","4618","74","4","0","4/27/2022 12:00:00 AM","2019","18672","NYTIMES-USCENSUS"
"4/28/2022 12:00:00 AM","Jeff Davis County","Georgia","South","South Atlantic","13161","31.811615","-82.636825 ","3932","71","0","0","4/27/2022 12:00:00 AM","2019","15115","NYTIMES-USCENSUS"
"4/28/2022 12:00:00 AM","Sweetwater County","Wyoming","West","Mountain","56037","41.660328","-108.875677 ","11069","125","0","0","4/27/2022 12:00:00 AM","2019","42343","NYTIMES-USCENSUS"
"4/28/2022 12:00:00 AM","Lake County","California","West","Pacific","06033","39.094802","-122.746757 ","11638","135","0","0","4/27/2022 12:00:00 AM","2019","64386","NYTIMES-USCENSUS"
"4/28/2022 12:00:00 AM","Ottawa County","Michigan","Midwest","East North Central","26139","43.054969","-86.219349 ","75339","782","0","0","4/27/2022 12:00:00 AM","2019","291830","NYTIMES-USCENSUS"
"4/28/2022 12:00:00 AM","Montgomery County","Kentucky","South","East South Central","21173","38.038109","-83.912416 ","7909","106","0","0","4/27/2022 12:00:00 AM","2019","28157","NYTIMES-USCENSUS"
"4/28/2022 12:00:00 AM","Greenwood County","Kansas","Midwest","West North Central","20073","37.879347","-96.241732 ","1792","23","0","0","4/27/2022 12:00:00 AM","2019","5982","NYTIMES-USCENSUS"
"4/28/2022 12:00:00 AM","Pike County","Arkansas","South","West South Central","05109","34.158191","-93.658659 ","2618","44","0","0","4/27/2022 12:00:00 AM","2019","10718","NYTIMES-USCENSUS"
"4/28/2022 12:00:00 AM","Union County","Illinois","Midwest","East North Central","17181","37.485652","-89.244639 ","5382","68","1","0","4/27/2022 12:00:00 AM","2019","16653","NYTIMES-USCENSUS"
"4/28/2022 12:00:00 AM","Scurry County","Texas","South","West South Central","48415","32.744353","-100.913346 ","4975","104","0","0","4/27/2022 12:00:00 AM","2019","16703","NYTIMES-USCENSUS"
"4/28/2022 12:00:00 AM","Dunn County","North Dakota","Midwest","West North Central","38025","47.354557","-102.612322 ","1039","8","0","0","4/27/2022 12:00:00 AM","2019","4424","NYTIMES-USCENSUS"
"4/28/2022 12:00:00 AM","Shelby County","Kentucky","South","East South Central","21211","38.239011","-85.228247 ","13325","160","0","0","4/27/2022 12:00:00 AM","2019","49024","NYTIMES-USCENSUS"
"4/28/2022 12:00:00 AM","Klamath County","Oregon","West","Pacific","41035","42.683761","-121.646168 ","14197","222","7","0","4/27/2022 12:00:00 AM","2019","68238","NYTIMES-USCENSUS"
"4/28/2022 12:00:00 AM","Warren County","Kentucky","South","East South Central","21227","36.995634","-86.423579 ","43003","367","0","0","4/27/2022 12:00:00 AM","2019","132896","NYTIMES-USCENSUS"
"4/28/2022 12:00:00 AM","Coos County","Oregon","West","Pacific","41011","43.18591","-124.094133 ","10736","153","6","0","4/27/2022 12:00:00 AM","2019","64487","NYTIMES-USCENSUS"
"4/28/2022 12:00:00 AM","Swisher County","Texas","South","West South Central","48437","34.526319","-101.743865 ","2284","34","0","0","4/27/2022 12:00:00 AM","2019","7397","NYTIMES-USCENSUS"
"4/28/2022 12:00:00 AM","Cortland County","New York","Northeast","Middle Atlantic","36023","42.594039","-76.07624 ","11123","118","30","0","4/27/2022 12:00:00 AM","2019","47581","NYTIMES-USCENSUS"
"4/28/2022 12:00:00 AM","McDowell County","North Carolina","South","South Atlantic","37111","35.682271","-82.048044 ","13778","170","0","0","4/27/2022 12:00:00 AM","2019","45756","NYTIMES-USCENSUS"
"4/28/2022 12:00:00 AM","Northampton County","Pennsylvania","Northeast","Middle Atlantic","42095","40.752791","-75.307447 ","80502","1092","94","0","4/27/2022 12:00:00 AM","2019","305285","NYTIMES-USCENSUS"
"4/28/2022 12:00:00 AM","Greene County","Ohio","Midwest","East North Central","39057","39.687479","-83.894894 ","37714","511","93","0","4/27/2022 12:00:00 AM","2019","168937","NYTIMES-USCENSUS"
"4/28/2022 12:00:00 AM","Bay County","Florida","South","South Atlantic","12005","30.15914","-85.534395 ","45768","821","0","0","4/27/2022 12:00:00 AM","2019","174705","NYTIMES-USCENSUS"
"4/28/2022 12:00:00 AM","Pike County","Ohio","Midwest","East North Central","39131","39.071341","-83.052911 ","7466","122","7","1","4/27/2022 12:00:00 AM","2019","27772","NYTIMES-USCENSUS"
"4/28/2022 12:00:00 AM","Merrimack County","New Hampshire","Northeast","New England","33013","43.299579","-71.680041 ","32700","229","32","0","4/27/2022 12:00:00 AM","2019","151391","NYTIMES-USCENSUS"
"4/28/2022 12:00:00 AM","Cleveland County","North Carolina","South","South Atlantic","37045","35.33463","-81.557114 ","29608","364","0","0","4/27/2022 12:00:00 AM","2019","97947","NYTIMES-USCENSUS"
"4/28/2022 12:00:00 AM","Marion County","Illinois","Midwest","East North Central","17121","38.648236","-88.920362 ","11899","217","8","0","4/27/2022 12:00:00 AM","2019","37205","NYTIMES-USCENSUS"
"4/28/2022 12:00:00 AM","Lincoln County","Idaho","West","Mountain","16063","42.990782","-114.153089 ","1106","15","0","0","4/27/2022 12:00:00 AM","2019","5366","NYTIMES-USCENSUS"
"4/28/2022 12:00:00 AM","Lewis County","Kentucky","South","East South Central","21135","38.535047","-83.370143 ","4522","84","0","0","4/27/2022 12:00:00 AM","2019","13275","NYTIMES-USCENSUS"
"4/28/2022 12:00:00 AM","Haskell County","Texas","South","West South Central","48207","33.175964","-99.730774 ","896","39","0","0","4/27/2022 12:00:00 AM","2019","5658","NYTIMES-USCENSUS"
"4/28/2022 12:00:00 AM","Walla Walla County","Washington","West","Pacific","53071","46.254606","-118.48037 ","16133","140","19","0","4/27/2022 12:00:00 AM","2019","60760","NYTIMES-USCENSUS"
"4/28/2022 12:00:00 AM","Hale County","Alabama","South","East South Central","01065","32.752796","-87.623061 ","4726","106","1","0","4/27/2022 12:00:00 AM","2019","14651","NYTIMES-USCENSUS"
"4/28/2022 12:00:00 AM","Oneida County","New York","Northeast","Middle Atlantic","36065","43.242727","-75.434282 ","56495","793","202","2","4/27/2022 12:00:00 AM","2019","228671","NYTIMES-USCENSUS"
"4/28/2022 12:00:00 AM","San Benito County","California","West","Pacific","06069","36.611651","-121.085811 ","13511","98","0","0","4/27/2022 12:00:00 AM","2019","62808","NYTIMES-USCENSUS"
"4/28/2022 12:00:00 AM","Craven County","North Carolina","South","South Atlantic","37049","35.116829","-77.08132 ","24437","196","0","0","4/27/2022 12:00:00 AM","2019","102139","NYTIMES-USCENSUS"
"4/28/2022 12:00:00 AM","Poweshiek County","Iowa","Midwest","West North Central","19157","41.684642","-92.522934 ","3663","61","0","0","4/27/2022 12:00:00 AM","2019","18504","NYTIMES-USCENSUS"
"4/28/2022 12:00:00 AM","Osceola County","Iowa","Midwest","West North Central","19143","43.378542","-95.633788 ","1395","22","0","0","4/27/2022 12:00:00 AM","2019","5958","NYTIMES-USCENSUS"
"4/28/2022 12:00:00 AM","Warren County","Virginia","South","South Atlantic","51187","38.908221","-78.207594 ","8599","156","7","0","4/27/2022 12:00:00 AM","2019","40164","NYTIMES-USCENSUS"
"4/28/2022 12:00:00 AM","Lincoln Parish","Louisiana","South","West South Central","22061","32.601823","-92.662303 ","12231","145","2","0","4/27/2022 12:00:00 AM","2019","46742","NYTIMES-USCENSUS"
"4/28/2022 12:00:00 AM","Warrick County","Indiana","Midwest","East North Central","18173","38.097728","-87.272049 ","20307","239","0","0","4/27/2022 12:00:00 AM","2019","62998","NYTIMES-USCENSUS"
"4/28/2022 12:00:00 AM","Washington County","Indiana","Midwest","East North Central","18175","38.600613","-86.104751 ","5996","84","0","0","4/27/2022 12:00:00 AM","2019","28036","NYTIMES-USCENSUS"
"4/28/2022 12:00:00 AM","Boulder County","Colorado","West","Mountain","08013","40.094962","-105.397704 ","65750","388","346","0","4/27/2022 12:00:00 AM","2019","326196","NYTIMES-USCENSUS"
"4/28/2022 12:00:00 AM","Gilmer County","Georgia","South","South Atlantic","13123","34.690506","-84.454624 ","6936","178","0","0","4/27/2022 12:00:00 AM","2019","31369","NYTIMES-USCENSUS"
"4/28/2022 12:00:00 AM","Coal County","Oklahoma","South","West South Central","40029","34.582861","-96.288039 ","1670","24","0","0","4/27/2022 12:00:00 AM","2019","5495","NYTIMES-USCENSUS"
"4/28/2022 12:00:00 AM","Yakima County","Washington","West","Pacific","53077","46.456558","-120.740145 ","73593","788","20","0","4/27/2022 12:00:00 AM","2019","250873","NYTIMES-USCENSUS"
"4/28/2022 12:00:00 AM","Brown County","Indiana","Midwest","East North Central","18013","39.195113","-86.230121 ","2591","62","0","0","4/27/2022 12:00:00 AM","2019","15092","NYTIMES-USCENSUS"
"4/28/2022 12:00:00 AM","Washington County","Vermont","Northeast","New England","50023","44.274969","-72.609444 ","11862","49","1282","2","4/27/2022 12:00:00 AM","2019","58409","NYTIMES-USCENSUS"
"4/28/2022 12:00:00 AM","Navajo County","Arizona","West","Mountain","04017","35.390785","-110.321025 ","38236","902","0","0","4/27/2022 12:00:00 AM","2019","110924","NYTIMES-USCENSUS"
"4/28/2022 12:00:00 AM","Eagle County","Colorado","West","Mountain","08037","39.626992","-106.695169 ","16147","35","9","0","4/27/2022 12:00:00 AM","2019","55127","NYTIMES-USCENSUS"
"4/28/2022 12:00:00 AM","Grayson County","Texas","South","West South Central","48181","33.624524","-96.675693 ","27123","636","3","1","4/27/2022 12:00:00 AM","2019","136212","NYTIMES-USCENSUS"
"4/28/2022 12:00:00 AM","Sedgwick County","Kansas","Midwest","West North Central","20173","37.681045","-97.461054 ","144742","1399","0","0","4/27/2022 12:00:00 AM","2019","516042","NYTIMES-USCENSUS"
"4/28/2022 12:00:00 AM","St. Clair County","Alabama","South","East South Central","01115","33.719491","-86.311327 ","25310","416","4","0","4/27/2022 12:00:00 AM","2019","89512","NYTIMES-USCENSUS"
"4/28/2022 12:00:00 AM","Washington County","Oklahoma","South","West South Central","40147","36.704403","-95.906253 ","12690","261","13","1","4/27/2022 12:00:00 AM","2019","51527","NYTIMES-USCENSUS"
"4/28/2022 12:00:00 AM","Waukesha County","Wisconsin","Midwest","East North Central","55133","43.018368","-88.30424 ","113670","1091","104","0","4/27/2022 12:00:00 AM","2019","404198","NYTIMES-USCENSUS"
"4/28/2022 12:00:00 AM","Hardy County","West Virginia","South","South Atlantic","54031","39.011361","-78.841729 ","4187","49","2","0","4/27/2022 12:00:00 AM","2019","13776","NYTIMES-USCENSUS"
"4/28/2022 12:00:00 AM","Cheshire County","New Hampshire","Northeast","New England","33005","42.92546","-72.248183 ","15244","112","20","0","4/27/2022 12:00:00 AM","2019","76085","NYTIMES-USCENSUS"
"4/28/2022 12:00:00 AM","Clay County","Florida","South","South Atlantic","12019","29.986584","-81.865036 ","53548","854","0","0","4/27/2022 12:00:00 AM","2019","219252","NYTIMES-USCENSUS"
"4/28/2022 12:00:00 AM","Miller County","Arkansas","South","West South Central","05091","33.305505","-93.901502 ","9583","176","0","0","4/27/2022 12:00:00 AM","2019","43257","NYTIMES-USCENSUS"
"4/28/2022 12:00:00 AM","Antrim County","Michigan","Midwest","East North Central","26009","45.005455","-85.175639 ","4377","65","4","0","4/27/2022 12:00:00 AM","2019","23324","NYTIMES-USCENSUS"
"4/28/2022 12:00:00 AM","Warren County","Illinois","Midwest","East North Central","17187","40.850441","-90.620223 ","4047","87","4","0","4/27/2022 12:00:00 AM","2019","16844","NYTIMES-USCENSUS"
"4/28/2022 12:00:00 AM","Tooele County","Utah","West","Mountain","49045","40.467753","-113.123979 ","21437","102","20","0","4/27/2022 12:00:00 AM","2019","72259","NYTIMES-USCENSUS"
"4/28/2022 12:00:00 AM","Washington County","North Carolina","South","South Atlantic","37187","35.844713","-76.572291 ","3041","50","0","0","4/27/2022 12:00:00 AM","2019","11580","NYTIMES-USCENSUS"
"4/28/2022 12:00:00 AM","Scott County","Kansas","Midwest","West North Central","20171","38.481877","-100.90636 ","1274","34","0","0","4/27/2022 12:00:00 AM","2019","4823","NYTIMES-USCENSUS"
"4/28/2022 12:00:00 AM","Yell County","Arkansas","South","West South Central","05149","34.997713","-93.408303 ","6852","106","0","0","4/27/2022 12:00:00 AM","2019","21341","NYTIMES-USCENSUS"
"4/28/2022 12:00:00 AM","Monroe County","Iowa","Midwest","West North Central","19135","41.028847","-92.869642 ","1882","49","0","0","4/27/2022 12:00:00 AM","2019","7707","NYTIMES-USCENSUS"
"4/28/2022 12:00:00 AM","Taney County","Missouri","Midwest","West North Central","29213","36.649827","-93.042819 ","13307","223","0","0","4/27/2022 12:00:00 AM","2019","55928","NYTIMES-USCENSUS"
"4/28/2022 12:00:00 AM","Alameda County","California","West","Pacific","06001","37.647139","-121.912488 ","275311","1886","0","7","4/27/2022 12:00:00 AM","2019","1671329","NYTIMES-USCENSUS"
"4/28/2022 12:00:00 AM","Gibson County","Tennessee","South","East South Central","47053","35.991632","-88.933812 ","17426","259","0","0","4/27/2022 12:00:00 AM","2019","49133","NYTIMES-USCENSUS"
"4/28/2022 12:00:00 AM","Wagoner County","Oklahoma","South","West South Central","40145","35.963388","-95.514201 ","21820","275","75","0","4/27/2022 12:00:00 AM","2019","81289","NYTIMES-USCENSUS"
"4/28/2022 12:00:00 AM","Pamlico County","North Carolina","South","South Atlantic","37137","35.147575","-76.665268 ","2610","27","0","0","4/27/2022 12:00:00 AM","2019","12726","NYTIMES-USCENSUS"
"4/28/2022 12:00:00 AM","Pulaski County","Virginia","South","South Atlantic","51155","37.063385","-80.713444 ","7253","137","5","0","4/27/2022 12:00:00 AM","2019","34027","NYTIMES-USCENSUS"
"4/28/2022 12:00:00 AM","Plymouth County","Iowa","Midwest","West North Central","19149","42.737585","-96.215864 ","6325","100","0","0","4/27/2022 12:00:00 AM","2019","25177","NYTIMES-USCENSUS"
"4/28/2022 12:00:00 AM","Stanton County","Nebraska","Midwest","West North Central","31167","41.905045","-97.177109 ","747","11","0","0","4/27/2022 12:00:00 AM","2019","5920","NYTIMES-USCENSUS"
"4/28/2022 12:00:00 AM","Clinton County","Michigan","Midwest","East North Central","26037","42.950455","-84.591695 ","21463","207","0","0","4/27/2022 12:00:00 AM","2019","79595","NYTIMES-USCENSUS"
"4/28/2022 12:00:00 AM","Lawrence County","Arkansas","South","West South Central","05075","36.041098","-91.101153 ","5302","77","0","0","4/27/2022 12:00:00 AM","2019","16406","NYTIMES-USCENSUS"
"4/28/2022 12:00:00 AM","San Saba County","Texas","South","West South Central","48411","31.155138","-98.819292 ","1240","35","0","0","4/27/2022 12:00:00 AM","2019","6055","NYTIMES-USCENSUS"
"4/28/2022 12:00:00 AM","Trinity County","Texas","South","West South Central","48455","31.096675","-95.151687 ","2694","72","1","0","4/27/2022 12:00:00 AM","2019","14651","NYTIMES-USCENSUS"
"4/28/2022 12:00:00 AM","Bay County","Michigan","Midwest","East North Central","26017","43.699711","-83.978701 ","27154","582","0","0","4/27/2022 12:00:00 AM","2019","103126","NYTIMES-USCENSUS"
"4/28/2022 12:00:00 AM","Meagher County","Montana","West","Mountain","30059","46.5857","-110.92174 ","409","10","0","0","4/27/2022 12:00:00 AM","2019","1862","NYTIMES-USCENSUS"
"4/28/2022 12:00:00 AM","Thayer County","Nebraska","Midwest","West North Central","31169","40.173845","-97.596263 ","1110","8","0","0","4/27/2022 12:00:00 AM","2019","5003","NYTIMES-USCENSUS"
"4/28/2022 12:00:00 AM","Clay County","Kentucky","South","East South Central","21051","37.164273","-83.715473 ","7864","92","0","0","4/27/2022 12:00:00 AM","2019","19901","NYTIMES-USCENSUS"
"4/28/2022 12:00:00 AM","Emanuel County","Georgia","South","South Atlantic","13107","32.5911","-82.299763 ","5914","159","0","0","4/27/2022 12:00:00 AM","2019","22646","NYTIMES-USCENSUS"
"4/28/2022 12:00:00 AM","Lincoln County","Wisconsin","Midwest","East North Central","55069","45.333148","-89.73224 ","7060","148","3","0","4/27/2022 12:00:00 AM","2019","27593","NYTIMES-USCENSUS"
"4/28/2022 12:00:00 AM","Red River Parish","Louisiana","South","West South Central","22081","32.101213","-93.34905 ","2109","53","0","0","4/27/2022 12:00:00 AM","2019","8442","NYTIMES-USCENSUS"
"4/28/2022 12:00:00 AM","Barber County","Kansas","Midwest","West North Central","20007","37.222906","-98.685052 ","1040","8","0","0","4/27/2022 12:00:00 AM","2019","4427","NYTIMES-USCENSUS"
"4/28/2022 12:00:00 AM","Hart County","Kentucky","South","East South Central","21099","37.305827","-85.878443 ","5420","98","0","0","4/27/2022 12:00:00 AM","2019","19035","NYTIMES-USCENSUS"
"4/28/2022 12:00:00 AM","Powhatan County","Virginia","South","South Atlantic","51145","37.549404","-77.912855 ","5161","59","3","0","4/27/2022 12:00:00 AM","2019","29652","NYTIMES-USCENSUS"
"4/28/2022 12:00:00 AM","Titus County","Texas","South","West South Central","48449","33.214599","-94.966783 ","8649","128","0","0","4/27/2022 12:00:00 AM","2019","32750","NYTIMES-USCENSUS"
"4/28/2022 12:00:00 AM","Bleckley County","Georgia","South","South Atlantic","13023","32.435403","-83.331717 ","3345","98","0","0","4/27/2022 12:00:00 AM","2019","12873","NYTIMES-USCENSUS"
"4/28/2022 12:00:00 AM","Buncombe County","North Carolina","South","South Atlantic","37021","35.609371","-82.530423 ","53081","567","0","0","4/27/2022 12:00:00 AM","2019","261191","NYTIMES-USCENSUS"
"4/28/2022 12:00:00 AM","Clinch County","Georgia","South","South Atlantic","13065","30.917653","-82.702614 ","2121","42","0","0","4/27/2022 12:00:00 AM","2019","6618","NYTIMES-USCENSUS"
"4/28/2022 12:00:00 AM","Grand Traverse County","Michigan","Midwest","East North Central","26055","44.718688","-85.553848 ","17427","233","0","0","4/27/2022 12:00:00 AM","2019","93088","NYTIMES-USCENSUS"
"4/28/2022 12:00:00 AM","Washington County","Rhode Island","Northeast","New England","44009","41.396792","-71.620282 ","33299","224","0","0","4/27/2022 12:00:00 AM","2019","125577","NYTIMES-USCENSUS"
"4/28/2022 12:00:00 AM","Latah County","Idaho","West","Mountain","16057","46.81892","-116.730974 ","6722","48","0","0","4/27/2022 12:00:00 AM","2019","40108","NYTIMES-USCENSUS"
"4/28/2022 12:00:00 AM","Polk County","Nebraska","Midwest","West North Central","31143","41.187925","-97.570663 ","1223","18","0","0","4/27/2022 12:00:00 AM","2019","5213","NYTIMES-USCENSUS"
"4/28/2022 12:00:00 AM","Christian County","Missouri","Midwest","West North Central","29043","36.969739","-93.187614 ","20868","256","0","0","4/27/2022 12:00:00 AM","2019","88595","NYTIMES-USCENSUS"
"4/28/2022 12:00:00 AM","Hutchinson County","Texas","South","West South Central","48233","35.837047","-101.362746 ","6751","134","2","0","4/27/2022 12:00:00 AM","2019","20938","NYTIMES-USCENSUS"
"4/28/2022 12:00:00 AM","Gila County","Arizona","West","Mountain","04007","33.789618","-110.81187 ","17295","379","0","0","4/27/2022 12:00:00 AM","2019","54018","NYTIMES-USCENSUS"
"4/28/2022 12:00:00 AM","Kandiyohi County","Minnesota","Midwest","West North Central","27067","45.152714","-95.004981 ","13473","139","8","0","4/27/2022 12:00:00 AM","2019","43199","NYTIMES-USCENSUS"
"4/28/2022 12:00:00 AM","Owen County","Kentucky","South","East South Central","21187","38.499395","-84.84159 ","2366","33","0","0","4/27/2022 12:00:00 AM","2019","10901","NYTIMES-USCENSUS"
"4/28/2022 12:00:00 AM","Lapeer County","Michigan","Midwest","East North Central","26087","43.088633","-83.224325 ","20909","427","0","0","4/27/2022 12:00:00 AM","2019","87607","NYTIMES-USCENSUS"
"4/28/2022 12:00:00 AM","Milwaukee County","Wisconsin","Midwest","East North Central","55079","42.912643","-87.862312 ","272187","2286","304","0","4/27/2022 12:00:00 AM","2019","945726","NYTIMES-USCENSUS"
"4/28/2022 12:00:00 AM","Monroe County","Florida","South","South Atlantic","12087","25.58612","-81.022603 ","18192","119","0","0","4/27/2022 12:00:00 AM","2019","74228","NYTIMES-USCENSUS"
"4/28/2022 12:00:00 AM","Lubbock County","Texas","South","West South Central","48303","33.611469","-101.819944 ","93641","1325","3","0","4/27/2022 12:00:00 AM","2019","310569","NYTIMES-USCENSUS"
"4/28/2022 12:00:00 AM","Greene County","Illinois","Midwest","East North Central","17061","39.355439","-90.387682 ","3619","58","3","0","4/27/2022 12:00:00 AM","2019","12969","NYTIMES-USCENSUS"
"4/28/2022 12:00:00 AM","Edgecombe County","North Carolina","South","South Atlantic","37065","35.917077","-77.602742 ","13551","142","0","0","4/27/2022 12:00:00 AM","2019","51472","NYTIMES-USCENSUS"
"4/28/2022 12:00:00 AM","Presidio County","Texas","South","West South Central","48377","30.005891","-104.261619 ","978","38","0","0","4/27/2022 12:00:00 AM","2019","6704","NYTIMES-USCENSUS"
"4/28/2022 12:00:00 AM","Howard County","Iowa","Midwest","West North Central","19089","43.365312","-92.321908 ","2053","35","0","0","4/27/2022 12:00:00 AM","2019","9158","NYTIMES-USCENSUS"
"4/28/2022 12:00:00 AM","Henry County","Alabama","South","East South Central","01067","31.516978","-85.239971 ","4572","75","0","0","4/27/2022 12:00:00 AM","2019","17205","NYTIMES-USCENSUS"
"4/28/2022 12:00:00 AM","Divide County","North Dakota","Midwest","West North Central","38023","48.814754","-103.509326 ","457","4","0","0","4/27/2022 12:00:00 AM","2019","2264","NYTIMES-USCENSUS"
"4/28/2022 12:00:00 AM","Somerset County","Maryland","South","South Atlantic","24039","38.07445","-75.853323 ","5219","74","3","0","4/27/2022 12:00:00 AM","2019","25616","NYTIMES-USCENSUS"
"4/28/2022 12:00:00 AM","St. Louis County","Minnesota","Midwest","West North Central","27137","47.578635","-92.514593 ","47529","531","44","0","4/27/2022 12:00:00 AM","2019","199070","NYTIMES-USCENSUS"
"4/28/2022 12:00:00 AM","Mineral County","Colorado","West","Mountain","08079","37.549067","-107.003236 ","233","2","0","0","4/27/2022 12:00:00 AM","2019","769","NYTIMES-USCENSUS"
"4/28/2022 12:00:00 AM","Mitchell County","Georgia","South","South Atlantic","13205","31.228997","-84.192038 ","5249","117","0","0","4/27/2022 12:00:00 AM","2019","21863","NYTIMES-USCENSUS"
"4/28/2022 12:00:00 AM","Wayne County","West Virginia","South","South Atlantic","54099","38.143642","-82.422666 ","9837","123","3","0","4/27/2022 12:00:00 AM","2019","39402","NYTIMES-USCENSUS"
"4/28/2022 12:00:00 AM","Rock Island County","Illinois","Midwest","East North Central","17161","41.468421","-90.572125 ","33374","521","32","0","4/27/2022 12:00:00 AM","2019","141879","NYTIMES-USCENSUS"
"4/28/2022 12:00:00 AM","Clatsop County","Oregon","West","Pacific","41007","46.024509","-123.705037 ","4675","49","3","0","4/27/2022 12:00:00 AM","2019","40224","NYTIMES-USCENSUS"
"4/28/2022 12:00:00 AM","Orange County","Florida","South","South Atlantic","12095","28.514391","-81.323284 ","378919","2826","0","0","4/27/2022 12:00:00 AM","2019","1393452","NYTIMES-USCENSUS"
"4/28/2022 12:00:00 AM","Harrison County","Mississippi","South","East South Central","28047","30.416536","-89.083376 ","53702","664","0","0","4/27/2022 12:00:00 AM","2019","208080","NYTIMES-USCENSUS"
"4/28/2022 12:00:00 AM","Newton County","Missouri","Midwest","West North Central","29145","36.908371","-94.335034 ","11730","203","0","0","4/27/2022 12:00:00 AM","2019","58236","NYTIMES-USCENSUS"
"4/28/2022 12:00:00 AM","Bottineau County","North Dakota","Midwest","West North Central","38009","48.794412","-100.831257 ","1592","26","0","0","4/27/2022 12:00:00 AM","2019","6282","NYTIMES-USCENSUS"
"4/28/2022 12:00:00 AM","Daviess County","Indiana","Midwest","East North Central","18027","38.69609","-87.076943 ","7480","154","0","0","4/27/2022 12:00:00 AM","2019","33351","NYTIMES-USCENSUS"
"4/28/2022 12:00:00 AM","Grundy County","Illinois","Midwest","East North Central","17063","41.29241","-88.401054 ","12804","140","16","0","4/27/2022 12:00:00 AM","2019","51054","NYTIMES-USCENSUS"
"4/28/2022 12:00:00 AM","Evangeline Parish","Louisiana","South","West South Central","22039","30.720693","-92.404086 ","8388","158","0","0","4/27/2022 12:00:00 AM","2019","33395","NYTIMES-USCENSUS"
"4/28/2022 12:00:00 AM","Colonial Heights city","Virginia","South","South Atlantic","51570","37.261685","-77.396804 ","4912","97","22","0","4/27/2022 12:00:00 AM","2019","17370","NYTIMES-USCENSUS"
"4/28/2022 12:00:00 AM","Decatur County","Tennessee","South","East South Central","47039","35.603136","-88.110292 ","3736","70","0","0","4/27/2022 12:00:00 AM","2019","11663","NYTIMES-USCENSUS"
"4/28/2022 12:00:00 AM","Dyer County","Tennessee","South","East South Central","47045","36.054196","-89.398306 ","12804","201","0","0","4/27/2022 12:00:00 AM","2019","37159","NYTIMES-USCENSUS"
"4/28/2022 12:00:00 AM","Camas County","Idaho","West","Mountain","16025","43.502552","-114.772135 ","158","2","0","0","4/27/2022 12:00:00 AM","2019","1106","NYTIMES-USCENSUS"
"4/28/2022 12:00:00 AM","Polk County","Iowa","Midwest","West North Central","19153","41.684816","-93.568971 ","125306","1102","0","0","4/27/2022 12:00:00 AM","2019","490161","NYTIMES-USCENSUS"
"4/28/2022 12:00:00 AM","Gaines County","Texas","South","West South Central","48165","32.743942","-102.631561 ","2207","83","0","0","4/27/2022 12:00:00 AM","2019","21492","NYTIMES-USCENSUS"
"4/28/2022 12:00:00 AM","Logan County","Illinois","Midwest","East North Central","17107","40.129277","-89.365309 ","9644","100","17","0","4/27/2022 12:00:00 AM","2019","28618","NYTIMES-USCENSUS"
"4/28/2022 12:00:00 AM","Scott County","Arkansas","South","West South Central","05127","34.858869","-94.063641 ","2295","43","0","0","4/27/2022 12:00:00 AM","2019","10281","NYTIMES-USCENSUS"
"4/28/2022 12:00:00 AM","King George County","Virginia","South","South Atlantic","51099","38.27718","-77.162636 ","5035","39","5","0","4/27/2022 12:00:00 AM","2019","26836","NYTIMES-USCENSUS"
"4/28/2022 12:00:00 AM","St. Johns County","Florida","South","South Atlantic","12109","29.890487","-81.40004 ","62698","566","0","0","4/27/2022 12:00:00 AM","2019","264672","NYTIMES-USCENSUS"
"4/28/2022 12:00:00 AM","Nevada County","California","West","Pacific","06057","39.297508","-120.771343 ","17301","127","0","0","4/27/2022 12:00:00 AM","2019","99755","NYTIMES-USCENSUS"
"4/28/2022 12:00:00 AM","Newton County","Georgia","South","South Atlantic","13217","33.552751","-83.85136 ","24664","456","0","0","4/27/2022 12:00:00 AM","2019","111744","NYTIMES-USCENSUS"
"4/28/2022 12:00:00 AM","Mecosta County","Michigan","Midwest","East North Central","26107","43.635295","-85.332751 ","8699","106","0","0","4/27/2022 12:00:00 AM","2019","43453","NYTIMES-USCENSUS"
"4/28/2022 12:00:00 AM","Austin County","Texas","South","West South Central","48015","29.891901","-96.27017 ","5756","73","1","0","4/27/2022 12:00:00 AM","2019","30032","NYTIMES-USCENSUS"
"4/28/2022 12:00:00 AM","Hardeman County","Tennessee","South","East South Central","47069","35.218785","-88.988697 ","7598","116","0","0","4/27/2022 12:00:00 AM","2019","25050","NYTIMES-USCENSUS"
"4/28/2022 12:00:00 AM","Hall County","Nebraska","Midwest","West North Central","31079","40.866027","-98.502664 ","16533","140","0","0","4/27/2022 12:00:00 AM","2019","61353","NYTIMES-USCENSUS"
"4/28/2022 12:00:00 AM","Arapahoe County","Colorado","West","Mountain","08005","39.644554","-104.331706 ","155806","1251","140","0","4/27/2022 12:00:00 AM","2019","656590","NYTIMES-USCENSUS"
"4/28/2022 12:00:00 AM","Wabaunsee County","Kansas","Midwest","West North Central","20197","38.955154","-96.201262 ","1638","22","0","0","4/27/2022 12:00:00 AM","2019","6931","NYTIMES-USCENSUS"
"4/28/2022 12:00:00 AM","Lander County","Nevada","West","Mountain","32015","39.90021","-117.04724 ","1179","21","0","0","4/27/2022 12:00:00 AM","2019","5532","NYTIMES-USCENSUS"
"4/28/2022 12:00:00 AM","Marin County","California","West","Pacific","06041","38.051367","-122.746396 ","36991","288","0","0","4/27/2022 12:00:00 AM","2019","258826","NYTIMES-USCENSUS"
"4/28/2022 12:00:00 AM","Fisher County","Texas","South","West South Central","48151","32.740473","-100.40312 ","607","24","0","0","4/27/2022 12:00:00 AM","2019","3830","NYTIMES-USCENSUS"
"4/28/2022 12:00:00 AM","Dade County","Georgia","South","South Atlantic","13083","34.852424","-85.506201 ","3353","28","0","0","4/27/2022 12:00:00 AM","2019","16116","NYTIMES-USCENSUS"
"4/28/2022 12:00:00 AM","Colusa County","California","West","Pacific","06011","39.177739","-122.237563 ","4537","21","0","0","4/27/2022 12:00:00 AM","2019","21547","NYTIMES-USCENSUS"
"4/28/2022 12:00:00 AM","Sumner County","Tennessee","South","East South Central","47165","36.472423","-86.458405 ","53296","727","0","0","4/27/2022 12:00:00 AM","2019","191283","NYTIMES-USCENSUS"
"4/28/2022 12:00:00 AM","Cochran County","Texas","South","West South Central","48079","33.60844","-102.830449 ","889","23","1","0","4/27/2022 12:00:00 AM","2019","2853","NYTIMES-USCENSUS"
"4/28/2022 12:00:00 AM","Darlington County","South Carolina","South","South Atlantic","45031","34.332185","-79.962115 ","18899","310","8","0","4/27/2022 12:00:00 AM","2019","66618","NYTIMES-USCENSUS"
"4/28/2022 12:00:00 AM","Anderson County","Texas","South","West South Central","48001","31.841261","-95.661727 ","9541","239","1","0","4/27/2022 12:00:00 AM","2019","57735","NYTIMES-USCENSUS"
"4/28/2022 12:00:00 AM","Mitchell County","Texas","South","West South Central","48335","32.304117","-100.924392 ","1864","48","0","0","4/27/2022 12:00:00 AM","2019","8545","NYTIMES-USCENSUS"
"4/28/2022 12:00:00 AM","Johnson County","Illinois","Midwest","East North Central","17087","37.460709","-88.882131 ","4480","46","2","0","4/27/2022 12:00:00 AM","2019","12417","NYTIMES-USCENSUS"
"4/28/2022 12:00:00 AM","El Paso County","Colorado","West","Mountain","08041","38.827383","-104.527472 ","187446","1642","108","0","4/27/2022 12:00:00 AM","2019","720403","NYTIMES-USCENSUS"
"4/28/2022 12:00:00 AM","Perry County","Indiana","Midwest","East North Central","18123","38.081436","-86.62654 ","4656","69","0","0","4/27/2022 12:00:00 AM","2019","19169","NYTIMES-USCENSUS"
"4/28/2022 12:00:00 AM","Okanogan County","Washington","West","Pacific","53047","48.548453","-119.742235 ","8591","123","0","0","4/27/2022 12:00:00 AM","2019","42243","NYTIMES-USCENSUS"
"4/28/2022 12:00:00 AM","Culpeper County","Virginia","South","South Atlantic","51047","38.48593","-77.956476 ","11345","148","9","0","4/27/2022 12:00:00 AM","2019","52605","NYTIMES-USCENSUS"
"4/28/2022 12:00:00 AM","Fayette County","West Virginia","South","South Atlantic","54019","38.030933","-81.086051 ","13094","202","6","0","4/27/2022 12:00:00 AM","2019","42406","NYTIMES-USCENSUS"
"4/28/2022 12:00:00 AM","Elmore County","Alabama","South","East South Central","01051","32.597229","-86.142735 ","23363","347","3","0","4/27/2022 12:00:00 AM","2019","81209","NYTIMES-USCENSUS"
"4/28/2022 12:00:00 AM","Vernon Parish","Louisiana","South","West South Central","22115","31.102841","-93.18833 ","9933","190","0","-1","4/27/2022 12:00:00 AM","2019","47429","NYTIMES-USCENSUS"
"4/28/2022 12:00:00 AM","Monroe County","Wisconsin","Midwest","East North Central","55081","43.945175","-90.619969 ","12114","89","14","0","4/27/2022 12:00:00 AM","2019","46253","NYTIMES-USCENSUS"
"4/28/2022 12:00:00 AM","Monroe County","Tennessee","South","East South Central","47123","35.447818","-84.249705 ","14670","244","0","0","4/27/2022 12:00:00 AM","2019","46545","NYTIMES-USCENSUS"
"4/28/2022 12:00:00 AM","Broomfield County","Colorado","West","Mountain","08014","39.953593","-105.050787 ","13649","115","31","0","4/27/2022 12:00:00 AM","2019","70465","NYTIMES-USCENSUS"
"4/28/2022 12:00:00 AM","St. Mary's County","Maryland","South","South Atlantic","24037","38.223077","-76.534487 ","19045","214","23","1","4/27/2022 12:00:00 AM","2019","113510","NYTIMES-USCENSUS"
"4/28/2022 12:00:00 AM","Edmonson County","Kentucky","South","East South Central","21061","37.227514","-86.218015 ","2559","46","0","0","4/27/2022 12:00:00 AM","2019","12150","NYTIMES-USCENSUS"
"4/28/2022 12:00:00 AM","Chippewa County","Michigan","Midwest","East North Central","26033","46.321819","-84.52063 ","11670","120","0","0","4/27/2022 12:00:00 AM","2019","37349","NYTIMES-USCENSUS"
"4/28/2022 12:00:00 AM","Nance County","Nebraska","Midwest","West North Central","31125","41.402385","-97.991408 ","801","12","0","0","4/27/2022 12:00:00 AM","2019","3519","NYTIMES-USCENSUS"
"4/28/2022 12:00:00 AM","Slope County","North Dakota","Midwest","West North Central","38087","46.445834","-103.462462 ","63","0","0","0","4/27/2022 12:00:00 AM","2019","750","NYTIMES-USCENSUS"
"4/28/2022 12:00:00 AM","Chattooga County","Georgia","South","South Atlantic","13055","34.474178","-85.345289 ","6676","133","0","0","4/27/2022 12:00:00 AM","2019","24789","NYTIMES-USCENSUS"
"4/28/2022 12:00:00 AM","Fayette County","Alabama","South","East South Central","01057","33.716157","-87.764292 ","4984","96","0","0","4/27/2022 12:00:00 AM","2019","16302","NYTIMES-USCENSUS"
"4/28/2022 12:00:00 AM","Baldwin County","Georgia","South","South Atlantic","13009","33.05949","-83.255457 ","9550","238","0","0","4/27/2022 12:00:00 AM","2019","44890","NYTIMES-USCENSUS"
"4/28/2022 12:00:00 AM","Bayfield County","Wisconsin","Midwest","East North Central","55007","46.634199","-91.177282 ","3354","40","6","0","4/27/2022 12:00:00 AM","2019","15036","NYTIMES-USCENSUS"
"4/28/2022 12:00:00 AM","Coffee County","Alabama","South","East South Central","01031","31.402258","-85.989602 ","13596","231","3","0","4/27/2022 12:00:00 AM","2019","52342","NYTIMES-USCENSUS"
"4/28/2022 12:00:00 AM","Grady County","Oklahoma","South","West South Central","40051","35.021058","-97.88689 ","13744","245","21","2","4/27/2022 12:00:00 AM","2019","55834","NYTIMES-USCENSUS"
"4/28/2022 12:00:00 AM","Seneca County","Ohio","Midwest","East North Central","39147","41.119992","-83.127547 ","12791","229","16","0","4/27/2022 12:00:00 AM","2019","55178","NYTIMES-USCENSUS"
"4/28/2022 12:00:00 AM","Graham County","North Carolina","South","South Atlantic","37075","35.348364","-83.830915 ","2297","30","0","0","4/27/2022 12:00:00 AM","2019","8441","NYTIMES-USCENSUS"
"4/28/2022 12:00:00 AM","Independence County","Arkansas","South","West South Central","05063","35.737499","-91.559942 ","10614","210","2","0","4/27/2022 12:00:00 AM","2019","37825","NYTIMES-USCENSUS"
"4/28/2022 12:00:00 AM","Livingston County","New York","Northeast","Middle Atlantic","36051","42.729042","-77.778463 ","11995","116","28","0","4/27/2022 12:00:00 AM","2019","62914","NYTIMES-USCENSUS"
"4/28/2022 12:00:00 AM","Aitkin County","Minnesota","Midwest","West North Central","27001","46.602446","-93.41976 ","2999","62","5","0","4/27/2022 12:00:00 AM","2019","15886","NYTIMES-USCENSUS"
"4/28/2022 12:00:00 AM","Hill County","Montana","West","Mountain","30041","48.631959","-110.106321 ","4567","73","0","0","4/27/2022 12:00:00 AM","2019","16484","NYTIMES-USCENSUS"
"4/28/2022 12:00:00 AM","Tipton County","Tennessee","South","East South Central","47167","35.498763","-89.747145 ","17637","236","0","0","4/27/2022 12:00:00 AM","2019","61599","NYTIMES-USCENSUS"
"4/28/2022 12:00:00 AM","Gulf County","Florida","South","South Atlantic","12045","29.859238","-85.272013 ","4283","77","0","0","4/27/2022 12:00:00 AM","2019","13639","NYTIMES-USCENSUS"
"4/28/2022 12:00:00 AM","Huerfano County","Colorado","West","Mountain","08055","37.687815","-104.959928 ","1445","33","0","0","4/27/2022 12:00:00 AM","2019","6897","NYTIMES-USCENSUS"
"4/28/2022 12:00:00 AM","Henry County","Tennessee","South","East South Central","47079","36.325295","-88.300288 ","8274","161","0","0","4/27/2022 12:00:00 AM","2019","32345","NYTIMES-USCENSUS"
"4/28/2022 12:00:00 AM","Aiken County","South Carolina","South","South Atlantic","45003","33.550013","-81.632983 ","41569","437","87","0","4/27/2022 12:00:00 AM","2019","170872","NYTIMES-USCENSUS"
"4/28/2022 12:00:00 AM","Blanco County","Texas","South","West South Central","48031","30.266456","-98.399217 ","2545","34","0","0","4/27/2022 12:00:00 AM","2019","11931","NYTIMES-USCENSUS"
"4/28/2022 12:00:00 AM","Wells County","Indiana","Midwest","East North Central","18179","40.735273","-85.212974 ","6503","132","0","0","4/27/2022 12:00:00 AM","2019","28296","NYTIMES-USCENSUS"
"4/28/2022 12:00:00 AM","Geauga County","Ohio","Midwest","East North Central","39055","41.499322","-81.173505 ","16205","264","105","0","4/27/2022 12:00:00 AM","2019","93649","NYTIMES-USCENSUS"
"4/28/2022 12:00:00 AM","Summit County","Utah","West","Mountain","49043","40.87206","-110.968486 ","13626","25","59","0","4/27/2022 12:00:00 AM","2019","42145","NYTIMES-USCENSUS"
"4/28/2022 12:00:00 AM","Sharp County","Arkansas","South","West South Central","05135","36.173399","-91.471069 ","4635","105","1","0","4/27/2022 12:00:00 AM","2019","17442","NYTIMES-USCENSUS"
"4/28/2022 12:00:00 AM","Madison County","Illinois","Midwest","East North Central","17119","38.82712","-89.900227 ","70777","865","37","1","4/27/2022 12:00:00 AM","2019","262966","NYTIMES-USCENSUS"
"4/28/2022 12:00:00 AM","Fayette County","Texas","South","West South Central","48149","29.877886","-96.921231 ","4781","105","4","0","4/27/2022 12:00:00 AM","2019","25346","NYTIMES-USCENSUS"
"4/28/2022 12:00:00 AM","Montgomery County","Illinois","Midwest","East North Central","17135","39.228068","-89.478141 ","9825","111","1","0","4/27/2022 12:00:00 AM","2019","28414","NYTIMES-USCENSUS"
"4/28/2022 12:00:00 AM","Brunswick County","Virginia","South","South Atlantic","51025","36.764204","-77.861483 ","3250","47","2","0","4/27/2022 12:00:00 AM","2019","16231","NYTIMES-USCENSUS"
"4/28/2022 12:00:00 AM","Rutherford County","North Carolina","South","South Atlantic","37161","35.402747","-81.919582 ","17516","397","0","0","4/27/2022 12:00:00 AM","2019","67029","NYTIMES-USCENSUS"
"4/28/2022 12:00:00 AM","Miami County","Kansas","Midwest","West North Central","20121","38.566772","-94.832963 ","7797","93","0","0","4/27/2022 12:00:00 AM","2019","34237","NYTIMES-USCENSUS"
"4/28/2022 12:00:00 AM","Cherokee County","Texas","South","West South Central","48073","31.843881","-95.156343 ","7977","254","6","0","4/27/2022 12:00:00 AM","2019","52646","NYTIMES-USCENSUS"
"4/28/2022 12:00:00 AM","St. Lawrence County","New York","Northeast","Middle Atlantic","36089","44.488112","-75.074311 ","22072","189","55","1","4/27/2022 12:00:00 AM","2019","107740","NYTIMES-USCENSUS"
"4/28/2022 12:00:00 AM","Dawson County","Georgia","South","South Atlantic","13085","34.442608","-84.173261 ","6947","101","0","0","4/27/2022 12:00:00 AM","2019","26108","NYTIMES-USCENSUS"
"4/28/2022 12:00:00 AM","Crawford County","Georgia","South","South Atlantic","13079","32.709428","-83.979187 ","1768","55","0","0","4/27/2022 12:00:00 AM","2019","12404","NYTIMES-USCENSUS"
"4/28/2022 12:00:00 AM","Litchfield County","Connecticut","Northeast","New England","09005","41.791883","-73.235404 ","32550","457","65","0","4/27/2022 12:00:00 AM","2019","180333","NYTIMES-USCENSUS"
"4/28/2022 12:00:00 AM","San Francisco County","California","West","Pacific","06075","37.727239","-123.032229 ","137816","857","0","0","4/27/2022 12:00:00 AM","2019","881549","NYTIMES-USCENSUS"
"4/28/2022 12:00:00 AM","Ware County","Georgia","South","South Atlantic","13299","31.050881","-82.421507 ","10085","278","0","0","4/27/2022 12:00:00 AM","2019","35734","NYTIMES-USCENSUS"
"4/28/2022 12:00:00 AM","Rockingham County","North Carolina","South","South Atlantic","37157","36.381806","-79.782754 ","22052","268","0","0","4/27/2022 12:00:00 AM","2019","91010","NYTIMES-USCENSUS"
"4/28/2022 12:00:00 AM","Washington County","Minnesota","Midwest","West North Central","27163","45.037929","-92.890117 ","67669","479","78","0","4/27/2022 12:00:00 AM","2019","262440","NYTIMES-USCENSUS"
"4/28/2022 12:00:00 AM","Hertford County","North Carolina","South","South Atlantic","37091","36.363517","-76.981616 ","4756","81","0","0","4/27/2022 12:00:00 AM","2019","23677","NYTIMES-USCENSUS"
"4/28/2022 12:00:00 AM","Benton County","Minnesota","Midwest","West North Central","27009","45.701225","-94.00144 ","14118","174","14","0","4/27/2022 12:00:00 AM","2019","40889","NYTIMES-USCENSUS"
"4/28/2022 12:00:00 AM","Sussex County","New Jersey","Northeast","Middle Atlantic","34037","41.137461","-74.691914 ","34630","475","36","0","4/27/2022 12:00:00 AM","2019","140488","NYTIMES-USCENSUS"
"4/28/2022 12:00:00 AM","Pike County","Missouri","Midwest","West North Central","29163","39.339959","-91.171607 ","4238","63","0","0","4/27/2022 12:00:00 AM","2019","18302","NYTIMES-USCENSUS"
"4/28/2022 12:00:00 AM","Fannin County","Texas","South","West South Central","48147","33.591161","-96.104988 ","6878","183","1","0","4/27/2022 12:00:00 AM","2019","35514","NYTIMES-USCENSUS"
"4/28/2022 12:00:00 AM","Luzerne County","Pennsylvania","Northeast","Middle Atlantic","42079","41.173078","-75.976053 ","74124","1357","66","0","4/27/2022 12:00:00 AM","2019","317417","NYTIMES-USCENSUS"
"4/28/2022 12:00:00 AM","Holt County","Missouri","Midwest","West North Central","29087","40.095724","-95.219072 ","1055","29","0","0","4/27/2022 12:00:00 AM","2019","4403","NYTIMES-USCENSUS"
"4/28/2022 12:00:00 AM","Natchitoches Parish","Louisiana","South","West South Central","22069","31.732509","-93.082546 ","10125","166","0","0","4/27/2022 12:00:00 AM","2019","38158","NYTIMES-USCENSUS"
"4/28/2022 12:00:00 AM","Lawrence County","South Dakota","Midwest","West North Central","46081","44.348514","-103.806362 ","6579","83","0","0","4/27/2022 12:00:00 AM","2019","25844","NYTIMES-USCENSUS"
"4/28/2022 12:00:00 AM","Hardin County","Illinois","Midwest","East North Central","17069","37.517852","-88.266148 ","1054","20","0","0","4/27/2022 12:00:00 AM","2019","3821","NYTIMES-USCENSUS"
"4/28/2022 12:00:00 AM","Tippecanoe County","Indiana","Midwest","East North Central","18157","40.389133","-86.893554 ","50819","396","0","0","4/27/2022 12:00:00 AM","2019","195732","NYTIMES-USCENSUS"
"4/28/2022 12:00:00 AM","Goliad County","Texas","South","West South Central","48175","28.6607","-97.430415 ","1203","32","0","0","4/27/2022 12:00:00 AM","2019","7658","NYTIMES-USCENSUS"
"4/28/2022 12:00:00 AM","Adair County","Kentucky","South","East South Central","21001","37.105559","-85.28138 ","5915","105","0","0","4/27/2022 12:00:00 AM","2019","19202","NYTIMES-USCENSUS"
"4/28/2022 12:00:00 AM","Gibson County","Indiana","Midwest","East North Central","18051","38.317398","-87.580523 ","11667","146","0","0","4/27/2022 12:00:00 AM","2019","33659","NYTIMES-USCENSUS"
"4/28/2022 12:00:00 AM","Pleasants County","West Virginia","South","South Atlantic","54073","39.368133","-81.161172 ","2066","36","1","0","4/27/2022 12:00:00 AM","2019","7460","NYTIMES-USCENSUS"
"4/28/2022 12:00:00 AM","La Crosse County","Wisconsin","Midwest","East North Central","55063","43.908222","-91.111758 ","35256","182","50","0","4/27/2022 12:00:00 AM","2019","118016","NYTIMES-USCENSUS"
"4/28/2022 12:00:00 AM","Logan County","Ohio","Midwest","East North Central","39091","40.387553","-83.766343 ","10267","171","15","0","4/27/2022 12:00:00 AM","2019","45672","NYTIMES-USCENSUS"
"4/28/2022 12:00:00 AM","Sullivan County","New York","Northeast","Middle Atlantic","36105","41.719993","-74.771577 ","18830","130","29","0","4/27/2022 12:00:00 AM","2019","75432","NYTIMES-USCENSUS"
"4/28/2022 12:00:00 AM","Dutchess County","New York","Northeast","Middle Atlantic","36027","41.75477","-73.740041 ","65438","657","103","0","4/27/2022 12:00:00 AM","2019","294218","NYTIMES-USCENSUS"
"4/28/2022 12:00:00 AM","Yuma County","Arizona","West","Mountain","04027","32.773942","-113.910905 ","62685","1172","0","0","4/27/2022 12:00:00 AM","2019","213787","NYTIMES-USCENSUS"
"4/28/2022 12:00:00 AM","Twin Falls County","Idaho","West","Mountain","16083","42.352309","-114.665639 ","24051","295","0","0","4/27/2022 12:00:00 AM","2019","86878","NYTIMES-USCENSUS"
"4/28/2022 12:00:00 AM","Randolph County","West Virginia","South","South Atlantic","54083","38.781095","-79.867788 ","9454","89","7","0","4/27/2022 12:00:00 AM","2019","28695","NYTIMES-USCENSUS"
"4/28/2022 12:00:00 AM","Jones County","Iowa","Midwest","West North Central","19105","42.125118","-91.116914 ","5480","73","0","0","4/27/2022 12:00:00 AM","2019","20681","NYTIMES-USCENSUS"
"4/28/2022 12:00:00 AM","Hancock County","Kentucky","South","East South Central","21091","37.843325","-86.792761 ","2491","24","0","0","4/27/2022 12:00:00 AM","2019","8722","NYTIMES-USCENSUS"
"4/28/2022 12:00:00 AM","Marshall County","West Virginia","South","South Atlantic","54051","39.854426","-80.671794 ","9015","154","13","0","4/27/2022 12:00:00 AM","2019","30531","NYTIMES-USCENSUS"
"4/28/2022 12:00:00 AM","Fremont County","Wyoming","West","Mountain","56013","43.054831","-108.608935 ","13785","193","0","0","4/27/2022 12:00:00 AM","2019","39261","NYTIMES-USCENSUS"
"4/28/2022 12:00:00 AM","Orleans Parish","Louisiana","South","West South Central","22071","30.05342","-89.934502 ","88568","1107","49","0","4/27/2022 12:00:00 AM","2019","390144","NYTIMES-USCENSUS"
"4/28/2022 12:00:00 AM","Clay County","Indiana","Midwest","East North Central","18021","39.393928","-87.115858 ","6835","88","0","0","4/27/2022 12:00:00 AM","2019","26225","NYTIMES-USCENSUS"
"4/28/2022 12:00:00 AM","Montgomery County","Ohio","Midwest","East North Central","39113","39.753736","-84.290591 ","127316","2017","255","7","4/27/2022 12:00:00 AM","2019","531687","NYTIMES-USCENSUS"
"4/28/2022 12:00:00 AM","Manistee County","Michigan","Midwest","East North Central","26101","44.245268","-86.327537 ","4485","90","0","0","4/27/2022 12:00:00 AM","2019","24558","NYTIMES-USCENSUS"
"4/28/2022 12:00:00 AM","Leavenworth County","Kansas","Midwest","West North Central","20103","39.189511","-95.038977 ","19407","183","0","0","4/27/2022 12:00:00 AM","2019","81758","NYTIMES-USCENSUS"
"4/28/2022 12:00:00 AM","Washington County","Maine","Northeast","New England","23029","44.967009","-67.609354 ","4471","55","4","0","4/27/2022 12:00:00 AM","2019","31379","NYTIMES-USCENSUS"
"4/28/2022 12:00:00 AM","Flagler County","Florida","South","South Atlantic","12035","29.474891","-81.286253 ","22462","355","0","0","4/27/2022 12:00:00 AM","2019","115081","NYTIMES-USCENSUS"
"4/28/2022 12:00:00 AM","Smith County","Mississippi","South","East South Central","28129","32.019029","-89.494876 ","4113","68","0","0","4/27/2022 12:00:00 AM","2019","15916","NYTIMES-USCENSUS"
"4/28/2022 12:00:00 AM","Mahnomen County","Minnesota","Midwest","West North Central","27087","47.328387","-95.811089 ","1784","17","0","0","4/27/2022 12:00:00 AM","2019","5527","NYTIMES-USCENSUS"
"4/28/2022 12:00:00 AM","Knox County","Kentucky","South","East South Central","21121","36.8885","-83.855551 ","11502","140","0","0","4/27/2022 12:00:00 AM","2019","31145","NYTIMES-USCENSUS"
"4/28/2022 12:00:00 AM","Philadelphia County","Pennsylvania","Northeast","Middle Atlantic","42101","40.009376","-75.133346 ","313299","5092","424","0","4/27/2022 12:00:00 AM","2019","1584064","NYTIMES-USCENSUS"
"4/28/2022 12:00:00 AM","Columbia County","Pennsylvania","Northeast","Middle Atlantic","42037","41.045517","-76.40426 ","15244","246","12","1","4/27/2022 12:00:00 AM","2019","64964","NYTIMES-USCENSUS"
"4/28/2022 12:00:00 AM","Nicollet County","Minnesota","Midwest","West North Central","27103","44.35882","-94.245684 ","8101","66","11","0","4/27/2022 12:00:00 AM","2019","34274","NYTIMES-USCENSUS"
"4/28/2022 12:00:00 AM","Stone County","Missouri","Midwest","West North Central","29209","36.745822","-93.457842 ","5784","120","0","0","4/27/2022 12:00:00 AM","2019","31952","NYTIMES-USCENSUS"
"4/28/2022 12:00:00 AM","McKenzie County","North Dakota","Midwest","West North Central","38053","47.742475","-103.403215 ","3262","25","0","0","4/27/2022 12:00:00 AM","2019","15024","NYTIMES-USCENSUS"
"4/28/2022 12:00:00 AM","Evans County","Georgia","South","South Atlantic","13109","32.153083","-81.890153 ","2380","65","0","0","4/27/2022 12:00:00 AM","2019","10654","NYTIMES-USCENSUS"
"4/28/2022 12:00:00 AM","Vermilion County","Illinois","Midwest","East North Central","17183","40.186754","-87.726778 ","28053","313","13","0","4/27/2022 12:00:00 AM","2019","75758","NYTIMES-USCENSUS"
"4/28/2022 12:00:00 AM","Lyon County","Nevada","West","Mountain","32019","39.022213","-119.197425 ","10081","175","0","0","4/27/2022 12:00:00 AM","2019","57510","NYTIMES-USCENSUS"
"4/28/2022 12:00:00 AM","Southeast Fairbanks Census Area","Alaska","West","Pacific","02240","63.864997","-143.218628 ","2042","20","0","0","4/27/2022 12:00:00 AM","2019","6893","NYTIMES-USCENSUS"
"4/28/2022 12:00:00 AM","Henry County","Iowa","Midwest","West North Central","19087","40.984802","-91.547259 ","5567","74","0","0","4/27/2022 12:00:00 AM","2019","19954","NYTIMES-USCENSUS"
"4/28/2022 12:00:00 AM","Fulton County","Indiana","Midwest","East North Central","18049","41.050384","-86.265006 ","4927","103","0","0","4/27/2022 12:00:00 AM","2019","19974","NYTIMES-USCENSUS"
"4/28/2022 12:00:00 AM","Red River County","Texas","South","West South Central","48387","33.619625","-95.048429 ","2299","67","1","1","4/27/2022 12:00:00 AM","2019","12023","NYTIMES-USCENSUS"
"4/28/2022 12:00:00 AM","Wasco County","Oregon","West","Pacific","41065","45.164536","-121.165069 ","5167","63","3","0","4/27/2022 12:00:00 AM","2019","26682","NYTIMES-USCENSUS"
"4/28/2022 12:00:00 AM","Washington County","Nebraska","Midwest","West North Central","31177","41.533973","-96.224577 ","4551","43","0","0","4/27/2022 12:00:00 AM","2019","20729","NYTIMES-USCENSUS"
"4/28/2022 12:00:00 AM","Bartow County","Georgia","South","South Atlantic","13015","34.240917","-84.838188 ","29465","444","0","0","4/27/2022 12:00:00 AM","2019","107738","NYTIMES-USCENSUS"
"4/28/2022 12:00:00 AM","Union County","South Carolina","South","South Atlantic","45087","34.690397","-81.615896 ","7739","148","8","0","4/27/2022 12:00:00 AM","2019","27316","NYTIMES-USCENSUS"
"4/28/2022 12:00:00 AM","Fillmore County","Minnesota","Midwest","West North Central","27045","43.679187","-92.093937 ","4836","24","6","0","4/27/2022 12:00:00 AM","2019","21067","NYTIMES-USCENSUS"
"4/28/2022 12:00:00 AM","McDonald County","Missouri","Midwest","West North Central","29119","36.627955","-94.343716 ","5796","71","0","0","4/27/2022 12:00:00 AM","2019","22837","NYTIMES-USCENSUS"
"4/28/2022 12:00:00 AM","Sharkey County","Mississippi","South","East South Central","28125","32.892395","-90.827613 ","952","26","0","0","4/27/2022 12:00:00 AM","2019","4321","NYTIMES-USCENSUS"
"4/28/2022 12:00:00 AM","Montgomery County","Virginia","South","South Atlantic","51121","37.175538","-80.387794 ","18888","152","34","0","4/27/2022 12:00:00 AM","2019","98535","NYTIMES-USCENSUS"
"4/28/2022 12:00:00 AM","Jersey County","Illinois","Midwest","East North Central","17083","39.080195","-90.361385 ","6270","91","6","0","4/27/2022 12:00:00 AM","2019","21773","NYTIMES-USCENSUS"
"4/28/2022 12:00:00 AM","Taylor County","Kentucky","South","East South Central","21217","37.36621","-85.328059 ","9478","120","0","0","4/27/2022 12:00:00 AM","2019","25769","NYTIMES-USCENSUS"
"4/28/2022 12:00:00 AM","Lee County","Virginia","South","South Atlantic","51105","36.701721","-83.130112 ","6211","94","2","0","4/27/2022 12:00:00 AM","2019","23423","NYTIMES-USCENSUS"
"4/28/2022 12:00:00 AM","Parker County","Texas","South","West South Central","48367","32.777096","-97.805905 ","34623","450","17","0","4/27/2022 12:00:00 AM","2019","142878","NYTIMES-USCENSUS"
"4/28/2022 12:00:00 AM","Burke County","Georgia","South","South Atlantic","13033","33.060181","-82.000164 ","5303","109","0","0","4/27/2022 12:00:00 AM","2019","22383","NYTIMES-USCENSUS"
"4/28/2022 12:00:00 AM","Tyler County","Texas","South","West South Central","48457","30.769295","-94.375656 ","3395","88","2","0","4/27/2022 12:00:00 AM","2019","21672","NYTIMES-USCENSUS"
"4/28/2022 12:00:00 AM","Cherokee County","South Carolina","South","South Atlantic","45021","35.049796","-81.607647 ","14709","320","17","0","4/27/2022 12:00:00 AM","2019","57300","NYTIMES-USCENSUS"
"4/28/2022 12:00:00 AM","Gallatin County","Kentucky","South","East South Central","21077","38.755663","-84.865143 ","2214","49","0","0","4/27/2022 12:00:00 AM","2019","8869","NYTIMES-USCENSUS"
"4/28/2022 12:00:00 AM","Noble County","Oklahoma","South","West South Central","40103","36.384901","-97.236335 ","3041","39","7","0","4/27/2022 12:00:00 AM","2019","11131","NYTIMES-USCENSUS"
"4/28/2022 12:00:00 AM","Rusk County","Texas","South","West South Central","48401","32.109423","-94.756382 ","10811","232","0","0","4/27/2022 12:00:00 AM","2019","54406","NYTIMES-USCENSUS"
"4/28/2022 12:00:00 AM","Calhoun County","Mississippi","South","East South Central","28013","33.936634","-89.337114 ","4638","71","0","0","4/27/2022 12:00:00 AM","2019","14361","NYTIMES-USCENSUS"
"4/28/2022 12:00:00 AM","Hancock County","Indiana","Midwest","East North Central","18059","39.822529","-85.77315 ","20717","258","0","0","4/27/2022 12:00:00 AM","2019","78168","NYTIMES-USCENSUS"
"4/28/2022 12:00:00 AM","Charlton County","Georgia","South","South Atlantic","13049","30.779904","-82.139644 ","3056","62","0","0","4/27/2022 12:00:00 AM","2019","13392","NYTIMES-USCENSUS"
"4/28/2022 12:00:00 AM","Alamosa County","Colorado","West","Mountain","08003","37.568442","-105.788041 ","4538","61","0","0","4/27/2022 12:00:00 AM","2019","16233","NYTIMES-USCENSUS"
"4/28/2022 12:00:00 AM","Bandera County","Texas","South","West South Central","48019","29.756389","-99.248285 ","3612","77","1","0","4/27/2022 12:00:00 AM","2019","23112","NYTIMES-USCENSUS"
"4/28/2022 12:00:00 AM","Walker County","Alabama","South","East South Central","01127","33.791558","-87.301094 ","18734","443","1","0","4/27/2022 12:00:00 AM","2019","63521","NYTIMES-USCENSUS"
"4/28/2022 12:00:00 AM","Marlboro County","South Carolina","South","South Atlantic","45069","34.60167","-79.679435 ","7860","105","4","0","4/27/2022 12:00:00 AM","2019","26118","NYTIMES-USCENSUS"
"4/28/2022 12:00:00 AM","Franklin County","North Carolina","South","South Atlantic","37069","36.088241","-78.28309 ","20487","67","0","0","4/27/2022 12:00:00 AM","2019","69685","NYTIMES-USCENSUS"
"4/28/2022 12:00:00 AM","Orange County","Texas","South","West South Central","48361","30.122323","-93.8941 ","14956","355","0","0","4/27/2022 12:00:00 AM","2019","83396","NYTIMES-USCENSUS"
"4/28/2022 12:00:00 AM","Toombs County","Georgia","South","South Atlantic","13279","32.117753","-82.330597 ","7097","200","0","0","4/27/2022 12:00:00 AM","2019","26830","NYTIMES-USCENSUS"
"4/28/2022 12:00:00 AM","Pierce County","North Dakota","Midwest","West North Central","38069","48.238883","-99.966497 ","1060","32","0","0","4/27/2022 12:00:00 AM","2019","3975","NYTIMES-USCENSUS"
"4/28/2022 12:00:00 AM","Madison County","Nebraska","Midwest","West North Central","31119","41.909929","-97.606856 ","9685","68","0","0","4/27/2022 12:00:00 AM","2019","35099","NYTIMES-USCENSUS"
"4/28/2022 12:00:00 AM","Umatilla County","Oregon","West","Pacific","41059","45.5912","-118.73388 ","22429","224","10","0","4/27/2022 12:00:00 AM","2019","77950","NYTIMES-USCENSUS"
"4/28/2022 12:00:00 AM","Mississippi County","Arkansas","South","West South Central","05093","35.766944","-90.052207 ","13580","210","0","0","4/27/2022 12:00:00 AM","2019","40651","NYTIMES-USCENSUS"
"4/28/2022 12:00:00 AM","Saunders County","Nebraska","Midwest","West North Central","31155","41.223388","-96.642097 ","5028","30","0","0","4/27/2022 12:00:00 AM","2019","21578","NYTIMES-USCENSUS"
"4/28/2022 12:00:00 AM","Cache County","Utah","West","Mountain","49005","41.734117","-111.745399 ","37159","109","7","0","4/27/2022 12:00:00 AM","2019","128289","NYTIMES-USCENSUS"
"4/28/2022 12:00:00 AM","Clark County","Wisconsin","Midwest","East North Central","55019","44.739346","-90.609953 ","7638","122","3","0","4/27/2022 12:00:00 AM","2019","34774","NYTIMES-USCENSUS"
"4/28/2022 12:00:00 AM","Gray County","Texas","South","West South Central","48179","35.402542","-100.812374 ","6193","125","0","0","4/27/2022 12:00:00 AM","2019","21886","NYTIMES-USCENSUS"
"4/28/2022 12:00:00 AM","Putnam County","New York","Northeast","Middle Atlantic","36079","41.427907","-73.743861 ","24267","122","43","0","4/27/2022 12:00:00 AM","2019","98320","NYTIMES-USCENSUS"
"4/28/2022 12:00:00 AM","Dubuque County","Iowa","Midwest","West North Central","19061","42.463481","-90.878771 ","26053","294","0","0","4/27/2022 12:00:00 AM","2019","97311","NYTIMES-USCENSUS"
"4/28/2022 12:00:00 AM","Jones County","Mississippi","South","East South Central","28067","31.616601","-89.168532 ","21206","293","0","0","4/27/2022 12:00:00 AM","2019","68098","NYTIMES-USCENSUS"
"4/28/2022 12:00:00 AM","Mason County","Illinois","Midwest","East North Central","17125","40.236993","-89.913575 ","3919","61","2","0","4/27/2022 12:00:00 AM","2019","13359","NYTIMES-USCENSUS"
"4/28/2022 12:00:00 AM","Alleghany County","Virginia","South","South Atlantic","51005","37.787905","-80.008669 ","3377","98","-1","0","4/27/2022 12:00:00 AM","2019","14860","NYTIMES-USCENSUS"
"4/28/2022 12:00:00 AM","Cedar County","Missouri","Midwest","West North Central","29039","37.733655","-93.850014 ","2922","55","0","0","4/27/2022 12:00:00 AM","2019","14349","NYTIMES-USCENSUS"
"4/28/2022 12:00:00 AM","Tuolumne County","California","West","Pacific","06109","38.021434","-119.964733 ","13520","181","0","0","4/27/2022 12:00:00 AM","2019","54478","NYTIMES-USCENSUS"
"4/28/2022 12:00:00 AM","Laurens County","South Carolina","South","South Atlantic","45059","34.483676","-82.005498 ","18632","294","15","0","4/27/2022 12:00:00 AM","2019","67493","NYTIMES-USCENSUS"
"4/28/2022 12:00:00 AM","McDowell County","West Virginia","South","South Atlantic","54047","37.38276","-81.658204 ","5628","75","0","0","4/27/2022 12:00:00 AM","2019","17624","NYTIMES-USCENSUS"
"4/28/2022 12:00:00 AM","Cabarrus County","North Carolina","South","South Atlantic","37025","35.388346","-80.552728 ","56031","470","0","0","4/27/2022 12:00:00 AM","2019","216453","NYTIMES-USCENSUS"
"4/28/2022 12:00:00 AM","Obion County","Tennessee","South","East South Central","47131","36.361892","-89.148078 ","10770","195","0","0","4/27/2022 12:00:00 AM","2019","30069","NYTIMES-USCENSUS"
"4/28/2022 12:00:00 AM","Lee County","Illinois","Midwest","East North Central","17103","41.747447","-89.299362 ","8865","118","18","0","4/27/2022 12:00:00 AM","2019","34096","NYTIMES-USCENSUS"
"4/28/2022 12:00:00 AM","Franklin County","Vermont","Northeast","New England","50011","44.858964","-72.909402 ","10059","66","117","0","4/27/2022 12:00:00 AM","2019","49402","NYTIMES-USCENSUS"
"4/28/2022 12:00:00 AM","Big Stone County","Minnesota","Midwest","West North Central","27011","45.419925","-96.402226 ","1404","9","3","1","4/27/2022 12:00:00 AM","2019","4991","NYTIMES-USCENSUS"
"4/28/2022 12:00:00 AM","Hillsborough County","New Hampshire","Northeast","New England","33011","42.911532","-71.723055 ","99404","910","131","0","4/27/2022 12:00:00 AM","2019","417025","NYTIMES-USCENSUS"
"4/28/2022 12:00:00 AM","Montmorency County","Michigan","Midwest","East North Central","26119","45.024134","-84.130107 ","1732","48","0","0","4/27/2022 12:00:00 AM","2019","9328","NYTIMES-USCENSUS"
"4/28/2022 12:00:00 AM","Murray County","Minnesota","Midwest","West North Central","27101","44.015594","-95.761581 ","2034","16","0","0","4/27/2022 12:00:00 AM","2019","8194","NYTIMES-USCENSUS"
"4/28/2022 12:00:00 AM","Marion County","Arkansas","South","West South Central","05089","36.266664","-92.678577 ","3394","88","2","0","4/27/2022 12:00:00 AM","2019","16694","NYTIMES-USCENSUS"
"4/28/2022 12:00:00 AM","Adams County","Colorado","West","Mountain","08001","39.874325","-104.331872 ","136054","1351","83","0","4/27/2022 12:00:00 AM","2019","517421","NYTIMES-USCENSUS"
"4/28/2022 12:00:00 AM","Gillespie County","Texas","South","West South Central","48171","30.325093","-98.94185 ","5398","109","1","0","4/27/2022 12:00:00 AM","2019","26988","NYTIMES-USCENSUS"
"4/28/2022 12:00:00 AM","Butler County","Alabama","South","East South Central","01013","31.751667","-86.681969 ","5064","129","0","0","4/27/2022 12:00:00 AM","2019","19448","NYTIMES-USCENSUS"
"4/28/2022 12:00:00 AM","Morgan County","Tennessee","South","East South Central","47129","36.138697","-84.639262 ","6197","86","0","0","4/27/2022 12:00:00 AM","2019","21403","NYTIMES-USCENSUS"
"4/28/2022 12:00:00 AM","Jackson Parish","Louisiana","South","West South Central","22049","32.30429","-92.5617 ","4404","75","2","0","4/27/2022 12:00:00 AM","2019","15744","NYTIMES-USCENSUS"
"4/28/2022 12:00:00 AM","San Juan County","Colorado","West","Mountain","08111","37.781049","-107.670257 ","202","0","0","0","4/27/2022 12:00:00 AM","2019","728","NYTIMES-USCENSUS"
"4/28/2022 12:00:00 AM","Schoolcraft County","Michigan","Midwest","East North Central","26153","46.021122","-86.197029 ","1746","16","0","0","4/27/2022 12:00:00 AM","2019","8094","NYTIMES-USCENSUS"
"4/28/2022 12:00:00 AM","Osage County","Oklahoma","South","West South Central","40113","36.624299","-96.408112 ","10923","166","5","-1","4/27/2022 12:00:00 AM","2019","46963","NYTIMES-USCENSUS"
"4/28/2022 12:00:00 AM","Cecil County","Maryland","South","South Atlantic","24015","39.562354","-75.941585 ","15642","258","12","0","4/27/2022 12:00:00 AM","2019","102855","NYTIMES-USCENSUS"
"4/28/2022 12:00:00 AM","Hamilton County","New York","Northeast","Middle Atlantic","36041","43.657879","-74.502456 ","904","5","3","0","4/27/2022 12:00:00 AM","2019","4416","NYTIMES-USCENSUS"
"4/28/2022 12:00:00 AM","Marion County","Oregon","West","Pacific","41047","44.900898","-122.57626 ","69657","716","76","0","4/27/2022 12:00:00 AM","2019","347818","NYTIMES-USCENSUS"
"4/28/2022 12:00:00 AM","Harrison County","Texas","South","West South Central","48203","32.547991","-94.374434 ","13338","227","1","0","4/27/2022 12:00:00 AM","2019","66553","NYTIMES-USCENSUS"
"4/28/2022 12:00:00 AM","Wayne County","Tennessee","South","East South Central","47181","35.242847","-87.819843 ","5696","72","0","0","4/27/2022 12:00:00 AM","2019","16673","NYTIMES-USCENSUS"
"4/28/2022 12:00:00 AM","Warren County","Indiana","Midwest","East North Central","18171","40.352498","-87.375163 ","2101","30","0","0","4/27/2022 12:00:00 AM","2019","8265","NYTIMES-USCENSUS"
"4/28/2022 12:00:00 AM","Kenosha County","Wisconsin","Midwest","East North Central","55059","42.585882","-87.876398 ","44536","627","30","0","4/27/2022 12:00:00 AM","2019","169561","NYTIMES-USCENSUS"
"4/28/2022 12:00:00 AM","Crockett County","Tennessee","South","East South Central","47033","35.818795","-89.132494 ","5188","85","0","0","4/27/2022 12:00:00 AM","2019","14230","NYTIMES-USCENSUS"
"4/28/2022 12:00:00 AM","Yuma County","Colorado","West","Mountain","08125","40.00077","-102.421649 ","1884","23","0","0","4/27/2022 12:00:00 AM","2019","10019","NYTIMES-USCENSUS"
"4/28/2022 12:00:00 AM","Belmont County","Ohio","Midwest","East North Central","39013","40.017682","-80.967727 ","15736","307","30","0","4/27/2022 12:00:00 AM","2019","67006","NYTIMES-USCENSUS"
"4/28/2022 12:00:00 AM","Thurston County","Nebraska","Midwest","West North Central","31173","42.154061","-96.533943 ","1781","23","0","0","4/27/2022 12:00:00 AM","2019","7224","NYTIMES-USCENSUS"
"4/28/2022 12:00:00 AM","Bowie County","Texas","South","West South Central","48037","33.446065","-94.422393 ","20180","433","9","0","4/27/2022 12:00:00 AM","2019","93245","NYTIMES-USCENSUS"
"4/28/2022 12:00:00 AM","Stephens County","Oklahoma","South","West South Central","40137","34.481361","-97.855607 ","11367","204","248","1","4/27/2022 12:00:00 AM","2019","43143","NYTIMES-USCENSUS"
"4/28/2022 12:00:00 AM","Wilson County","Tennessee","South","East South Central","47189","36.149527","-86.291242 ","41755","484","0","0","4/27/2022 12:00:00 AM","2019","144657","NYTIMES-USCENSUS"
"4/28/2022 12:00:00 AM","La Paz County","Arizona","West","Mountain","04012","33.72761","-114.038806 ","5209","144","0","0","4/27/2022 12:00:00 AM","2019","21108","NYTIMES-USCENSUS"
"4/28/2022 12:00:00 AM","Wapello County","Iowa","Midwest","West North Central","19179","41.031275","-92.409466 ","8981","203","0","0","4/27/2022 12:00:00 AM","2019","34969","NYTIMES-USCENSUS"
"4/28/2022 12:00:00 AM","Marion County","Indiana","Midwest","East North Central","18097","39.782976","-86.135794 ","225983","2991","0","0","4/27/2022 12:00:00 AM","2019","964582","NYTIMES-USCENSUS"
"4/28/2022 12:00:00 AM","Humboldt County","California","West","Pacific","06023","40.706655","-123.926176 ","20380","145","0","0","4/27/2022 12:00:00 AM","2019","135558","NYTIMES-USCENSUS"
"4/28/2022 12:00:00 AM","Las Animas County","Colorado","West","Mountain","08071","37.318831","-104.04411 ","3609","40","3","0","4/27/2022 12:00:00 AM","2019","14506","NYTIMES-USCENSUS"
"4/28/2022 12:00:00 AM","Pulaski County","Missouri","Midwest","West North Central","29169","37.824835","-92.207022 ","8818","114","0","0","4/27/2022 12:00:00 AM","2019","52607","NYTIMES-USCENSUS"
"4/28/2022 12:00:00 AM","Smyth County","Virginia","South","South Atlantic","51173","36.842318","-81.539786 ","8803","171","4","0","4/27/2022 12:00:00 AM","2019","30104","NYTIMES-USCENSUS"
"4/28/2022 12:00:00 AM","Clarke County","Mississippi","South","East South Central","28023","32.045374","-88.687976 ","4232","108","0","0","4/27/2022 12:00:00 AM","2019","15541","NYTIMES-USCENSUS"
"4/28/2022 12:00:00 AM","Montgomery County","Alabama","South","East South Central","01101","32.202881","-86.204461 ","55075","947","12","0","4/27/2022 12:00:00 AM","2019","226486","NYTIMES-USCENSUS"
"4/28/2022 12:00:00 AM","Leake County","Mississippi","South","East South Central","28079","32.76063","-89.52225 ","6411","120","0","0","4/27/2022 12:00:00 AM","2019","22786","NYTIMES-USCENSUS"
"4/28/2022 12:00:00 AM","Dakota County","Nebraska","Midwest","West North Central","31043","42.391624","-96.561327 ","6900","82","0","0","4/27/2022 12:00:00 AM","2019","20026","NYTIMES-USCENSUS"
"4/28/2022 12:00:00 AM","Knox County","Nebraska","Midwest","West North Central","31107","42.634404","-97.891349 ","1678","13","0","0","4/27/2022 12:00:00 AM","2019","8332","NYTIMES-USCENSUS"
"4/28/2022 12:00:00 AM","Louisa County","Iowa","Midwest","West North Central","19115","41.218211","-91.256994 ","2485","62","0","0","4/27/2022 12:00:00 AM","2019","11035","NYTIMES-USCENSUS"
"4/28/2022 12:00:00 AM","Crenshaw County","Alabama","South","East South Central","01041","31.730311","-86.320038 ","3823","99","4","0","4/27/2022 12:00:00 AM","2019","13772","NYTIMES-USCENSUS"
"4/28/2022 12:00:00 AM","Clay County","South Dakota","Midwest","West North Central","46027","42.91615","-96.980468 ","3489","21","0","0","4/27/2022 12:00:00 AM","2019","14070","NYTIMES-USCENSUS"
"4/28/2022 12:00:00 AM","Todd County","South Dakota","Midwest","West North Central","46121","43.208794","-100.707664 ","2974","53","0","0","4/27/2022 12:00:00 AM","2019","10177","NYTIMES-USCENSUS"
"4/28/2022 12:00:00 AM","Hall County","Georgia","South","South Atlantic","13139","34.317569","-83.8185 ","54338","840","0","0","4/27/2022 12:00:00 AM","2019","204441","NYTIMES-USCENSUS"
"4/28/2022 12:00:00 AM","McLean County","Kentucky","South","East South Central","21149","37.526707","-87.265597 ","2616","50","0","0","4/27/2022 12:00:00 AM","2019","9207","NYTIMES-USCENSUS"
"4/28/2022 12:00:00 AM","Sanpete County","Utah","West","Mountain","49039","39.373426","-111.576933 ","8358","56","1","0","4/27/2022 12:00:00 AM","2019","30939","NYTIMES-USCENSUS"
"4/28/2022 12:00:00 AM","Norfolk city","Virginia","South","South Atlantic","51710","36.923015","-76.244641 ","42510","475","27","0","4/27/2022 12:00:00 AM","2019","242742","NYTIMES-USCENSUS"
"4/28/2022 12:00:00 AM","Hardin County","Ohio","Midwest","East North Central","39065","40.660415","-83.664077 ","7099","158","12","0","4/27/2022 12:00:00 AM","2019","31365","NYTIMES-USCENSUS"
"4/28/2022 12:00:00 AM","Lyon County","Kentucky","South","East South Central","21143","37.023976","-88.083391 ","2869","34","0","0","4/27/2022 12:00:00 AM","2019","8210","NYTIMES-USCENSUS"
"4/28/2022 12:00:00 AM","Grant County","Indiana","Midwest","East North Central","18053","40.515758","-85.654946 ","17341","351","0","0","4/27/2022 12:00:00 AM","2019","65769","NYTIMES-USCENSUS"
"4/28/2022 12:00:00 AM","Macoupin County","Illinois","Midwest","East North Central","17117","39.265914","-89.92633 ","12850","171","7","0","4/27/2022 12:00:00 AM","2019","44926","NYTIMES-USCENSUS"
"4/28/2022 12:00:00 AM","Routt County","Colorado","West","Mountain","08107","40.483664","-106.987702 ","6476","25","2","0","4/27/2022 12:00:00 AM","2019","25638","NYTIMES-USCENSUS"
"4/28/2022 12:00:00 AM","Tift County","Georgia","South","South Atlantic","13277","31.457003","-83.525931 ","11565","217","0","0","4/27/2022 12:00:00 AM","2019","40644","NYTIMES-USCENSUS"
"4/28/2022 12:00:00 AM","Ontonagon County","Michigan","Midwest","East North Central","26131","46.835325","-89.276912 ","996","38","0","0","4/27/2022 12:00:00 AM","2019","5720","NYTIMES-USCENSUS"
"4/28/2022 12:00:00 AM","Franklin County","Mississippi","South","East South Central","28037","31.477773","-90.895457 ","1926","38","0","0","4/27/2022 12:00:00 AM","2019","7713","NYTIMES-USCENSUS"
"4/28/2022 12:00:00 AM","Tensas Parish","Louisiana","South","West South Central","22107","32.001489","-91.342576 ","988","11","0","0","4/27/2022 12:00:00 AM","2019","4334","NYTIMES-USCENSUS"
"4/28/2022 12:00:00 AM","Clark County","Nevada","West","Mountain","32003","36.21413","-115.014398 ","539351","8421","0","0","4/27/2022 12:00:00 AM","2019","2266715","NYTIMES-USCENSUS"
"4/28/2022 12:00:00 AM","Edmunds County","South Dakota","Midwest","West North Central","46045","45.41168","-99.205362 ","942","16","0","0","4/27/2022 12:00:00 AM","2019","3829","NYTIMES-USCENSUS"
"4/28/2022 12:00:00 AM","Kanawha County","West Virginia","South","South Atlantic","54039","38.328068","-81.523516 ","47302","720","31","3","4/27/2022 12:00:00 AM","2019","178124","NYTIMES-USCENSUS"
"4/28/2022 12:00:00 AM","Iredell County","North Carolina","South","South Atlantic","37097","35.806251","-80.874524 ","48612","445","0","0","4/27/2022 12:00:00 AM","2019","181806","NYTIMES-USCENSUS"
"4/28/2022 12:00:00 AM","Greenlee County","Arizona","West","Mountain","04011","33.238872","-109.242323 ","2217","33","0","0","4/27/2022 12:00:00 AM","2019","9498","NYTIMES-USCENSUS"
"4/28/2022 12:00:00 AM","Lawrence County","Missouri","Midwest","West North Central","29109","37.10659","-93.830551 ","7786","164","0","0","4/27/2022 12:00:00 AM","2019","38355","NYTIMES-USCENSUS"
"4/28/2022 12:00:00 AM","Etowah County","Alabama","South","East South Central","01055","34.047641","-86.034263 ","28759","649","2","0","4/27/2022 12:00:00 AM","2019","102268","NYTIMES-USCENSUS"
"4/28/2022 12:00:00 AM","Bledsoe County","Tennessee","South","East South Central","47007","35.593561","-85.20591 ","4664","57","0","0","4/27/2022 12:00:00 AM","2019","15064","NYTIMES-USCENSUS"
"4/28/2022 12:00:00 AM","Wilson County","Texas","South","West South Central","48493","29.173883","-98.086734 ","10990","157","5","0","4/27/2022 12:00:00 AM","2019","51070","NYTIMES-USCENSUS"
"4/28/2022 12:00:00 AM","Lexington County","South Carolina","South","South Atlantic","45063","33.899246","-81.266118 ","95940","866","154","1","4/27/2022 12:00:00 AM","2019","298750","NYTIMES-USCENSUS"
"4/28/2022 12:00:00 AM","Barry County","Missouri","Midwest","West North Central","29009","36.699376","-93.834334 ","6625","127","0","0","4/27/2022 12:00:00 AM","2019","35789","NYTIMES-USCENSUS"
"4/28/2022 12:00:00 AM","Warren County","Ohio","Midwest","East North Central","39165","39.425663","-84.16994 ","58014","584","165","0","4/27/2022 12:00:00 AM","2019","234602","NYTIMES-USCENSUS"
"4/28/2022 12:00:00 AM","Fauquier County","Virginia","South","South Atlantic","51061","38.744096","-77.8215 ","13090","143","11","1","4/27/2022 12:00:00 AM","2019","71222","NYTIMES-USCENSUS"
"4/28/2022 12:00:00 AM","Floyd County","Kentucky","South","East South Central","21071","37.552456","-82.739724 ","12535","194","0","0","4/27/2022 12:00:00 AM","2019","35589","NYTIMES-USCENSUS"
"4/28/2022 12:00:00 AM","Cherokee County","Kansas","Midwest","West North Central","20021","37.169392","-94.845698 ","6144","84","0","0","4/27/2022 12:00:00 AM","2019","19939","NYTIMES-USCENSUS"
"4/28/2022 12:00:00 AM","Mingo County","West Virginia","South","South Atlantic","54059","37.721161","-82.158989 ","7943","122","2","0","4/27/2022 12:00:00 AM","2019","23424","NYTIMES-USCENSUS"
"4/28/2022 12:00:00 AM","Fond du Lac County","Wisconsin","Midwest","East North Central","55039","43.754722","-88.493284 ","32019","273","24","0","4/27/2022 12:00:00 AM","2019","103403","NYTIMES-USCENSUS"
"4/28/2022 12:00:00 AM","Danville city","Virginia","South","South Atlantic","51590","36.583334","-79.408071 ","11090","281","4","0","4/27/2022 12:00:00 AM","2019","40044","NYTIMES-USCENSUS"
"4/28/2022 12:00:00 AM","Wirt County","West Virginia","South","South Atlantic","54105","39.020034","-81.382975 ","1451","24","0","0","4/27/2022 12:00:00 AM","2019","5821","NYTIMES-USCENSUS"
"4/28/2022 12:00:00 AM","Whitman County","Washington","West","Pacific","53075","46.905944","-117.53539 ","8732","90","0","0","4/27/2022 12:00:00 AM","2019","50104","NYTIMES-USCENSUS"
"4/28/2022 12:00:00 AM","Gallia County","Ohio","Midwest","East North Central","39053","38.817046","-82.301746 ","7513","126","14","0","4/27/2022 12:00:00 AM","2019","29898","NYTIMES-USCENSUS"
"4/28/2022 12:00:00 AM","Lonoke County","Arkansas","South","West South Central","05085","34.755114","-91.894132 ","19910","243","7","0","4/27/2022 12:00:00 AM","2019","73309","NYTIMES-USCENSUS"
"4/28/2022 12:00:00 AM","Seminole County","Georgia","South","South Atlantic","13253","30.93396","-84.867685 ","2172","30","0","0","4/27/2022 12:00:00 AM","2019","8090","NYTIMES-USCENSUS"
"4/28/2022 12:00:00 AM","Sheridan County","Wyoming","West","Mountain","56033","44.781369","-106.881211 ","8057","78","0","0","4/27/2022 12:00:00 AM","2019","30485","NYTIMES-USCENSUS"
"4/28/2022 12:00:00 AM","Chattahoochee County","Georgia","South","South Atlantic","13053","32.347445","-84.788021 ","7472","22","0","0","4/27/2022 12:00:00 AM","2019","10907","NYTIMES-USCENSUS"
"4/28/2022 12:00:00 AM","DeKalb County","Indiana","Midwest","East North Central","18033","41.39676","-85.002697 ","11371","151","0","0","4/27/2022 12:00:00 AM","2019","43475","NYTIMES-USCENSUS"
"4/28/2022 12:00:00 AM","Itasca County","Minnesota","Midwest","West North Central","27061","47.490817","-93.611102 ","11080","146","2","0","4/27/2022 12:00:00 AM","2019","45130","NYTIMES-USCENSUS"
"4/28/2022 12:00:00 AM","Orange County","Indiana","Midwest","East North Central","18117","38.547381","-86.489257 ","5042","96","0","0","4/27/2022 12:00:00 AM","2019","19646","NYTIMES-USCENSUS"
"4/28/2022 12:00:00 AM","Ralls County","Missouri","Midwest","West North Central","29173","39.553455","-91.524787 ","2455","26","0","0","4/27/2022 12:00:00 AM","2019","10309","NYTIMES-USCENSUS"
"4/28/2022 12:00:00 AM","Lincoln County","Tennessee","South","East South Central","47103","35.142784","-86.593403 ","9988","170","0","0","4/27/2022 12:00:00 AM","2019","34366","NYTIMES-USCENSUS"
"4/28/2022 12:00:00 AM","Sussex County","Delaware","South","South Atlantic","10005","38.673227","-75.337024 ","62045","848","54","0","4/27/2022 12:00:00 AM","2019","234225","NYTIMES-USCENSUS"
"4/28/2022 12:00:00 AM","Freestone County","Texas","South","West South Central","48161","31.701749","-96.144957 ","3878","82","0","0","4/27/2022 12:00:00 AM","2019","19717","NYTIMES-USCENSUS"
"4/28/2022 12:00:00 AM","Stafford County","Kansas","Midwest","West North Central","20185","38.03563","-98.719889 ","1137","26","0","0","4/27/2022 12:00:00 AM","2019","4156","NYTIMES-USCENSUS"
"4/28/2022 12:00:00 AM","San Diego County","California","West","Pacific","06073","33.023604","-116.776117 ","812466","5236","0","0","4/27/2022 12:00:00 AM","2019","3338330","NYTIMES-USCENSUS"
"4/28/2022 12:00:00 AM","Greenwood County","South Carolina","South","South Atlantic","45047","34.155796","-82.127876 ","22570","304","18","0","4/27/2022 12:00:00 AM","2019","70811","NYTIMES-USCENSUS"
"4/28/2022 12:00:00 AM","Van Buren County","Tennessee","South","East South Central","47175","35.699234","-85.458409 ","1850","48","0","0","4/27/2022 12:00:00 AM","2019","5872","NYTIMES-USCENSUS"
"4/28/2022 12:00:00 AM","Sac County","Iowa","Midwest","West North Central","19161","42.387526","-95.105224 ","2409","33","0","0","4/27/2022 12:00:00 AM","2019","9721","NYTIMES-USCENSUS"
