"monitor_date","county","state_name","region","subregion","fips","latitude","longitude","case_count_to_date","death_count_to_date","case_count","death_count","previous_monitor_date","population_year","population","source"
"5/6/2022 12:00:00 AM","Sioux County","North Dakota","Midwest","West North Central","38085","46.110618","-101.061284 ","1348","19","1348","19","","2019","4230","NYTIMES-USCENSUS"
"5/6/2022 12:00:00 AM","Washington County","Kentucky","South","East South Central","21229","37.754209","-85.175416 ","3953","61","3953","61","","2019","12095","NYTIMES-USCENSUS"
"5/6/2022 12:00:00 AM","Dodge County","Minnesota","Midwest","West North Central","27039","44.020706","-92.869353 ","5843","21","5843","21","","2019","20934","NYTIMES-USCENSUS"
"5/6/2022 12:00:00 AM","Bourbon County","Kansas","Midwest","West North Central","20011","37.8561","-94.850928 ","4385","52","4385","52","","2019","14534","NYTIMES-USCENSUS"
"5/6/2022 12:00:00 AM","Miller County","Arkansas","South","West South Central","05091","33.305505","-93.901502 ","9591","181","9591","181","","2019","43257","NYTIMES-USCENSUS"
"5/6/2022 12:00:00 AM","Bowman County","North Dakota","Midwest","West North Central","38011","46.110144","-103.505943 ","828","9","828","9","","2019","3024","NYTIMES-USCENSUS"
"5/6/2022 12:00:00 AM","Albany County","Wyoming","West","Mountain","56001","41.665514","-105.721883 ","9914","49","9914","49","","2019","38880","NYTIMES-USCENSUS"
"5/6/2022 12:00:00 AM","Starke County","Indiana","Midwest","East North Central","18149","41.284478","-86.644636 ","4765","99","4765","99","","2019","22995","NYTIMES-USCENSUS"
"5/6/2022 12:00:00 AM","Lafayette County","Mississippi","South","East South Central","28071","34.353078","-89.485385 ","15313","179","15313","179","","2019","54019","NYTIMES-USCENSUS"
"5/6/2022 12:00:00 AM","Highlands County","Florida","South","South Atlantic","12055","27.34108","-81.342353 ","24304","685","24304","685","","2019","106221","NYTIMES-USCENSUS"
"5/6/2022 12:00:00 AM","Greene County","New York","Northeast","Middle Atlantic","36039","42.279821","-74.142025 ","8990","129","8990","129","","2019","47188","NYTIMES-USCENSUS"
"5/6/2022 12:00:00 AM","Leflore County","Mississippi","South","East South Central","28083","33.54979","-90.294934 ","7312","169","7312","169","","2019","28183","NYTIMES-USCENSUS"
"5/6/2022 12:00:00 AM","Grant County","Washington","West","Pacific","53025","47.213633","-119.467788 ","27146","259","27146","259","","2019","97733","NYTIMES-USCENSUS"
"5/6/2022 12:00:00 AM","Inyo County","California","West","Pacific","06027","36.56216","-117.404209 ","4601","56","4601","56","","2019","18039","NYTIMES-USCENSUS"
"5/6/2022 12:00:00 AM","Champaign County","Ohio","Midwest","East North Central","39021","40.132775","-83.767604 ","8789","147","8789","147","","2019","38885","NYTIMES-USCENSUS"
"5/6/2022 12:00:00 AM","White County","Tennessee","South","East South Central","47185","35.927049","-85.455785 ","8244","129","8244","129","","2019","27345","NYTIMES-USCENSUS"
"5/6/2022 12:00:00 AM","Cabell County","West Virginia","South","South Atlantic","54011","38.419578","-82.243397 ","27692","375","27692","375","","2019","91945","NYTIMES-USCENSUS"
"5/6/2022 12:00:00 AM","Jefferson County","Wisconsin","Midwest","East North Central","55055","43.013804","-88.773985 ","21852","241","21852","241","","2019","84769","NYTIMES-USCENSUS"
"5/6/2022 12:00:00 AM","Swisher County","Texas","South","West South Central","48437","34.526319","-101.743865 ","2285","34","2285","34","","2019","7397","NYTIMES-USCENSUS"
"5/6/2022 12:00:00 AM","Atascosa County","Texas","South","West South Central","48013","28.891478","-98.535381 ","13631","231","13631","231","","2019","51153","NYTIMES-USCENSUS"
"5/6/2022 12:00:00 AM","Pembina County","North Dakota","Midwest","West North Central","38067","48.766896","-97.545405 ","1987","16","1987","16","","2019","6801","NYTIMES-USCENSUS"
"5/6/2022 12:00:00 AM","Frontier County","Nebraska","Midwest","West North Central","31063","40.530947","-100.406683 ","543","3","543","3","","2019","2627","NYTIMES-USCENSUS"
"5/6/2022 12:00:00 AM","Sweetwater County","Wyoming","West","Mountain","56037","41.660328","-108.875677 ","11075","126","11075","126","","2019","42343","NYTIMES-USCENSUS"
"5/6/2022 12:00:00 AM","Scotland County","Missouri","Midwest","West North Central","29199","40.447686","-92.142824 ","680","18","680","18","","2019","4902","NYTIMES-USCENSUS"
"5/6/2022 12:00:00 AM","Hockley County","Texas","South","West South Central","48219","33.605932","-102.343398 ","7746","161","7746","161","","2019","23021","NYTIMES-USCENSUS"
"5/6/2022 12:00:00 AM","Arenac County","Michigan","Midwest","East North Central","26011","44.036833","-83.740675 ","3242","67","3242","67","","2019","14883","NYTIMES-USCENSUS"
"5/6/2022 12:00:00 AM","Lee County","Alabama","South","East South Central","01081","32.604064","-85.353048 ","37818","340","37818","340","","2019","164542","NYTIMES-USCENSUS"
"5/6/2022 12:00:00 AM","Marshall County","Iowa","Midwest","West North Central","19127","42.0417","-92.981403 ","9456","111","9456","111","","2019","39369","NYTIMES-USCENSUS"
"5/6/2022 12:00:00 AM","Tazewell County","Illinois","Midwest","East North Central","17179","40.508074","-89.51626 ","37339","498","37339","498","","2019","131803","NYTIMES-USCENSUS"
"5/6/2022 12:00:00 AM","Calloway County","Kentucky","South","East South Central","21035","36.620978","-88.274086 ","8356","93","8356","93","","2019","39001","NYTIMES-USCENSUS"
"5/6/2022 12:00:00 AM","Steele County","North Dakota","Midwest","West North Central","38091","47.451062","-97.71892 ","385","2","385","2","","2019","1890","NYTIMES-USCENSUS"
"5/6/2022 12:00:00 AM","Linn County","Kansas","Midwest","West North Central","20107","38.216549","-94.844932 ","2825","28","2825","28","","2019","9703","NYTIMES-USCENSUS"
"5/6/2022 12:00:00 AM","Pittsylvania County","Virginia","South","South Atlantic","51143","36.821721","-79.398502 ","14192","199","14192","199","","2019","60354","NYTIMES-USCENSUS"
"5/6/2022 12:00:00 AM","Moore County","North Carolina","South","South Atlantic","37125","35.308272","-79.492725 ","24449","323","24449","323","","2019","100880","NYTIMES-USCENSUS"
"5/6/2022 12:00:00 AM","Caddo Parish","Louisiana","South","West South Central","22017","32.580106","-93.88497 ","67445","1153","67445","1153","","2019","240204","NYTIMES-USCENSUS"
"5/6/2022 12:00:00 AM","Madison County","Iowa","Midwest","West North Central","19121","41.330622","-94.015184 ","3173","40","3173","40","","2019","16338","NYTIMES-USCENSUS"
"5/6/2022 12:00:00 AM","Lewis County","Kentucky","South","East South Central","21135","38.535047","-83.370143 ","4527","85","4527","85","","2019","13275","NYTIMES-USCENSUS"
"5/6/2022 12:00:00 AM","Lincoln County","Nevada","West","Mountain","32017","37.634605","-114.863037 ","548","7","548","7","","2019","5183","NYTIMES-USCENSUS"
"5/6/2022 12:00:00 AM","McKenzie County","North Dakota","Midwest","West North Central","38053","47.742475","-103.403215 ","3267","25","3267","25","","2019","15024","NYTIMES-USCENSUS"
"5/6/2022 12:00:00 AM","Teton County","Wyoming","West","Mountain","56039","44.048662","-110.426087 ","10047","16","10047","16","","2019","23464","NYTIMES-USCENSUS"
"5/6/2022 12:00:00 AM","Erath County","Texas","South","West South Central","48143","32.236661","-98.220507 ","8763","123","8763","123","","2019","42698","NYTIMES-USCENSUS"
"5/6/2022 12:00:00 AM","Madison County","Texas","South","West South Central","48313","30.966878","-95.930372 ","3751","54","3751","54","","2019","14284","NYTIMES-USCENSUS"
"5/6/2022 12:00:00 AM","Russell County","Alabama","South","East South Central","01113","32.289811","-85.18698 ","10101","93","10101","93","","2019","57961","NYTIMES-USCENSUS"
"5/6/2022 12:00:00 AM","Fulton County","Illinois","Midwest","East North Central","17057","40.46524","-90.202269 ","10183","135","10183","135","","2019","34340","NYTIMES-USCENSUS"
"5/6/2022 12:00:00 AM","Aroostook County","Maine","Northeast","New England","23003","46.709193","-68.612409 ","14033","163","14033","163","","2019","67055","NYTIMES-USCENSUS"
"5/6/2022 12:00:00 AM","Daviess County","Indiana","Midwest","East North Central","18027","38.69609","-87.076943 ","7489","154","7489","154","","2019","33351","NYTIMES-USCENSUS"
"5/6/2022 12:00:00 AM","Walla Walla County","Washington","West","Pacific","53071","46.254606","-118.48037 ","16213","141","16213","141","","2019","60760","NYTIMES-USCENSUS"
"5/6/2022 12:00:00 AM","Franklin County","Kentucky","South","East South Central","21073","38.234919","-84.868786 ","13870","153","13870","153","","2019","50991","NYTIMES-USCENSUS"
"5/6/2022 12:00:00 AM","Tishomingo County","Mississippi","South","East South Central","28141","34.738835","-88.234827 ","6162","122","6162","122","","2019","19383","NYTIMES-USCENSUS"
"5/6/2022 12:00:00 AM","Greene County","Georgia","South","South Atlantic","13133","33.576704","-83.166625 ","3954","85","3954","85","","2019","18324","NYTIMES-USCENSUS"
"5/6/2022 12:00:00 AM","Marion County","Missouri","Midwest","West North Central","29127","39.807538","-91.635379 ","7989","118","7989","118","","2019","28530","NYTIMES-USCENSUS"
"5/6/2022 12:00:00 AM","Mercer County","Kentucky","South","East South Central","21167","37.812085","-84.879695 ","7380","105","7380","105","","2019","21933","NYTIMES-USCENSUS"
"5/6/2022 12:00:00 AM","Iowa County","Wisconsin","Midwest","East North Central","55049","43.001021","-90.133691 ","5366","28","5366","28","","2019","23678","NYTIMES-USCENSUS"
"5/6/2022 12:00:00 AM","Garfield County","Nebraska","Midwest","West North Central","31071","41.906868","-98.951231 ","396","2","396","2","","2019","1969","NYTIMES-USCENSUS"
"5/6/2022 12:00:00 AM","Johnson County","Wyoming","West","Mountain","56019","44.044048","-106.588541 ","1845","19","1845","19","","2019","8445","NYTIMES-USCENSUS"
"5/6/2022 12:00:00 AM","Bay County","Michigan","Midwest","East North Central","26017","43.699711","-83.978701 ","27284","584","27284","584","","2019","103126","NYTIMES-USCENSUS"
"5/6/2022 12:00:00 AM","Mahoning County","Ohio","Midwest","East North Central","39099","41.01088","-80.770396 ","53793","1089","53793","1089","","2019","228683","NYTIMES-USCENSUS"
"5/6/2022 12:00:00 AM","McKinley County","New Mexico","West","Mountain","35031","35.584062","-108.253294 ","25954","589","25954","589","","2019","71367","NYTIMES-USCENSUS"
"5/6/2022 12:00:00 AM","Garland County","Arkansas","South","West South Central","05051","34.578852","-93.146932 ","23337","510","23337","510","","2019","99386","NYTIMES-USCENSUS"
"5/6/2022 12:00:00 AM","Randolph County","Indiana","Midwest","East North Central","18135","40.164079","-85.00579 ","5912","148","5912","148","","2019","24665","NYTIMES-USCENSUS"
"5/6/2022 12:00:00 AM","Decatur County","Tennessee","South","East South Central","47039","35.603136","-88.110292 ","3738","70","3738","70","","2019","11663","NYTIMES-USCENSUS"
"5/6/2022 12:00:00 AM","Westmoreland County","Virginia","South","South Atlantic","51193","38.109311","-76.803933 ","3274","51","3274","51","","2019","18015","NYTIMES-USCENSUS"
"5/6/2022 12:00:00 AM","Cass County","Missouri","Midwest","West North Central","29037","38.646474","-94.354547 ","25185","315","25185","315","","2019","105780","NYTIMES-USCENSUS"
"5/6/2022 12:00:00 AM","Gregg County","Texas","South","West South Central","48183","32.486401","-94.816277 ","23216","685","23216","685","","2019","123945","NYTIMES-USCENSUS"
"5/6/2022 12:00:00 AM","Magoffin County","Kentucky","South","East South Central","21153","37.698983","-83.069721 ","3944","51","3944","51","","2019","12161","NYTIMES-USCENSUS"
"5/6/2022 12:00:00 AM","Fayette County","Iowa","Midwest","West North Central","19065","42.864122","-91.840376 ","4110","74","4110","74","","2019","19650","NYTIMES-USCENSUS"
"5/6/2022 12:00:00 AM","Baker County","Oregon","West","Pacific","41001","44.703427","-117.691933 ","3226","48","3226","48","","2019","16124","NYTIMES-USCENSUS"
"5/6/2022 12:00:00 AM","Fisher County","Texas","South","West South Central","48151","32.740473","-100.40312 ","609","24","609","24","","2019","3830","NYTIMES-USCENSUS"
"5/6/2022 12:00:00 AM","Otsego County","Michigan","Midwest","East North Central","26137","45.021787","-84.576603 ","5704","100","5704","100","","2019","24668","NYTIMES-USCENSUS"
"5/6/2022 12:00:00 AM","Autauga County","Alabama","South","East South Central","01001","32.532237","-86.64644 ","15840","216","15840","216","","2019","55869","NYTIMES-USCENSUS"
"5/6/2022 12:00:00 AM","Jack County","Texas","South","West South Central","48237","33.23216","-98.171177 ","1515","28","1515","28","","2019","8935","NYTIMES-USCENSUS"
"5/6/2022 12:00:00 AM","San Juan County","Washington","West","Pacific","53055","48.50719","-123.103769 ","1307","2","1307","2","","2019","17582","NYTIMES-USCENSUS"
"5/6/2022 12:00:00 AM","Norton city","Virginia","South","South Atlantic","51720","36.931549","-82.625996 ","1304","22","1304","22","","2019","3981","NYTIMES-USCENSUS"
"5/6/2022 12:00:00 AM","Piatt County","Illinois","Midwest","East North Central","17147","40.009033","-88.592355 ","4544","29","4544","29","","2019","16344","NYTIMES-USCENSUS"
"5/6/2022 12:00:00 AM","Traill County","North Dakota","Midwest","West North Central","38097","47.446215","-97.164754 ","2201","26","2201","26","","2019","8036","NYTIMES-USCENSUS"
"5/6/2022 12:00:00 AM","Hernando County","Florida","South","South Atlantic","12053","28.555995","-82.525969 ","42396","1093","42396","1093","","2019","193920","NYTIMES-USCENSUS"
"5/6/2022 12:00:00 AM","Talbot County","Maryland","South","South Atlantic","24041","38.748349","-76.178476 ","5666","88","5666","88","","2019","37181","NYTIMES-USCENSUS"
"5/6/2022 12:00:00 AM","Stokes County","North Carolina","South","South Atlantic","37169","36.393797","-80.269921 ","11260","180","11260","180","","2019","45591","NYTIMES-USCENSUS"
"5/6/2022 12:00:00 AM","Phelps County","Missouri","Midwest","West North Central","29161","37.866326","-91.790349 ","10268","243","10268","243","","2019","44573","NYTIMES-USCENSUS"
"5/6/2022 12:00:00 AM","Anson County","North Carolina","South","South Atlantic","37007","34.974972","-80.109763 ","6552","101","6552","101","","2019","24446","NYTIMES-USCENSUS"
"5/6/2022 12:00:00 AM","Henderson County","Illinois","Midwest","East North Central","17071","40.814471","-90.941246 ","1156","28","1156","28","","2019","6646","NYTIMES-USCENSUS"
"5/6/2022 12:00:00 AM","Hot Springs County","Wyoming","West","Mountain","56017","43.720209","-108.435076 ","1157","15","1157","15","","2019","4413","NYTIMES-USCENSUS"
"5/6/2022 12:00:00 AM","Labette County","Kansas","Midwest","West North Central","20099","37.191468","-95.297473 ","6624","74","6624","74","","2019","19618","NYTIMES-USCENSUS"
"5/6/2022 12:00:00 AM","Haskell County","Texas","South","West South Central","48207","33.175964","-99.730774 ","897","39","897","39","","2019","5658","NYTIMES-USCENSUS"
"5/6/2022 12:00:00 AM","Washington County","Utah","West","Mountain","49053","37.262531","-113.4878 ","44976","463","44976","463","","2019","177556","NYTIMES-USCENSUS"
"5/6/2022 12:00:00 AM","Belknap County","New Hampshire","Northeast","New England","33001","43.519109","-71.425366 ","13992","177","13992","177","","2019","61303","NYTIMES-USCENSUS"
"5/6/2022 12:00:00 AM","Owen County","Kentucky","South","East South Central","21187","38.499395","-84.84159 ","2369","34","2369","34","","2019","10901","NYTIMES-USCENSUS"
"5/6/2022 12:00:00 AM","Hempstead County","Arkansas","South","West South Central","05057","33.735953","-93.664355 ","4566","68","4566","68","","2019","21532","NYTIMES-USCENSUS"
"5/6/2022 12:00:00 AM","Hardin County","Tennessee","South","East South Central","47071","35.201893","-88.185696 ","8760","145","8760","145","","2019","25652","NYTIMES-USCENSUS"
"5/6/2022 12:00:00 AM","Oktibbeha County","Mississippi","South","East South Central","28105","33.422313","-88.876151 ","11117","161","11117","161","","2019","49587","NYTIMES-USCENSUS"
"5/6/2022 12:00:00 AM","Blaine County","Idaho","West","Mountain","16013","43.394192","-113.955371 ","6030","30","6030","30","","2019","23021","NYTIMES-USCENSUS"
"5/6/2022 12:00:00 AM","Washington County","Colorado","West","Mountain","08121","39.96579","-103.209744 ","1063","28","1063","28","","2019","4908","NYTIMES-USCENSUS"
"5/6/2022 12:00:00 AM","Orange County","North Carolina","South","South Atlantic","37135","36.062526","-79.120034 ","27771","134","27771","134","","2019","148476","NYTIMES-USCENSUS"
"5/6/2022 12:00:00 AM","Levy County","Florida","South","South Atlantic","12075","29.271854","-82.831233 ","10284","169","10284","169","","2019","41503","NYTIMES-USCENSUS"
"5/6/2022 12:00:00 AM","Hartford County","Connecticut","Northeast","New England","09003","41.806053","-72.732916 ","183694","3142","183694","3142","","2019","891720","NYTIMES-USCENSUS"
"5/6/2022 12:00:00 AM","Palm Beach County","Florida","South","South Atlantic","12099","26.649126","-80.448354 ","375184","5052","375184","5052","","2019","1496770","NYTIMES-USCENSUS"
"5/6/2022 12:00:00 AM","Taylor County","Florida","South","South Atlantic","12123","29.967146","-83.639573 ","7015","101","7015","101","","2019","21569","NYTIMES-USCENSUS"
"5/6/2022 12:00:00 AM","Dixon County","Nebraska","Midwest","West North Central","31051","42.485086","-96.855784 ","1200","11","1200","11","","2019","5636","NYTIMES-USCENSUS"
"5/6/2022 12:00:00 AM","Webster County","Iowa","Midwest","West North Central","19187","42.433579","-94.175831 ","10363","164","10363","164","","2019","35904","NYTIMES-USCENSUS"
"5/6/2022 12:00:00 AM","McCreary County","Kentucky","South","East South Central","21147","36.731136","-84.491052 ","5726","82","5726","82","","2019","17231","NYTIMES-USCENSUS"
"5/6/2022 12:00:00 AM","Mayes County","Oklahoma","South","West South Central","40097","36.303804","-95.235638 ","10384","163","10384","163","","2019","41100","NYTIMES-USCENSUS"
"5/6/2022 12:00:00 AM","Muscatine County","Iowa","Midwest","West North Central","19139","41.483776","-91.118699 ","9665","130","9665","130","","2019","42664","NYTIMES-USCENSUS"
"5/6/2022 12:00:00 AM","Adams County","Mississippi","South","East South Central","28001","31.486224","-91.351797 ","7174","142","7174","142","","2019","30693","NYTIMES-USCENSUS"
"5/6/2022 12:00:00 AM","Weston County","Wyoming","West","Mountain","56045","43.846213","-104.57002 ","1589","18","1589","18","","2019","6927","NYTIMES-USCENSUS"
"5/6/2022 12:00:00 AM","Stone County","Mississippi","South","East South Central","28131","30.790184","-89.112297 ","5406","71","5406","71","","2019","18336","NYTIMES-USCENSUS"
"5/6/2022 12:00:00 AM","Atchison County","Missouri","Midwest","West North Central","29005","40.431846","-95.437555 ","1385","23","1385","23","","2019","5143","NYTIMES-USCENSUS"
"5/6/2022 12:00:00 AM","Madison County","Tennessee","South","East South Central","47113","35.606056","-88.833424 ","30181","427","30181","427","","2019","97984","NYTIMES-USCENSUS"
"5/6/2022 12:00:00 AM","Marshall County","Minnesota","Midwest","West North Central","27089","48.362728","-96.357761 ","2110","23","2110","23","","2019","9336","NYTIMES-USCENSUS"
"5/6/2022 12:00:00 AM","Montgomery County","Mississippi","South","East South Central","28097","33.500714","-89.639625 ","2960","77","2960","77","","2019","9775","NYTIMES-USCENSUS"
"5/6/2022 12:00:00 AM","Matanuska-Susitna Borough","Alaska","West","Pacific","02170","62.265626","-149.503993 ","34817","232","34817","232","","2019","108317","NYTIMES-USCENSUS"
"5/6/2022 12:00:00 AM","Calhoun County","South Carolina","South","South Atlantic","45017","33.67478","-80.780347 ","2796","61","2796","61","","2019","14553","NYTIMES-USCENSUS"
"5/6/2022 12:00:00 AM","Brule County","South Dakota","Midwest","West North Central","46015","43.729873","-99.092909 ","1413","20","1413","20","","2019","5297","NYTIMES-USCENSUS"
"5/6/2022 12:00:00 AM","Concho County","Texas","South","West South Central","48095","31.318883","-99.863649 ","1084","11","1084","11","","2019","2726","NYTIMES-USCENSUS"
"5/6/2022 12:00:00 AM","Wood County","West Virginia","South","South Atlantic","54107","39.211602","-81.516234 ","22261","346","22261","346","","2019","83518","NYTIMES-USCENSUS"
"5/6/2022 12:00:00 AM","Cumberland County","Virginia","South","South Atlantic","51049","37.520189","-78.252836 ","1353","27","1353","27","","2019","9932","NYTIMES-USCENSUS"
"5/6/2022 12:00:00 AM","O'Brien County","Iowa","Midwest","West North Central","19141","43.083746","-95.625624 ","3452","71","3452","71","","2019","13753","NYTIMES-USCENSUS"
"5/6/2022 12:00:00 AM","Perry County","Indiana","Midwest","East North Central","18123","38.081436","-86.62654 ","4659","69","4659","69","","2019","19169","NYTIMES-USCENSUS"
"5/6/2022 12:00:00 AM","Moffat County","Colorado","West","Mountain","08081","40.610864","-108.217154 ","3042","52","3042","52","","2019","13283","NYTIMES-USCENSUS"
"5/6/2022 12:00:00 AM","Bamberg County","South Carolina","South","South Atlantic","45009","33.203021","-81.053161 ","3435","75","3435","75","","2019","14066","NYTIMES-USCENSUS"
"5/6/2022 12:00:00 AM","Hancock County","Iowa","Midwest","West North Central","19081","43.075411","-93.743697 ","2848","47","2848","47","","2019","10630","NYTIMES-USCENSUS"
"5/6/2022 12:00:00 AM","York County","South Carolina","South","South Atlantic","45091","34.970188","-81.183187 ","77962","676","77962","676","","2019","280979","NYTIMES-USCENSUS"
"5/6/2022 12:00:00 AM","Union County","Florida","South","South Atlantic","12125","30.05428","-82.366918 ","4321","115","4321","115","","2019","15237","NYTIMES-USCENSUS"
"5/6/2022 12:00:00 AM","Gonzales County","Texas","South","West South Central","48177","29.461912","-97.49192 ","4729","99","4729","99","","2019","20837","NYTIMES-USCENSUS"
"5/6/2022 12:00:00 AM","Taylor County","Kentucky","South","East South Central","21217","37.36621","-85.328059 ","9483","122","9483","122","","2019","25769","NYTIMES-USCENSUS"
"5/6/2022 12:00:00 AM","Pike County","Georgia","South","South Atlantic","13231","33.081149","-84.389462 ","5465","98","5465","98","","2019","18962","NYTIMES-USCENSUS"
"5/6/2022 12:00:00 AM","Branch County","Michigan","Midwest","East North Central","26023","41.918455","-85.066885 ","12211","206","12211","206","","2019","43517","NYTIMES-USCENSUS"
"5/6/2022 12:00:00 AM","St. Lawrence County","New York","Northeast","Middle Atlantic","36089","44.488112","-75.074311 ","22301","190","22301","190","","2019","107740","NYTIMES-USCENSUS"
"5/6/2022 12:00:00 AM","Mille Lacs County","Minnesota","Midwest","West North Central","27095","45.929043","-93.632996 ","7303","114","7303","114","","2019","26277","NYTIMES-USCENSUS"
"5/6/2022 12:00:00 AM","Polk County","Georgia","South","South Atlantic","13233","33.996015","-85.188338 ","11898","193","11898","193","","2019","42613","NYTIMES-USCENSUS"
"5/6/2022 12:00:00 AM","Grundy County","Missouri","Midwest","West North Central","29079","40.112541","-93.565054 ","2533","69","2533","69","","2019","9850","NYTIMES-USCENSUS"
"5/6/2022 12:00:00 AM","Oregon County","Missouri","Midwest","West North Central","29149","36.68531","-91.401827 ","2024","33","2024","33","","2019","10529","NYTIMES-USCENSUS"
"5/6/2022 12:00:00 AM","Mecosta County","Michigan","Midwest","East North Central","26107","43.635295","-85.332751 ","8730","107","8730","107","","2019","43453","NYTIMES-USCENSUS"
"5/6/2022 12:00:00 AM","St. Clair County","Michigan","Midwest","East North Central","26147","42.928803","-82.668913 ","41369","833","41369","833","","2019","159128","NYTIMES-USCENSUS"
"5/6/2022 12:00:00 AM","Warrick County","Indiana","Midwest","East North Central","18173","38.097728","-87.272049 ","20343","239","20343","239","","2019","62998","NYTIMES-USCENSUS"
"5/6/2022 12:00:00 AM","Rockcastle County","Kentucky","South","East South Central","21203","37.36105","-84.314368 ","5049","59","5049","59","","2019","16695","NYTIMES-USCENSUS"
"5/6/2022 12:00:00 AM","Freeborn County","Minnesota","Midwest","West North Central","27047","43.674202","-93.350289 ","9191","74","9191","74","","2019","30281","NYTIMES-USCENSUS"
"5/6/2022 12:00:00 AM","Newport County","Rhode Island","Northeast","New England","44005","41.501045","-71.283063 ","20876","94","20876","94","","2019","82082","NYTIMES-USCENSUS"
"5/6/2022 12:00:00 AM","Marshall County","Kentucky","South","East South Central","21157","36.882017","-88.332752 ","8416","106","8416","106","","2019","31100","NYTIMES-USCENSUS"
"5/6/2022 12:00:00 AM","Valley County","Nebraska","Midwest","West North Central","31175","41.564094","-98.983484 ","753","6","753","6","","2019","4158","NYTIMES-USCENSUS"
"5/6/2022 12:00:00 AM","Alamance County","North Carolina","South","South Atlantic","37001","36.043954","-79.400573 ","47390","488","47390","488","","2019","169509","NYTIMES-USCENSUS"
"5/6/2022 12:00:00 AM","Montmorency County","Michigan","Midwest","East North Central","26119","45.024134","-84.130107 ","1745","48","1745","48","","2019","9328","NYTIMES-USCENSUS"
"5/6/2022 12:00:00 AM","Rock County","Minnesota","Midwest","West North Central","27133","43.669587","-96.263238 ","2343","34","2343","34","","2019","9315","NYTIMES-USCENSUS"
"5/6/2022 12:00:00 AM","Burt County","Nebraska","Midwest","West North Central","31021","41.854179","-96.337746 ","1350","16","1350","16","","2019","6459","NYTIMES-USCENSUS"
"5/6/2022 12:00:00 AM","Falls Church city","Virginia","South","South Atlantic","51610","38.884722","-77.175603 ","2151","17","2151","17","","2019","14617","NYTIMES-USCENSUS"
"5/6/2022 12:00:00 AM","Hubbard County","Minnesota","Midwest","West North Central","27057","47.095551","-94.91329 ","4984","59","4984","59","","2019","21491","NYTIMES-USCENSUS"
"5/6/2022 12:00:00 AM","St. Tammany Parish","Louisiana","South","West South Central","22103","30.410022","-89.951962 ","72703","851","72703","851","","2019","260419","NYTIMES-USCENSUS"
"5/6/2022 12:00:00 AM","Newton County","Indiana","Midwest","East North Central","18111","40.962399","-87.402172 ","2581","68","2581","68","","2019","13984","NYTIMES-USCENSUS"
"5/6/2022 12:00:00 AM","Marion County","Ohio","Midwest","East North Central","39101","40.588034","-83.168803 ","19996","268","19996","268","","2019","65093","NYTIMES-USCENSUS"
"5/6/2022 12:00:00 AM","Durham County","North Carolina","South","South Atlantic","37063","36.033828","-78.878125 ","75933","340","75933","340","","2019","321488","NYTIMES-USCENSUS"
"5/6/2022 12:00:00 AM","Madison County","Virginia","South","South Atlantic","51113","38.412059","-78.276961 ","2434","41","2434","41","","2019","13261","NYTIMES-USCENSUS"
"5/6/2022 12:00:00 AM","Madison County","Idaho","West","Mountain","16065","43.788614","-111.656993 ","12668","50","12668","50","","2019","39907","NYTIMES-USCENSUS"
"5/6/2022 12:00:00 AM","Candler County","Georgia","South","South Atlantic","13043","32.40395","-82.071266 ","2190","96","2190","96","","2019","10803","NYTIMES-USCENSUS"
"5/6/2022 12:00:00 AM","Fall River County","South Dakota","Midwest","West North Central","46047","43.221619","-103.512609 ","1806","39","1806","39","","2019","6713","NYTIMES-USCENSUS"
"5/6/2022 12:00:00 AM","Hamilton County","Kansas","Midwest","West North Central","20075","37.995244","-101.793689 ","464","3","464","3","","2019","2539","NYTIMES-USCENSUS"
"5/6/2022 12:00:00 AM","Ramsey County","Minnesota","Midwest","West North Central","27123","45.015204","-93.099965 ","127350","1343","127350","1343","","2019","550321","NYTIMES-USCENSUS"
"5/6/2022 12:00:00 AM","Nantucket County","Massachusetts","Northeast","New England","25019","41.293392","-70.102164 ","3457","0","3457","0","","2019","11399","NYTIMES-USCENSUS"
"5/6/2022 12:00:00 AM","Washington County","Minnesota","Midwest","West North Central","27163","45.037929","-92.890117 ","68361","479","68361","479","","2019","262440","NYTIMES-USCENSUS"
"5/6/2022 12:00:00 AM","Portsmouth city","Virginia","South","South Atlantic","51740","36.859339","-76.356973 ","21067","337","21067","337","","2019","94398","NYTIMES-USCENSUS"
"5/6/2022 12:00:00 AM","Towns County","Georgia","South","South Atlantic","13281","34.902529","-83.732264 ","2398","116","2398","116","","2019","12037","NYTIMES-USCENSUS"
"5/6/2022 12:00:00 AM","Juneau City and Borough","Alaska","West","Pacific","02110","58.37291","-134.178445 ","8622","19","8622","19","","2019","31974","NYTIMES-USCENSUS"
"5/6/2022 12:00:00 AM","Foster County","North Dakota","Midwest","West North Central","38031","47.471431","-98.872876 ","991","23","991","23","","2019","3210","NYTIMES-USCENSUS"
"5/6/2022 12:00:00 AM","Turner County","Georgia","South","South Atlantic","13287","31.7248","-83.620319 ","2565","60","2565","60","","2019","7985","NYTIMES-USCENSUS"
"5/6/2022 12:00:00 AM","Lake County","Florida","South","South Atlantic","12069","28.764113","-81.712282 ","86320","1503","86320","1503","","2019","367118","NYTIMES-USCENSUS"
"5/6/2022 12:00:00 AM","Big Horn County","Wyoming","West","Mountain","56003","44.525117","-107.994848 ","2583","61","2583","61","","2019","11790","NYTIMES-USCENSUS"
"5/6/2022 12:00:00 AM","Zapata County","Texas","South","West South Central","48505","26.996981","-99.182603 ","3734","55","3734","55","","2019","14179","NYTIMES-USCENSUS"
"5/6/2022 12:00:00 AM","Prince of Wales-Hyder Census Area","Alaska","West","Pacific","02198","55.682773","-133.162389 ","1444","8","1444","8","","2019","6203","NYTIMES-USCENSUS"
"5/6/2022 12:00:00 AM","Randolph County","Arkansas","South","West South Central","05121","36.341298","-91.028441 ","5205","89","5205","89","","2019","17958","NYTIMES-USCENSUS"
"5/6/2022 12:00:00 AM","Scott County","Tennessee","South","East South Central","47151","36.435234","-84.50352 ","9078","117","9078","117","","2019","22068","NYTIMES-USCENSUS"
"5/6/2022 12:00:00 AM","Lincoln County","New Mexico","West","Mountain","35027","33.740841","-105.449805 ","5280","67","5280","67","","2019","19572","NYTIMES-USCENSUS"
"5/6/2022 12:00:00 AM","Hays County","Texas","South","West South Central","48209","30.061225","-98.029267 ","60655","498","60655","498","","2019","230191","NYTIMES-USCENSUS"
"5/6/2022 12:00:00 AM","Osceola County","Iowa","Midwest","West North Central","19143","43.378542","-95.633788 ","1394","22","1394","22","","2019","5958","NYTIMES-USCENSUS"
"5/6/2022 12:00:00 AM","Pottawatomie County","Oklahoma","South","West South Central","40125","35.211391","-96.957004 ","20679","284","20679","284","","2019","72592","NYTIMES-USCENSUS"
"5/6/2022 12:00:00 AM","Coffee County","Georgia","South","South Atlantic","13069","31.549245","-82.84494 ","10982","281","10982","281","","2019","43273","NYTIMES-USCENSUS"
"5/6/2022 12:00:00 AM","Grant County","North Dakota","Midwest","West North Central","38037","46.357827","-101.639049 ","451","11","451","11","","2019","2274","NYTIMES-USCENSUS"
"5/6/2022 12:00:00 AM","Greeley County","Nebraska","Midwest","West North Central","31077","41.567571","-98.530565 ","416","2","416","2","","2019","2356","NYTIMES-USCENSUS"
"5/6/2022 12:00:00 AM","Warren County","North Carolina","South","South Atlantic","37185","36.398105","-78.099899 ","4350","45","4350","45","","2019","19731","NYTIMES-USCENSUS"
"5/6/2022 12:00:00 AM","Lincoln County","Mississippi","South","East South Central","28085","31.535216","-90.453566 ","8318","157","8318","157","","2019","34153","NYTIMES-USCENSUS"
"5/6/2022 12:00:00 AM","Mitchell County","Texas","South","West South Central","48335","32.304117","-100.924392 ","1864","48","1864","48","","2019","8545","NYTIMES-USCENSUS"
"5/6/2022 12:00:00 AM","Anoka County","Minnesota","Midwest","West North Central","27003","45.27411","-93.242723 ","99938","795","99938","795","","2019","356921","NYTIMES-USCENSUS"
"5/6/2022 12:00:00 AM","Huntington County","Indiana","Midwest","East North Central","18069","40.826394","-85.478597 ","11542","157","11542","157","","2019","36520","NYTIMES-USCENSUS"
"5/6/2022 12:00:00 AM","Stevens County","Minnesota","Midwest","West North Central","27149","45.593461","-95.992315 ","2651","13","2651","13","","2019","9805","NYTIMES-USCENSUS"
"5/6/2022 12:00:00 AM","Conejos County","Colorado","West","Mountain","08021","37.213406","-106.176447 ","1756","54","1756","54","","2019","8205","NYTIMES-USCENSUS"
"5/6/2022 12:00:00 AM","Pawnee County","Oklahoma","South","West South Central","40117","36.313704","-96.696669 ","4115","84","4115","84","","2019","16376","NYTIMES-USCENSUS"
"5/6/2022 12:00:00 AM","Cape May County","New Jersey","Northeast","Middle Atlantic","34009","39.085841","-74.846354 ","22507","304","22507","304","","2019","92039","NYTIMES-USCENSUS"
"5/6/2022 12:00:00 AM","Vernon County","Wisconsin","Midwest","East North Central","55123","43.599366","-90.821983 ","6183","97","6183","97","","2019","30822","NYTIMES-USCENSUS"
"5/6/2022 12:00:00 AM","Clarke County","Georgia","South","South Atlantic","13059","33.952185","-83.367152 ","29801","232","29801","232","","2019","128331","NYTIMES-USCENSUS"
"5/6/2022 12:00:00 AM","Dorchester County","South Carolina","South","South Atlantic","45035","33.082186","-80.404697 ","56163","495","56163","495","","2019","162809","NYTIMES-USCENSUS"
"5/6/2022 12:00:00 AM","Grant County","Wisconsin","Midwest","East North Central","55043","42.870028","-90.694229 ","12863","145","12863","145","","2019","51439","NYTIMES-USCENSUS"
"5/6/2022 12:00:00 AM","Tillman County","Oklahoma","South","West South Central","40141","34.371085","-98.931701 ","1530","35","1530","35","","2019","7250","NYTIMES-USCENSUS"
"5/6/2022 12:00:00 AM","Hunt County","Texas","South","West South Central","48231","33.123308","-96.08423 ","15787","363","15787","363","","2019","98594","NYTIMES-USCENSUS"
"5/6/2022 12:00:00 AM","Morgan County","West Virginia","South","South Atlantic","54065","39.557345","-78.256517 ","4295","69","4295","69","","2019","17884","NYTIMES-USCENSUS"
"5/6/2022 12:00:00 AM","Barbour County","West Virginia","South","South Atlantic","54001","39.139725","-79.996947 ","4821","73","4821","73","","2019","16441","NYTIMES-USCENSUS"
"5/6/2022 12:00:00 AM","Imperial County","California","West","Pacific","06025","33.040814","-115.3554 ","66624","916","66624","916","","2019","181215","NYTIMES-USCENSUS"
"5/6/2022 12:00:00 AM","Canadian County","Oklahoma","South","West South Central","40017","35.543354","-97.979889 ","39776","390","39776","390","","2019","148306","NYTIMES-USCENSUS"
"5/6/2022 12:00:00 AM","Franklin County","Kansas","Midwest","West North Central","20059","38.558019","-95.278962 ","7004","81","7004","81","","2019","25544","NYTIMES-USCENSUS"
"5/6/2022 12:00:00 AM","Mitchell County","Kansas","Midwest","West North Central","20123","39.393026","-98.207362 ","1426","22","1426","22","","2019","5979","NYTIMES-USCENSUS"
"5/6/2022 12:00:00 AM","Northumberland County","Virginia","South","South Atlantic","51133","37.856974","-76.379687 ","2198","46","2198","46","","2019","12095","NYTIMES-USCENSUS"
"5/6/2022 12:00:00 AM","Casey County","Kentucky","South","East South Central","21045","37.321962","-84.92822 ","4212","72","4212","72","","2019","16159","NYTIMES-USCENSUS"
"5/6/2022 12:00:00 AM","Stoddard County","Missouri","Midwest","West North Central","29207","36.851557","-89.947481 ","6132","130","6132","130","","2019","29025","NYTIMES-USCENSUS"
"5/6/2022 12:00:00 AM","Wheeler County","Texas","South","West South Central","48483","35.392593","-100.253107 ","1191","23","1191","23","","2019","5056","NYTIMES-USCENSUS"
"5/6/2022 12:00:00 AM","Warren County","Iowa","Midwest","West North Central","19181","41.332446","-93.568751 ","12547","134","12547","134","","2019","51466","NYTIMES-USCENSUS"
"5/6/2022 12:00:00 AM","Washington Parish","Louisiana","South","West South Central","22117","30.852144","-90.046253 ","12982","248","12982","248","","2019","46194","NYTIMES-USCENSUS"
"5/6/2022 12:00:00 AM","Morrison County","Minnesota","Midwest","West North Central","27097","46.020484","-94.266619 ","9198","105","9198","105","","2019","33386","NYTIMES-USCENSUS"
"5/6/2022 12:00:00 AM","Turner County","South Dakota","Midwest","West North Central","46125","43.30867","-97.150185 ","1967","62","1967","62","","2019","8384","NYTIMES-USCENSUS"
"5/6/2022 12:00:00 AM","Baraga County","Michigan","Midwest","East North Central","26013","46.695859","-88.36181 ","2219","54","2219","54","","2019","8209","NYTIMES-USCENSUS"
"5/6/2022 12:00:00 AM","Tuscarawas County","Ohio","Midwest","East North Central","39157","40.44749","-81.471105 ","20702","505","20702","505","","2019","91987","NYTIMES-USCENSUS"
"5/6/2022 12:00:00 AM","Wagoner County","Oklahoma","South","West South Central","40145","35.963388","-95.514201 ","21871","277","21871","277","","2019","81289","NYTIMES-USCENSUS"
"5/6/2022 12:00:00 AM","Perry County","Alabama","South","East South Central","01105","32.639005","-87.293827 ","2096","46","2096","46","","2019","8923","NYTIMES-USCENSUS"
"5/6/2022 12:00:00 AM","Macon County","Missouri","Midwest","West North Central","29121","39.829795","-92.56434 ","3645","58","3645","58","","2019","15117","NYTIMES-USCENSUS"
"5/6/2022 12:00:00 AM","Attala County","Mississippi","South","East South Central","28007","33.090468","-89.588622 ","5347","113","5347","113","","2019","18174","NYTIMES-USCENSUS"
"5/6/2022 12:00:00 AM","Mono County","California","West","Pacific","06051","37.915836","-118.875167 ","3125","6","3125","6","","2019","14444","NYTIMES-USCENSUS"
"5/6/2022 12:00:00 AM","Lucas County","Ohio","Midwest","East North Central","39095","41.682321","-83.468903 ","102610","1417","102610","1417","","2019","428348","NYTIMES-USCENSUS"
"5/6/2022 12:00:00 AM","Montgomery County","Maryland","South","South Atlantic","24031","39.137381","-77.203063 ","174899","2041","174899","2041","","2019","1050688","NYTIMES-USCENSUS"
"5/6/2022 12:00:00 AM","Norton County","Kansas","Midwest","West North Central","20137","39.783867","-99.899235 ","2153","37","2153","37","","2019","5361","NYTIMES-USCENSUS"
"5/6/2022 12:00:00 AM","Crook County","Wyoming","West","Mountain","56011","44.589266","-104.567298 ","1349","28","1349","28","","2019","7584","NYTIMES-USCENSUS"
"5/6/2022 12:00:00 AM","Miner County","South Dakota","Midwest","West North Central","46097","44.021541","-97.608122 ","457","13","457","13","","2019","2216","NYTIMES-USCENSUS"
"5/6/2022 12:00:00 AM","Cedar County","Iowa","Midwest","West North Central","19031","41.77236","-91.132611 ","4181","35","4181","35","","2019","18627","NYTIMES-USCENSUS"
"5/6/2022 12:00:00 AM","Coke County","Texas","South","West South Central","48081","31.87711","-100.635231 ","842","20","842","20","","2019","3387","NYTIMES-USCENSUS"
"5/6/2022 12:00:00 AM","Hutchinson County","Texas","South","West South Central","48233","35.837047","-101.362746 ","6755","135","6755","135","","2019","20938","NYTIMES-USCENSUS"
"5/6/2022 12:00:00 AM","Lee County","South Carolina","South","South Atlantic","45061","34.15864","-80.251209 ","4266","95","4266","95","","2019","16828","NYTIMES-USCENSUS"
"5/6/2022 12:00:00 AM","Carter County","Oklahoma","South","West South Central","40019","34.251848","-97.287927 ","14362","239","14362","239","","2019","48111","NYTIMES-USCENSUS"
"5/6/2022 12:00:00 AM","Lac qui Parle County","Minnesota","Midwest","West North Central","27073","44.999856","-96.176836 ","1757","29","1757","29","","2019","6623","NYTIMES-USCENSUS"
"5/6/2022 12:00:00 AM","Madison Parish","Louisiana","South","West South Central","22065","32.346878","-91.231932 ","3259","59","3259","59","","2019","10951","NYTIMES-USCENSUS"
"5/6/2022 12:00:00 AM","DeKalb County","Illinois","Midwest","East North Central","17037","41.894612","-88.768991 ","24138","201","24138","201","","2019","104897","NYTIMES-USCENSUS"
"5/6/2022 12:00:00 AM","Delaware County","New York","Northeast","Middle Atlantic","36025","42.193986","-74.966728 ","8171","72","8171","72","","2019","44135","NYTIMES-USCENSUS"
"5/6/2022 12:00:00 AM","Mahnomen County","Minnesota","Midwest","West North Central","27087","47.328387","-95.811089 ","1794","17","1794","17","","2019","5527","NYTIMES-USCENSUS"
"5/6/2022 12:00:00 AM","Page County","Virginia","South","South Atlantic","51139","38.623209","-78.491872 ","5638","121","5638","121","","2019","23902","NYTIMES-USCENSUS"
"5/6/2022 12:00:00 AM","Laurens County","Georgia","South","South Atlantic","13175","32.39322","-82.926317 ","13818","299","13818","299","","2019","47546","NYTIMES-USCENSUS"
"5/6/2022 12:00:00 AM","Sedgwick County","Kansas","Midwest","West North Central","20173","37.681045","-97.461054 ","145185","1411","145185","1411","","2019","516042","NYTIMES-USCENSUS"
"5/6/2022 12:00:00 AM","Southeast Fairbanks Census Area","Alaska","West","Pacific","02240","63.864997","-143.218628 ","2046","20","2046","20","","2019","6893","NYTIMES-USCENSUS"
"5/6/2022 12:00:00 AM","Wayne County","Pennsylvania","Northeast","Middle Atlantic","42127","41.646602","-75.292493 ","10350","172","10350","172","","2019","51361","NYTIMES-USCENSUS"
"5/6/2022 12:00:00 AM","Limestone County","Texas","South","West South Central","48293","31.547543","-96.593623 ","5098","124","5098","124","","2019","23437","NYTIMES-USCENSUS"
"5/6/2022 12:00:00 AM","Seminole County","Georgia","South","South Atlantic","13253","30.93396","-84.867685 ","2172","30","2172","30","","2019","8090","NYTIMES-USCENSUS"
"5/6/2022 12:00:00 AM","Otero County","New Mexico","West","Mountain","35035","32.615599","-105.751308 ","15573","187","15573","187","","2019","67490","NYTIMES-USCENSUS"
"5/6/2022 12:00:00 AM","Washington County","Georgia","South","South Atlantic","13303","32.971843","-82.798112 ","4401","137","4401","137","","2019","20374","NYTIMES-USCENSUS"
"5/6/2022 12:00:00 AM","Floyd County","Georgia","South","South Atlantic","13115","34.263692","-85.213685 ","27428","520","27428","520","","2019","98498","NYTIMES-USCENSUS"
"5/6/2022 12:00:00 AM","Union County","Georgia","South","South Atlantic","13291","34.833333","-83.989257 ","4885","159","4885","159","","2019","24511","NYTIMES-USCENSUS"
"5/6/2022 12:00:00 AM","Webster County","Georgia","South","South Atlantic","13307","32.046691","-84.553828 ","439","8","439","8","","2019","2607","NYTIMES-USCENSUS"
"5/6/2022 12:00:00 AM","Holt County","Missouri","Midwest","West North Central","29087","40.095724","-95.219072 ","1058","30","1058","30","","2019","4403","NYTIMES-USCENSUS"
"5/6/2022 12:00:00 AM","Christian County","Missouri","Midwest","West North Central","29043","36.969739","-93.187614 ","20920","262","20920","262","","2019","88595","NYTIMES-USCENSUS"
"5/6/2022 12:00:00 AM","Caroline County","Maryland","South","South Atlantic","24011","38.871531","-75.831662 ","6124","80","6124","80","","2019","33406","NYTIMES-USCENSUS"
"5/6/2022 12:00:00 AM","Pike County","Kentucky","South","East South Central","21195","37.486031","-82.410912 ","19051","301","19051","301","","2019","57876","NYTIMES-USCENSUS"
"5/6/2022 12:00:00 AM","Grayson County","Virginia","South","South Atlantic","51077","36.652229","-81.215324 ","4054","83","4054","83","","2019","15550","NYTIMES-USCENSUS"
"5/6/2022 12:00:00 AM","Dunn County","Wisconsin","Midwest","East North Central","55033","44.947751","-91.897645 ","13517","75","13517","75","","2019","45368","NYTIMES-USCENSUS"
"5/6/2022 12:00:00 AM","Burke County","North Dakota","Midwest","West North Central","38013","48.786453","-102.520087 ","433","3","433","3","","2019","2115","NYTIMES-USCENSUS"
"5/6/2022 12:00:00 AM","Kearney County","Nebraska","Midwest","West North Central","31099","40.50912","-98.947602 ","1220","9","1220","9","","2019","6495","NYTIMES-USCENSUS"
"5/6/2022 12:00:00 AM","Forsyth County","Georgia","South","South Atlantic","13117","34.225143","-84.127408 ","55947","400","55947","400","","2019","244252","NYTIMES-USCENSUS"
"5/6/2022 12:00:00 AM","Cochran County","Texas","South","West South Central","48079","33.60844","-102.830449 ","891","23","891","23","","2019","2853","NYTIMES-USCENSUS"
"5/6/2022 12:00:00 AM","Ramsey County","North Dakota","Midwest","West North Central","38071","48.266163","-98.739031 ","3628","57","3628","57","","2019","11519","NYTIMES-USCENSUS"
"5/6/2022 12:00:00 AM","Bracken County","Kentucky","South","East South Central","21023","38.680365","-84.115235 ","2183","26","2183","26","","2019","8303","NYTIMES-USCENSUS"
"5/6/2022 12:00:00 AM","Miami-Dade County","Florida","South","South Atlantic","12086","25.616009","-80.50375 ","1209302","10917","1209302","10917","","2019","2716940","NYTIMES-USCENSUS"
"5/6/2022 12:00:00 AM","Montgomery County","Ohio","Midwest","East North Central","39113","39.753736","-84.290591 ","127624","2018","127624","2018","","2019","531687","NYTIMES-USCENSUS"
"5/6/2022 12:00:00 AM","Rush County","Indiana","Midwest","East North Central","18139","39.622362","-85.466529 ","4849","58","4849","58","","2019","16581","NYTIMES-USCENSUS"
"5/6/2022 12:00:00 AM","Yellow Medicine County","Minnesota","Midwest","West North Central","27173","44.715736","-95.862756 ","2557","29","2557","29","","2019","9709","NYTIMES-USCENSUS"
"5/6/2022 12:00:00 AM","Adams County","Wisconsin","Midwest","East North Central","55001","43.973757","-89.767228 ","4689","61","4689","61","","2019","20220","NYTIMES-USCENSUS"
"5/6/2022 12:00:00 AM","Doniphan County","Kansas","Midwest","West North Central","20043","39.788502","-95.147225 ","2451","34","2451","34","","2019","7600","NYTIMES-USCENSUS"
"5/6/2022 12:00:00 AM","Dodge County","Georgia","South","South Atlantic","13091","32.164369","-83.167866 ","5240","153","5240","153","","2019","20605","NYTIMES-USCENSUS"
"5/6/2022 12:00:00 AM","Edwards County","Illinois","Midwest","East North Central","17047","38.417095","-88.047941 ","1744","29","1744","29","","2019","6395","NYTIMES-USCENSUS"
"5/6/2022 12:00:00 AM","Hyde County","North Carolina","South","South Atlantic","37095","35.408157","-76.153687 ","1322","13","1322","13","","2019","4937","NYTIMES-USCENSUS"
"5/6/2022 12:00:00 AM","Maury County","Tennessee","South","East South Central","47119","35.615696","-87.077763 ","29090","345","29090","345","","2019","96387","NYTIMES-USCENSUS"
"5/6/2022 12:00:00 AM","Clearfield County","Pennsylvania","Northeast","Middle Atlantic","42033","41.006862","-78.477724 ","19438","348","19438","348","","2019","79255","NYTIMES-USCENSUS"
"5/6/2022 12:00:00 AM","Grant County","West Virginia","South","South Atlantic","54023","39.105988","-79.195064 ","3787","56","3787","56","","2019","11568","NYTIMES-USCENSUS"
"5/6/2022 12:00:00 AM","Meade County","South Dakota","Midwest","West North Central","46093","44.605282","-102.714169 ","7027","64","7027","64","","2019","28332","NYTIMES-USCENSUS"
"5/6/2022 12:00:00 AM","Crawford County","Iowa","Midwest","West North Central","19047","42.043119","-95.38909 ","4528","54","4528","54","","2019","16820","NYTIMES-USCENSUS"
"5/6/2022 12:00:00 AM","Kaufman County","Texas","South","West South Central","48257","32.598944","-96.288377 ","35617","536","35617","536","","2019","136154","NYTIMES-USCENSUS"
"5/6/2022 12:00:00 AM","Trigg County","Kentucky","South","East South Central","21221","36.807681","-87.858652 ","4006","44","4006","44","","2019","14651","NYTIMES-USCENSUS"
"5/6/2022 12:00:00 AM","Marion County","Kentucky","South","East South Central","21155","37.552604","-85.268959 ","6422","85","6422","85","","2019","19273","NYTIMES-USCENSUS"
"5/6/2022 12:00:00 AM","Douglas County","Colorado","West","Mountain","08035","39.325414","-104.925987 ","80790","457","80790","457","","2019","351154","NYTIMES-USCENSUS"
"5/6/2022 12:00:00 AM","Monroe County","Florida","South","South Atlantic","12087","25.58612","-81.022603 ","18412","119","18412","119","","2019","74228","NYTIMES-USCENSUS"
"5/6/2022 12:00:00 AM","Pike County","Alabama","South","East South Central","01109","31.798653","-85.941608 ","7580","134","7580","134","","2019","33114","NYTIMES-USCENSUS"
"5/6/2022 12:00:00 AM","Lycoming County","Pennsylvania","Northeast","Middle Atlantic","42081","41.343882","-77.055262 ","28695","520","28695","520","","2019","113299","NYTIMES-USCENSUS"
"5/6/2022 12:00:00 AM","Rio Blanco County","Colorado","West","Mountain","08103","39.972622","-108.200716 ","1686","13","1686","13","","2019","6324","NYTIMES-USCENSUS"
"5/6/2022 12:00:00 AM","Carroll County","Iowa","Midwest","West North Central","19027","42.039502","-94.86765 ","4950","65","4950","65","","2019","20165","NYTIMES-USCENSUS"
"5/6/2022 12:00:00 AM","Burnet County","Texas","South","West South Central","48053","30.78963","-98.201187 ","11070","170","11070","170","","2019","48155","NYTIMES-USCENSUS"
"5/6/2022 12:00:00 AM","Anne Arundel County","Maryland","South","South Atlantic","24003","38.991617","-76.560894 ","91747","1075","91747","1075","","2019","579234","NYTIMES-USCENSUS"
"5/6/2022 12:00:00 AM","Tillamook County","Oregon","West","Pacific","41057","45.45589","-123.759299 ","3792","64","3792","64","","2019","27036","NYTIMES-USCENSUS"
"5/6/2022 12:00:00 AM","DeSoto County","Florida","South","South Atlantic","12027","27.190581","-81.806253 ","9455","150","9455","150","","2019","38001","NYTIMES-USCENSUS"
"5/6/2022 12:00:00 AM","Morton County","North Dakota","Midwest","West North Central","38059","46.710819","-101.298265 ","11255","142","11255","142","","2019","31364","NYTIMES-USCENSUS"
"5/6/2022 12:00:00 AM","Gogebic County","Michigan","Midwest","East North Central","26053","46.488054","-89.788314 ","3278","69","3278","69","","2019","13975","NYTIMES-USCENSUS"
"5/6/2022 12:00:00 AM","Paulding County","Ohio","Midwest","East North Central","39125","41.118948","-84.582125 ","4630","74","4630","74","","2019","18672","NYTIMES-USCENSUS"
"5/6/2022 12:00:00 AM","Prentiss County","Mississippi","South","East South Central","28117","34.620566","-88.522184 ","8223","103","8223","103","","2019","25126","NYTIMES-USCENSUS"
"5/6/2022 12:00:00 AM","Gila County","Arizona","West","Mountain","04007","33.789618","-110.81187 ","17341","381","17341","381","","2019","54018","NYTIMES-USCENSUS"
"5/6/2022 12:00:00 AM","Camden County","North Carolina","South","South Atlantic","37029","36.342344","-76.162488 ","1775","9","1775","9","","2019","10867","NYTIMES-USCENSUS"
"5/6/2022 12:00:00 AM","Crisp County","Georgia","South","South Atlantic","13081","31.920268","-83.75653 ","4678","136","4678","136","","2019","22372","NYTIMES-USCENSUS"
"5/6/2022 12:00:00 AM","Zavala County","Texas","South","West South Central","48507","28.864652","-99.75983 ","4054","68","4054","68","","2019","11840","NYTIMES-USCENSUS"
"5/6/2022 12:00:00 AM","Clallam County","Washington","West","Pacific","53009","48.110903","-123.88986 ","11635","140","11635","140","","2019","77331","NYTIMES-USCENSUS"
"5/6/2022 12:00:00 AM","Perry County","Mississippi","South","East South Central","28111","31.169307","-88.988755 ","3043","64","3043","64","","2019","11973","NYTIMES-USCENSUS"
"5/6/2022 12:00:00 AM","Lewis County","West Virginia","South","South Atlantic","54041","38.988877","-80.495477 ","5346","86","5346","86","","2019","15907","NYTIMES-USCENSUS"
"5/6/2022 12:00:00 AM","Jefferson County","Illinois","Midwest","East North Central","17081","38.30078","-88.92421 ","11143","176","11143","176","","2019","37684","NYTIMES-USCENSUS"
"5/6/2022 12:00:00 AM","Merrimack County","New Hampshire","Northeast","New England","33013","43.299579","-71.680041 ","33036","229","33036","229","","2019","151391","NYTIMES-USCENSUS"
"5/6/2022 12:00:00 AM","Dickson County","Tennessee","South","East South Central","47043","36.145533","-87.364155 ","15939","245","15939","245","","2019","53948","NYTIMES-USCENSUS"
"5/6/2022 12:00:00 AM","Rensselaer County","New York","Northeast","Middle Atlantic","36083","42.710421","-73.513845 ","33325","256","33325","256","","2019","158714","NYTIMES-USCENSUS"
"5/6/2022 12:00:00 AM","Powhatan County","Virginia","South","South Atlantic","51145","37.549404","-77.912855 ","5215","59","5215","59","","2019","29652","NYTIMES-USCENSUS"
"5/6/2022 12:00:00 AM","Sierra County","New Mexico","West","Mountain","35051","33.119468","-107.188161 ","2037","72","2037","72","","2019","10791","NYTIMES-USCENSUS"
"5/6/2022 12:00:00 AM","Grant County","New Mexico","West","Mountain","35017","32.732087","-108.381504 ","6694","90","6694","90","","2019","26998","NYTIMES-USCENSUS"
"5/6/2022 12:00:00 AM","Sebastian County","Arkansas","South","West South Central","05131","35.196981","-94.274989 ","32788","526","32788","526","","2019","127827","NYTIMES-USCENSUS"
"5/6/2022 12:00:00 AM","Boundary County","Idaho","West","Mountain","16021","48.773131","-116.524668 ","2098","62","2098","62","","2019","12245","NYTIMES-USCENSUS"
"5/6/2022 12:00:00 AM","Herkimer County","New York","Northeast","Middle Atlantic","36043","43.571009","-74.841097 ","14665","191","14665","191","","2019","61319","NYTIMES-USCENSUS"
"5/6/2022 12:00:00 AM","Contra Costa County","California","West","Pacific","06013","37.919479","-121.951543 ","207757","1302","207757","1302","","2019","1153526","NYTIMES-USCENSUS"
"5/6/2022 12:00:00 AM","Baldwin County","Georgia","South","South Atlantic","13009","33.05949","-83.255457 ","9564","240","9564","240","","2019","44890","NYTIMES-USCENSUS"
"5/6/2022 12:00:00 AM","Pointe Coupee Parish","Louisiana","South","West South Central","22077","30.708319","-91.604621 ","6288","93","6288","93","","2019","21730","NYTIMES-USCENSUS"
"5/6/2022 12:00:00 AM","Montrose County","Colorado","West","Mountain","08085","38.407507","-108.266282 ","9356","160","9356","160","","2019","42758","NYTIMES-USCENSUS"
"5/6/2022 12:00:00 AM","Pulaski County","Georgia","South","South Atlantic","13235","32.238803","-83.481845 ","2179","78","2179","78","","2019","11137","NYTIMES-USCENSUS"
"5/6/2022 12:00:00 AM","Montgomery County","Missouri","Midwest","West North Central","29139","38.935184","-91.465427 ","2516","57","2516","57","","2019","11551","NYTIMES-USCENSUS"
"5/6/2022 12:00:00 AM","Livingston Parish","Louisiana","South","West South Central","22063","30.440419","-90.727474 ","37193","466","37193","466","","2019","140789","NYTIMES-USCENSUS"
"5/6/2022 12:00:00 AM","Jackson County","Alabama","South","East South Central","01071","34.764114","-85.980056 ","15042","241","15042","241","","2019","51626","NYTIMES-USCENSUS"
"5/6/2022 12:00:00 AM","Fayette County","Alabama","South","East South Central","01057","33.716157","-87.764292 ","4983","96","4983","96","","2019","16302","NYTIMES-USCENSUS"
"5/6/2022 12:00:00 AM","Hopkins County","Kentucky","South","East South Central","21107","37.31107","-87.542196 ","14954","252","14954","252","","2019","44686","NYTIMES-USCENSUS"
"5/6/2022 12:00:00 AM","King William County","Virginia","South","South Atlantic","51101","37.70826","-77.091054 ","3755","44","3755","44","","2019","17148","NYTIMES-USCENSUS"
"5/6/2022 12:00:00 AM","Gwinnett County","Georgia","South","South Atlantic","13135","33.958756","-84.025735 ","209499","1881","209499","1881","","2019","936250","NYTIMES-USCENSUS"
"5/6/2022 12:00:00 AM","Wayne County","Nebraska","Midwest","West North Central","31179","42.210746","-97.126243 ","1860","11","1860","11","","2019","9385","NYTIMES-USCENSUS"
"5/6/2022 12:00:00 AM","Delta County","Colorado","West","Mountain","08029","38.861595","-107.864892 ","6189","140","6189","140","","2019","31162","NYTIMES-USCENSUS"
"5/6/2022 12:00:00 AM","Cheyenne County","Kansas","Midwest","West North Central","20023","39.789917","-101.727325 ","652","14","652","14","","2019","2657","NYTIMES-USCENSUS"
"5/6/2022 12:00:00 AM","Jasper County","Illinois","Midwest","East North Central","17079","39.004886","-88.150725 ","2684","32","2684","32","","2019","9610","NYTIMES-USCENSUS"
"5/6/2022 12:00:00 AM","Chatham County","North Carolina","South","South Atlantic","37037","35.704994","-79.251454 ","13088","115","13088","115","","2019","74470","NYTIMES-USCENSUS"
"5/6/2022 12:00:00 AM","Buncombe County","North Carolina","South","South Atlantic","37021","35.609371","-82.530423 ","53530","590","53530","590","","2019","261191","NYTIMES-USCENSUS"
"5/6/2022 12:00:00 AM","Howard County","Iowa","Midwest","West North Central","19089","43.365312","-92.321908 ","2064","35","2064","35","","2019","9158","NYTIMES-USCENSUS"
"5/6/2022 12:00:00 AM","Adair County","Iowa","Midwest","West North Central","19001","41.328528","-94.478164 ","1588","50","1588","50","","2019","7152","NYTIMES-USCENSUS"
"5/6/2022 12:00:00 AM","Addison County","Vermont","Northeast","New England","50001","44.031248","-73.141581 ","5845","16","5845","16","","2019","36777","NYTIMES-USCENSUS"
"5/6/2022 12:00:00 AM","Marshall County","West Virginia","South","South Atlantic","54051","39.854426","-80.671794 ","9050","154","9050","154","","2019","30531","NYTIMES-USCENSUS"
"5/6/2022 12:00:00 AM","Napa County","California","West","Pacific","06055","38.5071","-122.325904 ","27572","143","27572","143","","2019","137744","NYTIMES-USCENSUS"
"5/6/2022 12:00:00 AM","Edgar County","Illinois","Midwest","East North Central","17045","39.679037","-87.74711 ","5199","79","5199","79","","2019","17161","NYTIMES-USCENSUS"
"5/6/2022 12:00:00 AM","Summit County","Colorado","West","Mountain","08117","39.621023","-106.137555 ","9979","14","9979","14","","2019","31011","NYTIMES-USCENSUS"
"5/6/2022 12:00:00 AM","Milwaukee County","Wisconsin","Midwest","East North Central","55079","42.912643","-87.862312 ","274715","2290","274715","2290","","2019","945726","NYTIMES-USCENSUS"
"5/6/2022 12:00:00 AM","Polk County","Minnesota","Midwest","West North Central","27119","47.774254","-96.400027 ","8910","107","8910","107","","2019","31364","NYTIMES-USCENSUS"
"5/6/2022 12:00:00 AM","Warren County","Missouri","Midwest","West North Central","29219","38.761902","-91.159306 ","8173","102","8173","102","","2019","35649","NYTIMES-USCENSUS"
"5/6/2022 12:00:00 AM","Glascock County","Georgia","South","South Atlantic","13125","33.227491","-82.606913 ","609","25","609","25","","2019","2971","NYTIMES-USCENSUS"
"5/6/2022 12:00:00 AM","Twin Falls County","Idaho","West","Mountain","16083","42.352309","-114.665639 ","24091","295","24091","295","","2019","86878","NYTIMES-USCENSUS"
"5/6/2022 12:00:00 AM","Winston County","Alabama","South","East South Central","01133","34.154566","-87.365346 ","7569","131","7569","131","","2019","23629","NYTIMES-USCENSUS"
"5/6/2022 12:00:00 AM","Bexar County","Texas","South","West South Central","48029","29.448671","-98.520147 ","563014","6126","563014","6126","","2019","2003554","NYTIMES-USCENSUS"
"5/6/2022 12:00:00 AM","Blount County","Alabama","South","East South Central","01009","33.977358","-86.56644 ","14985","243","14985","243","","2019","57826","NYTIMES-USCENSUS"
"5/6/2022 12:00:00 AM","Coryell County","Texas","South","West South Central","48099","31.391177","-97.798022 ","17611","211","17611","211","","2019","75951","NYTIMES-USCENSUS"
"5/6/2022 12:00:00 AM","Jefferson County","Texas","South","West South Central","48245","29.854","-94.149331 ","48799","841","48799","841","","2019","251565","NYTIMES-USCENSUS"
"5/6/2022 12:00:00 AM","Guernsey County","Ohio","Midwest","East North Central","39059","40.056665","-81.497875 ","10522","151","10522","151","","2019","38875","NYTIMES-USCENSUS"
"5/6/2022 12:00:00 AM","Morrow County","Ohio","Midwest","East North Central","39117","40.525266","-82.797729 ","7810","103","7810","103","","2019","35328","NYTIMES-USCENSUS"
"5/6/2022 12:00:00 AM","Anderson County","Kansas","Midwest","West North Central","20003","38.215114","-95.292046 ","2128","29","2128","29","","2019","7858","NYTIMES-USCENSUS"
"5/6/2022 12:00:00 AM","Duval County","Texas","South","West South Central","48131","27.681123","-98.497393 ","3400","70","3400","70","","2019","11157","NYTIMES-USCENSUS"
"5/6/2022 12:00:00 AM","McPherson County","Nebraska","Midwest","West North Central","31117","41.648414","-101.120851 ","73","1","73","1","","2019","494","NYTIMES-USCENSUS"
"5/6/2022 12:00:00 AM","Marshall County","Indiana","Midwest","East North Central","18099","41.325003","-86.269036 ","12400","197","12400","197","","2019","46258","NYTIMES-USCENSUS"
"5/6/2022 12:00:00 AM","Bon Homme County","South Dakota","Midwest","West North Central","46009","42.985799","-97.884199 ","2293","39","2293","39","","2019","6901","NYTIMES-USCENSUS"
"5/6/2022 12:00:00 AM","Polk County","Nebraska","Midwest","West North Central","31143","41.187925","-97.570663 ","1250","18","1250","18","","2019","5213","NYTIMES-USCENSUS"
"5/6/2022 12:00:00 AM","Washington County","Texas","South","West South Central","48477","30.215075","-96.410272 ","9225","148","9225","148","","2019","35882","NYTIMES-USCENSUS"
"5/6/2022 12:00:00 AM","Gordon County","Georgia","South","South Atlantic","13129","34.509667","-84.873862 ","16698","269","16698","269","","2019","57963","NYTIMES-USCENSUS"
"5/6/2022 12:00:00 AM","Morgan County","Georgia","South","South Atlantic","13211","33.598696","-83.499435 ","4698","69","4698","69","","2019","19276","NYTIMES-USCENSUS"
"5/6/2022 12:00:00 AM","Dougherty County","Georgia","South","South Atlantic","13095","31.532588","-84.20904 ","19808","498","19808","498","","2019","87956","NYTIMES-USCENSUS"
"5/6/2022 12:00:00 AM","San Patricio County","Texas","South","West South Central","48409","28.011794","-97.517157 ","11080","341","11080","341","","2019","66730","NYTIMES-USCENSUS"
"5/6/2022 12:00:00 AM","Randolph County","Alabama","South","East South Central","01111","33.296461","-85.464064 ","5089","75","5089","75","","2019","22722","NYTIMES-USCENSUS"
"5/6/2022 12:00:00 AM","Matagorda County","Texas","South","West South Central","48321","28.77476","-96.001532 ","8361","175","8361","175","","2019","36643","NYTIMES-USCENSUS"
"5/6/2022 12:00:00 AM","Miami County","Ohio","Midwest","East North Central","39109","40.053326","-84.228413 ","25840","483","25840","483","","2019","106987","NYTIMES-USCENSUS"
"5/6/2022 12:00:00 AM","Gallatin County","Illinois","Midwest","East North Central","17059","37.768677","-88.227964 ","1410","18","1410","18","","2019","4828","NYTIMES-USCENSUS"
"5/6/2022 12:00:00 AM","DeKalb County","Tennessee","South","East South Central","47041","35.982219","-85.833596 ","6282","101","6282","101","","2019","20490","NYTIMES-USCENSUS"
"5/6/2022 12:00:00 AM","Calhoun County","Georgia","South","South Atlantic","13037","31.521279","-84.62629 ","1362","22","1362","22","","2019","6189","NYTIMES-USCENSUS"
"5/6/2022 12:00:00 AM","Sangamon County","Illinois","Midwest","East North Central","17167","39.756886","-89.662435 ","56021","432","56021","432","","2019","194672","NYTIMES-USCENSUS"
"5/6/2022 12:00:00 AM","Pike County","Indiana","Midwest","East North Central","18125","38.397961","-87.232547 ","3743","49","3743","49","","2019","12389","NYTIMES-USCENSUS"
"5/6/2022 12:00:00 AM","Fond du Lac County","Wisconsin","Midwest","East North Central","55039","43.754722","-88.493284 ","32259","275","32259","275","","2019","103403","NYTIMES-USCENSUS"
"5/6/2022 12:00:00 AM","Gaines County","Texas","South","West South Central","48165","32.743942","-102.631561 ","2210","83","2210","83","","2019","21492","NYTIMES-USCENSUS"
"5/6/2022 12:00:00 AM","Essex County","New Jersey","Northeast","Middle Atlantic","34013","40.7874","-74.246292 ","219718","3610","219718","3610","","2019","798975","NYTIMES-USCENSUS"
"5/6/2022 12:00:00 AM","Somerset County","Maryland","South","South Atlantic","24039","38.07445","-75.853323 ","5234","74","5234","74","","2019","25616","NYTIMES-USCENSUS"
"5/6/2022 12:00:00 AM","Union County","Ohio","Midwest","East North Central","39159","40.295901","-83.367042 ","15823","102","15823","102","","2019","58988","NYTIMES-USCENSUS"
"5/6/2022 12:00:00 AM","Harper County","Oklahoma","South","West South Central","40059","36.80035","-99.662805 ","714","12","714","12","","2019","3688","NYTIMES-USCENSUS"
"5/6/2022 12:00:00 AM","Rockingham County","New Hampshire","Northeast","New England","33015","42.988664","-71.09908 ","69365","537","69365","537","","2019","309769","NYTIMES-USCENSUS"
"5/6/2022 12:00:00 AM","Natchitoches Parish","Louisiana","South","West South Central","22069","31.732509","-93.082546 ","10148","166","10148","166","","2019","38158","NYTIMES-USCENSUS"
"5/6/2022 12:00:00 AM","Caswell County","North Carolina","South","South Atlantic","37033","36.394298","-79.339609 ","5325","48","5325","48","","2019","22604","NYTIMES-USCENSUS"
"5/6/2022 12:00:00 AM","Tioga County","Pennsylvania","Northeast","Middle Atlantic","42117","41.766859","-77.257288 ","8187","193","8187","193","","2019","40591","NYTIMES-USCENSUS"
"5/6/2022 12:00:00 AM","Stanton County","Nebraska","Midwest","West North Central","31167","41.905045","-97.177109 ","777","11","777","11","","2019","5920","NYTIMES-USCENSUS"
"5/6/2022 12:00:00 AM","Otoe County","Nebraska","Midwest","West North Central","31131","40.637992","-96.131027 ","3378","19","3378","19","","2019","16012","NYTIMES-USCENSUS"
"5/6/2022 12:00:00 AM","Jones County","Iowa","Midwest","West North Central","19105","42.125118","-91.116914 ","5494","73","5494","73","","2019","20681","NYTIMES-USCENSUS"
"5/6/2022 12:00:00 AM","Lyon County","Nevada","West","Mountain","32019","39.022213","-119.197425 ","10103","175","10103","175","","2019","57510","NYTIMES-USCENSUS"
"5/6/2022 12:00:00 AM","Pitkin County","Colorado","West","Mountain","08097","39.217541","-106.916162 ","6620","7","6620","7","","2019","17767","NYTIMES-USCENSUS"
"5/6/2022 12:00:00 AM","Adams County","Nebraska","Midwest","West North Central","31001","40.520632","-98.500044 ","6660","73","6660","73","","2019","31363","NYTIMES-USCENSUS"
"5/6/2022 12:00:00 AM","Evangeline Parish","Louisiana","South","West South Central","22039","30.720693","-92.404086 ","8390","159","8390","159","","2019","33395","NYTIMES-USCENSUS"
"5/6/2022 12:00:00 AM","Gallatin County","Kentucky","South","East South Central","21077","38.755663","-84.865143 ","2217","50","2217","50","","2019","8869","NYTIMES-USCENSUS"
"5/6/2022 12:00:00 AM","Victoria County","Texas","South","West South Central","48469","28.79637","-96.971198 ","18844","411","18844","411","","2019","92084","NYTIMES-USCENSUS"
"5/6/2022 12:00:00 AM","Caldwell County","North Carolina","South","South Atlantic","37027","35.966396","-81.51254 ","22355","308","22355","308","","2019","82178","NYTIMES-USCENSUS"
"5/6/2022 12:00:00 AM","Maui County","Hawaii","West","Pacific","15009","20.855931","-156.60155 ","31311","140","31311","140","","2019","167417","NYTIMES-USCENSUS"
"5/6/2022 12:00:00 AM","Woodford County","Kentucky","South","East South Central","21239","38.043103","-84.748855 ","6943","48","6943","48","","2019","26734","NYTIMES-USCENSUS"
"5/6/2022 12:00:00 AM","Franklin County","Ohio","Midwest","East North Central","39049","39.969875","-83.009086 ","293524","2607","293524","2607","","2019","1316756","NYTIMES-USCENSUS"
"5/6/2022 12:00:00 AM","Bryan County","Oklahoma","South","West South Central","40013","33.964004","-96.265135 ","13598","136","13598","136","","2019","47995","NYTIMES-USCENSUS"
"5/6/2022 12:00:00 AM","King and Queen County","Virginia","South","South Atlantic","51097","37.717772","-76.905581 ","1134","12","1134","12","","2019","7025","NYTIMES-USCENSUS"
"5/6/2022 12:00:00 AM","Boyd County","Kentucky","South","East South Central","21019","38.360003","-82.681406 ","16332","177","16332","177","","2019","46718","NYTIMES-USCENSUS"
"5/6/2022 12:00:00 AM","Shiawassee County","Michigan","Midwest","East North Central","26155","42.951545","-84.146352 ","17988","231","17988","231","","2019","68122","NYTIMES-USCENSUS"
"5/6/2022 12:00:00 AM","Hemphill County","Texas","South","West South Central","48211","35.815956","-100.27921 ","1236","7","1236","7","","2019","3819","NYTIMES-USCENSUS"
"5/6/2022 12:00:00 AM","Belmont County","Ohio","Midwest","East North Central","39013","40.017682","-80.967727 ","15762","309","15762","309","","2019","67006","NYTIMES-USCENSUS"
"5/6/2022 12:00:00 AM","Kiowa County","Kansas","Midwest","West North Central","20097","37.561231","-99.286539 ","666","7","666","7","","2019","2475","NYTIMES-USCENSUS"
"5/6/2022 12:00:00 AM","Valdez-Cordova Census Area","Alaska","West","Pacific","02261","61.4","-144.5","2925","18","2925","18","","2019","9202","NYTIMES-USCENSUS"
"5/6/2022 12:00:00 AM","Sutter County","California","West","Pacific","06101","39.03619","-121.70394 ","22967","233","22967","233","","2019","96971","NYTIMES-USCENSUS"
"5/6/2022 12:00:00 AM","Cherokee County","Iowa","Midwest","West North Central","19035","42.742737","-95.633262 ","2977","61","2977","61","","2019","11235","NYTIMES-USCENSUS"
"5/6/2022 12:00:00 AM","Whatcom County","Washington","West","Pacific","53073","48.842653","-121.836432 ","38720","298","38720","298","","2019","229247","NYTIMES-USCENSUS"
"5/6/2022 12:00:00 AM","Garrett County","Maryland","South","South Atlantic","24023","39.547299","-79.274619 ","5736","116","5736","116","","2019","29014","NYTIMES-USCENSUS"
"5/6/2022 12:00:00 AM","Claiborne Parish","Louisiana","South","West South Central","22027","32.82716","-92.989728 ","3280","77","3280","77","","2019","15670","NYTIMES-USCENSUS"
"5/6/2022 12:00:00 AM","Houston County","Alabama","South","East South Central","01069","31.158183","-85.296411 ","25749","506","25749","506","","2019","105882","NYTIMES-USCENSUS"
"5/6/2022 12:00:00 AM","Scotland County","North Carolina","South","South Atlantic","37165","34.840023","-79.477337 ","10067","132","10067","132","","2019","34823","NYTIMES-USCENSUS"
"5/6/2022 12:00:00 AM","Crane County","Texas","South","West South Central","48103","31.422796","-102.487774 ","1283","24","1283","24","","2019","4797","NYTIMES-USCENSUS"
"5/6/2022 12:00:00 AM","Webster County","Nebraska","Midwest","West North Central","31181","40.180646","-98.49859 ","713","10","713","10","","2019","3487","NYTIMES-USCENSUS"
"5/6/2022 12:00:00 AM","Washington County","Iowa","Midwest","West North Central","19183","41.329401","-91.725052 ","5665","79","5665","79","","2019","21965","NYTIMES-USCENSUS"
"5/6/2022 12:00:00 AM","Pickens County","Alabama","South","East South Central","01107","33.2968","-88.096864 ","5263","102","5263","102","","2019","19930","NYTIMES-USCENSUS"
"5/6/2022 12:00:00 AM","Marshall County","Oklahoma","South","West South Central","40095","34.027007","-96.770533 ","4604","46","4604","46","","2019","16931","NYTIMES-USCENSUS"
"5/6/2022 12:00:00 AM","Macon County","Illinois","Midwest","East North Central","17115","39.860237","-88.961529 ","30913","354","30913","354","","2019","104009","NYTIMES-USCENSUS"
"5/6/2022 12:00:00 AM","Franklin County","Indiana","Midwest","East North Central","18047","39.409762","-85.066964 ","4380","65","4380","65","","2019","22758","NYTIMES-USCENSUS"
"5/6/2022 12:00:00 AM","Clayton County","Iowa","Midwest","West North Central","19043","42.840985","-91.323576 ","3491","72","3491","72","","2019","17549","NYTIMES-USCENSUS"
"5/6/2022 12:00:00 AM","Essex County","Vermont","Northeast","New England","50009","44.724021","-71.732736 ","1286","3","1286","3","","2019","6163","NYTIMES-USCENSUS"
"5/6/2022 12:00:00 AM","McPherson County","South Dakota","Midwest","West North Central","46089","45.784249","-99.211421 ","426","9","426","9","","2019","2379","NYTIMES-USCENSUS"
"5/6/2022 12:00:00 AM","Phillips County","Colorado","West","Mountain","08095","40.594712","-102.345105 ","890","19","890","19","","2019","4265","NYTIMES-USCENSUS"
"5/6/2022 12:00:00 AM","Dyer County","Tennessee","South","East South Central","47045","36.054196","-89.398306 ","12813","202","12813","202","","2019","37159","NYTIMES-USCENSUS"
"5/6/2022 12:00:00 AM","Hamilton County","Tennessee","South","East South Central","47065","35.163472","-85.201843 ","100721","1150","100721","1150","","2019","367804","NYTIMES-USCENSUS"
"5/6/2022 12:00:00 AM","Vernon Parish","Louisiana","South","West South Central","22115","31.102841","-93.18833 ","9933","191","9933","191","","2019","47429","NYTIMES-USCENSUS"
"5/6/2022 12:00:00 AM","Crook County","Oregon","West","Pacific","41013","44.163054","-120.371585 ","6132","79","6132","79","","2019","24404","NYTIMES-USCENSUS"
"5/6/2022 12:00:00 AM","Grant County","Arkansas","South","West South Central","05053","34.285568","-92.422979 ","4464","61","4464","61","","2019","18265","NYTIMES-USCENSUS"
"5/6/2022 12:00:00 AM","Mills County","Iowa","Midwest","West North Central","19129","41.033703","-95.619101 ","3363","41","3363","41","","2019","15109","NYTIMES-USCENSUS"
"5/6/2022 12:00:00 AM","Howard County","Texas","South","West South Central","48227","32.30343","-101.438721 ","6869","184","6869","184","","2019","36664","NYTIMES-USCENSUS"
"5/6/2022 12:00:00 AM","Sherman County","Kansas","Midwest","West North Central","20181","39.351352","-101.719859 ","1513","20","1513","20","","2019","5917","NYTIMES-USCENSUS"
"5/6/2022 12:00:00 AM","Lawrence County","Kentucky","South","East South Central","21127","38.074453","-82.73829 ","4508","69","4508","69","","2019","15317","NYTIMES-USCENSUS"
"5/6/2022 12:00:00 AM","Marion County","Tennessee","South","East South Central","47115","35.133422","-85.618399 ","8863","132","8863","132","","2019","28907","NYTIMES-USCENSUS"
"5/6/2022 12:00:00 AM","Irion County","Texas","South","West South Central","48235","31.303424","-100.981304 ","445","3","445","3","","2019","1536","NYTIMES-USCENSUS"
"5/6/2022 12:00:00 AM","Gulf County","Florida","South","South Atlantic","12045","29.859238","-85.272013 ","4292","78","4292","78","","2019","13639","NYTIMES-USCENSUS"
"5/6/2022 12:00:00 AM","Jackson County","Florida","South","South Atlantic","12063","30.789249","-85.208814 ","14854","280","14854","280","","2019","46414","NYTIMES-USCENSUS"
"5/6/2022 12:00:00 AM","Pecos County","Texas","South","West South Central","48371","30.773298","-102.718153 ","2745","71","2745","71","","2019","15823","NYTIMES-USCENSUS"
"5/6/2022 12:00:00 AM","Henry County","Missouri","Midwest","West North Central","29083","38.386491","-93.792628 ","5750","86","5750","86","","2019","21824","NYTIMES-USCENSUS"
"5/6/2022 12:00:00 AM","Avoyelles Parish","Louisiana","South","West South Central","22009","31.088503","-91.983275 ","11587","207","11587","207","","2019","40144","NYTIMES-USCENSUS"
"5/6/2022 12:00:00 AM","Camp County","Texas","South","West South Central","48063","32.974581","-94.979085 ","2869","74","2869","74","","2019","13094","NYTIMES-USCENSUS"
"5/6/2022 12:00:00 AM","Geary County","Kansas","Midwest","West North Central","20061","39.002139","-96.7681 ","9254","75","9254","75","","2019","31670","NYTIMES-USCENSUS"
"5/6/2022 12:00:00 AM","Broward County","Florida","South","South Atlantic","12011","26.193535","-80.476683 ","614436","5841","614436","5841","","2019","1952778","NYTIMES-USCENSUS"
"5/6/2022 12:00:00 AM","Livingston County","Kentucky","South","East South Central","21139","37.209517","-88.363426 ","2479","61","2479","61","","2019","9194","NYTIMES-USCENSUS"
"5/6/2022 12:00:00 AM","Fayette County","Indiana","Midwest","East North Central","18041","39.639655","-85.185032 ","6745","146","6745","146","","2019","23102","NYTIMES-USCENSUS"
"5/6/2022 12:00:00 AM","Grant County","Oregon","West","Pacific","41023","44.496326","-119.014057 ","1701","21","1701","21","","2019","7199","NYTIMES-USCENSUS"
"5/6/2022 12:00:00 AM","Catawba County","North Carolina","South","South Atlantic","37035","35.661883","-81.214906 ","47793","600","47793","600","","2019","159551","NYTIMES-USCENSUS"
"5/6/2022 12:00:00 AM","Dallam County","Texas","South","West South Central","48111","36.28637","-102.59402 ","2155","41","2155","41","","2019","7287","NYTIMES-USCENSUS"
"5/6/2022 12:00:00 AM","Berks County","Pennsylvania","Northeast","Middle Atlantic","42011","40.413957","-75.92686 ","103139","1594","103139","1594","","2019","421164","NYTIMES-USCENSUS"
"5/6/2022 12:00:00 AM","Bayfield County","Wisconsin","Midwest","East North Central","55007","46.634199","-91.177282 ","3386","40","3386","40","","2019","15036","NYTIMES-USCENSUS"
"5/6/2022 12:00:00 AM","Independence County","Arkansas","South","West South Central","05063","35.737499","-91.559942 ","10627","212","10627","212","","2019","37825","NYTIMES-USCENSUS"
"5/6/2022 12:00:00 AM","Vernon County","Missouri","Midwest","West North Central","29217","37.850196","-94.341597 ","5100","109","5100","109","","2019","20563","NYTIMES-USCENSUS"
"5/6/2022 12:00:00 AM","Klamath County","Oregon","West","Pacific","41035","42.683761","-121.646168 ","14232","222","14232","222","","2019","68238","NYTIMES-USCENSUS"
"5/6/2022 12:00:00 AM","Grant County","South Dakota","Midwest","West North Central","46051","45.172637","-96.772261 ","2044","51","2044","51","","2019","7052","NYTIMES-USCENSUS"
"5/6/2022 12:00:00 AM","Garvin County","Oklahoma","South","West South Central","40049","34.70935","-97.312723 ","7039","147","7039","147","","2019","27711","NYTIMES-USCENSUS"
"5/6/2022 12:00:00 AM","Lincoln County","Kentucky","South","East South Central","21137","37.457174","-84.658335 ","6474","135","6474","135","","2019","24549","NYTIMES-USCENSUS"
"5/6/2022 12:00:00 AM","Yakima County","Washington","West","Pacific","53077","46.456558","-120.740145 ","73738","789","73738","789","","2019","250873","NYTIMES-USCENSUS"
"5/6/2022 12:00:00 AM","Richland County","Wisconsin","Midwest","East North Central","55103","43.376199","-90.435693 ","3957","48","3957","48","","2019","17252","NYTIMES-USCENSUS"
"5/6/2022 12:00:00 AM","Ingham County","Michigan","Midwest","East North Central","26065","42.603534","-84.373811 ","65479","767","65479","767","","2019","292406","NYTIMES-USCENSUS"
"5/6/2022 12:00:00 AM","Kent County","Michigan","Midwest","East North Central","26081","43.032497","-85.547446 ","168797","1532","168797","1532","","2019","656955","NYTIMES-USCENSUS"
"5/6/2022 12:00:00 AM","Crosby County","Texas","South","West South Central","48107","33.609144","-101.29871 ","1893","45","1893","45","","2019","5737","NYTIMES-USCENSUS"
"5/6/2022 12:00:00 AM","Hidalgo County","Texas","South","West South Central","48215","26.396384","-98.18099 ","206505","3908","206505","3908","","2019","868707","NYTIMES-USCENSUS"
"5/6/2022 12:00:00 AM","Iowa County","Iowa","Midwest","West North Central","19095","41.683918","-92.059123 ","3699","50","3699","50","","2019","16184","NYTIMES-USCENSUS"
"5/6/2022 12:00:00 AM","Comanche County","Texas","South","West South Central","48093","31.951645","-98.549617 ","3697","78","3697","78","","2019","13635","NYTIMES-USCENSUS"
"5/6/2022 12:00:00 AM","Jasper County","South Carolina","South","South Atlantic","45053","32.43059","-81.021627 ","5908","93","5908","93","","2019","30073","NYTIMES-USCENSUS"
"5/6/2022 12:00:00 AM","Meigs County","Ohio","Midwest","East North Central","39105","39.089807","-82.028397 ","4667","88","4667","88","","2019","22907","NYTIMES-USCENSUS"
"5/6/2022 12:00:00 AM","Starr County","Texas","South","West South Central","48427","26.530903","-98.740235 ","20046","366","20046","366","","2019","64633","NYTIMES-USCENSUS"
"5/6/2022 12:00:00 AM","Val Verde County","Texas","South","West South Central","48465","29.875285","-101.143324 ","14340","302","14340","302","","2019","49025","NYTIMES-USCENSUS"
"5/6/2022 12:00:00 AM","Somerset County","Maine","Northeast","New England","23025","45.503646","-69.95611 ","10091","107","10091","107","","2019","50484","NYTIMES-USCENSUS"
"5/6/2022 12:00:00 AM","Decatur County","Indiana","Midwest","East North Central","18031","39.30598","-85.499831 ","7010","145","7010","145","","2019","26559","NYTIMES-USCENSUS"
"5/6/2022 12:00:00 AM","Baker County","Georgia","South","South Atlantic","13007","31.31958","-84.454881 ","536","15","536","15","","2019","3038","NYTIMES-USCENSUS"
"5/6/2022 12:00:00 AM","Cumberland County","Maine","Northeast","New England","23005","43.808348","-70.330375 ","51330","363","51330","363","","2019","295003","NYTIMES-USCENSUS"
"5/6/2022 12:00:00 AM","Colusa County","California","West","Pacific","06011","39.177739","-122.237563 ","4539","21","4539","21","","2019","21547","NYTIMES-USCENSUS"
"5/6/2022 12:00:00 AM","Lee County","Iowa","Midwest","West North Central","19111","40.647588","-91.477157 ","7866","142","7866","142","","2019","33657","NYTIMES-USCENSUS"
"5/6/2022 12:00:00 AM","Pipestone County","Minnesota","Midwest","West North Central","27117","44.015361","-96.257015 ","2011","34","2011","34","","2019","9126","NYTIMES-USCENSUS"
"5/6/2022 12:00:00 AM","Delaware County","Ohio","Midwest","East North Central","39041","40.278941","-83.007462 ","45100","272","45100","272","","2019","209177","NYTIMES-USCENSUS"
"5/6/2022 12:00:00 AM","Humphreys County","Mississippi","South","East South Central","28053","33.130996","-90.523421 ","2030","46","2030","46","","2019","8064","NYTIMES-USCENSUS"
"5/6/2022 12:00:00 AM","Duchesne County","Utah","West","Mountain","49013","40.289393","-110.429584 ","4377","27","4377","27","","2019","19938","NYTIMES-USCENSUS"
"5/6/2022 12:00:00 AM","Lafourche Parish","Louisiana","South","West South Central","22057","29.491992","-90.394849 ","27835","372","27835","372","","2019","97614","NYTIMES-USCENSUS"
"5/6/2022 12:00:00 AM","Liberty County","Florida","South","South Atlantic","12077","30.259849","-84.86858 ","2507","30","2507","30","","2019","8354","NYTIMES-USCENSUS"
"5/6/2022 12:00:00 AM","Monroe County","Michigan","Midwest","East North Central","26115","41.916097","-83.487106 ","38646","475","38646","475","","2019","150500","NYTIMES-USCENSUS"
"5/6/2022 12:00:00 AM","Curry County","Oregon","West","Pacific","41015","42.466439","-124.210929 ","3376","54","3376","54","","2019","22925","NYTIMES-USCENSUS"
"5/6/2022 12:00:00 AM","St. Joseph County","Michigan","Midwest","East North Central","26149","41.911488","-85.52287 ","13757","208","13757","208","","2019","60964","NYTIMES-USCENSUS"
"5/6/2022 12:00:00 AM","Jefferson County","Iowa","Midwest","West North Central","19101","41.006376","-91.966628 ","3513","51","3513","51","","2019","18295","NYTIMES-USCENSUS"
"5/6/2022 12:00:00 AM","Madison County","Illinois","Midwest","East North Central","17119","38.82712","-89.900227 ","71121","865","71121","865","","2019","262966","NYTIMES-USCENSUS"
"5/6/2022 12:00:00 AM","Sumter County","Alabama","South","East South Central","01119","32.597481","-88.200057 ","2589","51","2589","51","","2019","12427","NYTIMES-USCENSUS"
"5/6/2022 12:00:00 AM","Shelby County","Ohio","Midwest","East North Central","39149","40.33668","-84.204142 ","11087","187","11087","187","","2019","48590","NYTIMES-USCENSUS"
"5/6/2022 12:00:00 AM","Chester County","Tennessee","South","East South Central","47023","35.420253","-88.611353 ","5863","97","5863","97","","2019","17297","NYTIMES-USCENSUS"
"5/6/2022 12:00:00 AM","Roane County","Tennessee","South","East South Central","47145","35.84725","-84.523929 ","15821","234","15821","234","","2019","53382","NYTIMES-USCENSUS"
"5/6/2022 12:00:00 AM","Berrien County","Georgia","South","South Atlantic","13019","31.288652","-83.22787 ","4947","83","4947","83","","2019","19397","NYTIMES-USCENSUS"
"5/6/2022 12:00:00 AM","Beaver County","Pennsylvania","Northeast","Middle Atlantic","42007","40.68414","-80.350721 ","40525","743","40525","743","","2019","163929","NYTIMES-USCENSUS"
"5/6/2022 12:00:00 AM","Forrest County","Mississippi","South","East South Central","28035","31.18858","-89.259447 ","22046","313","22046","313","","2019","74897","NYTIMES-USCENSUS"
"5/6/2022 12:00:00 AM","Orange County","Indiana","Midwest","East North Central","18117","38.547381","-86.489257 ","5049","96","5049","96","","2019","19646","NYTIMES-USCENSUS"
"5/6/2022 12:00:00 AM","Johnson County","Indiana","Midwest","East North Central","18081","39.496092","-86.094264 ","42622","614","42622","614","","2019","158167","NYTIMES-USCENSUS"
"5/6/2022 12:00:00 AM","Marathon County","Wisconsin","Midwest","East North Central","55073","44.898036","-89.757823 ","39928","490","39928","490","","2019","135692","NYTIMES-USCENSUS"
"5/6/2022 12:00:00 AM","Calhoun County","Michigan","Midwest","East North Central","26025","42.24299","-85.012385 ","34687","575","34687","575","","2019","134159","NYTIMES-USCENSUS"
"5/6/2022 12:00:00 AM","Lynn County","Texas","South","West South Central","48305","33.178412","-101.818493 ","1552","38","1552","38","","2019","5951","NYTIMES-USCENSUS"
"5/6/2022 12:00:00 AM","Coconino County","Arizona","West","Mountain","04005","35.829692","-111.773728 ","43931","478","43931","478","","2019","143476","NYTIMES-USCENSUS"
"5/6/2022 12:00:00 AM","Rappahannock County","Virginia","South","South Atlantic","51157","38.684522","-78.168824 ","1045","10","1045","10","","2019","7370","NYTIMES-USCENSUS"
"5/6/2022 12:00:00 AM","Jackson County","Oregon","West","Pacific","41029","42.411621","-122.675611 ","43316","532","43316","532","","2019","220944","NYTIMES-USCENSUS"
"5/6/2022 12:00:00 AM","Richmond County","Georgia","South","South Atlantic","13245","33.361486","-82.074998 ","50468","893","50468","893","","2019","202518","NYTIMES-USCENSUS"
"5/6/2022 12:00:00 AM","St. Croix County","Wisconsin","Midwest","East North Central","55109","45.028959","-92.447284 ","25293","149","25293","149","","2019","90687","NYTIMES-USCENSUS"
"5/6/2022 12:00:00 AM","Macoupin County","Illinois","Midwest","East North Central","17117","39.265914","-89.92633 ","12906","171","12906","171","","2019","44926","NYTIMES-USCENSUS"
"5/6/2022 12:00:00 AM","Fairfield County","Connecticut","Northeast","New England","09001","41.227413","-73.367061 ","210830","2723","210830","2723","","2019","943332","NYTIMES-USCENSUS"
"5/6/2022 12:00:00 AM","Howell County","Missouri","Midwest","West North Central","29091","36.774369","-91.887368 ","9165","214","9165","214","","2019","40117","NYTIMES-USCENSUS"
"5/6/2022 12:00:00 AM","Butler County","Ohio","Midwest","East North Central","39017","39.439747","-84.565734 ","93585","1153","93585","1153","","2019","383134","NYTIMES-USCENSUS"
"5/6/2022 12:00:00 AM","Eaton County","Michigan","Midwest","East North Central","26045","42.58953","-84.84645 ","27231","403","27231","403","","2019","110268","NYTIMES-USCENSUS"
"5/6/2022 12:00:00 AM","Jasper County","Indiana","Midwest","East North Central","18073","41.017688","-87.118814 ","9104","149","9104","149","","2019","33562","NYTIMES-USCENSUS"
"5/6/2022 12:00:00 AM","Eddy County","New Mexico","West","Mountain","35015","32.457835","-104.306434 ","17040","278","17040","278","","2019","58460","NYTIMES-USCENSUS"
"5/6/2022 12:00:00 AM","Black Hawk County","Iowa","Midwest","West North Central","19013","42.471132","-92.3076 ","33010","479","33010","479","","2019","131228","NYTIMES-USCENSUS"
"5/6/2022 12:00:00 AM","Wayne County","Ohio","Midwest","East North Central","39169","40.829661","-81.887194 ","23288","438","23288","438","","2019","115710","NYTIMES-USCENSUS"
"5/6/2022 12:00:00 AM","Huron County","Michigan","Midwest","East North Central","26063","43.907616","-82.857045 ","8078","145","8078","145","","2019","30981","NYTIMES-USCENSUS"
"5/6/2022 12:00:00 AM","Allegany County","Maryland","South","South Atlantic","24001","39.612313","-78.703104 ","17237","362","17237","362","","2019","70416","NYTIMES-USCENSUS"
"5/6/2022 12:00:00 AM","Monroe County","Arkansas","South","West South Central","05095","34.679512","-91.20331 ","1933","35","1933","35","","2019","6701","NYTIMES-USCENSUS"
"5/6/2022 12:00:00 AM","Owyhee County","Idaho","West","Mountain","16073","42.572851","-116.18969 ","2271","53","2271","53","","2019","11823","NYTIMES-USCENSUS"
"5/6/2022 12:00:00 AM","Cass County","Iowa","Midwest","West North Central","19029","41.333824","-94.933302 ","2962","78","2962","78","","2019","12836","NYTIMES-USCENSUS"
"5/6/2022 12:00:00 AM","Mason County","Kentucky","South","East South Central","21161","38.594137","-83.828125 ","4974","104","4974","104","","2019","17070","NYTIMES-USCENSUS"
"5/6/2022 12:00:00 AM","Charleston County","South Carolina","South","South Atlantic","45019","32.800458","-79.94248 ","112523","944","112523","944","","2019","411406","NYTIMES-USCENSUS"
"5/6/2022 12:00:00 AM","Washington County","Rhode Island","Northeast","New England","44009","41.396792","-71.620282 ","33726","224","33726","224","","2019","125577","NYTIMES-USCENSUS"
"5/6/2022 12:00:00 AM","Van Buren County","Iowa","Midwest","West North Central","19177","40.754117","-91.952943 ","1381","27","1381","27","","2019","7044","NYTIMES-USCENSUS"
"5/6/2022 12:00:00 AM","Orleans County","Vermont","Northeast","New England","50019","44.828442","-72.25163 ","6533","38","6533","38","","2019","27037","NYTIMES-USCENSUS"
"5/6/2022 12:00:00 AM","Amite County","Mississippi","South","East South Central","28005","31.203933","-90.795542 ","3257","69","3257","69","","2019","12297","NYTIMES-USCENSUS"
"5/6/2022 12:00:00 AM","Cuming County","Nebraska","Midwest","West North Central","31039","41.915865","-96.788517 ","1834","15","1834","15","","2019","8846","NYTIMES-USCENSUS"
"5/6/2022 12:00:00 AM","Bath County","Kentucky","South","East South Central","21011","38.152249","-83.737641 ","3199","45","3199","45","","2019","12500","NYTIMES-USCENSUS"
"5/6/2022 12:00:00 AM","Pitt County","North Carolina","South","South Atlantic","37147","35.59249","-77.372739 ","52595","207","52595","207","","2019","180742","NYTIMES-USCENSUS"
"5/6/2022 12:00:00 AM","Graham County","North Carolina","South","South Atlantic","37075","35.348364","-83.830915 ","2306","30","2306","30","","2019","8441","NYTIMES-USCENSUS"
"5/6/2022 12:00:00 AM","Meade County","Kentucky","South","East South Central","21163","37.967476","-86.200863 ","5813","66","5813","66","","2019","28572","NYTIMES-USCENSUS"
"5/6/2022 12:00:00 AM","Essex County","Massachusetts","Northeast","New England","25009","42.642708","-70.864909 ","211651","2748","211651","2748","","2019","789034","NYTIMES-USCENSUS"
"5/6/2022 12:00:00 AM","Huntingdon County","Pennsylvania","Northeast","Middle Atlantic","42061","40.422311","-77.968595 ","11568","247","11568","247","","2019","45144","NYTIMES-USCENSUS"
"5/6/2022 12:00:00 AM","Waseca County","Minnesota","Midwest","West North Central","27161","44.01846","-93.589844 ","5572","39","5572","39","","2019","18612","NYTIMES-USCENSUS"
"5/6/2022 12:00:00 AM","Spalding County","Georgia","South","South Atlantic","13255","33.262348","-84.284905 ","15911","421","15911","421","","2019","66703","NYTIMES-USCENSUS"
"5/6/2022 12:00:00 AM","Delaware County","Iowa","Midwest","West North Central","19055","42.472937","-91.366767 ","4040","68","4040","68","","2019","17011","NYTIMES-USCENSUS"
"5/6/2022 12:00:00 AM","Miami County","Kansas","Midwest","West North Central","20121","38.566772","-94.832963 ","7845","93","7845","93","","2019","34237","NYTIMES-USCENSUS"
"5/6/2022 12:00:00 AM","Newton County","Arkansas","South","West South Central","05101","35.910742","-93.215898 ","1718","47","1718","47","","2019","7753","NYTIMES-USCENSUS"
"5/6/2022 12:00:00 AM","Crawford County","Kansas","Midwest","West North Central","20037","37.505821","-94.853897 ","11939","130","11939","130","","2019","38818","NYTIMES-USCENSUS"
"5/6/2022 12:00:00 AM","Clay County","Texas","South","West South Central","48077","33.785904","-98.212917 ","2094","35","2094","35","","2019","10471","NYTIMES-USCENSUS"
"5/6/2022 12:00:00 AM","Smith County","Mississippi","South","East South Central","28129","32.019029","-89.494876 ","4115","68","4115","68","","2019","15916","NYTIMES-USCENSUS"
"5/6/2022 12:00:00 AM","Lawrence County","Illinois","Midwest","East North Central","17101","38.718954","-87.730221 ","5493","52","5493","52","","2019","15678","NYTIMES-USCENSUS"
"5/6/2022 12:00:00 AM","Washington County","Alabama","South","East South Central","01129","31.408503","-88.212404 ","3731","59","3731","59","","2019","16326","NYTIMES-USCENSUS"
"5/6/2022 12:00:00 AM","Cass County","Michigan","Midwest","East North Central","26027","41.917243","-86.000142 ","11165","145","11165","145","","2019","51787","NYTIMES-USCENSUS"
"5/6/2022 12:00:00 AM","Luzerne County","Pennsylvania","Northeast","Middle Atlantic","42079","41.173078","-75.976053 ","74580","1361","74580","1361","","2019","317417","NYTIMES-USCENSUS"
"5/6/2022 12:00:00 AM","Tyler County","Texas","South","West South Central","48457","30.769295","-94.375656 ","3402","88","3402","88","","2019","21672","NYTIMES-USCENSUS"
"5/6/2022 12:00:00 AM","Douglas County","Illinois","Midwest","East North Central","17041","39.766078","-88.222866 ","6573","61","6573","61","","2019","19465","NYTIMES-USCENSUS"
"5/6/2022 12:00:00 AM","Custer County","Idaho","West","Mountain","16037","44.273351","-114.252267 ","531","9","531","9","","2019","4315","NYTIMES-USCENSUS"
"5/6/2022 12:00:00 AM","Schoharie County","New York","Northeast","Middle Atlantic","36095","42.591294","-74.438172 ","5286","36","5286","36","","2019","30999","NYTIMES-USCENSUS"
"5/6/2022 12:00:00 AM","Jefferson County","Kentucky","South","East South Central","21111","38.189532","-85.657624 ","232490","2348","232490","2348","","2019","766757","NYTIMES-USCENSUS"
"5/6/2022 12:00:00 AM","Woodbury County","Iowa","Midwest","West North Central","19193","42.39322","-96.053296 ","28830","339","28830","339","","2019","103107","NYTIMES-USCENSUS"
"5/6/2022 12:00:00 AM","Hidalgo County","New Mexico","West","Mountain","35023","31.898052","-108.751929 ","1102","15","1102","15","","2019","4198","NYTIMES-USCENSUS"
"5/6/2022 12:00:00 AM","Natrona County","Wyoming","West","Mountain","56025","42.977645","-106.768219 ","22350","273","22350","273","","2019","79858","NYTIMES-USCENSUS"
"5/6/2022 12:00:00 AM","Carlisle County","Kentucky","South","East South Central","21039","36.85718","-88.976614 ","1072","20","1072","20","","2019","4760","NYTIMES-USCENSUS"
"5/6/2022 12:00:00 AM","Dallas County","Missouri","Midwest","West North Central","29059","37.683583","-93.033815 ","3819","72","3819","72","","2019","16878","NYTIMES-USCENSUS"
"5/6/2022 12:00:00 AM","Essex County","New York","Northeast","Middle Atlantic","36031","44.109601","-73.778431 ","6026","59","6026","59","","2019","36885","NYTIMES-USCENSUS"
"5/6/2022 12:00:00 AM","Meade County","Kansas","Midwest","West North Central","20119","37.243886","-100.360094 ","1220","20","1220","20","","2019","4033","NYTIMES-USCENSUS"
"5/6/2022 12:00:00 AM","Loup County","Nebraska","Midwest","West North Central","31115","41.903183","-99.509852 ","99","0","99","0","","2019","664","NYTIMES-USCENSUS"
"5/6/2022 12:00:00 AM","Carver County","Minnesota","Midwest","West North Central","27019","44.82132","-93.800091 ","27200","117","27200","117","","2019","105089","NYTIMES-USCENSUS"
"5/6/2022 12:00:00 AM","Cherokee County","Alabama","South","East South Central","01019","34.069515","-85.654242 ","5127","86","5127","86","","2019","26196","NYTIMES-USCENSUS"
"5/6/2022 12:00:00 AM","Gem County","Idaho","West","Mountain","16045","44.061473","-116.398784 ","3675","79","3675","79","","2019","18112","NYTIMES-USCENSUS"
"5/6/2022 12:00:00 AM","Northwest Arctic Borough","Alaska","West","Pacific","02188","67.005066","-160.021086 ","4805","13","4805","13","","2019","7621","NYTIMES-USCENSUS"
"5/6/2022 12:00:00 AM","Bledsoe County","Tennessee","South","East South Central","47007","35.593561","-85.20591 ","4664","57","4664","57","","2019","15064","NYTIMES-USCENSUS"
"5/6/2022 12:00:00 AM","Livingston County","Illinois","Midwest","East North Central","17105","40.894376","-88.552852 ","10853","148","10853","148","","2019","35648","NYTIMES-USCENSUS"
"5/6/2022 12:00:00 AM","Henry County","Kentucky","South","East South Central","21103","38.451383","-85.119647 ","4807","52","4807","52","","2019","16126","NYTIMES-USCENSUS"
"5/6/2022 12:00:00 AM","Brunswick County","North Carolina","South","South Atlantic","37019","34.038754","-78.227765 ","30270","332","30270","332","","2019","142820","NYTIMES-USCENSUS"
"5/6/2022 12:00:00 AM","Plumas County","California","West","Pacific","06063","39.992295","-120.824371 ","3360","13","3360","13","","2019","18807","NYTIMES-USCENSUS"
"5/6/2022 12:00:00 AM","Gates County","North Carolina","South","South Atlantic","37073","36.442135","-76.702355 ","1913","20","1913","20","","2019","11562","NYTIMES-USCENSUS"
"5/6/2022 12:00:00 AM","Jefferson County","Missouri","Midwest","West North Central","29099","38.25763","-90.543681 ","54230","651","54230","651","","2019","225081","NYTIMES-USCENSUS"
"5/6/2022 12:00:00 AM","Dade County","Georgia","South","South Atlantic","13083","34.852424","-85.506201 ","3366","29","3366","29","","2019","16116","NYTIMES-USCENSUS"
"5/6/2022 12:00:00 AM","San Juan County","Utah","West","Mountain","49037","37.602633","-109.791574 ","3989","49","3989","49","","2019","15308","NYTIMES-USCENSUS"
"5/6/2022 12:00:00 AM","Swain County","North Carolina","South","South Atlantic","37173","35.568849","-83.465614 ","3662","43","3662","43","","2019","14271","NYTIMES-USCENSUS"
"5/6/2022 12:00:00 AM","Lawrence County","Mississippi","South","East South Central","28077","31.550009","-90.10753 ","3589","56","3589","56","","2019","12586","NYTIMES-USCENSUS"
"5/6/2022 12:00:00 AM","Monroe County","Illinois","Midwest","East North Central","17133","38.277983","-90.179078 ","9575","128","9575","128","","2019","34637","NYTIMES-USCENSUS"
"5/6/2022 12:00:00 AM","Howard County","Missouri","Midwest","West North Central","29089","39.143365","-92.695926 ","2505","30","2505","30","","2019","10001","NYTIMES-USCENSUS"
"5/6/2022 12:00:00 AM","Platte County","Nebraska","Midwest","West North Central","31141","41.576866","-97.513467 ","8703","75","8703","75","","2019","33470","NYTIMES-USCENSUS"
"5/6/2022 12:00:00 AM","White Pine County","Nevada","West","Mountain","32033","39.418176","-114.900565 ","1694","19","1694","19","","2019","9580","NYTIMES-USCENSUS"
"5/6/2022 12:00:00 AM","Rankin County","Mississippi","South","East South Central","28121","32.267123","-89.946063 ","36639","488","36639","488","","2019","155271","NYTIMES-USCENSUS"
"5/6/2022 12:00:00 AM","White County","Illinois","Midwest","East North Central","17193","38.087326","-88.178623 ","4411","59","4411","59","","2019","13537","NYTIMES-USCENSUS"
"5/6/2022 12:00:00 AM","Transylvania County","North Carolina","South","South Atlantic","37175","35.210103","-82.816666 ","6178","77","6178","77","","2019","34385","NYTIMES-USCENSUS"
"5/6/2022 12:00:00 AM","Stafford County","Kansas","Midwest","West North Central","20185","38.03563","-98.719889 ","1139","26","1139","26","","2019","4156","NYTIMES-USCENSUS"
"5/6/2022 12:00:00 AM","Medina County","Ohio","Midwest","East North Central","39103","41.116174","-81.899764 ","40505","507","40505","507","","2019","179746","NYTIMES-USCENSUS"
"5/6/2022 12:00:00 AM","Morton County","Kansas","Midwest","West North Central","20129","37.185249","-101.809516 ","621","11","621","11","","2019","2587","NYTIMES-USCENSUS"
"5/6/2022 12:00:00 AM","Stark County","Ohio","Midwest","East North Central","39151","40.814131","-81.365667 ","80382","1716","80382","1716","","2019","370606","NYTIMES-USCENSUS"
"5/6/2022 12:00:00 AM","Sherman County","Oregon","West","Pacific","41055","45.399216","-120.678512 ","321","6","321","6","","2019","1780","NYTIMES-USCENSUS"
"5/6/2022 12:00:00 AM","Clay County","North Carolina","South","South Atlantic","37043","35.052997","-83.752264 ","2629","44","2629","44","","2019","11231","NYTIMES-USCENSUS"
"5/6/2022 12:00:00 AM","Carroll County","New Hampshire","Northeast","New England","33003","43.867774","-71.20156 ","9719","61","9719","61","","2019","48910","NYTIMES-USCENSUS"
"5/6/2022 12:00:00 AM","Barnwell County","South Carolina","South","South Atlantic","45011","33.260552","-81.434228 ","5823","103","5823","103","","2019","20866","NYTIMES-USCENSUS"
"5/6/2022 12:00:00 AM","Fulton County","Kentucky","South","East South Central","21075","36.552511","-89.187659 ","1217","29","1217","29","","2019","5969","NYTIMES-USCENSUS"
"5/6/2022 12:00:00 AM","Mitchell County","Georgia","South","South Atlantic","13205","31.228997","-84.192038 ","5253","117","5253","117","","2019","21863","NYTIMES-USCENSUS"
"5/6/2022 12:00:00 AM","Bradley County","Tennessee","South","East South Central","47011","35.153914","-84.859414 ","33161","415","33161","415","","2019","108110","NYTIMES-USCENSUS"
