"monitor_date","county","state_name","region","subregion","fips","latitude","longitude","case_count_to_date","death_count_to_date","case_count","death_count","previous_monitor_date","population_year","population","source"
"9/3/2021 12:00:00 AM","Sullivan County","Tennessee","South","East South Central","47163","36.509681","-82.301336 ","21658","348","154","1","9/2/2021 12:00:00 AM","2019","158348","NYTIMES-USCENSUS"
"9/3/2021 12:00:00 AM","Red River Parish","Louisiana","South","West South Central","22081","32.101213","-93.34905 ","1212","42","12","0","9/2/2021 12:00:00 AM","2019","8442","NYTIMES-USCENSUS"
"9/3/2021 12:00:00 AM","Monroe County","Indiana","Midwest","East North Central","18105","39.160729","-86.52331 ","13704","190","50","0","9/2/2021 12:00:00 AM","2019","148431","NYTIMES-USCENSUS"
"9/3/2021 12:00:00 AM","Lumpkin County","Georgia","South","South Atlantic","13187","34.56814","-83.998925 ","4062","86","51","0","9/2/2021 12:00:00 AM","2019","33610","NYTIMES-USCENSUS"
"9/3/2021 12:00:00 AM","Bristol County","Rhode Island","Northeast","New England","44001","41.70684","-71.286687 ","5470","147","0","0","9/2/2021 12:00:00 AM","2019","48479","NYTIMES-USCENSUS"
"9/3/2021 12:00:00 AM","Vermilion County","Illinois","Midwest","East North Central","17183","40.186754","-87.726778 ","12145","182","78","0","9/2/2021 12:00:00 AM","2019","75758","NYTIMES-USCENSUS"
"9/3/2021 12:00:00 AM","Chesterfield County","South Carolina","South","South Atlantic","45025","34.637018","-80.159227 ","5939","119","83","1","9/2/2021 12:00:00 AM","2019","45650","NYTIMES-USCENSUS"
"9/3/2021 12:00:00 AM","Chester County","South Carolina","South","South Atlantic","45023","34.689342","-81.161249 ","5257","88","55","0","9/2/2021 12:00:00 AM","2019","32244","NYTIMES-USCENSUS"
"9/3/2021 12:00:00 AM","Adair County","Iowa","Midwest","West North Central","19001","41.328528","-94.478164 ","927","32","0","0","9/2/2021 12:00:00 AM","2019","7152","NYTIMES-USCENSUS"
"9/3/2021 12:00:00 AM","Pickens County","Georgia","South","South Atlantic","13227","34.456746","-84.490351 ","4594","83","75","1","9/2/2021 12:00:00 AM","2019","32591","NYTIMES-USCENSUS"
"9/3/2021 12:00:00 AM","Steuben County","New York","Northeast","Middle Atlantic","36101","42.266725","-77.385525 ","7560","148","40","0","9/2/2021 12:00:00 AM","2019","95379","NYTIMES-USCENSUS"
"9/3/2021 12:00:00 AM","Foster County","North Dakota","Midwest","West North Central","38031","47.471431","-98.872876 ","606","19","0","0","9/2/2021 12:00:00 AM","2019","3210","NYTIMES-USCENSUS"
"9/3/2021 12:00:00 AM","Noble County","Ohio","Midwest","East North Central","39121","39.767232","-81.452493 ","1477","40","8","0","9/2/2021 12:00:00 AM","2019","14424","NYTIMES-USCENSUS"
"9/3/2021 12:00:00 AM","Henrico County","Virginia","South","South Atlantic","51087","37.43752","-77.300333 ","29847","653","133","1","9/2/2021 12:00:00 AM","2019","330818","NYTIMES-USCENSUS"
"9/3/2021 12:00:00 AM","Suwannee County","Florida","South","South Atlantic","12121","30.189244","-82.992754 ","8281","140","509","0","9/2/2021 12:00:00 AM","2019","44417","NYTIMES-USCENSUS"
"9/3/2021 12:00:00 AM","Okmulgee County","Oklahoma","South","West South Central","40111","35.6435","-95.965947 ","4968","92","0","0","9/2/2021 12:00:00 AM","2019","38465","NYTIMES-USCENSUS"
"9/3/2021 12:00:00 AM","Harlan County","Nebraska","Midwest","West North Central","31083","40.178766","-99.403418 ","244","0","0","0","9/2/2021 12:00:00 AM","2019","3380","NYTIMES-USCENSUS"
"9/3/2021 12:00:00 AM","Litchfield County","Connecticut","Northeast","New England","09005","41.791883","-73.235404 ","15750","300","41","0","9/2/2021 12:00:00 AM","2019","180333","NYTIMES-USCENSUS"
"9/3/2021 12:00:00 AM","Logan County","Illinois","Midwest","East North Central","17107","40.129277","-89.365309 ","4605","81","19","0","9/2/2021 12:00:00 AM","2019","28618","NYTIMES-USCENSUS"
"9/3/2021 12:00:00 AM","Comanche County","Kansas","Midwest","West North Central","20033","37.181442","-99.251293 ","198","11","0","0","9/2/2021 12:00:00 AM","2019","1700","NYTIMES-USCENSUS"
"9/3/2021 12:00:00 AM","Carter County","Missouri","Midwest","West North Central","29035","36.944858","-90.945705 ","913","12","13","0","9/2/2021 12:00:00 AM","2019","5982","NYTIMES-USCENSUS"
"9/3/2021 12:00:00 AM","Codington County","South Dakota","Midwest","West North Central","46029","44.966285","-97.198837 ","4834","82","7","0","9/2/2021 12:00:00 AM","2019","28009","NYTIMES-USCENSUS"
"9/3/2021 12:00:00 AM","Stark County","North Dakota","Midwest","West North Central","38089","46.817031","-102.662026 ","5593","52","27","0","9/2/2021 12:00:00 AM","2019","31489","NYTIMES-USCENSUS"
"9/3/2021 12:00:00 AM","Wood County","Wisconsin","Midwest","East North Central","55141","44.461413","-90.038825 ","8530","116","47","0","9/2/2021 12:00:00 AM","2019","72999","NYTIMES-USCENSUS"
"9/3/2021 12:00:00 AM","Granville County","North Carolina","South","South Atlantic","37077","36.299884","-78.657634 ","6879","91","33","0","9/2/2021 12:00:00 AM","2019","60443","NYTIMES-USCENSUS"
"9/3/2021 12:00:00 AM","Kanawha County","West Virginia","South","South Atlantic","54039","38.328068","-81.523516 ","18323","374","142","-1","9/2/2021 12:00:00 AM","2019","178124","NYTIMES-USCENSUS"
"9/3/2021 12:00:00 AM","Windham County","Vermont","Northeast","New England","50025","42.995335","-72.721955 ","1639","16","22","0","9/2/2021 12:00:00 AM","2019","42222","NYTIMES-USCENSUS"
"9/3/2021 12:00:00 AM","Stillwater County","Montana","West","Mountain","30095","45.658545","-109.381576 ","828","16","0","0","9/2/2021 12:00:00 AM","2019","9642","NYTIMES-USCENSUS"
"9/3/2021 12:00:00 AM","Christian County","Missouri","Midwest","West North Central","29043","36.969739","-93.187614 ","12567","143","0","0","9/2/2021 12:00:00 AM","2019","88595","NYTIMES-USCENSUS"
"9/3/2021 12:00:00 AM","Pottawatomie County","Oklahoma","South","West South Central","40125","35.211391","-96.957004 ","9899","138","0","0","9/2/2021 12:00:00 AM","2019","72592","NYTIMES-USCENSUS"
"9/3/2021 12:00:00 AM","Prince Edward County","Virginia","South","South Atlantic","51147","37.224881","-78.432957 ","2435","39","12","0","9/2/2021 12:00:00 AM","2019","22802","NYTIMES-USCENSUS"
"9/3/2021 12:00:00 AM","Pulaski County","Illinois","Midwest","East North Central","17153","37.215615","-89.127755 ","936","11","5","0","9/2/2021 12:00:00 AM","2019","5335","NYTIMES-USCENSUS"
"9/3/2021 12:00:00 AM","Boone County","Nebraska","Midwest","West North Central","31011","41.703934","-98.070476 ","585","4","0","0","9/2/2021 12:00:00 AM","2019","5192","NYTIMES-USCENSUS"
"9/3/2021 12:00:00 AM","Carbon County","Utah","West","Mountain","49007","39.673284","-110.588484 ","2102","20","22","0","9/2/2021 12:00:00 AM","2019","20463","NYTIMES-USCENSUS"
"9/3/2021 12:00:00 AM","Wagoner County","Oklahoma","South","West South Central","40145","35.963388","-95.514201 ","10671","147","0","0","9/2/2021 12:00:00 AM","2019","81289","NYTIMES-USCENSUS"
"9/3/2021 12:00:00 AM","Kerr County","Texas","South","West South Central","48265","30.059953","-99.353339 ","5519","106","23","1","9/2/2021 12:00:00 AM","2019","52600","NYTIMES-USCENSUS"
"9/3/2021 12:00:00 AM","Heard County","Georgia","South","South Atlantic","13149","33.291347","-85.137886 ","1321","24","25","0","9/2/2021 12:00:00 AM","2019","11923","NYTIMES-USCENSUS"
"9/3/2021 12:00:00 AM","Talladega County","Alabama","South","East South Central","01121","33.369314","-86.17593 ","11078","194","133","0","9/2/2021 12:00:00 AM","2019","79978","NYTIMES-USCENSUS"
"9/3/2021 12:00:00 AM","Clay County","Nebraska","Midwest","West North Central","31035","40.523669","-98.050858 ","784","17","0","0","9/2/2021 12:00:00 AM","2019","6203","NYTIMES-USCENSUS"
"9/3/2021 12:00:00 AM","Calhoun County","Michigan","Midwest","East North Central","26025","42.24299","-85.012385 ","15663","327","85","0","9/2/2021 12:00:00 AM","2019","134159","NYTIMES-USCENSUS"
"9/3/2021 12:00:00 AM","Norman County","Minnesota","Midwest","West North Central","27107","47.329453","-96.463776 ","598","9","3","0","9/2/2021 12:00:00 AM","2019","6375","NYTIMES-USCENSUS"
"9/3/2021 12:00:00 AM","Ray County","Missouri","Midwest","West North Central","29177","39.308401","-93.995746 ","2561","39","3","0","9/2/2021 12:00:00 AM","2019","23018","NYTIMES-USCENSUS"
"9/3/2021 12:00:00 AM","Jefferson County","Illinois","Midwest","East North Central","17081","38.30078","-88.92421 ","5586","129","31","0","9/2/2021 12:00:00 AM","2019","37684","NYTIMES-USCENSUS"
"9/3/2021 12:00:00 AM","Clear Creek County","Colorado","West","Mountain","08019","39.689403","-105.670783 ","597","4","5","0","9/2/2021 12:00:00 AM","2019","9700","NYTIMES-USCENSUS"
"9/3/2021 12:00:00 AM","Scott County","Minnesota","Midwest","West North Central","27139","44.651805","-93.533731 ","18907","141","79","0","9/2/2021 12:00:00 AM","2019","149013","NYTIMES-USCENSUS"
"9/3/2021 12:00:00 AM","Benton County","Iowa","Midwest","West North Central","19011","42.092547","-92.05763 ","2899","56","0","0","9/2/2021 12:00:00 AM","2019","25645","NYTIMES-USCENSUS"
"9/3/2021 12:00:00 AM","Harford County","Maryland","South","South Atlantic","24025","39.537429","-76.299789 ","18138","311","61","1","9/2/2021 12:00:00 AM","2019","255441","NYTIMES-USCENSUS"
"9/3/2021 12:00:00 AM","Monroe County","Arkansas","South","West South Central","05095","34.679512","-91.20331 ","1096","21","1","0","9/2/2021 12:00:00 AM","2019","6701","NYTIMES-USCENSUS"
"9/3/2021 12:00:00 AM","Manitowoc County","Wisconsin","Midwest","East North Central","55071","44.156137","-87.577352 ","9651","99","22","0","9/2/2021 12:00:00 AM","2019","78981","NYTIMES-USCENSUS"
"9/3/2021 12:00:00 AM","Juneau City and Borough","Alaska","West","Pacific","02110","58.37291","-134.178445 ","2376","3","23","0","9/2/2021 12:00:00 AM","2019","31974","NYTIMES-USCENSUS"
"9/3/2021 12:00:00 AM","Jasper County","South Carolina","South","South Atlantic","45053","32.43059","-81.021627 ","3438","57","19","0","9/2/2021 12:00:00 AM","2019","30073","NYTIMES-USCENSUS"
"9/3/2021 12:00:00 AM","Cheboygan County","Michigan","Midwest","East North Central","26031","45.476022","-84.495431 ","2103","52","18","0","9/2/2021 12:00:00 AM","2019","25276","NYTIMES-USCENSUS"
"9/3/2021 12:00:00 AM","Carroll County","Arkansas","South","West South Central","05015","36.33737","-93.540972 ","3943","60","22","1","9/2/2021 12:00:00 AM","2019","28380","NYTIMES-USCENSUS"
"9/3/2021 12:00:00 AM","Racine County","Wisconsin","Midwest","East North Central","55101","42.780392","-87.771599 ","27838","414","73","0","9/2/2021 12:00:00 AM","2019","196311","NYTIMES-USCENSUS"
"9/3/2021 12:00:00 AM","Henry County","Alabama","South","East South Central","01067","31.516978","-85.239971 ","2699","48","21","2","9/2/2021 12:00:00 AM","2019","17205","NYTIMES-USCENSUS"
"9/3/2021 12:00:00 AM","Sheridan County","Nebraska","Midwest","West North Central","31161","42.512289","-102.36828 ","547","21","0","0","9/2/2021 12:00:00 AM","2019","5246","NYTIMES-USCENSUS"
"9/3/2021 12:00:00 AM","Spink County","South Dakota","Midwest","West North Central","46115","44.923772","-98.339615 ","899","26","3","0","9/2/2021 12:00:00 AM","2019","6376","NYTIMES-USCENSUS"
"9/3/2021 12:00:00 AM","Warren County","North Carolina","South","South Atlantic","37185","36.398105","-78.099899 ","2004","20","7","0","9/2/2021 12:00:00 AM","2019","19731","NYTIMES-USCENSUS"
"9/3/2021 12:00:00 AM","Mineral County","Nevada","West","Mountain","32021","38.516647","-118.416279 ","415","8","0","0","9/2/2021 12:00:00 AM","2019","4505","NYTIMES-USCENSUS"
"9/3/2021 12:00:00 AM","Hart County","Kentucky","South","East South Central","21099","37.305827","-85.878443 ","2739","56","26","0","9/2/2021 12:00:00 AM","2019","19035","NYTIMES-USCENSUS"
"9/3/2021 12:00:00 AM","Cotton County","Oklahoma","South","West South Central","40033","34.290676","-98.373438 ","792","16","0","0","9/2/2021 12:00:00 AM","2019","5666","NYTIMES-USCENSUS"
"9/3/2021 12:00:00 AM","Lincoln County","South Dakota","Midwest","West North Central","46083","43.27942","-96.722286 ","9198","78","23","0","9/2/2021 12:00:00 AM","2019","61128","NYTIMES-USCENSUS"
"9/3/2021 12:00:00 AM","Daviess County","Indiana","Midwest","East North Central","18027","38.69609","-87.076943 ","3683","104","37","0","9/2/2021 12:00:00 AM","2019","33351","NYTIMES-USCENSUS"
"9/3/2021 12:00:00 AM","Cook County","Illinois","Midwest","East North Central","17031","41.894294","-87.645455 ","595861","11351","1611","9","9/2/2021 12:00:00 AM","2019","5150233","NYTIMES-USCENSUS"
"9/3/2021 12:00:00 AM","Allegany County","Maryland","South","South Atlantic","24001","39.612313","-78.703104 ","7784","218","19","0","9/2/2021 12:00:00 AM","2019","70416","NYTIMES-USCENSUS"
"9/3/2021 12:00:00 AM","Los Alamos County","New Mexico","West","Mountain","35028","35.870047","-106.307968 ","623","8","3","0","9/2/2021 12:00:00 AM","2019","19369","NYTIMES-USCENSUS"
"9/3/2021 12:00:00 AM","Lewis County","Tennessee","South","East South Central","47101","35.523244","-87.496983 ","2189","29","11","0","9/2/2021 12:00:00 AM","2019","12268","NYTIMES-USCENSUS"
"9/3/2021 12:00:00 AM","Fremont County","Colorado","West","Mountain","08043","38.45517","-105.424958 ","6897","70","19","0","9/2/2021 12:00:00 AM","2019","47839","NYTIMES-USCENSUS"
"9/3/2021 12:00:00 AM","Cambria County","Pennsylvania","Northeast","Middle Atlantic","42021","40.510227","-78.710477 ","15602","450","32","1","9/2/2021 12:00:00 AM","2019","130192","NYTIMES-USCENSUS"
"9/3/2021 12:00:00 AM","Fremont County","Wyoming","West","Mountain","56013","43.054831","-108.608935 ","6338","96","45","0","9/2/2021 12:00:00 AM","2019","39261","NYTIMES-USCENSUS"
"9/3/2021 12:00:00 AM","Lapeer County","Michigan","Midwest","East North Central","26087","43.088633","-83.224325 ","10362","222","47","3","9/2/2021 12:00:00 AM","2019","87607","NYTIMES-USCENSUS"
"9/3/2021 12:00:00 AM","Glynn County","Georgia","South","South Atlantic","13127","31.21271","-81.49645 ","13674","249","122","3","9/2/2021 12:00:00 AM","2019","85292","NYTIMES-USCENSUS"
"9/3/2021 12:00:00 AM","Huron County","Michigan","Midwest","East North Central","26063","43.907616","-82.857045 ","4309","86","12","0","9/2/2021 12:00:00 AM","2019","30981","NYTIMES-USCENSUS"
"9/3/2021 12:00:00 AM","Sunflower County","Mississippi","South","East South Central","28133","33.605529","-90.59509 ","3963","101","13","0","9/2/2021 12:00:00 AM","2019","25110","NYTIMES-USCENSUS"
"9/3/2021 12:00:00 AM","Tuscarawas County","Ohio","Midwest","East North Central","39157","40.44749","-81.471105 ","9585","261","60","0","9/2/2021 12:00:00 AM","2019","91987","NYTIMES-USCENSUS"
"9/3/2021 12:00:00 AM","Vilas County","Wisconsin","Midwest","East North Central","55125","46.049848","-89.501254 ","2554","46","9","0","9/2/2021 12:00:00 AM","2019","22195","NYTIMES-USCENSUS"
"9/3/2021 12:00:00 AM","Lincoln County","Oklahoma","South","West South Central","40081","35.703117","-96.881392 ","4067","80","0","0","9/2/2021 12:00:00 AM","2019","34877","NYTIMES-USCENSUS"
"9/3/2021 12:00:00 AM","Grant Parish","Louisiana","South","West South Central","22043","31.597787","-92.561716 ","3446","69","20","1","9/2/2021 12:00:00 AM","2019","22389","NYTIMES-USCENSUS"
"9/3/2021 12:00:00 AM","Twin Falls County","Idaho","West","Mountain","16083","42.352309","-114.665639 ","12258","149","63","0","9/2/2021 12:00:00 AM","2019","86878","NYTIMES-USCENSUS"
"9/3/2021 12:00:00 AM","Stevens County","Washington","West","Pacific","53065","48.388728","-117.854455 ","3236","42","42","4","9/2/2021 12:00:00 AM","2019","45723","NYTIMES-USCENSUS"
"9/3/2021 12:00:00 AM","Green County","Wisconsin","Midwest","East North Central","55045","42.675522","-89.605074 ","3947","26","8","0","9/2/2021 12:00:00 AM","2019","36960","NYTIMES-USCENSUS"
"9/3/2021 12:00:00 AM","Franklin County","Florida","South","South Atlantic","12037","29.677794","-84.815213 ","2031","20","118","0","9/2/2021 12:00:00 AM","2019","12125","NYTIMES-USCENSUS"
"9/3/2021 12:00:00 AM","Webster County","Nebraska","Midwest","West North Central","31181","40.180646","-98.49859 ","424","8","0","0","9/2/2021 12:00:00 AM","2019","3487","NYTIMES-USCENSUS"
"9/3/2021 12:00:00 AM","St. John the Baptist Parish","Louisiana","South","West South Central","22095","30.144068","-90.49096 ","5945","153","8","0","9/2/2021 12:00:00 AM","2019","42837","NYTIMES-USCENSUS"
"9/3/2021 12:00:00 AM","Escambia County","Alabama","South","East South Central","01053","31.122287","-87.16841 ","5863","95","49","2","9/2/2021 12:00:00 AM","2019","36633","NYTIMES-USCENSUS"
"9/3/2021 12:00:00 AM","Charlton County","Georgia","South","South Atlantic","13049","30.779904","-82.139644 ","2052","43","4","1","9/2/2021 12:00:00 AM","2019","13392","NYTIMES-USCENSUS"
"9/3/2021 12:00:00 AM","Traill County","North Dakota","Midwest","West North Central","38097","47.446215","-97.164754 ","1119","18","3","0","9/2/2021 12:00:00 AM","2019","8036","NYTIMES-USCENSUS"
"9/3/2021 12:00:00 AM","Rice County","Minnesota","Midwest","West North Central","27131","44.350775","-93.298513 ","8800","115","23","1","9/2/2021 12:00:00 AM","2019","66972","NYTIMES-USCENSUS"
"9/3/2021 12:00:00 AM","Parke County","Indiana","Midwest","East North Central","18121","39.77425","-87.19695 ","1974","18","16","0","9/2/2021 12:00:00 AM","2019","16937","NYTIMES-USCENSUS"
"9/3/2021 12:00:00 AM","Kalkaska County","Michigan","Midwest","East North Central","26079","44.678881","-85.088992 ","1265","31","16","1","9/2/2021 12:00:00 AM","2019","18038","NYTIMES-USCENSUS"
"9/3/2021 12:00:00 AM","Boone County","Arkansas","South","West South Central","05009","36.304299","-93.079236 ","5676","100","10","0","9/2/2021 12:00:00 AM","2019","37432","NYTIMES-USCENSUS"
"9/3/2021 12:00:00 AM","Hardin County","Illinois","Midwest","East North Central","17069","37.517852","-88.266148 ","530","12","7","0","9/2/2021 12:00:00 AM","2019","3821","NYTIMES-USCENSUS"
"9/3/2021 12:00:00 AM","Mills County","Texas","South","West South Central","48333","31.494888","-98.594623 ","754","25","12","1","9/2/2021 12:00:00 AM","2019","4873","NYTIMES-USCENSUS"
"9/3/2021 12:00:00 AM","Buncombe County","North Carolina","South","South Atlantic","37021","35.609371","-82.530423 ","22515","357","167","0","9/2/2021 12:00:00 AM","2019","261191","NYTIMES-USCENSUS"
"9/3/2021 12:00:00 AM","Henry County","Indiana","Midwest","East North Central","18065","39.929591","-85.397363 ","6967","123","27","1","9/2/2021 12:00:00 AM","2019","47972","NYTIMES-USCENSUS"
"9/3/2021 12:00:00 AM","Madison County","Georgia","South","South Atlantic","13195","34.128526","-83.203737 ","4193","60","97","0","9/2/2021 12:00:00 AM","2019","29880","NYTIMES-USCENSUS"
"9/3/2021 12:00:00 AM","Honolulu County","Hawaii","West","Pacific","15003","21.461365","-158.201974 ","46331","471","552","5","9/2/2021 12:00:00 AM","2019","974563","NYTIMES-USCENSUS"
"9/3/2021 12:00:00 AM","Arapahoe County","Colorado","West","Mountain","08005","39.644554","-104.331706 ","70888","854","231","4","9/2/2021 12:00:00 AM","2019","656590","NYTIMES-USCENSUS"
"9/3/2021 12:00:00 AM","Ogle County","Illinois","Midwest","East North Central","17141","42.041884","-89.320176 ","6747","92","34","0","9/2/2021 12:00:00 AM","2019","50643","NYTIMES-USCENSUS"
"9/3/2021 12:00:00 AM","Mifflin County","Pennsylvania","Northeast","Middle Atlantic","42087","40.601615","-77.651832 ","5689","183","10","0","9/2/2021 12:00:00 AM","2019","46138","NYTIMES-USCENSUS"
"9/3/2021 12:00:00 AM","Hardeman County","Tennessee","South","East South Central","47069","35.218785","-88.988697 ","4447","70","26","1","9/2/2021 12:00:00 AM","2019","25050","NYTIMES-USCENSUS"
"9/3/2021 12:00:00 AM","Kane County","Utah","West","Mountain","49025","37.275089","-111.815329 ","803","8","5","0","9/2/2021 12:00:00 AM","2019","7886","NYTIMES-USCENSUS"
"9/3/2021 12:00:00 AM","Clark County","Washington","West","Pacific","53011","45.77173","-122.485953 ","32872","346","201","2","9/2/2021 12:00:00 AM","2019","488241","NYTIMES-USCENSUS"
"9/3/2021 12:00:00 AM","Pepin County","Wisconsin","Midwest","East North Central","55091","44.627436","-91.83489 ","972","7","7","0","9/2/2021 12:00:00 AM","2019","7287","NYTIMES-USCENSUS"
"9/3/2021 12:00:00 AM","Allen County","Ohio","Midwest","East North Central","39003","40.771627","-84.106103 ","12967","249","37","0","9/2/2021 12:00:00 AM","2019","102351","NYTIMES-USCENSUS"
"9/3/2021 12:00:00 AM","Lavaca County","Texas","South","West South Central","48285","29.382578","-96.923633 ","2912","79","14","0","9/2/2021 12:00:00 AM","2019","20154","NYTIMES-USCENSUS"
"9/3/2021 12:00:00 AM","Jackson County","Ohio","Midwest","East North Central","39079","39.013477","-82.614142 ","3621","56","33","1","9/2/2021 12:00:00 AM","2019","32413","NYTIMES-USCENSUS"
"9/3/2021 12:00:00 AM","Mason County","Michigan","Midwest","East North Central","26105","43.957196","-86.442937 ","2433","39","24","0","9/2/2021 12:00:00 AM","2019","29144","NYTIMES-USCENSUS"
"9/3/2021 12:00:00 AM","Stanton County","Nebraska","Midwest","West North Central","31167","41.905045","-97.177109 ","372","11","0","0","9/2/2021 12:00:00 AM","2019","5920","NYTIMES-USCENSUS"
"9/3/2021 12:00:00 AM","Berkeley County","South Carolina","South","South Atlantic","45015","33.2077","-79.953655 ","25606","231","238","2","9/2/2021 12:00:00 AM","2019","227907","NYTIMES-USCENSUS"
"9/3/2021 12:00:00 AM","Sawyer County","Wisconsin","Midwest","East North Central","55113","45.864911","-91.147133 ","1995","29","4","0","9/2/2021 12:00:00 AM","2019","16558","NYTIMES-USCENSUS"
"9/3/2021 12:00:00 AM","Sherman County","Nebraska","Midwest","West North Central","31163","41.218743","-98.972849 ","213","4","0","0","9/2/2021 12:00:00 AM","2019","3001","NYTIMES-USCENSUS"
"9/3/2021 12:00:00 AM","Montgomery County","Arkansas","South","West South Central","05097","34.545656","-93.664153 ","1010","34","5","0","9/2/2021 12:00:00 AM","2019","8986","NYTIMES-USCENSUS"
"9/3/2021 12:00:00 AM","Gallatin County","Kentucky","South","East South Central","21077","38.755663","-84.865143 ","961","34","2","0","9/2/2021 12:00:00 AM","2019","8869","NYTIMES-USCENSUS"
"9/3/2021 12:00:00 AM","Fredericksburg city","Virginia","South","South Atlantic","51630","38.299272","-77.486658 ","2515","25","14","0","9/2/2021 12:00:00 AM","2019","29036","NYTIMES-USCENSUS"
"9/3/2021 12:00:00 AM","Worth County","Missouri","Midwest","West North Central","29227","40.480499","-94.419198 ","204","2","0","0","9/2/2021 12:00:00 AM","2019","2013","NYTIMES-USCENSUS"
"9/3/2021 12:00:00 AM","Todd County","Minnesota","Midwest","West North Central","27153","46.066569","-94.900576 ","3078","34","13","1","9/2/2021 12:00:00 AM","2019","24664","NYTIMES-USCENSUS"
"9/3/2021 12:00:00 AM","Anderson County","Texas","South","West South Central","48001","31.841261","-95.661727 ","6881","137","189","0","9/2/2021 12:00:00 AM","2019","57735","NYTIMES-USCENSUS"
"9/3/2021 12:00:00 AM","Lea County","New Mexico","West","Mountain","35025","32.795687","-103.413271 ","12358","214","81","1","9/2/2021 12:00:00 AM","2019","71070","NYTIMES-USCENSUS"
"9/3/2021 12:00:00 AM","Winston County","Alabama","South","East South Central","01133","34.154566","-87.365346 ","3683","79","60","0","9/2/2021 12:00:00 AM","2019","23629","NYTIMES-USCENSUS"
"9/3/2021 12:00:00 AM","Monroe County","Georgia","South","South Atlantic","13207","33.017404","-83.922837 ","3653","111","28","0","9/2/2021 12:00:00 AM","2019","27578","NYTIMES-USCENSUS"
"9/3/2021 12:00:00 AM","Kankakee County","Illinois","Midwest","East North Central","17091","41.13951","-87.861117 ","15835","236","47","0","9/2/2021 12:00:00 AM","2019","109862","NYTIMES-USCENSUS"
"9/3/2021 12:00:00 AM","Marshall County","Minnesota","Midwest","West North Central","27089","48.362728","-96.357761 ","974","18","8","0","9/2/2021 12:00:00 AM","2019","9336","NYTIMES-USCENSUS"
"9/3/2021 12:00:00 AM","Morrison County","Minnesota","Midwest","West North Central","27097","46.020484","-94.266619 ","4518","62","9","0","9/2/2021 12:00:00 AM","2019","33386","NYTIMES-USCENSUS"
"9/3/2021 12:00:00 AM","Bledsoe County","Tennessee","South","East South Central","47007","35.593561","-85.20591 ","2879","13","24","0","9/2/2021 12:00:00 AM","2019","15064","NYTIMES-USCENSUS"
"9/3/2021 12:00:00 AM","Kingfisher County","Oklahoma","South","West South Central","40073","35.949436","-97.934557 ","2340","43","0","0","9/2/2021 12:00:00 AM","2019","15765","NYTIMES-USCENSUS"
"9/3/2021 12:00:00 AM","Bradley County","Tennessee","South","East South Central","47011","35.153914","-84.859414 ","18579","162","110","1","9/2/2021 12:00:00 AM","2019","108110","NYTIMES-USCENSUS"
"9/3/2021 12:00:00 AM","Smith County","Texas","South","West South Central","48423","32.377016","-95.270041 ","28187","534","903","0","9/2/2021 12:00:00 AM","2019","232751","NYTIMES-USCENSUS"
"9/3/2021 12:00:00 AM","Stutsman County","North Dakota","Midwest","West North Central","38093","46.972223","-98.956123 ","3728","82","14","0","9/2/2021 12:00:00 AM","2019","20704","NYTIMES-USCENSUS"
"9/3/2021 12:00:00 AM","Hamilton County","Kansas","Midwest","West North Central","20075","37.995244","-101.793689 ","230","1","2","0","9/2/2021 12:00:00 AM","2019","2539","NYTIMES-USCENSUS"
"9/3/2021 12:00:00 AM","Montezuma County","Colorado","West","Mountain","08083","37.338025","-108.595786 ","2405","30","5","1","9/2/2021 12:00:00 AM","2019","26183","NYTIMES-USCENSUS"
"9/3/2021 12:00:00 AM","Brooke County","West Virginia","South","South Atlantic","54009","40.272645","-80.578691 ","2443","61","3","0","9/2/2021 12:00:00 AM","2019","21939","NYTIMES-USCENSUS"
"9/3/2021 12:00:00 AM","Kiowa County","Kansas","Midwest","West North Central","20097","37.561231","-99.286539 ","276","5","2","0","9/2/2021 12:00:00 AM","2019","2475","NYTIMES-USCENSUS"
"9/3/2021 12:00:00 AM","Coffey County","Kansas","Midwest","West North Central","20031","38.23645","-95.729137 ","903","24","10","0","9/2/2021 12:00:00 AM","2019","8179","NYTIMES-USCENSUS"
"9/3/2021 12:00:00 AM","Glacier County","Montana","West","Mountain","30035","48.705671","-112.990502 ","1663","45","11","0","9/2/2021 12:00:00 AM","2019","13753","NYTIMES-USCENSUS"
"9/3/2021 12:00:00 AM","Winchester city","Virginia","South","South Atlantic","51840","39.173869","-78.176356 ","3258","49","13","0","9/2/2021 12:00:00 AM","2019","28078","NYTIMES-USCENSUS"
"9/3/2021 12:00:00 AM","Belknap County","New Hampshire","Northeast","New England","33001","43.519109","-71.425366 ","4770","107","27","0","9/2/2021 12:00:00 AM","2019","61303","NYTIMES-USCENSUS"
"9/3/2021 12:00:00 AM","St. Francis County","Arkansas","South","West South Central","05123","35.022838","-90.751506 ","4315","52","17","0","9/2/2021 12:00:00 AM","2019","24994","NYTIMES-USCENSUS"
"9/3/2021 12:00:00 AM","Gulf County","Florida","South","South Atlantic","12045","29.859238","-85.272013 ","2795","45","100","0","9/2/2021 12:00:00 AM","2019","13639","NYTIMES-USCENSUS"
"9/3/2021 12:00:00 AM","Hancock County","Georgia","South","South Atlantic","13141","33.26922","-83.000465 ","1054","71","10","0","9/2/2021 12:00:00 AM","2019","8457","NYTIMES-USCENSUS"
"9/3/2021 12:00:00 AM","Mercer County","Pennsylvania","Northeast","Middle Atlantic","42085","41.300014","-80.252786 ","10530","273","40","0","9/2/2021 12:00:00 AM","2019","109424","NYTIMES-USCENSUS"
"9/3/2021 12:00:00 AM","Motley County","Texas","South","West South Central","48345","34.057899","-100.793152 ","143","8","0","0","9/2/2021 12:00:00 AM","2019","1200","NYTIMES-USCENSUS"
"9/3/2021 12:00:00 AM","St. Lawrence County","New York","Northeast","Middle Atlantic","36089","44.488112","-75.074311 ","7710","100","86","1","9/2/2021 12:00:00 AM","2019","107740","NYTIMES-USCENSUS"
"9/3/2021 12:00:00 AM","Iredell County","North Carolina","South","South Atlantic","37097","35.806251","-80.874524 ","23800","254","155","0","9/2/2021 12:00:00 AM","2019","181806","NYTIMES-USCENSUS"
"9/3/2021 12:00:00 AM","Hinds County","Mississippi","South","East South Central","28049","32.267788","-90.466017 ","29522","541","130","6","9/2/2021 12:00:00 AM","2019","231840","NYTIMES-USCENSUS"
"9/3/2021 12:00:00 AM","Midland County","Texas","South","West South Central","48329","31.814269","-102.002454 ","22662","299","0","1","9/2/2021 12:00:00 AM","2019","176832","NYTIMES-USCENSUS"
"9/3/2021 12:00:00 AM","Tarrant County","Texas","South","West South Central","48439","32.772119","-97.291224 ","309051","3907","1596","12","9/2/2021 12:00:00 AM","2019","2102515","NYTIMES-USCENSUS"
"9/3/2021 12:00:00 AM","Knox County","Kentucky","South","East South Central","21121","36.8885","-83.855551 ","5306","49","64","0","9/2/2021 12:00:00 AM","2019","31145","NYTIMES-USCENSUS"
"9/3/2021 12:00:00 AM","Ottawa County","Kansas","Midwest","West North Central","20143","39.137963","-97.654802 ","641","14","4","0","9/2/2021 12:00:00 AM","2019","5704","NYTIMES-USCENSUS"
"9/3/2021 12:00:00 AM","Madison County","Iowa","Midwest","West North Central","19121","41.330622","-94.015184 ","1849","19","0","0","9/2/2021 12:00:00 AM","2019","16338","NYTIMES-USCENSUS"
"9/3/2021 12:00:00 AM","Hancock County","Kentucky","South","East South Central","21091","37.843325","-86.792761 ","1134","16","14","0","9/2/2021 12:00:00 AM","2019","8722","NYTIMES-USCENSUS"
"9/3/2021 12:00:00 AM","Big Horn County","Wyoming","West","Mountain","56003","44.525117","-107.994848 ","1400","38","11","0","9/2/2021 12:00:00 AM","2019","11790","NYTIMES-USCENSUS"
"9/3/2021 12:00:00 AM","Fort Bend County","Texas","South","West South Central","48157","29.526602","-95.771015 ","85771","807","542","4","9/2/2021 12:00:00 AM","2019","811688","NYTIMES-USCENSUS"
"9/3/2021 12:00:00 AM","Mercer County","West Virginia","South","South Atlantic","54055","37.403448","-81.106456 ","6248","131","49","-1","9/2/2021 12:00:00 AM","2019","58758","NYTIMES-USCENSUS"
"9/3/2021 12:00:00 AM","La Paz County","Arizona","West","Mountain","04012","33.72761","-114.038806 ","2721","82","17","0","9/2/2021 12:00:00 AM","2019","21108","NYTIMES-USCENSUS"
"9/3/2021 12:00:00 AM","Delta County","Colorado","West","Mountain","08029","38.861595","-107.864892 ","3253","76","7","0","9/2/2021 12:00:00 AM","2019","31162","NYTIMES-USCENSUS"
"9/3/2021 12:00:00 AM","Prince William County","Virginia","South","South Atlantic","51153","38.701119","-77.479579 ","49476","521","135","1","9/2/2021 12:00:00 AM","2019","470335","NYTIMES-USCENSUS"
"9/3/2021 12:00:00 AM","Vernon County","Wisconsin","Midwest","East North Central","55123","43.599366","-90.821983 ","2279","48","22","0","9/2/2021 12:00:00 AM","2019","30822","NYTIMES-USCENSUS"
"9/3/2021 12:00:00 AM","Orange County","Florida","South","South Atlantic","12095","28.514391","-81.323284 ","207104","1310","7317","0","9/2/2021 12:00:00 AM","2019","1393452","NYTIMES-USCENSUS"
"9/3/2021 12:00:00 AM","Ventura County","California","West","Pacific","06111","34.358748","-119.133145 ","94705","1088","139","-1","9/2/2021 12:00:00 AM","2019","846006","NYTIMES-USCENSUS"
"9/3/2021 12:00:00 AM","De Soto Parish","Louisiana","South","West South Central","22031","32.059248","-93.740797 ","4322","99","31","1","9/2/2021 12:00:00 AM","2019","27463","NYTIMES-USCENSUS"
"9/3/2021 12:00:00 AM","Lafayette County","Arkansas","South","West South Central","05073","33.240629","-93.611514 ","747","11","6","0","9/2/2021 12:00:00 AM","2019","6624","NYTIMES-USCENSUS"
"9/3/2021 12:00:00 AM","Piscataquis County","Maine","Northeast","New England","23021","45.915639","-69.102231 ","811","7","30","0","9/2/2021 12:00:00 AM","2019","16785","NYTIMES-USCENSUS"
"9/3/2021 12:00:00 AM","Tama County","Iowa","Midwest","West North Central","19171","42.074848","-92.529411 ","2261","73","0","0","9/2/2021 12:00:00 AM","2019","16854","NYTIMES-USCENSUS"
"9/3/2021 12:00:00 AM","Bexar County","Texas","South","West South Central","48029","29.448671","-98.520147 ","288389","4111","966","29","9/2/2021 12:00:00 AM","2019","2003554","NYTIMES-USCENSUS"
"9/3/2021 12:00:00 AM","Lincoln County","Georgia","South","South Atlantic","13181","33.792151","-82.448299 ","1047","28","14","0","9/2/2021 12:00:00 AM","2019","7921","NYTIMES-USCENSUS"
"9/3/2021 12:00:00 AM","Sharp County","Arkansas","South","West South Central","05135","36.173399","-91.471069 ","2356","57","14","0","9/2/2021 12:00:00 AM","2019","17442","NYTIMES-USCENSUS"
"9/3/2021 12:00:00 AM","Davison County","South Dakota","Midwest","West North Central","46035","43.680439","-98.155868 ","3392","69","11","0","9/2/2021 12:00:00 AM","2019","19775","NYTIMES-USCENSUS"
"9/3/2021 12:00:00 AM","Fayette County","Illinois","Midwest","East North Central","17051","39.001125","-89.017923 ","3606","59","16","0","9/2/2021 12:00:00 AM","2019","21336","NYTIMES-USCENSUS"
"9/3/2021 12:00:00 AM","Washington County","Maine","Northeast","New England","23029","44.967009","-67.609354 ","1084","19","6","0","9/2/2021 12:00:00 AM","2019","31379","NYTIMES-USCENSUS"
"9/3/2021 12:00:00 AM","Erie County","New York","Northeast","Middle Atlantic","36029","42.752759","-78.778192 ","95148","1854","211","2","9/2/2021 12:00:00 AM","2019","918702","NYTIMES-USCENSUS"
"9/3/2021 12:00:00 AM","Chelan County","Washington","West","Pacific","53007","47.860974","-120.619041 ","8980","86","69","1","9/2/2021 12:00:00 AM","2019","77200","NYTIMES-USCENSUS"
"9/3/2021 12:00:00 AM","Newton County","Mississippi","South","East South Central","28101","32.40197","-89.118412 ","3417","67","32","0","9/2/2021 12:00:00 AM","2019","21018","NYTIMES-USCENSUS"
"9/3/2021 12:00:00 AM","Parmer County","Texas","South","West South Central","48369","34.532163","-102.784853 ","1438","35","3","0","9/2/2021 12:00:00 AM","2019","9605","NYTIMES-USCENSUS"
"9/3/2021 12:00:00 AM","Logan County","West Virginia","South","South Atlantic","54045","37.830591","-81.940853 ","3870","106","39","1","9/2/2021 12:00:00 AM","2019","32019","NYTIMES-USCENSUS"
"9/3/2021 12:00:00 AM","Muscogee County","Georgia","South","South Atlantic","13215","32.510197","-84.874946 ","21112","529","183","5","9/2/2021 12:00:00 AM","2019","195769","NYTIMES-USCENSUS"
"9/3/2021 12:00:00 AM","Harrison County","Mississippi","South","East South Central","28047","30.416536","-89.083376 ","30193","416","231","5","9/2/2021 12:00:00 AM","2019","208080","NYTIMES-USCENSUS"
"9/3/2021 12:00:00 AM","Harnett County","North Carolina","South","South Atlantic","37085","35.368635","-78.87161 ","15244","202","121","1","9/2/2021 12:00:00 AM","2019","135976","NYTIMES-USCENSUS"
"9/3/2021 12:00:00 AM","Wilcox County","Georgia","South","South Atlantic","13315","31.96272","-83.438259 ","1158","50","3","0","9/2/2021 12:00:00 AM","2019","8635","NYTIMES-USCENSUS"
"9/3/2021 12:00:00 AM","Anderson County","Kentucky","South","East South Central","21005","38.005396","-84.986417 ","2348","26","28","1","9/2/2021 12:00:00 AM","2019","22747","NYTIMES-USCENSUS"
"9/3/2021 12:00:00 AM","Castro County","Texas","South","West South Central","48069","34.533621","-102.258786 ","1160","33","1","0","9/2/2021 12:00:00 AM","2019","7530","NYTIMES-USCENSUS"
"9/3/2021 12:00:00 AM","Washita County","Oklahoma","South","West South Central","40149","35.289497","-98.991436 ","1262","23","0","0","9/2/2021 12:00:00 AM","2019","10916","NYTIMES-USCENSUS"
"9/3/2021 12:00:00 AM","Cameron Parish","Louisiana","South","West South Central","22023","29.871812","-93.164948 ","800","7","3","0","9/2/2021 12:00:00 AM","2019","6973","NYTIMES-USCENSUS"
"9/3/2021 12:00:00 AM","Frederick County","Maryland","South","South Atlantic","24021","39.470177","-77.397636 ","21722","351","91","0","9/2/2021 12:00:00 AM","2019","259547","NYTIMES-USCENSUS"
"9/3/2021 12:00:00 AM","Webster County","Mississippi","South","East South Central","28155","33.612061","-89.283961 ","1788","36","41","0","9/2/2021 12:00:00 AM","2019","9689","NYTIMES-USCENSUS"
"9/3/2021 12:00:00 AM","Woodford County","Kentucky","South","East South Central","21239","38.043103","-84.748855 ","2648","23","11","0","9/2/2021 12:00:00 AM","2019","26734","NYTIMES-USCENSUS"
"9/3/2021 12:00:00 AM","Meade County","Kansas","Midwest","West North Central","20119","37.243886","-100.360094 ","561","13","2","0","9/2/2021 12:00:00 AM","2019","4033","NYTIMES-USCENSUS"
"9/3/2021 12:00:00 AM","Putnam County","Florida","South","South Atlantic","12107","29.593896","-81.732039 ","11075","160","715","0","9/2/2021 12:00:00 AM","2019","74521","NYTIMES-USCENSUS"
"9/3/2021 12:00:00 AM","Ellsworth County","Kansas","Midwest","West North Central","20053","38.700845","-98.205355 ","1283","25","1","0","9/2/2021 12:00:00 AM","2019","6102","NYTIMES-USCENSUS"
"9/3/2021 12:00:00 AM","Seminole County","Georgia","South","South Atlantic","13253","30.93396","-84.867685 ","1392","20","4","0","9/2/2021 12:00:00 AM","2019","8090","NYTIMES-USCENSUS"
"9/3/2021 12:00:00 AM","Texas County","Oklahoma","South","West South Central","40139","36.746317","-101.483855 ","3705","35","0","0","9/2/2021 12:00:00 AM","2019","19983","NYTIMES-USCENSUS"
"9/3/2021 12:00:00 AM","Carbon County","Pennsylvania","Northeast","Middle Atlantic","42025","40.918367","-75.705039 ","6906","177","33","0","9/2/2021 12:00:00 AM","2019","64182","NYTIMES-USCENSUS"
"9/3/2021 12:00:00 AM","Carlisle County","Kentucky","South","East South Central","21039","36.85718","-88.976614 ","560","10","2","0","9/2/2021 12:00:00 AM","2019","4760","NYTIMES-USCENSUS"
"9/3/2021 12:00:00 AM","Duplin County","North Carolina","South","South Atlantic","37061","34.934403","-77.933543 ","8337","154","36","0","9/2/2021 12:00:00 AM","2019","58741","NYTIMES-USCENSUS"
"9/3/2021 12:00:00 AM","Bremer County","Iowa","Midwest","West North Central","19017","42.780895","-92.327356 ","3131","65","0","0","9/2/2021 12:00:00 AM","2019","25062","NYTIMES-USCENSUS"
"9/3/2021 12:00:00 AM","Lafourche Parish","Louisiana","South","West South Central","22057","29.491992","-90.394849 ","16616","258","13","0","9/2/2021 12:00:00 AM","2019","97614","NYTIMES-USCENSUS"
"9/3/2021 12:00:00 AM","Larimer County","Colorado","West","Mountain","08069","40.658093","-105.486764 ","32077","261","185","0","9/2/2021 12:00:00 AM","2019","356899","NYTIMES-USCENSUS"
"9/3/2021 12:00:00 AM","Mesa County","Colorado","West","Mountain","08077","39.019524","-108.460571 ","19609","282","58","0","9/2/2021 12:00:00 AM","2019","154210","NYTIMES-USCENSUS"
"9/3/2021 12:00:00 AM","Franklin County","Ohio","Midwest","East North Central","39049","39.969875","-83.009086 ","141582","1519","612","3","9/2/2021 12:00:00 AM","2019","1316756","NYTIMES-USCENSUS"
"9/3/2021 12:00:00 AM","Sioux County","Iowa","Midwest","West North Central","19167","43.082646","-96.17801 ","5332","74","0","0","9/2/2021 12:00:00 AM","2019","34855","NYTIMES-USCENSUS"
"9/3/2021 12:00:00 AM","Cochise County","Arizona","West","Mountain","04003","31.840129","-109.775163 ","13208","306","14","0","9/2/2021 12:00:00 AM","2019","125922","NYTIMES-USCENSUS"
"9/3/2021 12:00:00 AM","Calaveras County","California","West","Pacific","06009","38.191068","-120.554107 ","3065","63","19","2","9/2/2021 12:00:00 AM","2019","45905","NYTIMES-USCENSUS"
"9/3/2021 12:00:00 AM","Shelby County","Alabama","South","East South Central","01117","33.263043","-86.678089 ","32818","276","195","0","9/2/2021 12:00:00 AM","2019","217702","NYTIMES-USCENSUS"
"9/3/2021 12:00:00 AM","Crawford County","Illinois","Midwest","East North Central","17033","39.002787","-87.760619 ","2793","44","19","0","9/2/2021 12:00:00 AM","2019","18667","NYTIMES-USCENSUS"
"9/3/2021 12:00:00 AM","Walsh County","North Dakota","Midwest","West North Central","38099","48.376979","-97.72223 ","2003","27","10","0","9/2/2021 12:00:00 AM","2019","10641","NYTIMES-USCENSUS"
"9/3/2021 12:00:00 AM","Buffalo County","Wisconsin","Midwest","East North Central","55011","44.385633","-91.761294 ","1549","7","4","0","9/2/2021 12:00:00 AM","2019","13031","NYTIMES-USCENSUS"
"9/3/2021 12:00:00 AM","Clarke County","Virginia","South","South Atlantic","51043","39.115307","-77.990748 ","1097","21","0","0","9/2/2021 12:00:00 AM","2019","14619","NYTIMES-USCENSUS"
"9/3/2021 12:00:00 AM","Johnson County","Kentucky","South","East South Central","21115","37.847756","-82.830121 ","2871","39","34","1","9/2/2021 12:00:00 AM","2019","22188","NYTIMES-USCENSUS"
"9/3/2021 12:00:00 AM","Penobscot County","Maine","Northeast","New England","23019","45.409284","-68.666616 ","7924","114","148","1","9/2/2021 12:00:00 AM","2019","152148","NYTIMES-USCENSUS"
"9/3/2021 12:00:00 AM","Sabine County","Texas","South","West South Central","48403","31.3433","-93.851913 ","810","51","10","1","9/2/2021 12:00:00 AM","2019","10542","NYTIMES-USCENSUS"
"9/3/2021 12:00:00 AM","Carroll County","Mississippi","South","East South Central","28015","33.440795","-89.918887 ","1522","35","14","0","9/2/2021 12:00:00 AM","2019","9947","NYTIMES-USCENSUS"
"9/3/2021 12:00:00 AM","Fresno County","California","West","Pacific","06019","36.761006","-119.655019 ","128463","1804","482","4","9/2/2021 12:00:00 AM","2019","999101","NYTIMES-USCENSUS"
"9/3/2021 12:00:00 AM","Teller County","Colorado","West","Mountain","08119","38.869976","-105.187365 ","2135","19","12","0","9/2/2021 12:00:00 AM","2019","25388","NYTIMES-USCENSUS"
"9/3/2021 12:00:00 AM","Emmons County","North Dakota","Midwest","West North Central","38029","46.284255","-100.237842 ","485","14","0","0","9/2/2021 12:00:00 AM","2019","3241","NYTIMES-USCENSUS"
"9/3/2021 12:00:00 AM","Parker County","Texas","South","West South Central","48367","32.777096","-97.805905 ","19902","226","223","2","9/2/2021 12:00:00 AM","2019","142878","NYTIMES-USCENSUS"
"9/3/2021 12:00:00 AM","Siskiyou County","California","West","Pacific","06093","41.587986","-122.533287 ","3506","41","63","0","9/2/2021 12:00:00 AM","2019","43539","NYTIMES-USCENSUS"
"9/3/2021 12:00:00 AM","Shannon County","Missouri","Midwest","West North Central","29203","37.152498","-91.391328 ","871","15","5","0","9/2/2021 12:00:00 AM","2019","8166","NYTIMES-USCENSUS"
"9/3/2021 12:00:00 AM","Lenoir County","North Carolina","South","South Atlantic","37107","35.240066","-77.635514 ","7669","134","81","2","9/2/2021 12:00:00 AM","2019","55949","NYTIMES-USCENSUS"
"9/3/2021 12:00:00 AM","Rio Arriba County","New Mexico","West","Mountain","35039","36.509669","-106.693983 ","4235","82","13","0","9/2/2021 12:00:00 AM","2019","38921","NYTIMES-USCENSUS"
"9/3/2021 12:00:00 AM","Hendricks County","Indiana","Midwest","East North Central","18063","39.768963","-86.509908 ","20651","353","148","1","9/2/2021 12:00:00 AM","2019","170311","NYTIMES-USCENSUS"
"9/3/2021 12:00:00 AM","Wicomico County","Maryland","South","South Atlantic","24045","38.36737","-75.632083 ","8986","186","82","0","9/2/2021 12:00:00 AM","2019","103609","NYTIMES-USCENSUS"
"9/3/2021 12:00:00 AM","Colleton County","South Carolina","South","South Atlantic","45029","32.835018","-80.655244 ","4954","153","25","0","9/2/2021 12:00:00 AM","2019","37677","NYTIMES-USCENSUS"
"9/3/2021 12:00:00 AM","Starke County","Indiana","Midwest","East North Central","18149","41.284478","-86.644636 ","2555","62","16","0","9/2/2021 12:00:00 AM","2019","22995","NYTIMES-USCENSUS"
"9/3/2021 12:00:00 AM","Houston County","Texas","South","West South Central","48225","31.323036","-95.4216 ","2461","64","23","0","9/2/2021 12:00:00 AM","2019","22968","NYTIMES-USCENSUS"
"9/3/2021 12:00:00 AM","Craig County","Oklahoma","South","West South Central","40035","36.76389","-95.201553 ","2644","23","0","0","9/2/2021 12:00:00 AM","2019","14142","NYTIMES-USCENSUS"
"9/3/2021 12:00:00 AM","Emery County","Utah","West","Mountain","49015","39.009025","-110.7211 ","1110","12","3","0","9/2/2021 12:00:00 AM","2019","10012","NYTIMES-USCENSUS"
"9/3/2021 12:00:00 AM","Angelina County","Texas","South","West South Central","48005","31.251896","-94.611134 ","11621","314","294","3","9/2/2021 12:00:00 AM","2019","86715","NYTIMES-USCENSUS"
"9/3/2021 12:00:00 AM","Madison County","Missouri","Midwest","West North Central","29123","37.474481","-90.343413 ","2023","17","15","0","9/2/2021 12:00:00 AM","2019","12088","NYTIMES-USCENSUS"
"9/3/2021 12:00:00 AM","Tolland County","Connecticut","Northeast","New England","09013","41.858081","-72.340978 ","10441","191","32","0","9/2/2021 12:00:00 AM","2019","150721","NYTIMES-USCENSUS"
"9/3/2021 12:00:00 AM","Ontonagon County","Michigan","Midwest","East North Central","26131","46.835325","-89.276912 ","535","22","5","0","9/2/2021 12:00:00 AM","2019","5720","NYTIMES-USCENSUS"
"9/3/2021 12:00:00 AM","Kent County","Maryland","South","South Atlantic","24029","39.241279","-76.125987 ","1472","51","2","0","9/2/2021 12:00:00 AM","2019","19422","NYTIMES-USCENSUS"
"9/3/2021 12:00:00 AM","Pershing County","Nevada","West","Mountain","32027","40.439639","-118.409477 ","1006","21","4","0","9/2/2021 12:00:00 AM","2019","6725","NYTIMES-USCENSUS"
"9/3/2021 12:00:00 AM","Polk County","Iowa","Midwest","West North Central","19153","41.684816","-93.568971 ","63926","659","0","0","9/2/2021 12:00:00 AM","2019","490161","NYTIMES-USCENSUS"
"9/3/2021 12:00:00 AM","Gunnison County","Colorado","West","Mountain","08051","38.670499","-107.05688 ","1578","8","3","0","9/2/2021 12:00:00 AM","2019","17462","NYTIMES-USCENSUS"
"9/3/2021 12:00:00 AM","Bedford County","Virginia","South","South Atlantic","51019","37.312257","-79.527223 ","7806","115","64","1","9/2/2021 12:00:00 AM","2019","78997","NYTIMES-USCENSUS"
"9/3/2021 12:00:00 AM","Adams County","Idaho","West","Mountain","16003","44.877004","-116.461624 ","397","5","3","0","9/2/2021 12:00:00 AM","2019","4294","NYTIMES-USCENSUS"
"9/3/2021 12:00:00 AM","Bleckley County","Georgia","South","South Atlantic","13023","32.435403","-83.331717 ","2103","53","24","0","9/2/2021 12:00:00 AM","2019","12873","NYTIMES-USCENSUS"
"9/3/2021 12:00:00 AM","Olmsted County","Minnesota","Midwest","West North Central","27109","43.999499","-92.410098 ","15101","108","65","0","9/2/2021 12:00:00 AM","2019","158293","NYTIMES-USCENSUS"
"9/3/2021 12:00:00 AM","Muskogee County","Oklahoma","South","West South Central","40101","35.617551","-95.383911 ","11480","202","0","0","9/2/2021 12:00:00 AM","2019","67997","NYTIMES-USCENSUS"
"9/3/2021 12:00:00 AM","Sullivan County","New Hampshire","Northeast","New England","33019","43.361188","-72.222084 ","2118","29","13","0","9/2/2021 12:00:00 AM","2019","43146","NYTIMES-USCENSUS"
"9/3/2021 12:00:00 AM","Philadelphia County","Pennsylvania","Northeast","Middle Atlantic","42101","40.009376","-75.133346 ","166713","3838","0","4","9/2/2021 12:00:00 AM","2019","1584064","NYTIMES-USCENSUS"
"9/3/2021 12:00:00 AM","Ste. Genevieve County","Missouri","Midwest","West North Central","29186","37.885845","-90.161531 ","2137","20","4","0","9/2/2021 12:00:00 AM","2019","17894","NYTIMES-USCENSUS"
"9/3/2021 12:00:00 AM","Washington County","North Carolina","South","South Atlantic","37187","35.844713","-76.572291 ","1328","33","10","0","9/2/2021 12:00:00 AM","2019","11580","NYTIMES-USCENSUS"
"9/3/2021 12:00:00 AM","Webster Parish","Louisiana","South","West South Central","22119","32.732152","-93.339825 ","5867","131","34","1","9/2/2021 12:00:00 AM","2019","38340","NYTIMES-USCENSUS"
"9/3/2021 12:00:00 AM","Christian County","Kentucky","South","East South Central","21047","36.892059","-87.492986 ","8202","112","58","0","9/2/2021 12:00:00 AM","2019","70461","NYTIMES-USCENSUS"
"9/3/2021 12:00:00 AM","Crawford County","Missouri","Midwest","West North Central","29055","37.966559","-91.313936 ","3221","45","8","0","9/2/2021 12:00:00 AM","2019","23920","NYTIMES-USCENSUS"
"9/3/2021 12:00:00 AM","Potter County","Texas","South","West South Central","48375","35.398675","-101.893804 ","20837","493","95","0","9/2/2021 12:00:00 AM","2019","117415","NYTIMES-USCENSUS"
"9/3/2021 12:00:00 AM","Kent County","Rhode Island","Northeast","New England","44003","41.675118","-71.580282 ","20174","372","0","0","9/2/2021 12:00:00 AM","2019","164292","NYTIMES-USCENSUS"
"9/3/2021 12:00:00 AM","Poquoson city","Virginia","South","South Atlantic","51735","37.12836","-76.303534 ","1032","18","3","0","9/2/2021 12:00:00 AM","2019","12271","NYTIMES-USCENSUS"
"9/3/2021 12:00:00 AM","Graham County","North Carolina","South","South Atlantic","37075","35.348364","-83.830915 ","998","19","19","0","9/2/2021 12:00:00 AM","2019","8441","NYTIMES-USCENSUS"
"9/3/2021 12:00:00 AM","Sumner County","Kansas","Midwest","West North Central","20191","37.236662","-97.493352 ","2640","55","44","2","9/2/2021 12:00:00 AM","2019","22836","NYTIMES-USCENSUS"
"9/3/2021 12:00:00 AM","Spotsylvania County","Virginia","South","South Atlantic","51177","38.182431","-77.657226 ","11986","128","72","0","9/2/2021 12:00:00 AM","2019","136215","NYTIMES-USCENSUS"
"9/3/2021 12:00:00 AM","Yolo County","California","West","Pacific","06113","38.679609","-121.90275 ","18146","235","93","0","9/2/2021 12:00:00 AM","2019","220500","NYTIMES-USCENSUS"
"9/3/2021 12:00:00 AM","Charlotte County","Virginia","South","South Atlantic","51037","37.009042","-78.658568 ","1026","22","5","0","9/2/2021 12:00:00 AM","2019","11880","NYTIMES-USCENSUS"
"9/3/2021 12:00:00 AM","Custer County","Colorado","West","Mountain","08027","38.101996","-105.373512 ","261","6","2","0","9/2/2021 12:00:00 AM","2019","5068","NYTIMES-USCENSUS"
"9/3/2021 12:00:00 AM","Linn County","Iowa","Midwest","West North Central","19113","42.077951","-91.597674 ","23994","349","0","0","9/2/2021 12:00:00 AM","2019","226706","NYTIMES-USCENSUS"
"9/3/2021 12:00:00 AM","King William County","Virginia","South","South Atlantic","51101","37.70826","-77.091054 ","1517","16","21","0","9/2/2021 12:00:00 AM","2019","17148","NYTIMES-USCENSUS"
"9/3/2021 12:00:00 AM","Logan County","Colorado","West","Mountain","08075","40.728091","-103.090464 ","4196","69","3","0","9/2/2021 12:00:00 AM","2019","22409","NYTIMES-USCENSUS"
"9/3/2021 12:00:00 AM","Dallas County","Missouri","Midwest","West North Central","29059","37.683583","-93.033815 ","2117","38","9","0","9/2/2021 12:00:00 AM","2019","16878","NYTIMES-USCENSUS"
"9/3/2021 12:00:00 AM","Stevens County","Kansas","Midwest","West North Central","20189","37.2017","-101.317268 ","665","11","11","0","9/2/2021 12:00:00 AM","2019","5485","NYTIMES-USCENSUS"
"9/3/2021 12:00:00 AM","Piute County","Utah","West","Mountain","49031","38.335881","-112.129375 ","117","2","3","0","9/2/2021 12:00:00 AM","2019","1479","NYTIMES-USCENSUS"
"9/3/2021 12:00:00 AM","Lawrence County","Tennessee","South","East South Central","47099","35.220476","-87.396546 ","7715","105","61","1","9/2/2021 12:00:00 AM","2019","44142","NYTIMES-USCENSUS"
"9/3/2021 12:00:00 AM","Otsego County","New York","Northeast","Middle Atlantic","36077","42.629776","-75.028841 ","3874","49","17","0","9/2/2021 12:00:00 AM","2019","59493","NYTIMES-USCENSUS"
"9/3/2021 12:00:00 AM","Grant County","Oklahoma","South","West South Central","40053","36.788254","-97.788151 ","619","7","0","0","9/2/2021 12:00:00 AM","2019","4333","NYTIMES-USCENSUS"
"9/3/2021 12:00:00 AM","Rockingham County","New Hampshire","Northeast","New England","33015","42.988664","-71.09908 ","26542","279","98","1","9/2/2021 12:00:00 AM","2019","309769","NYTIMES-USCENSUS"
"9/3/2021 12:00:00 AM","Kanabec County","Minnesota","Midwest","West North Central","27065","45.94776","-93.297788 ","1586","29","6","0","9/2/2021 12:00:00 AM","2019","16337","NYTIMES-USCENSUS"
"9/3/2021 12:00:00 AM","Washington County","Kansas","Midwest","West North Central","20201","39.776714","-97.095611 ","629","14","7","0","9/2/2021 12:00:00 AM","2019","5406","NYTIMES-USCENSUS"
"9/3/2021 12:00:00 AM","Sioux County","North Dakota","Midwest","West North Central","38085","46.110618","-101.061284 ","702","13","3","1","9/2/2021 12:00:00 AM","2019","4230","NYTIMES-USCENSUS"
"9/3/2021 12:00:00 AM","Harney County","Oregon","West","Pacific","41025","43.064449","-118.987169 ","650","12","7","0","9/2/2021 12:00:00 AM","2019","7393","NYTIMES-USCENSUS"
"9/3/2021 12:00:00 AM","Washington County","Oregon","West","Pacific","41067","45.553542","-123.097615 ","32447","267","207","1","9/2/2021 12:00:00 AM","2019","601592","NYTIMES-USCENSUS"
"9/3/2021 12:00:00 AM","Hitchcock County","Nebraska","Midwest","West North Central","31087","40.176896","-101.044217 ","259","5","0","0","9/2/2021 12:00:00 AM","2019","2762","NYTIMES-USCENSUS"
"9/3/2021 12:00:00 AM","Fulton County","New York","Northeast","Middle Atlantic","36035","43.115609","-74.423678 ","4944","95","23","1","9/2/2021 12:00:00 AM","2019","53383","NYTIMES-USCENSUS"
"9/3/2021 12:00:00 AM","Morris County","Texas","South","West South Central","48343","33.116466","-94.731265 ","1355","42","32","0","9/2/2021 12:00:00 AM","2019","12388","NYTIMES-USCENSUS"
"9/3/2021 12:00:00 AM","Morgan County","Colorado","West","Mountain","08087","40.263159","-103.81221 ","2932","96","13","0","9/2/2021 12:00:00 AM","2019","29068","NYTIMES-USCENSUS"
"9/3/2021 12:00:00 AM","Sevier County","Tennessee","South","East South Central","47155","35.787822","-83.5249 ","16575","199","41","3","9/2/2021 12:00:00 AM","2019","98250","NYTIMES-USCENSUS"
"9/3/2021 12:00:00 AM","Fountain County","Indiana","Midwest","East North Central","18045","40.121237","-87.234872 ","2814","54","26","0","9/2/2021 12:00:00 AM","2019","16346","NYTIMES-USCENSUS"
"9/3/2021 12:00:00 AM","Butler County","Missouri","Midwest","West North Central","29023","36.71518","-90.40313 ","5591","60","41","0","9/2/2021 12:00:00 AM","2019","42478","NYTIMES-USCENSUS"
"9/3/2021 12:00:00 AM","Lunenburg County","Virginia","South","South Atlantic","51111","36.945555","-78.240528 ","893","18","4","0","9/2/2021 12:00:00 AM","2019","12196","NYTIMES-USCENSUS"
"9/3/2021 12:00:00 AM","Jefferson County","New York","Northeast","Middle Atlantic","36045","43.996389","-76.052968 ","6761","70","37","0","9/2/2021 12:00:00 AM","2019","109834","NYTIMES-USCENSUS"
"9/3/2021 12:00:00 AM","Bertie County","North Carolina","South","South Atlantic","37015","36.059043","-76.962364 ","2106","46","14","0","9/2/2021 12:00:00 AM","2019","18947","NYTIMES-USCENSUS"
"9/3/2021 12:00:00 AM","Union County","Ohio","Midwest","East North Central","39159","40.295901","-83.367042 ","6581","49","55","0","9/2/2021 12:00:00 AM","2019","58988","NYTIMES-USCENSUS"
"9/3/2021 12:00:00 AM","Pope County","Arkansas","South","West South Central","05115","35.456557","-93.026818 ","10793","134","59","0","9/2/2021 12:00:00 AM","2019","64072","NYTIMES-USCENSUS"
"9/3/2021 12:00:00 AM","York County","Maine","Northeast","New England","23031","43.426019","-70.668425 ","14875","143","53","0","9/2/2021 12:00:00 AM","2019","207641","NYTIMES-USCENSUS"
"9/3/2021 12:00:00 AM","Orange County","Texas","South","West South Central","48361","30.122323","-93.8941 ","12119","183","349","1","9/2/2021 12:00:00 AM","2019","83396","NYTIMES-USCENSUS"
"9/3/2021 12:00:00 AM","Casey County","Kentucky","South","East South Central","21045","37.321962","-84.92822 ","2162","47","26","1","9/2/2021 12:00:00 AM","2019","16159","NYTIMES-USCENSUS"
"9/3/2021 12:00:00 AM","Harrison County","Missouri","Midwest","West North Central","29081","40.34562","-93.992582 ","1023","15","4","0","9/2/2021 12:00:00 AM","2019","8352","NYTIMES-USCENSUS"
"9/3/2021 12:00:00 AM","Autauga County","Alabama","South","East South Central","01001","32.532237","-86.64644 ","8909","119","36","0","9/2/2021 12:00:00 AM","2019","55869","NYTIMES-USCENSUS"
"9/3/2021 12:00:00 AM","Coos County","Oregon","West","Pacific","41011","43.18591","-124.094133 ","3543","56","35","1","9/2/2021 12:00:00 AM","2019","64487","NYTIMES-USCENSUS"
"9/3/2021 12:00:00 AM","Marin County","California","West","Pacific","06041","38.051367","-122.746396 ","16617","242","20","2","9/2/2021 12:00:00 AM","2019","258826","NYTIMES-USCENSUS"
"9/3/2021 12:00:00 AM","Dallas County","Arkansas","South","West South Central","05039","33.967823","-92.653999 ","1063","18","2","0","9/2/2021 12:00:00 AM","2019","7009","NYTIMES-USCENSUS"
"9/3/2021 12:00:00 AM","Grady County","Oklahoma","South","West South Central","40051","35.021058","-97.88689 ","7022","134","0","0","9/2/2021 12:00:00 AM","2019","55834","NYTIMES-USCENSUS"
"9/3/2021 12:00:00 AM","Sumter County","Florida","South","South Atlantic","12119","28.715444","-82.069952 ","12830","284","519","0","9/2/2021 12:00:00 AM","2019","132420","NYTIMES-USCENSUS"
"9/3/2021 12:00:00 AM","Addison County","Vermont","Northeast","New England","50001","44.031248","-73.141581 ","1241","8","4","0","9/2/2021 12:00:00 AM","2019","36777","NYTIMES-USCENSUS"
"9/3/2021 12:00:00 AM","Greenlee County","Arizona","West","Mountain","04011","33.238872","-109.242323 ","742","14","5","2","9/2/2021 12:00:00 AM","2019","9498","NYTIMES-USCENSUS"
"9/3/2021 12:00:00 AM","Fayette County","Tennessee","South","East South Central","47047","35.196993","-89.413803 ","6344","90","41","2","9/2/2021 12:00:00 AM","2019","41133","NYTIMES-USCENSUS"
"9/3/2021 12:00:00 AM","Marion County","Ohio","Midwest","East North Central","39101","40.588034","-83.168803 ","9747","141","64","0","9/2/2021 12:00:00 AM","2019","65093","NYTIMES-USCENSUS"
"9/3/2021 12:00:00 AM","Ottawa County","Oklahoma","South","West South Central","40115","36.835764","-94.802681 ","5371","85","0","0","9/2/2021 12:00:00 AM","2019","31127","NYTIMES-USCENSUS"
"9/3/2021 12:00:00 AM","Santa Cruz County","Arizona","West","Mountain","04023","31.525733","-110.845228 ","8534","187","22","1","9/2/2021 12:00:00 AM","2019","46498","NYTIMES-USCENSUS"
"9/3/2021 12:00:00 AM","Waseca County","Minnesota","Midwest","West North Central","27161","44.01846","-93.589844 ","2726","23","22","0","9/2/2021 12:00:00 AM","2019","18612","NYTIMES-USCENSUS"
"9/3/2021 12:00:00 AM","Alcorn County","Mississippi","South","East South Central","28003","34.886569","-88.581109 ","4750","80","30","0","9/2/2021 12:00:00 AM","2019","36953","NYTIMES-USCENSUS"
"9/3/2021 12:00:00 AM","Jefferson Davis Parish","Louisiana","South","West South Central","22053","30.269529","-92.816221 ","4242","110","15","1","9/2/2021 12:00:00 AM","2019","31368","NYTIMES-USCENSUS"
"9/3/2021 12:00:00 AM","Chattahoochee County","Georgia","South","South Atlantic","13053","32.347445","-84.788021 ","5109","17","9","0","9/2/2021 12:00:00 AM","2019","10907","NYTIMES-USCENSUS"
"9/3/2021 12:00:00 AM","Irion County","Texas","South","West South Central","48235","31.303424","-100.981304 ","166","1","-1","0","9/2/2021 12:00:00 AM","2019","1536","NYTIMES-USCENSUS"
"9/3/2021 12:00:00 AM","Franklin County","Georgia","South","South Atlantic","13119","34.375266","-83.227532 ","3410","62","45","1","9/2/2021 12:00:00 AM","2019","23349","NYTIMES-USCENSUS"
"9/3/2021 12:00:00 AM","Love County","Oklahoma","South","West South Central","40085","33.957804","-97.245093 ","1802","26","0","0","9/2/2021 12:00:00 AM","2019","10253","NYTIMES-USCENSUS"
"9/3/2021 12:00:00 AM","McDowell County","West Virginia","South","South Atlantic","54047","37.38276","-81.658204 ","1981","28","6","0","9/2/2021 12:00:00 AM","2019","17624","NYTIMES-USCENSUS"
"9/3/2021 12:00:00 AM","Ripley County","Indiana","Midwest","East North Central","18137","39.100226","-85.260494 ","4079","72","39","0","9/2/2021 12:00:00 AM","2019","28324","NYTIMES-USCENSUS"
"9/3/2021 12:00:00 AM","Jenkins County","Georgia","South","South Atlantic","13165","32.794563","-81.971524 ","1086","45","4","0","9/2/2021 12:00:00 AM","2019","8676","NYTIMES-USCENSUS"
"9/3/2021 12:00:00 AM","Stark County","Illinois","Midwest","East North Central","17175","41.096908","-89.797411 ","732","26","2","0","9/2/2021 12:00:00 AM","2019","5342","NYTIMES-USCENSUS"
"9/3/2021 12:00:00 AM","Swisher County","Texas","South","West South Central","48437","34.526319","-101.743865 ","991","20","13","1","9/2/2021 12:00:00 AM","2019","7397","NYTIMES-USCENSUS"
"9/3/2021 12:00:00 AM","Lake County","Indiana","Midwest","East North Central","18089","41.472247","-87.374337 ","60627","1105","187","1","9/2/2021 12:00:00 AM","2019","485493","NYTIMES-USCENSUS"
"9/3/2021 12:00:00 AM","Oswego County","New York","Northeast","Middle Atlantic","36075","43.461443","-76.209262 ","8646","97","64","0","9/2/2021 12:00:00 AM","2019","117124","NYTIMES-USCENSUS"
"9/3/2021 12:00:00 AM","Bryan County","Oklahoma","South","West South Central","40013","33.964004","-96.265135 ","7467","84","0","0","9/2/2021 12:00:00 AM","2019","47995","NYTIMES-USCENSUS"
"9/3/2021 12:00:00 AM","Denver County","Colorado","West","Mountain","08031","39.76185","-104.881105 ","81350","874","121","2","9/2/2021 12:00:00 AM","2019","727211","NYTIMES-USCENSUS"
"9/3/2021 12:00:00 AM","Clay County","Arkansas","South","West South Central","05021","36.367302","-90.418704 ","2323","52","25","0","9/2/2021 12:00:00 AM","2019","14551","NYTIMES-USCENSUS"
"9/3/2021 12:00:00 AM","Wheeler County","Georgia","South","South Atlantic","13309","32.105258","-82.733849 ","883","27","8","0","9/2/2021 12:00:00 AM","2019","7855","NYTIMES-USCENSUS"
"9/3/2021 12:00:00 AM","Winston County","Mississippi","South","East South Central","28159","33.078724","-89.037391 ","2874","89","26","0","9/2/2021 12:00:00 AM","2019","17955","NYTIMES-USCENSUS"
"9/3/2021 12:00:00 AM","Hardee County","Florida","South","South Atlantic","12049","27.492846","-81.82158 ","5252","45","358","0","9/2/2021 12:00:00 AM","2019","26937","NYTIMES-USCENSUS"
"9/3/2021 12:00:00 AM","Phillips County","Arkansas","South","West South Central","05107","34.423687","-90.855593 ","2788","59","24","0","9/2/2021 12:00:00 AM","2019","17782","NYTIMES-USCENSUS"
"9/3/2021 12:00:00 AM","Kossuth County","Iowa","Midwest","West North Central","19109","43.212356","-94.213965 ","2375","68","0","0","9/2/2021 12:00:00 AM","2019","14813","NYTIMES-USCENSUS"
"9/3/2021 12:00:00 AM","Mariposa County","California","West","Pacific","06043","37.574343","-119.911721 ","839","10","6","0","9/2/2021 12:00:00 AM","2019","17203","NYTIMES-USCENSUS"
"9/3/2021 12:00:00 AM","Morgan County","Kentucky","South","East South Central","21175","37.92294","-83.258944 ","2561","5","3","0","9/2/2021 12:00:00 AM","2019","13309","NYTIMES-USCENSUS"
"9/3/2021 12:00:00 AM","Baldwin County","Alabama","South","East South Central","01003","30.659218","-87.746067 ","33789","392","309","4","9/2/2021 12:00:00 AM","2019","223234","NYTIMES-USCENSUS"
"9/3/2021 12:00:00 AM","Nevada County","California","West","Pacific","06057","39.297508","-120.771343 ","7823","85","67","0","9/2/2021 12:00:00 AM","2019","99755","NYTIMES-USCENSUS"
"9/3/2021 12:00:00 AM","Braxton County","West Virginia","South","South Atlantic","54007","38.69933","-80.73166 ","1292","7","15","1","9/2/2021 12:00:00 AM","2019","13957","NYTIMES-USCENSUS"
"9/3/2021 12:00:00 AM","Miami County","Ohio","Midwest","East North Central","39109","40.053326","-84.228413 ","12433","237","74","0","9/2/2021 12:00:00 AM","2019","106987","NYTIMES-USCENSUS"
"9/3/2021 12:00:00 AM","Crawford County","Pennsylvania","Northeast","Middle Atlantic","42039","41.687876","-80.107795 ","8209","162","53","0","9/2/2021 12:00:00 AM","2019","84629","NYTIMES-USCENSUS"
"9/3/2021 12:00:00 AM","Modoc County","California","West","Pacific","06049","41.592918","-120.71837 ","627","8","0","0","9/2/2021 12:00:00 AM","2019","8841","NYTIMES-USCENSUS"
"9/3/2021 12:00:00 AM","Blount County","Alabama","South","East South Central","01009","33.977358","-86.56644 ","8763","146","64","1","9/2/2021 12:00:00 AM","2019","57826","NYTIMES-USCENSUS"
"9/3/2021 12:00:00 AM","Chemung County","New York","Northeast","Middle Atlantic","36015","42.148697","-76.752471 ","8354","140","29","0","9/2/2021 12:00:00 AM","2019","83456","NYTIMES-USCENSUS"
"9/3/2021 12:00:00 AM","Cuyahoga County","Ohio","Midwest","East North Central","39035","41.555037","-81.604957 ","125943","2298","354","7","9/2/2021 12:00:00 AM","2019","1235072","NYTIMES-USCENSUS"
"9/3/2021 12:00:00 AM","Hyde County","North Carolina","South","South Atlantic","37095","35.408157","-76.153687 ","743","9","5","0","9/2/2021 12:00:00 AM","2019","4937","NYTIMES-USCENSUS"
"9/3/2021 12:00:00 AM","Seward County","Nebraska","Midwest","West North Central","31159","40.871944","-97.140383 ","2055","34","0","0","9/2/2021 12:00:00 AM","2019","17284","NYTIMES-USCENSUS"
"9/3/2021 12:00:00 AM","St. Martin Parish","Louisiana","South","West South Central","22099","30.121433","-91.611481 ","7783","140","22","0","9/2/2021 12:00:00 AM","2019","53431","NYTIMES-USCENSUS"
"9/3/2021 12:00:00 AM","Pontotoc County","Mississippi","South","East South Central","28115","34.227081","-89.037239 ","5574","86","20","1","9/2/2021 12:00:00 AM","2019","32174","NYTIMES-USCENSUS"
"9/3/2021 12:00:00 AM","Butler County","Nebraska","Midwest","West North Central","31023","41.226072","-97.132039 ","864","12","0","0","9/2/2021 12:00:00 AM","2019","8016","NYTIMES-USCENSUS"
"9/3/2021 12:00:00 AM","Platte County","Missouri","Midwest","West North Central","29165","39.37869","-94.761477 ","5371","54","16","0","9/2/2021 12:00:00 AM","2019","104418","NYTIMES-USCENSUS"
"9/3/2021 12:00:00 AM","Emmet County","Michigan","Midwest","East North Central","26047","45.590094","-84.986822 ","2629","45","7","0","9/2/2021 12:00:00 AM","2019","33415","NYTIMES-USCENSUS"
"9/3/2021 12:00:00 AM","Vance County","North Carolina","South","South Atlantic","37181","36.365481","-78.405434 ","5568","92","26","0","9/2/2021 12:00:00 AM","2019","44535","NYTIMES-USCENSUS"
"9/3/2021 12:00:00 AM","Loudon County","Tennessee","South","East South Central","47105","35.735085","-84.314085 ","7429","77","57","0","9/2/2021 12:00:00 AM","2019","54068","NYTIMES-USCENSUS"
"9/3/2021 12:00:00 AM","Delta County","Michigan","Midwest","East North Central","26041","45.805229","-86.901938 ","4544","95","48","0","9/2/2021 12:00:00 AM","2019","35784","NYTIMES-USCENSUS"
"9/3/2021 12:00:00 AM","Stanislaus County","California","West","Pacific","06099","37.562316","-121.002831 ","76095","1168","360","9","9/2/2021 12:00:00 AM","2019","550660","NYTIMES-USCENSUS"
"9/3/2021 12:00:00 AM","Mercer County","Missouri","Midwest","West North Central","29129","40.421413","-93.567631 ","383","2","3","0","9/2/2021 12:00:00 AM","2019","3617","NYTIMES-USCENSUS"
"9/3/2021 12:00:00 AM","Hampton city","Virginia","South","South Atlantic","51650","37.047961","-76.297293 ","12773","192","78","1","9/2/2021 12:00:00 AM","2019","134510","NYTIMES-USCENSUS"
"9/3/2021 12:00:00 AM","San Benito County","California","West","Pacific","06069","36.611651","-121.085811 ","6873","64","18","0","9/2/2021 12:00:00 AM","2019","62808","NYTIMES-USCENSUS"
"9/3/2021 12:00:00 AM","Woodson County","Kansas","Midwest","West North Central","20207","37.888193","-95.758469 ","298","8","3","0","9/2/2021 12:00:00 AM","2019","3138","NYTIMES-USCENSUS"
"9/3/2021 12:00:00 AM","Wyoming County","West Virginia","South","South Atlantic","54109","37.60366","-81.549032 ","2556","41","29","0","9/2/2021 12:00:00 AM","2019","20394","NYTIMES-USCENSUS"
"9/3/2021 12:00:00 AM","Tioga County","New York","Northeast","Middle Atlantic","36107","42.178057","-76.297456 ","4133","65","14","0","9/2/2021 12:00:00 AM","2019","48203","NYTIMES-USCENSUS"
"9/3/2021 12:00:00 AM","Archer County","Texas","South","West South Central","48009","33.616305","-98.687267 ","974","13","6","0","9/2/2021 12:00:00 AM","2019","8553","NYTIMES-USCENSUS"
"9/3/2021 12:00:00 AM","Gasconade County","Missouri","Midwest","West North Central","29073","38.441183","-91.50578 ","1958","47","10","0","9/2/2021 12:00:00 AM","2019","14706","NYTIMES-USCENSUS"
"9/3/2021 12:00:00 AM","Haywood County","Tennessee","South","East South Central","47075","35.586678","-89.282691 ","3307","66","16","0","9/2/2021 12:00:00 AM","2019","17304","NYTIMES-USCENSUS"
"9/3/2021 12:00:00 AM","Harrison County","Iowa","Midwest","West North Central","19085","41.688584","-95.827149 ","1924","75","0","0","9/2/2021 12:00:00 AM","2019","14049","NYTIMES-USCENSUS"
"9/3/2021 12:00:00 AM","Stone County","Missouri","Midwest","West North Central","29209","36.745822","-93.457842 ","3633","62","14","0","9/2/2021 12:00:00 AM","2019","31952","NYTIMES-USCENSUS"
"9/3/2021 12:00:00 AM","Preble County","Ohio","Midwest","East North Central","39135","39.73881","-84.644758 ","4450","109","30","0","9/2/2021 12:00:00 AM","2019","40882","NYTIMES-USCENSUS"
"9/3/2021 12:00:00 AM","Raleigh County","West Virginia","South","South Atlantic","54081","37.762469","-81.264672 ","8432","111","104","0","9/2/2021 12:00:00 AM","2019","73361","NYTIMES-USCENSUS"
"9/3/2021 12:00:00 AM","El Dorado County","California","West","Pacific","06017","38.785612","-120.534225 ","14943","122","64","0","9/2/2021 12:00:00 AM","2019","192843","NYTIMES-USCENSUS"
"9/3/2021 12:00:00 AM","Caldwell County","Missouri","Midwest","West North Central","29025","39.658998","-93.979179 ","1052","18","3","0","9/2/2021 12:00:00 AM","2019","9020","NYTIMES-USCENSUS"
"9/3/2021 12:00:00 AM","Kitsap County","Washington","West","Pacific","53035","47.639595","-122.649634 ","12324","138","175","1","9/2/2021 12:00:00 AM","2019","271473","NYTIMES-USCENSUS"
"9/3/2021 12:00:00 AM","Shackelford County","Texas","South","West South Central","48417","32.74382","-99.347005 ","332","5","2","0","9/2/2021 12:00:00 AM","2019","3265","NYTIMES-USCENSUS"
"9/3/2021 12:00:00 AM","Morgan County","Missouri","Midwest","West North Central","29141","38.420806","-92.874835 ","2373","53","9","0","9/2/2021 12:00:00 AM","2019","20627","NYTIMES-USCENSUS"
"9/3/2021 12:00:00 AM","Greene County","Ohio","Midwest","East North Central","39057","39.687479","-83.894894 ","18329","263","127","4","9/2/2021 12:00:00 AM","2019","168937","NYTIMES-USCENSUS"
"9/3/2021 12:00:00 AM","Runnels County","Texas","South","West South Central","48399","31.845119","-99.982715 ","1519","47","14","0","9/2/2021 12:00:00 AM","2019","10264","NYTIMES-USCENSUS"
"9/3/2021 12:00:00 AM","Clermont County","Ohio","Midwest","East North Central","39025","39.052054","-84.149485 ","23127","270","152","1","9/2/2021 12:00:00 AM","2019","206428","NYTIMES-USCENSUS"
"9/3/2021 12:00:00 AM","Saline County","Arkansas","South","West South Central","05125","34.648525","-92.674463 ","17014","214","43","0","9/2/2021 12:00:00 AM","2019","122437","NYTIMES-USCENSUS"
"9/3/2021 12:00:00 AM","Grand Isle County","Vermont","Northeast","New England","50013","44.795742","-73.295082 ","269","2","2","0","9/2/2021 12:00:00 AM","2019","7235","NYTIMES-USCENSUS"
"9/3/2021 12:00:00 AM","San Augustine County","Texas","South","West South Central","48405","31.382449","-94.16318 ","735","32","10","0","9/2/2021 12:00:00 AM","2019","8237","NYTIMES-USCENSUS"
"9/3/2021 12:00:00 AM","Audrain County","Missouri","Midwest","West North Central","29007","39.214481","-91.843418 ","3439","60","4","0","9/2/2021 12:00:00 AM","2019","25388","NYTIMES-USCENSUS"
"9/3/2021 12:00:00 AM","Inyo County","California","West","Pacific","06027","36.56216","-117.404209 ","1589","39","20","0","9/2/2021 12:00:00 AM","2019","18039","NYTIMES-USCENSUS"
"9/3/2021 12:00:00 AM","Clay County","Texas","South","West South Central","48077","33.785904","-98.212917 ","1223","19","13","0","9/2/2021 12:00:00 AM","2019","10471","NYTIMES-USCENSUS"
"9/3/2021 12:00:00 AM","Adams County","Ohio","Midwest","East North Central","39001","38.834468","-83.478082 ","3034","61","29","0","9/2/2021 12:00:00 AM","2019","27698","NYTIMES-USCENSUS"
"9/3/2021 12:00:00 AM","Appomattox County","Virginia","South","South Atlantic","51011","37.370725","-78.81094 ","1911","28","17","0","9/2/2021 12:00:00 AM","2019","15911","NYTIMES-USCENSUS"
"9/3/2021 12:00:00 AM","Saline County","Nebraska","Midwest","West North Central","31151","40.516802","-97.131755 ","2037","3","0","0","9/2/2021 12:00:00 AM","2019","14224","NYTIMES-USCENSUS"
"9/3/2021 12:00:00 AM","Lincoln County","New Mexico","West","Mountain","35027","33.740841","-105.449805 ","2309","22","33","0","9/2/2021 12:00:00 AM","2019","19572","NYTIMES-USCENSUS"
"9/3/2021 12:00:00 AM","Adams County","Iowa","Midwest","West North Central","19003","41.021656","-94.696906 ","373","4","0","0","9/2/2021 12:00:00 AM","2019","3602","NYTIMES-USCENSUS"
"9/3/2021 12:00:00 AM","Dubuque County","Iowa","Midwest","West North Central","19061","42.463481","-90.878771 ","14164","217","0","0","9/2/2021 12:00:00 AM","2019","97311","NYTIMES-USCENSUS"
"9/3/2021 12:00:00 AM","Clay County","South Dakota","Midwest","West North Central","46027","42.91615","-96.980468 ","2006","15","7","0","9/2/2021 12:00:00 AM","2019","14070","NYTIMES-USCENSUS"
"9/3/2021 12:00:00 AM","Linn County","Missouri","Midwest","West North Central","29115","39.86444","-93.108019 ","1745","23","1","0","9/2/2021 12:00:00 AM","2019","11920","NYTIMES-USCENSUS"
"9/3/2021 12:00:00 AM","Wasatch County","Utah","West","Mountain","49051","40.334884","-111.161568 ","5333","25","23","1","9/2/2021 12:00:00 AM","2019","34091","NYTIMES-USCENSUS"
"9/3/2021 12:00:00 AM","Collier County","Florida","South","South Atlantic","12021","26.118786","-81.400955 ","50730","551","2156","0","9/2/2021 12:00:00 AM","2019","384902","NYTIMES-USCENSUS"
"9/3/2021 12:00:00 AM","Halifax County","North Carolina","South","South Atlantic","37083","36.251438","-77.644842 ","6667","121","38","0","9/2/2021 12:00:00 AM","2019","50010","NYTIMES-USCENSUS"
"9/3/2021 12:00:00 AM","Douglas County","Minnesota","Midwest","West North Central","27041","45.936835","-95.462155 ","5131","83","16","0","9/2/2021 12:00:00 AM","2019","38141","NYTIMES-USCENSUS"
"9/3/2021 12:00:00 AM","Crittenden County","Arkansas","South","West South Central","05035","35.197559","-90.30512 ","7703","110","36","0","9/2/2021 12:00:00 AM","2019","47955","NYTIMES-USCENSUS"
"9/3/2021 12:00:00 AM","East Baton Rouge Parish","Louisiana","South","West South Central","22033","30.54393","-91.093131 ","59594","1038","136","2","9/2/2021 12:00:00 AM","2019","440059","NYTIMES-USCENSUS"
"9/3/2021 12:00:00 AM","Glascock County","Georgia","South","South Atlantic","13125","33.227491","-82.606913 ","362","19","2","0","9/2/2021 12:00:00 AM","2019","2971","NYTIMES-USCENSUS"
"9/3/2021 12:00:00 AM","Scott County","Kentucky","South","East South Central","21209","38.28571","-84.57834 ","6503","37","42","0","9/2/2021 12:00:00 AM","2019","57004","NYTIMES-USCENSUS"
"9/3/2021 12:00:00 AM","Jackson County","Florida","South","South Atlantic","12063","30.789249","-85.208814 ","9112","158","351","0","9/2/2021 12:00:00 AM","2019","46414","NYTIMES-USCENSUS"
"9/3/2021 12:00:00 AM","Kandiyohi County","Minnesota","Midwest","West North Central","27067","45.152714","-95.004981 ","7228","88","18","0","9/2/2021 12:00:00 AM","2019","43199","NYTIMES-USCENSUS"
"9/3/2021 12:00:00 AM","Antelope County","Nebraska","Midwest","West North Central","31003","42.183225","-98.058037 ","622","8","0","0","9/2/2021 12:00:00 AM","2019","6298","NYTIMES-USCENSUS"
"9/3/2021 12:00:00 AM","Barry County","Michigan","Midwest","East North Central","26015","42.582811","-85.31455 ","6437","74","56","0","9/2/2021 12:00:00 AM","2019","61550","NYTIMES-USCENSUS"
"9/3/2021 12:00:00 AM","Clay County","Tennessee","South","East South Central","47027","36.545749","-85.545717 ","1240","31","10","0","9/2/2021 12:00:00 AM","2019","7615","NYTIMES-USCENSUS"
"9/3/2021 12:00:00 AM","Walton County","Florida","South","South Atlantic","12131","30.571247","-86.162798 ","10722","89","561","0","9/2/2021 12:00:00 AM","2019","74071","NYTIMES-USCENSUS"
"9/3/2021 12:00:00 AM","Calhoun County","Illinois","Midwest","East North Central","17013","39.164262","-90.666295 ","608","5","1","0","9/2/2021 12:00:00 AM","2019","4739","NYTIMES-USCENSUS"
"9/3/2021 12:00:00 AM","Mountrail County","North Dakota","Midwest","West North Central","38061","48.210073","-102.364895 ","1554","19","2","0","9/2/2021 12:00:00 AM","2019","10545","NYTIMES-USCENSUS"
"9/3/2021 12:00:00 AM","Rusk County","Wisconsin","Midwest","East North Central","55107","45.472734","-91.136745 ","1592","26","8","0","9/2/2021 12:00:00 AM","2019","14178","NYTIMES-USCENSUS"
"9/3/2021 12:00:00 AM","Woodward County","Oklahoma","South","West South Central","40153","36.425619","-99.273661 ","3321","38","0","0","9/2/2021 12:00:00 AM","2019","20211","NYTIMES-USCENSUS"
"9/3/2021 12:00:00 AM","Weber County","Utah","West","Mountain","49057","41.270325","-111.876883 ","35294","245","0","0","9/2/2021 12:00:00 AM","2019","260213","NYTIMES-USCENSUS"
"9/3/2021 12:00:00 AM","Armstrong County","Pennsylvania","Northeast","Middle Atlantic","42005","40.81238","-79.464129 ","6456","151","22","0","9/2/2021 12:00:00 AM","2019","64735","NYTIMES-USCENSUS"
"9/3/2021 12:00:00 AM","Live Oak County","Texas","South","West South Central","48297","28.351535","-98.126961 ","1459","26","0","1","9/2/2021 12:00:00 AM","2019","12207","NYTIMES-USCENSUS"
"9/3/2021 12:00:00 AM","Deschutes County","Oregon","West","Pacific","41017","43.915118","-121.225575 ","14557","92","155","0","9/2/2021 12:00:00 AM","2019","197692","NYTIMES-USCENSUS"
"9/3/2021 12:00:00 AM","Polk County","Georgia","South","South Atlantic","13233","33.996015","-85.188338 ","7273","106","100","0","9/2/2021 12:00:00 AM","2019","42613","NYTIMES-USCENSUS"
"9/3/2021 12:00:00 AM","Avery County","North Carolina","South","South Atlantic","37011","36.07209","-81.920285 ","2347","22","4","0","9/2/2021 12:00:00 AM","2019","17557","NYTIMES-USCENSUS"
"9/3/2021 12:00:00 AM","Boundary County","Idaho","West","Mountain","16021","48.773131","-116.524668 ","1043","14","8","0","9/2/2021 12:00:00 AM","2019","12245","NYTIMES-USCENSUS"
"9/3/2021 12:00:00 AM","Columbia County","Florida","South","South Atlantic","12023","30.221651","-82.623371 ","13597","170","604","0","9/2/2021 12:00:00 AM","2019","71686","NYTIMES-USCENSUS"
"9/3/2021 12:00:00 AM","Kiowa County","Oklahoma","South","West South Central","40075","34.921489","-98.981617 ","948","28","0","0","9/2/2021 12:00:00 AM","2019","8708","NYTIMES-USCENSUS"
"9/3/2021 12:00:00 AM","Hood County","Texas","South","West South Central","48221","32.430149","-97.831677 ","8282","154","99","0","9/2/2021 12:00:00 AM","2019","61643","NYTIMES-USCENSUS"
"9/3/2021 12:00:00 AM","Lake County","Minnesota","Midwest","West North Central","27075","47.517111","-91.411704 ","886","21","0","0","9/2/2021 12:00:00 AM","2019","10641","NYTIMES-USCENSUS"
"9/3/2021 12:00:00 AM","Crawford County","Ohio","Midwest","East North Central","39033","40.848524","-82.924783 ","4751","112","34","0","9/2/2021 12:00:00 AM","2019","41494","NYTIMES-USCENSUS"
"9/3/2021 12:00:00 AM","Cherokee County","Oklahoma","South","West South Central","40021","35.904367","-94.996796 ","7545","85","0","0","9/2/2021 12:00:00 AM","2019","48657","NYTIMES-USCENSUS"
"9/3/2021 12:00:00 AM","Colquitt County","Georgia","South","South Atlantic","13071","31.189707","-83.769773 ","6726","135","55","0","9/2/2021 12:00:00 AM","2019","45600","NYTIMES-USCENSUS"
"9/3/2021 12:00:00 AM","Carroll County","Missouri","Midwest","West North Central","29033","39.427375","-93.500227 ","1273","25","9","0","9/2/2021 12:00:00 AM","2019","8679","NYTIMES-USCENSUS"
"9/3/2021 12:00:00 AM","Menominee County","Wisconsin","Midwest","East North Central","55078","44.991304","-88.669251 ","855","11","1","0","9/2/2021 12:00:00 AM","2019","4556","NYTIMES-USCENSUS"
"9/3/2021 12:00:00 AM","Osceola County","Iowa","Midwest","West North Central","19143","43.378542","-95.633788 ","822","17","0","0","9/2/2021 12:00:00 AM","2019","5958","NYTIMES-USCENSUS"
"9/3/2021 12:00:00 AM","Berrien County","Michigan","Midwest","East North Central","26021","41.791382","-86.742543 ","16698","306","67","1","9/2/2021 12:00:00 AM","2019","153401","NYTIMES-USCENSUS"
"9/3/2021 12:00:00 AM","El Paso County","Texas","South","West South Central","48141","31.76648","-106.241423 ","142348","2788","142","1","9/2/2021 12:00:00 AM","2019","839238","NYTIMES-USCENSUS"
"9/3/2021 12:00:00 AM","Adams County","Wisconsin","Midwest","East North Central","55001","43.973757","-89.767228 ","2220","21","6","0","9/2/2021 12:00:00 AM","2019","20220","NYTIMES-USCENSUS"
"9/3/2021 12:00:00 AM","Lincoln County","Montana","West","Mountain","30053","48.552385","-115.463185 ","2106","32","36","0","9/2/2021 12:00:00 AM","2019","19980","NYTIMES-USCENSUS"
"9/3/2021 12:00:00 AM","Russell County","Kentucky","South","East South Central","21207","36.990587","-85.05495 ","2664","50","72","1","9/2/2021 12:00:00 AM","2019","17923","NYTIMES-USCENSUS"
"9/3/2021 12:00:00 AM","Dickinson County","Iowa","Midwest","West North Central","19059","43.389611","-95.196057 ","2605","46","0","0","9/2/2021 12:00:00 AM","2019","17258","NYTIMES-USCENSUS"
"9/3/2021 12:00:00 AM","Harrison County","West Virginia","South","South Atlantic","54033","39.279182","-80.386498 ","7300","85","55","2","9/2/2021 12:00:00 AM","2019","67256","NYTIMES-USCENSUS"
"9/3/2021 12:00:00 AM","Colfax County","New Mexico","West","Mountain","35007","36.612964","-104.64011 ","1129","47","17","0","9/2/2021 12:00:00 AM","2019","11941","NYTIMES-USCENSUS"
"9/3/2021 12:00:00 AM","Hughes County","Oklahoma","South","West South Central","40063","35.052934","-96.251183 ","1464","30","0","0","9/2/2021 12:00:00 AM","2019","13279","NYTIMES-USCENSUS"
"9/3/2021 12:00:00 AM","Floyd County","Texas","South","West South Central","48153","34.07373","-101.303274 ","1023","30","0","0","9/2/2021 12:00:00 AM","2019","5712","NYTIMES-USCENSUS"
"9/3/2021 12:00:00 AM","Marquette County","Michigan","Midwest","East North Central","26103","46.656596","-87.584028 ","6229","67","46","0","9/2/2021 12:00:00 AM","2019","66699","NYTIMES-USCENSUS"
"9/3/2021 12:00:00 AM","Lawrence County","Illinois","Midwest","East North Central","17101","38.718954","-87.730221 ","2772","38","18","0","9/2/2021 12:00:00 AM","2019","15678","NYTIMES-USCENSUS"
"9/3/2021 12:00:00 AM","Pulaski County","Georgia","South","South Atlantic","13235","32.238803","-83.481845 ","1325","51","34","0","9/2/2021 12:00:00 AM","2019","11137","NYTIMES-USCENSUS"
"9/3/2021 12:00:00 AM","Liberty County","Georgia","South","South Atlantic","13179","31.807458","-81.457871 ","6491","76","96","0","9/2/2021 12:00:00 AM","2019","61435","NYTIMES-USCENSUS"
"9/3/2021 12:00:00 AM","Moffat County","Colorado","West","Mountain","08081","40.610864","-108.217154 ","1307","30","5","0","9/2/2021 12:00:00 AM","2019","13283","NYTIMES-USCENSUS"
"9/3/2021 12:00:00 AM","Clinton County","Illinois","Midwest","East North Central","17027","38.606295","-89.426228 ","6580","103","35","0","9/2/2021 12:00:00 AM","2019","37562","NYTIMES-USCENSUS"
"9/3/2021 12:00:00 AM","Tensas Parish","Louisiana","South","West South Central","22107","32.001489","-91.342576 ","458","8","4","0","9/2/2021 12:00:00 AM","2019","4334","NYTIMES-USCENSUS"
"9/3/2021 12:00:00 AM","Hughes County","South Dakota","Midwest","West North Central","46065","44.384452","-99.975684 ","2643","43","4","0","9/2/2021 12:00:00 AM","2019","17526","NYTIMES-USCENSUS"
"9/3/2021 12:00:00 AM","Lawrence County","Ohio","Midwest","East North Central","39087","38.603866","-82.517186 ","7246","111","69","0","9/2/2021 12:00:00 AM","2019","59463","NYTIMES-USCENSUS"
"9/3/2021 12:00:00 AM","Wright County","Missouri","Midwest","West North Central","29229","37.267633","-92.479989 ","2355","43","11","0","9/2/2021 12:00:00 AM","2019","18289","NYTIMES-USCENSUS"
"9/3/2021 12:00:00 AM","Clay County","Mississippi","South","East South Central","28025","33.65967","-88.782468 ","2716","65","15","1","9/2/2021 12:00:00 AM","2019","19316","NYTIMES-USCENSUS"
"9/3/2021 12:00:00 AM","Screven County","Georgia","South","South Atlantic","13251","32.744751","-81.617585 ","1615","36","19","0","9/2/2021 12:00:00 AM","2019","13966","NYTIMES-USCENSUS"
"9/3/2021 12:00:00 AM","Bonner County","Idaho","West","Mountain","16017","48.316796","-116.612362 ","4025","49","51","0","9/2/2021 12:00:00 AM","2019","45739","NYTIMES-USCENSUS"
"9/3/2021 12:00:00 AM","Jackson County","Oklahoma","South","West South Central","40065","34.594006","-99.412235 ","3416","57","0","0","9/2/2021 12:00:00 AM","2019","24530","NYTIMES-USCENSUS"
"9/3/2021 12:00:00 AM","Worcester County","Massachusetts","Northeast","New England","25027","42.311693","-71.940282 ","83231","2293","245","3","9/2/2021 12:00:00 AM","2019","830622","NYTIMES-USCENSUS"
"9/3/2021 12:00:00 AM","Clare County","Michigan","Midwest","East North Central","26035","43.991137","-84.838325 ","2707","89","16","1","9/2/2021 12:00:00 AM","2019","30950","NYTIMES-USCENSUS"
"9/3/2021 12:00:00 AM","Holmes County","Mississippi","South","East South Central","28051","33.125942","-90.091197 ","2456","81","9","0","9/2/2021 12:00:00 AM","2019","17010","NYTIMES-USCENSUS"
"9/3/2021 12:00:00 AM","Brown County","Minnesota","Midwest","West North Central","27015","44.246541","-94.733647 ","3320","42","10","0","9/2/2021 12:00:00 AM","2019","25008","NYTIMES-USCENSUS"
"9/3/2021 12:00:00 AM","Clark County","Nevada","West","Mountain","32003","36.21413","-115.014398 ","306149","5265","748","10","9/2/2021 12:00:00 AM","2019","2266715","NYTIMES-USCENSUS"
"9/3/2021 12:00:00 AM","DeWitt County","Texas","South","West South Central","48123","29.082346","-97.361654 ","2596","65","0","0","9/2/2021 12:00:00 AM","2019","20160","NYTIMES-USCENSUS"
"9/3/2021 12:00:00 AM","Bradford County","Florida","South","South Atlantic","12007","29.952386","-82.166698 ","4882","58","218","0","9/2/2021 12:00:00 AM","2019","28201","NYTIMES-USCENSUS"
"9/3/2021 12:00:00 AM","Vernon Parish","Louisiana","South","West South Central","22115","31.102841","-93.18833 ","5070","134","94","0","9/2/2021 12:00:00 AM","2019","47429","NYTIMES-USCENSUS"
"9/3/2021 12:00:00 AM","Montrose County","Colorado","West","Mountain","08085","38.407507","-108.266282 ","4323","74","27","0","9/2/2021 12:00:00 AM","2019","42758","NYTIMES-USCENSUS"
"9/3/2021 12:00:00 AM","Ottawa County","Ohio","Midwest","East North Central","39123","41.545495","-83.012613 ","4039","83","12","0","9/2/2021 12:00:00 AM","2019","40525","NYTIMES-USCENSUS"
"9/3/2021 12:00:00 AM","Tippecanoe County","Indiana","Midwest","East North Central","18157","40.389133","-86.893554 ","25706","240","89","0","9/2/2021 12:00:00 AM","2019","195732","NYTIMES-USCENSUS"
"9/3/2021 12:00:00 AM","Dickson County","Tennessee","South","East South Central","47043","36.145533","-87.364155 ","8543","136","53","0","9/2/2021 12:00:00 AM","2019","53948","NYTIMES-USCENSUS"
"9/3/2021 12:00:00 AM","Clay County","Missouri","Midwest","West North Central","29047","39.315551","-94.421502 ","13034","186","59","0","9/2/2021 12:00:00 AM","2019","249948","NYTIMES-USCENSUS"
"9/3/2021 12:00:00 AM","Brown County","Ohio","Midwest","East North Central","39015","38.931377","-83.866772 ","4757","65","31","0","9/2/2021 12:00:00 AM","2019","43432","NYTIMES-USCENSUS"
"9/3/2021 12:00:00 AM","Bryan County","Georgia","South","South Atlantic","13029","32.017969","-81.438543 ","5657","44","72","1","9/2/2021 12:00:00 AM","2019","39627","NYTIMES-USCENSUS"
"9/3/2021 12:00:00 AM","Posey County","Indiana","Midwest","East North Central","18129","38.027614","-87.868653 ","3355","38","21","0","9/2/2021 12:00:00 AM","2019","25427","NYTIMES-USCENSUS"
"9/3/2021 12:00:00 AM","Worth County","Iowa","Midwest","West North Central","19195","43.373491","-93.248533 ","893","8","0","0","9/2/2021 12:00:00 AM","2019","7381","NYTIMES-USCENSUS"
"9/3/2021 12:00:00 AM","Placer County","California","West","Pacific","06061","39.062032","-120.722718 ","33831","336","165","5","9/2/2021 12:00:00 AM","2019","398329","NYTIMES-USCENSUS"
"9/3/2021 12:00:00 AM","Fayette County","West Virginia","South","South Atlantic","54019","38.030933","-81.086051 ","4303","92","28","-1","9/2/2021 12:00:00 AM","2019","42406","NYTIMES-USCENSUS"
"9/3/2021 12:00:00 AM","Menifee County","Kentucky","South","East South Central","21165","37.935485","-83.589355 ","678","17","6","0","9/2/2021 12:00:00 AM","2019","6489","NYTIMES-USCENSUS"
"9/3/2021 12:00:00 AM","Buchanan County","Virginia","South","South Atlantic","51027","37.26812","-82.038151 ","1872","47","11","0","9/2/2021 12:00:00 AM","2019","21004","NYTIMES-USCENSUS"
"9/3/2021 12:00:00 AM","Sequoyah County","Oklahoma","South","West South Central","40135","35.502435","-94.750757 ","5702","64","0","0","9/2/2021 12:00:00 AM","2019","41569","NYTIMES-USCENSUS"
"9/3/2021 12:00:00 AM","Ballard County","Kentucky","South","East South Central","21007","37.051323","-89.010367 ","542","12","3","0","9/2/2021 12:00:00 AM","2019","7888","NYTIMES-USCENSUS"
"9/3/2021 12:00:00 AM","Niagara County","New York","Northeast","Middle Atlantic","36063","43.272672","-78.812943 ","21175","379","48","0","9/2/2021 12:00:00 AM","2019","209281","NYTIMES-USCENSUS"
"9/3/2021 12:00:00 AM","Cleveland County","North Carolina","South","South Atlantic","37045","35.33463","-81.557114 ","14715","251","129","2","9/2/2021 12:00:00 AM","2019","97947","NYTIMES-USCENSUS"
"9/3/2021 12:00:00 AM","Union County","Oregon","West","Pacific","41061","45.304081","-117.999149 ","2379","34","15","0","9/2/2021 12:00:00 AM","2019","26835","NYTIMES-USCENSUS"
"9/3/2021 12:00:00 AM","Portage County","Ohio","Midwest","East North Central","39133","41.16897","-81.196962 ","14683","220","53","1","9/2/2021 12:00:00 AM","2019","162466","NYTIMES-USCENSUS"
"9/3/2021 12:00:00 AM","Lincoln County","West Virginia","South","South Atlantic","54043","38.17177","-82.077623 ","1902","28","6","1","9/2/2021 12:00:00 AM","2019","20409","NYTIMES-USCENSUS"
"9/3/2021 12:00:00 AM","Manistee County","Michigan","Midwest","East North Central","26101","44.245268","-86.327537 ","2147","28","14","0","9/2/2021 12:00:00 AM","2019","24558","NYTIMES-USCENSUS"
"9/3/2021 12:00:00 AM","Howard County","Arkansas","South","West South Central","05061","34.083064","-93.990931 ","2161","28","14","0","9/2/2021 12:00:00 AM","2019","13202","NYTIMES-USCENSUS"
"9/3/2021 12:00:00 AM","Luna County","New Mexico","West","Mountain","35029","32.184523","-107.747191 ","3644","92","4","0","9/2/2021 12:00:00 AM","2019","23709","NYTIMES-USCENSUS"
"9/3/2021 12:00:00 AM","Pasquotank County","North Carolina","South","South Atlantic","37139","36.265199","-76.260691 ","4006","91","27","1","9/2/2021 12:00:00 AM","2019","39824","NYTIMES-USCENSUS"
"9/3/2021 12:00:00 AM","Blair County","Pennsylvania","Northeast","Middle Atlantic","42013","40.498683","-78.309597 ","14170","346","44","0","9/2/2021 12:00:00 AM","2019","121829","NYTIMES-USCENSUS"
"9/3/2021 12:00:00 AM","Bradford County","Pennsylvania","Northeast","Middle Atlantic","42015","41.791504","-76.502123 ","6372","100","15","0","9/2/2021 12:00:00 AM","2019","60323","NYTIMES-USCENSUS"
"9/3/2021 12:00:00 AM","Lyman County","South Dakota","Midwest","West North Central","46085","43.894812","-99.841925 ","682","11","2","0","9/2/2021 12:00:00 AM","2019","3781","NYTIMES-USCENSUS"
"9/3/2021 12:00:00 AM","Irwin County","Georgia","South","South Atlantic","13155","31.604306","-83.277037 ","1344","31","11","0","9/2/2021 12:00:00 AM","2019","9416","NYTIMES-USCENSUS"
"9/3/2021 12:00:00 AM","Cherokee County","Iowa","Midwest","West North Central","19035","42.742737","-95.633262 ","1714","39","0","0","9/2/2021 12:00:00 AM","2019","11235","NYTIMES-USCENSUS"
"9/3/2021 12:00:00 AM","Durham County","North Carolina","South","South Atlantic","37063","36.033828","-78.878125 ","30506","244","0","0","9/2/2021 12:00:00 AM","2019","321488","NYTIMES-USCENSUS"
"9/3/2021 12:00:00 AM","Pulaski County","Missouri","Midwest","West North Central","29169","37.824835","-92.207022 ","4656","65","15","0","9/2/2021 12:00:00 AM","2019","52607","NYTIMES-USCENSUS"
"9/3/2021 12:00:00 AM","Pearl River County","Mississippi","South","East South Central","28109","30.774793","-89.586904 ","8090","185","63","0","9/2/2021 12:00:00 AM","2019","55535","NYTIMES-USCENSUS"
"9/3/2021 12:00:00 AM","Colonial Heights city","Virginia","South","South Atlantic","51570","37.261685","-77.396804 ","2103","62","16","0","9/2/2021 12:00:00 AM","2019","17370","NYTIMES-USCENSUS"
"9/3/2021 12:00:00 AM","Haskell County","Kansas","Midwest","West North Central","20081","37.554979","-100.879952 ","479","8","1","0","9/2/2021 12:00:00 AM","2019","3968","NYTIMES-USCENSUS"
"9/3/2021 12:00:00 AM","Outagamie County","Wisconsin","Midwest","East North Central","55087","44.418226","-88.464988 ","25823","253","75","0","9/2/2021 12:00:00 AM","2019","187885","NYTIMES-USCENSUS"
"9/3/2021 12:00:00 AM","Ouachita Parish","Louisiana","South","West South Central","22073","32.480932","-92.151581 ","27646","514","177","4","9/2/2021 12:00:00 AM","2019","153279","NYTIMES-USCENSUS"
"9/3/2021 12:00:00 AM","Whitfield County","Georgia","South","South Atlantic","13313","34.801726","-84.968541 ","20160","267","146","0","9/2/2021 12:00:00 AM","2019","104628","NYTIMES-USCENSUS"
"9/3/2021 12:00:00 AM","Baxter County","Arkansas","South","West South Central","05005","36.280268","-92.329949 ","5449","154","8","0","9/2/2021 12:00:00 AM","2019","41932","NYTIMES-USCENSUS"
"9/3/2021 12:00:00 AM","Rutherford County","Tennessee","South","East South Central","47149","35.843369","-86.417213 ","52410","475","224","1","9/2/2021 12:00:00 AM","2019","332285","NYTIMES-USCENSUS"
"9/3/2021 12:00:00 AM","Sabine Parish","Louisiana","South","West South Central","22085","31.560402","-93.559579 ","3995","67","59","0","9/2/2021 12:00:00 AM","2019","23884","NYTIMES-USCENSUS"
"9/3/2021 12:00:00 AM","Miami County","Indiana","Midwest","East North Central","18103","40.772883","-86.044258 ","4878","78","32","0","9/2/2021 12:00:00 AM","2019","35516","NYTIMES-USCENSUS"
"9/3/2021 12:00:00 AM","Camp County","Texas","South","West South Central","48063","32.974581","-94.979085 ","1771","49","35","0","9/2/2021 12:00:00 AM","2019","13094","NYTIMES-USCENSUS"
"9/3/2021 12:00:00 AM","Pemiscot County","Missouri","Midwest","West North Central","29155","36.209916","-89.785942 ","1859","39","4","0","9/2/2021 12:00:00 AM","2019","15805","NYTIMES-USCENSUS"
"9/3/2021 12:00:00 AM","Chattooga County","Georgia","South","South Atlantic","13055","34.474178","-85.345289 ","3734","77","50","0","9/2/2021 12:00:00 AM","2019","24789","NYTIMES-USCENSUS"
"9/3/2021 12:00:00 AM","Oliver County","North Dakota","Midwest","West North Central","38065","47.118079","-101.33142 ","164","3","0","0","9/2/2021 12:00:00 AM","2019","1959","NYTIMES-USCENSUS"
"9/3/2021 12:00:00 AM","Clark County","Missouri","Midwest","West North Central","29045","40.407275","-91.729472 ","898","12","7","0","9/2/2021 12:00:00 AM","2019","6797","NYTIMES-USCENSUS"
"9/3/2021 12:00:00 AM","Abbeville County","South Carolina","South","South Atlantic","45001","34.229041","-82.454058 ","3068","42","27","0","9/2/2021 12:00:00 AM","2019","24527","NYTIMES-USCENSUS"
"9/3/2021 12:00:00 AM","Sierra County","New Mexico","West","Mountain","35051","33.119468","-107.188161 ","868","52","3","0","9/2/2021 12:00:00 AM","2019","10791","NYTIMES-USCENSUS"
"9/3/2021 12:00:00 AM","Marshall County","Tennessee","South","East South Central","47117","35.468343","-86.765865 ","5697","68","42","0","9/2/2021 12:00:00 AM","2019","34375","NYTIMES-USCENSUS"
"9/3/2021 12:00:00 AM","Paulding County","Georgia","South","South Atlantic","13223","33.92103","-84.867169 ","21901","256","251","1","9/2/2021 12:00:00 AM","2019","168667","NYTIMES-USCENSUS"
"9/3/2021 12:00:00 AM","Richland County","South Carolina","South","South Atlantic","45079","34.029095","-80.898037 ","59188","638","338","1","9/2/2021 12:00:00 AM","2019","415759","NYTIMES-USCENSUS"
"9/3/2021 12:00:00 AM","Adams County","Illinois","Midwest","East North Central","17001","39.986052","-91.194961 ","11914","170","103","0","9/2/2021 12:00:00 AM","2019","65435","NYTIMES-USCENSUS"
"9/3/2021 12:00:00 AM","Douglas County","South Dakota","Midwest","West North Central","46043","43.391506","-98.358433 ","478","9","-1","0","9/2/2021 12:00:00 AM","2019","2921","NYTIMES-USCENSUS"
"9/3/2021 12:00:00 AM","New Haven County","Connecticut","Northeast","New England","09009","41.349718","-72.900203 ","99203","2167","144","0","9/2/2021 12:00:00 AM","2019","854757","NYTIMES-USCENSUS"
"9/3/2021 12:00:00 AM","Jasper County","Illinois","Midwest","East North Central","17079","39.004886","-88.150725 ","1374","20","15","0","9/2/2021 12:00:00 AM","2019","9610","NYTIMES-USCENSUS"
"9/3/2021 12:00:00 AM","Glades County","Florida","South","South Atlantic","12043","26.95481","-81.19082 ","1273","19","55","0","9/2/2021 12:00:00 AM","2019","13811","NYTIMES-USCENSUS"
"9/3/2021 12:00:00 AM","Madison County","Virginia","South","South Atlantic","51113","38.412059","-78.276961 ","729","17","16","0","9/2/2021 12:00:00 AM","2019","13261","NYTIMES-USCENSUS"
"9/3/2021 12:00:00 AM","Wyandotte County","Kansas","Midwest","West North Central","20209","39.115384","-94.763087 ","25627","335","190","0","9/2/2021 12:00:00 AM","2019","165429","NYTIMES-USCENSUS"
"9/3/2021 12:00:00 AM","Nelson County","Virginia","South","South Atlantic","51125","37.789079","-78.88344 ","1063","13","6","0","9/2/2021 12:00:00 AM","2019","14930","NYTIMES-USCENSUS"
"9/3/2021 12:00:00 AM","Miner County","South Dakota","Midwest","West North Central","46097","44.021541","-97.608122 ","316","10","1","0","9/2/2021 12:00:00 AM","2019","2216","NYTIMES-USCENSUS"
"9/3/2021 12:00:00 AM","Monroe County","West Virginia","South","South Atlantic","54063","37.554062","-80.550329 ","1569","19","13","-1","9/2/2021 12:00:00 AM","2019","13275","NYTIMES-USCENSUS"
"9/3/2021 12:00:00 AM","Lee County","Alabama","South","East South Central","01081","32.604064","-85.353048 ","20486","195","125","2","9/2/2021 12:00:00 AM","2019","164542","NYTIMES-USCENSUS"
"9/3/2021 12:00:00 AM","White County","Arkansas","South","West South Central","05145","35.255118","-91.753034 ","11915","163","66","0","9/2/2021 12:00:00 AM","2019","78753","NYTIMES-USCENSUS"
"9/3/2021 12:00:00 AM","Nicollet County","Minnesota","Midwest","West North Central","27103","44.35882","-94.245684 ","3571","47","14","0","9/2/2021 12:00:00 AM","2019","34274","NYTIMES-USCENSUS"
"9/3/2021 12:00:00 AM","Huntingdon County","Pennsylvania","Northeast","Middle Atlantic","42061","40.422311","-77.968595 ","5523","139","21","2","9/2/2021 12:00:00 AM","2019","45144","NYTIMES-USCENSUS"
"9/3/2021 12:00:00 AM","Montour County","Pennsylvania","Northeast","Middle Atlantic","42093","41.029284","-76.665225 ","2100","67","4","0","9/2/2021 12:00:00 AM","2019","18230","NYTIMES-USCENSUS"
"9/3/2021 12:00:00 AM","Clearwater County","Minnesota","Midwest","West North Central","27029","47.575873","-95.371117 ","965","18","3","0","9/2/2021 12:00:00 AM","2019","8818","NYTIMES-USCENSUS"
"9/3/2021 12:00:00 AM","Clay County","Kentucky","South","East South Central","21051","37.164273","-83.715473 ","4321","48","35","0","9/2/2021 12:00:00 AM","2019","19901","NYTIMES-USCENSUS"
"9/3/2021 12:00:00 AM","Arkansas County","Arkansas","South","West South Central","05001","34.28957","-91.376547 ","3161","54","21","1","9/2/2021 12:00:00 AM","2019","17486","NYTIMES-USCENSUS"
"9/3/2021 12:00:00 AM","Audubon County","Iowa","Midwest","West North Central","19009","41.679178","-94.904312 ","566","14","0","0","9/2/2021 12:00:00 AM","2019","5496","NYTIMES-USCENSUS"
"9/3/2021 12:00:00 AM","Gilmer County","West Virginia","South","South Atlantic","54021","38.915867","-80.849413 ","1019","7","11","0","9/2/2021 12:00:00 AM","2019","7823","NYTIMES-USCENSUS"
"9/3/2021 12:00:00 AM","Imperial County","California","West","Pacific","06025","33.040814","-115.3554 ","33476","750","56","1","9/2/2021 12:00:00 AM","2019","181215","NYTIMES-USCENSUS"
"9/3/2021 12:00:00 AM","Reynolds County","Missouri","Midwest","West North Central","29179","37.366464","-90.972282 ","678","4","33","0","9/2/2021 12:00:00 AM","2019","6270","NYTIMES-USCENSUS"
"9/3/2021 12:00:00 AM","Nodaway County","Missouri","Midwest","West North Central","29147","40.361136","-94.883146 ","3135","31","20","0","9/2/2021 12:00:00 AM","2019","22092","NYTIMES-USCENSUS"
"9/3/2021 12:00:00 AM","Lenawee County","Michigan","Midwest","East North Central","26091","41.896022","-84.074356 ","11711","183","83","0","9/2/2021 12:00:00 AM","2019","98451","NYTIMES-USCENSUS"
"9/3/2021 12:00:00 AM","Lawrence County","Kentucky","South","East South Central","21127","38.074453","-82.73829 ","1952","31","34","0","9/2/2021 12:00:00 AM","2019","15317","NYTIMES-USCENSUS"
