"monitor_date","county","state_name","region","subregion","fips","latitude","longitude","case_count_to_date","death_count_to_date","case_count","death_count","previous_monitor_date","population_year","population","source"
"9/11/2021 12:00:00 AM","Stevens County","Kansas","Midwest","West North Central","20189","37.2017","-101.317268 ","684","11","0","0","9/10/2021 12:00:00 AM","2019","5485","NYTIMES-USCENSUS"
"9/11/2021 12:00:00 AM","Hampden County","Massachusetts","Northeast","New England","25013","42.136198","-72.635648 ","58880","1573","0","0","9/10/2021 12:00:00 AM","2019","466372","NYTIMES-USCENSUS"
"9/11/2021 12:00:00 AM","Box Butte County","Nebraska","Midwest","West North Central","31013","42.21038","-103.081779 ","982","11","0","0","9/10/2021 12:00:00 AM","2019","10783","NYTIMES-USCENSUS"
"9/11/2021 12:00:00 AM","Grant County","Oklahoma","South","West South Central","40053","36.788254","-97.788151 ","647","7","0","0","9/10/2021 12:00:00 AM","2019","4333","NYTIMES-USCENSUS"
"9/11/2021 12:00:00 AM","Emmons County","North Dakota","Midwest","West North Central","38029","46.284255","-100.237842 ","502","14","2","0","9/10/2021 12:00:00 AM","2019","3241","NYTIMES-USCENSUS"
"9/11/2021 12:00:00 AM","Iredell County","North Carolina","South","South Atlantic","37097","35.806251","-80.874524 ","24780","265","0","0","9/10/2021 12:00:00 AM","2019","181806","NYTIMES-USCENSUS"
"9/11/2021 12:00:00 AM","Wadena County","Minnesota","Midwest","West North Central","27159","46.586986","-94.988608 ","1770","23","0","0","9/10/2021 12:00:00 AM","2019","13682","NYTIMES-USCENSUS"
"9/11/2021 12:00:00 AM","La Paz County","Arizona","West","Mountain","04012","33.72761","-114.038806 ","2797","85","8","0","9/10/2021 12:00:00 AM","2019","21108","NYTIMES-USCENSUS"
"9/11/2021 12:00:00 AM","Habersham County","Georgia","South","South Atlantic","13137","34.634392","-83.525875 ","6665","169","0","0","9/10/2021 12:00:00 AM","2019","45328","NYTIMES-USCENSUS"
"9/11/2021 12:00:00 AM","Davison County","South Dakota","Midwest","West North Central","46035","43.680439","-98.155868 ","3454","69","0","0","9/10/2021 12:00:00 AM","2019","19775","NYTIMES-USCENSUS"
"9/11/2021 12:00:00 AM","Siskiyou County","California","West","Pacific","06093","41.587986","-122.533287 ","3766","43","0","0","9/10/2021 12:00:00 AM","2019","43539","NYTIMES-USCENSUS"
"9/11/2021 12:00:00 AM","Essex County","New Jersey","Northeast","Middle Atlantic","34013","40.7874","-74.246292 ","101737","3097","198","0","9/10/2021 12:00:00 AM","2019","798975","NYTIMES-USCENSUS"
"9/11/2021 12:00:00 AM","Cumberland County","Pennsylvania","Northeast","Middle Atlantic","42041","40.164805","-77.263442 ","23256","548","104","0","9/10/2021 12:00:00 AM","2019","253370","NYTIMES-USCENSUS"
"9/11/2021 12:00:00 AM","Fountain County","Indiana","Midwest","East North Central","18045","40.121237","-87.234872 ","2989","55","0","0","9/10/2021 12:00:00 AM","2019","16346","NYTIMES-USCENSUS"
"9/11/2021 12:00:00 AM","DeKalb County","Georgia","South","South Atlantic","13089","33.770661","-84.226343 ","83242","1136","0","0","9/10/2021 12:00:00 AM","2019","759297","NYTIMES-USCENSUS"
"9/11/2021 12:00:00 AM","Fairfield County","Connecticut","Northeast","New England","09001","41.227413","-73.367061 ","107404","2234","0","0","9/10/2021 12:00:00 AM","2019","943332","NYTIMES-USCENSUS"
"9/11/2021 12:00:00 AM","Ward County","North Dakota","Midwest","West North Central","38101","48.216686","-101.540537 ","11104","206","29","0","9/10/2021 12:00:00 AM","2019","67641","NYTIMES-USCENSUS"
"9/11/2021 12:00:00 AM","Talladega County","Alabama","South","East South Central","01121","33.369314","-86.17593 ","11784","197","137","1","9/10/2021 12:00:00 AM","2019","79978","NYTIMES-USCENSUS"
"9/11/2021 12:00:00 AM","Bottineau County","North Dakota","Midwest","West North Central","38009","48.794412","-100.831257 ","790","20","1","0","9/10/2021 12:00:00 AM","2019","6282","NYTIMES-USCENSUS"
"9/11/2021 12:00:00 AM","Williamson County","Texas","South","West South Central","48491","30.649082","-97.605065 ","67141","581","0","3","9/10/2021 12:00:00 AM","2019","590551","NYTIMES-USCENSUS"
"9/11/2021 12:00:00 AM","Benson County","North Dakota","Midwest","West North Central","38005","48.071743","-99.351152 ","1175","20","0","0","9/10/2021 12:00:00 AM","2019","6832","NYTIMES-USCENSUS"
"9/11/2021 12:00:00 AM","Fayette County","Illinois","Midwest","East North Central","17051","39.001125","-89.017923 ","3772","59","0","0","9/10/2021 12:00:00 AM","2019","21336","NYTIMES-USCENSUS"
"9/11/2021 12:00:00 AM","Crockett County","Tennessee","South","East South Central","47033","35.818795","-89.132494 ","3060","54","0","0","9/10/2021 12:00:00 AM","2019","14230","NYTIMES-USCENSUS"
"9/11/2021 12:00:00 AM","Dixie County","Florida","South","South Atlantic","12029","29.552675","-83.236232 ","2673","24","0","0","9/10/2021 12:00:00 AM","2019","16826","NYTIMES-USCENSUS"
"9/11/2021 12:00:00 AM","Rock County","Minnesota","Midwest","West North Central","27133","43.669587","-96.263238 ","1365","19","0","0","9/10/2021 12:00:00 AM","2019","9315","NYTIMES-USCENSUS"
"9/11/2021 12:00:00 AM","Tompkins County","New York","Northeast","Middle Atlantic","36109","42.453006","-76.473483 ","5621","56","27","0","9/10/2021 12:00:00 AM","2019","102180","NYTIMES-USCENSUS"
"9/11/2021 12:00:00 AM","Asotin County","Washington","West","Pacific","53003","46.181861","-117.227781 ","2179","37","0","0","9/10/2021 12:00:00 AM","2019","22582","NYTIMES-USCENSUS"
"9/11/2021 12:00:00 AM","Macon County","Alabama","South","East South Central","01087","32.387027","-85.692887 ","2068","54","9","0","9/10/2021 12:00:00 AM","2019","18068","NYTIMES-USCENSUS"
"9/11/2021 12:00:00 AM","Centre County","Pennsylvania","Northeast","Middle Atlantic","42027","40.909128","-77.847877 ","18316","232","86","0","9/10/2021 12:00:00 AM","2019","162385","NYTIMES-USCENSUS"
"9/11/2021 12:00:00 AM","Stephens County","Oklahoma","South","West South Central","40137","34.481361","-97.855607 ","6454","110","0","0","9/10/2021 12:00:00 AM","2019","43143","NYTIMES-USCENSUS"
"9/11/2021 12:00:00 AM","Wood County","Texas","South","West South Central","48499","32.783588","-95.382166 ","5367","166","0","4","9/10/2021 12:00:00 AM","2019","45539","NYTIMES-USCENSUS"
"9/11/2021 12:00:00 AM","Washington County","Kentucky","South","East South Central","21229","37.754209","-85.175416 ","2059","42","0","0","9/10/2021 12:00:00 AM","2019","12095","NYTIMES-USCENSUS"
"9/11/2021 12:00:00 AM","Wilcox County","Alabama","South","East South Central","01131","31.990082","-87.304935 ","1512","33","8","0","9/10/2021 12:00:00 AM","2019","10373","NYTIMES-USCENSUS"
"9/11/2021 12:00:00 AM","Honolulu County","Hawaii","West","Pacific","15003","21.461365","-158.201974 ","49778","500","606","9","9/10/2021 12:00:00 AM","2019","974563","NYTIMES-USCENSUS"
"9/11/2021 12:00:00 AM","Riverside County","California","West","Pacific","06065","33.729828","-116.002239 ","352267","4826","1214","0","9/10/2021 12:00:00 AM","2019","2470546","NYTIMES-USCENSUS"
"9/11/2021 12:00:00 AM","Indian River County","Florida","South","South Atlantic","12061","27.700528","-80.574789 ","20654","306","0","0","9/10/2021 12:00:00 AM","2019","159923","NYTIMES-USCENSUS"
"9/11/2021 12:00:00 AM","Westchester County","New York","Northeast","Middle Atlantic","36119","41.152686","-73.745753 ","139047","2320","165","1","9/10/2021 12:00:00 AM","2019","967506","NYTIMES-USCENSUS"
"9/11/2021 12:00:00 AM","Greene County","New York","Northeast","Middle Atlantic","36039","42.279821","-74.142025 ","3816","82","14","0","9/10/2021 12:00:00 AM","2019","47188","NYTIMES-USCENSUS"
"9/11/2021 12:00:00 AM","Kearney County","Nebraska","Midwest","West North Central","31099","40.50912","-98.947602 ","657","5","0","0","9/10/2021 12:00:00 AM","2019","6495","NYTIMES-USCENSUS"
"9/11/2021 12:00:00 AM","Marquette County","Michigan","Midwest","East North Central","26103","46.656596","-87.584028 ","6385","68","0","0","9/10/2021 12:00:00 AM","2019","66699","NYTIMES-USCENSUS"
"9/11/2021 12:00:00 AM","Houghton County","Michigan","Midwest","East North Central","26061","46.998427","-88.651903 ","3351","45","0","0","9/10/2021 12:00:00 AM","2019","35684","NYTIMES-USCENSUS"
"9/11/2021 12:00:00 AM","Anderson County","Kentucky","South","East South Central","21005","38.005396","-84.986417 ","2479","31","0","0","9/10/2021 12:00:00 AM","2019","22747","NYTIMES-USCENSUS"
"9/11/2021 12:00:00 AM","Hardin County","Illinois","Midwest","East North Central","17069","37.517852","-88.266148 ","545","12","0","0","9/10/2021 12:00:00 AM","2019","3821","NYTIMES-USCENSUS"
"9/11/2021 12:00:00 AM","Sumter County","Georgia","South","South Atlantic","13261","32.042266","-84.204294 ","3697","113","0","0","9/10/2021 12:00:00 AM","2019","29524","NYTIMES-USCENSUS"
"9/11/2021 12:00:00 AM","North Slope Borough","Alaska","West","Pacific","02185","69.449343","-153.47283 ","1624","4","0","0","9/10/2021 12:00:00 AM","2019","9832","NYTIMES-USCENSUS"
"9/11/2021 12:00:00 AM","Beckham County","Oklahoma","South","West South Central","40009","35.270601","-99.690057 ","3087","58","0","0","9/10/2021 12:00:00 AM","2019","21859","NYTIMES-USCENSUS"
"9/11/2021 12:00:00 AM","Herkimer County","New York","Northeast","Middle Atlantic","36043","43.571009","-74.841097 ","5798","114","22","0","9/10/2021 12:00:00 AM","2019","61319","NYTIMES-USCENSUS"
"9/11/2021 12:00:00 AM","Vernon County","Wisconsin","Midwest","East North Central","55123","43.599366","-90.821983 ","2326","49","0","0","9/10/2021 12:00:00 AM","2019","30822","NYTIMES-USCENSUS"
"9/11/2021 12:00:00 AM","Madison County","Illinois","Midwest","East North Central","17119","38.82712","-89.900227 ","36990","634","0","0","9/10/2021 12:00:00 AM","2019","262966","NYTIMES-USCENSUS"
"9/11/2021 12:00:00 AM","Carter County","Missouri","Midwest","West North Central","29035","36.944858","-90.945705 ","974","12","6","0","9/10/2021 12:00:00 AM","2019","5982","NYTIMES-USCENSUS"
"9/11/2021 12:00:00 AM","Jasper County","Georgia","South","South Atlantic","13159","33.316981","-83.689151 ","1960","46","0","0","9/10/2021 12:00:00 AM","2019","14219","NYTIMES-USCENSUS"
"9/11/2021 12:00:00 AM","Laclede County","Missouri","Midwest","West North Central","29105","37.659698","-92.594843 ","5023","121","9","0","9/10/2021 12:00:00 AM","2019","35723","NYTIMES-USCENSUS"
"9/11/2021 12:00:00 AM","Livingston County","New York","Northeast","Middle Atlantic","36051","42.729042","-77.778463 ","4992","63","14","0","9/10/2021 12:00:00 AM","2019","62914","NYTIMES-USCENSUS"
"9/11/2021 12:00:00 AM","Dewey County","South Dakota","Midwest","West North Central","46041","45.148049","-100.837953 ","1636","30","0","0","9/10/2021 12:00:00 AM","2019","5892","NYTIMES-USCENSUS"
"9/11/2021 12:00:00 AM","Hancock County","West Virginia","South","South Atlantic","54029","40.516958","-80.570164 ","3244","92","34","0","9/10/2021 12:00:00 AM","2019","28810","NYTIMES-USCENSUS"
"9/11/2021 12:00:00 AM","Brunswick County","Virginia","South","South Atlantic","51025","36.764204","-77.861483 ","1593","28","0","0","9/10/2021 12:00:00 AM","2019","16231","NYTIMES-USCENSUS"
"9/11/2021 12:00:00 AM","Falls County","Texas","South","West South Central","48145","31.25193","-96.934127 ","2410","36","4","0","9/10/2021 12:00:00 AM","2019","17297","NYTIMES-USCENSUS"
"9/11/2021 12:00:00 AM","San Miguel County","New Mexico","West","Mountain","35047","35.476859","-104.803519 ","2132","19","0","0","9/10/2021 12:00:00 AM","2019","27277","NYTIMES-USCENSUS"
"9/11/2021 12:00:00 AM","Putnam County","Florida","South","South Atlantic","12107","29.593896","-81.732039 ","11564","160","0","0","9/10/2021 12:00:00 AM","2019","74521","NYTIMES-USCENSUS"
"9/11/2021 12:00:00 AM","Luzerne County","Pennsylvania","Northeast","Middle Atlantic","42079","41.173078","-75.976053 ","34990","851","123","2","9/10/2021 12:00:00 AM","2019","317417","NYTIMES-USCENSUS"
"9/11/2021 12:00:00 AM","Richmond County","North Carolina","South","South Atlantic","37153","35.004636","-79.755695 ","6308","127","0","0","9/10/2021 12:00:00 AM","2019","44829","NYTIMES-USCENSUS"
"9/11/2021 12:00:00 AM","Bastrop County","Texas","South","West South Central","48021","30.100772","-97.310639 ","13091","135","63","1","9/10/2021 12:00:00 AM","2019","88723","NYTIMES-USCENSUS"
"9/11/2021 12:00:00 AM","Charlton County","Georgia","South","South Atlantic","13049","30.779904","-82.139644 ","2075","48","0","0","9/10/2021 12:00:00 AM","2019","13392","NYTIMES-USCENSUS"
"9/11/2021 12:00:00 AM","Calhoun County","Illinois","Midwest","East North Central","17013","39.164262","-90.666295 ","627","5","0","0","9/10/2021 12:00:00 AM","2019","4739","NYTIMES-USCENSUS"
"9/11/2021 12:00:00 AM","Huntington County","Indiana","Midwest","East North Central","18069","40.826394","-85.478597 ","5768","91","0","0","9/10/2021 12:00:00 AM","2019","36520","NYTIMES-USCENSUS"
"9/11/2021 12:00:00 AM","Clear Creek County","Colorado","West","Mountain","08019","39.689403","-105.670783 ","630","4","0","0","9/10/2021 12:00:00 AM","2019","9700","NYTIMES-USCENSUS"
"9/11/2021 12:00:00 AM","Jefferson County","Nebraska","Midwest","West North Central","31095","40.175736","-97.143103 ","662","3","0","0","9/10/2021 12:00:00 AM","2019","7046","NYTIMES-USCENSUS"
"9/11/2021 12:00:00 AM","Alleghany County","North Carolina","South","South Atlantic","37005","36.489356","-81.132299 ","1336","5","0","0","9/10/2021 12:00:00 AM","2019","11137","NYTIMES-USCENSUS"
"9/11/2021 12:00:00 AM","Putnam County","Indiana","Midwest","East North Central","18133","39.665548","-86.853373 ","5087","68","0","0","9/10/2021 12:00:00 AM","2019","37576","NYTIMES-USCENSUS"
"9/11/2021 12:00:00 AM","Caroline County","Maryland","South","South Atlantic","24011","38.871531","-75.831662 ","2628","36","23","0","9/10/2021 12:00:00 AM","2019","33406","NYTIMES-USCENSUS"
"9/11/2021 12:00:00 AM","York County","Nebraska","Midwest","West North Central","31185","40.873056","-97.596742 ","1854","16","0","0","9/10/2021 12:00:00 AM","2019","13679","NYTIMES-USCENSUS"
"9/11/2021 12:00:00 AM","Lauderdale County","Tennessee","South","East South Central","47097","35.762951","-89.627732 ","4679","52","0","0","9/10/2021 12:00:00 AM","2019","25633","NYTIMES-USCENSUS"
"9/11/2021 12:00:00 AM","Leflore County","Mississippi","South","East South Central","28083","33.54979","-90.294934 ","4326","138","0","0","9/10/2021 12:00:00 AM","2019","28183","NYTIMES-USCENSUS"
"9/11/2021 12:00:00 AM","Castro County","Texas","South","West South Central","48069","34.533621","-102.258786 ","1202","33","5","0","9/10/2021 12:00:00 AM","2019","7530","NYTIMES-USCENSUS"
"9/11/2021 12:00:00 AM","Henry County","Kentucky","South","East South Central","21103","38.451383","-85.119647 ","2107","21","0","0","9/10/2021 12:00:00 AM","2019","16126","NYTIMES-USCENSUS"
"9/11/2021 12:00:00 AM","Lowndes County","Georgia","South","South Atlantic","13185","30.833145","-83.268995 ","19717","254","0","0","9/10/2021 12:00:00 AM","2019","117406","NYTIMES-USCENSUS"
"9/11/2021 12:00:00 AM","Jackson County","Texas","South","West South Central","48239","28.959802","-96.58908 ","2466","38","0","0","9/10/2021 12:00:00 AM","2019","14760","NYTIMES-USCENSUS"
"9/11/2021 12:00:00 AM","White Pine County","Nevada","West","Mountain","32033","39.418176","-114.900565 ","800","9","0","0","9/10/2021 12:00:00 AM","2019","9580","NYTIMES-USCENSUS"
"9/11/2021 12:00:00 AM","Montgomery County","Illinois","Midwest","East North Central","17135","39.228068","-89.478141 ","4509","81","0","0","9/10/2021 12:00:00 AM","2019","28414","NYTIMES-USCENSUS"
"9/11/2021 12:00:00 AM","Wise County","Virginia","South","South Atlantic","51195","36.974561","-82.62156 ","4059","113","0","0","9/10/2021 12:00:00 AM","2019","37383","NYTIMES-USCENSUS"
"9/11/2021 12:00:00 AM","Montgomery County","Arkansas","South","West South Central","05097","34.545656","-93.664153 ","1063","35","5","0","9/10/2021 12:00:00 AM","2019","8986","NYTIMES-USCENSUS"
"9/11/2021 12:00:00 AM","Pike County","Pennsylvania","Northeast","Middle Atlantic","42103","41.325949","-75.031514 ","4535","56","25","1","9/10/2021 12:00:00 AM","2019","55809","NYTIMES-USCENSUS"
"9/11/2021 12:00:00 AM","Fort Bend County","Texas","South","West South Central","48157","29.526602","-95.771015 ","88936","833","0","0","9/10/2021 12:00:00 AM","2019","811688","NYTIMES-USCENSUS"
"9/11/2021 12:00:00 AM","Comanche County","Texas","South","West South Central","48093","31.951645","-98.549617 ","1933","56","6","0","9/10/2021 12:00:00 AM","2019","13635","NYTIMES-USCENSUS"
"9/11/2021 12:00:00 AM","Maverick County","Texas","South","West South Central","48323","28.729787","-100.316678 ","12285","377","0","0","9/10/2021 12:00:00 AM","2019","58722","NYTIMES-USCENSUS"
"9/11/2021 12:00:00 AM","Monmouth County","New Jersey","Northeast","Middle Atlantic","34025","40.287048","-74.152446 ","85649","1674","203","3","9/10/2021 12:00:00 AM","2019","618795","NYTIMES-USCENSUS"
"9/11/2021 12:00:00 AM","Chester County","South Carolina","South","South Atlantic","45023","34.689342","-81.161249 ","5532","91","0","0","9/10/2021 12:00:00 AM","2019","32244","NYTIMES-USCENSUS"
"9/11/2021 12:00:00 AM","Scott County","Missouri","Midwest","West North Central","29201","37.047793","-89.568098 ","6376","95","79","0","9/10/2021 12:00:00 AM","2019","38280","NYTIMES-USCENSUS"
"9/11/2021 12:00:00 AM","Carteret County","North Carolina","South","South Atlantic","37031","34.858343","-76.53586 ","6900","58","0","0","9/10/2021 12:00:00 AM","2019","69473","NYTIMES-USCENSUS"
"9/11/2021 12:00:00 AM","Jefferson Davis Parish","Louisiana","South","West South Central","22053","30.269529","-92.816221 ","4390","114","0","0","9/10/2021 12:00:00 AM","2019","31368","NYTIMES-USCENSUS"
"9/11/2021 12:00:00 AM","Steele County","North Dakota","Midwest","West North Central","38091","47.451062","-97.71892 ","204","2","0","0","9/10/2021 12:00:00 AM","2019","1890","NYTIMES-USCENSUS"
"9/11/2021 12:00:00 AM","Tishomingo County","Mississippi","South","East South Central","28141","34.738835","-88.234827 ","3125","85","0","0","9/10/2021 12:00:00 AM","2019","19383","NYTIMES-USCENSUS"
"9/11/2021 12:00:00 AM","Monroe County","Georgia","South","South Atlantic","13207","33.017404","-83.922837 ","3793","114","0","0","9/10/2021 12:00:00 AM","2019","27578","NYTIMES-USCENSUS"
"9/11/2021 12:00:00 AM","Le Sueur County","Minnesota","Midwest","West North Central","27079","44.373424","-93.730143 ","3320","29","0","0","9/10/2021 12:00:00 AM","2019","28887","NYTIMES-USCENSUS"
"9/11/2021 12:00:00 AM","Sargent County","North Dakota","Midwest","West North Central","38081","46.108204","-97.630051 ","529","7","2","0","9/10/2021 12:00:00 AM","2019","3898","NYTIMES-USCENSUS"
"9/11/2021 12:00:00 AM","St. Lawrence County","New York","Northeast","Middle Atlantic","36089","44.488112","-75.074311 ","8226","109","64","0","9/10/2021 12:00:00 AM","2019","107740","NYTIMES-USCENSUS"
"9/11/2021 12:00:00 AM","Warren County","Georgia","South","South Atlantic","13301","33.419169","-82.688012 ","673","20","0","0","9/10/2021 12:00:00 AM","2019","5254","NYTIMES-USCENSUS"
"9/11/2021 12:00:00 AM","Panola County","Mississippi","South","East South Central","28107","34.365205","-89.963065 ","5907","117","0","0","9/10/2021 12:00:00 AM","2019","34192","NYTIMES-USCENSUS"
"9/11/2021 12:00:00 AM","Navajo County","Arizona","West","Mountain","04017","35.390785","-110.321025 ","18964","580","39","0","9/10/2021 12:00:00 AM","2019","110924","NYTIMES-USCENSUS"
"9/11/2021 12:00:00 AM","Ottawa County","Oklahoma","South","West South Central","40115","36.835764","-94.802681 ","5504","85","0","0","9/10/2021 12:00:00 AM","2019","31127","NYTIMES-USCENSUS"
"9/11/2021 12:00:00 AM","Erath County","Texas","South","West South Central","48143","32.236661","-98.220507 ","5534","82","37","0","9/10/2021 12:00:00 AM","2019","42698","NYTIMES-USCENSUS"
"9/11/2021 12:00:00 AM","Cedar County","Nebraska","Midwest","West North Central","31027","42.60456","-97.25687 ","956","11","0","0","9/10/2021 12:00:00 AM","2019","8402","NYTIMES-USCENSUS"
"9/11/2021 12:00:00 AM","Hancock County","Maine","Northeast","New England","23009","44.564906","-68.370703 ","1832","43","40","0","9/10/2021 12:00:00 AM","2019","54987","NYTIMES-USCENSUS"
"9/11/2021 12:00:00 AM","Moore County","North Carolina","South","South Atlantic","37125","35.308272","-79.492725 ","11824","221","0","0","9/10/2021 12:00:00 AM","2019","100880","NYTIMES-USCENSUS"
"9/11/2021 12:00:00 AM","Valencia County","New Mexico","West","Mountain","35061","34.71684","-106.806582 ","8344","130","0","0","9/10/2021 12:00:00 AM","2019","76688","NYTIMES-USCENSUS"
"9/11/2021 12:00:00 AM","Livingston County","Missouri","Midwest","West North Central","29117","39.778587","-93.548201 ","2471","61","5","0","9/10/2021 12:00:00 AM","2019","15227","NYTIMES-USCENSUS"
"9/11/2021 12:00:00 AM","East Baton Rouge Parish","Louisiana","South","West South Central","22033","30.54393","-91.093131 ","60736","1067","0","0","9/10/2021 12:00:00 AM","2019","440059","NYTIMES-USCENSUS"
"9/11/2021 12:00:00 AM","Benton County","Iowa","Midwest","West North Central","19011","42.092547","-92.05763 ","2987","56","0","0","9/10/2021 12:00:00 AM","2019","25645","NYTIMES-USCENSUS"
"9/11/2021 12:00:00 AM","Webster Parish","Louisiana","South","West South Central","22119","32.732152","-93.339825 ","6001","133","0","0","9/10/2021 12:00:00 AM","2019","38340","NYTIMES-USCENSUS"
"9/11/2021 12:00:00 AM","Christian County","Kentucky","South","East South Central","21047","36.892059","-87.492986 ","8578","113","0","0","9/10/2021 12:00:00 AM","2019","70461","NYTIMES-USCENSUS"
"9/11/2021 12:00:00 AM","McHenry County","North Dakota","Midwest","West North Central","38049","48.233842","-100.633267 ","721","23","2","0","9/10/2021 12:00:00 AM","2019","5745","NYTIMES-USCENSUS"
"9/11/2021 12:00:00 AM","Shelby County","Missouri","Midwest","West North Central","29205","39.797531","-92.088719 ","822","8","1","0","9/10/2021 12:00:00 AM","2019","5930","NYTIMES-USCENSUS"
"9/11/2021 12:00:00 AM","Rains County","Texas","South","West South Central","48379","32.870457","-95.795613 ","1218","33","0","1","9/10/2021 12:00:00 AM","2019","12514","NYTIMES-USCENSUS"
"9/11/2021 12:00:00 AM","Van Buren County","Arkansas","South","West South Central","05141","35.582953","-92.515976 ","1927","35","5","0","9/10/2021 12:00:00 AM","2019","16545","NYTIMES-USCENSUS"
"9/11/2021 12:00:00 AM","Westmoreland County","Virginia","South","South Atlantic","51193","38.109311","-76.803933 ","1534","29","0","0","9/10/2021 12:00:00 AM","2019","18015","NYTIMES-USCENSUS"
"9/11/2021 12:00:00 AM","Appanoose County","Iowa","Midwest","West North Central","19007","40.744249","-92.873065 ","1443","49","0","0","9/10/2021 12:00:00 AM","2019","12426","NYTIMES-USCENSUS"
"9/11/2021 12:00:00 AM","Breckinridge County","Kentucky","South","East South Central","21027","37.777988","-86.432919 ","2213","20","0","0","9/10/2021 12:00:00 AM","2019","20477","NYTIMES-USCENSUS"
"9/11/2021 12:00:00 AM","Knox County","Kentucky","South","East South Central","21121","36.8885","-83.855551 ","5701","49","0","0","9/10/2021 12:00:00 AM","2019","31145","NYTIMES-USCENSUS"
"9/11/2021 12:00:00 AM","Bourbon County","Kentucky","South","East South Central","21017","38.202562","-84.20986 ","2551","22","0","0","9/10/2021 12:00:00 AM","2019","19788","NYTIMES-USCENSUS"
"9/11/2021 12:00:00 AM","Hamilton County","Texas","South","West South Central","48193","31.707342","-98.111756 ","1145","29","15","0","9/10/2021 12:00:00 AM","2019","8461","NYTIMES-USCENSUS"
"9/11/2021 12:00:00 AM","Ouachita County","Arkansas","South","West South Central","05103","33.591168","-92.878413 ","3261","70","16","0","9/10/2021 12:00:00 AM","2019","23382","NYTIMES-USCENSUS"
"9/11/2021 12:00:00 AM","Harrison County","Texas","South","West South Central","48203","32.547991","-94.374434 ","8030","131","72","1","9/10/2021 12:00:00 AM","2019","66553","NYTIMES-USCENSUS"
"9/11/2021 12:00:00 AM","Jones County","Texas","South","West South Central","48253","32.743709","-99.87443 ","2929","63","1","0","9/10/2021 12:00:00 AM","2019","20083","NYTIMES-USCENSUS"
"9/11/2021 12:00:00 AM","Fairbanks North Star Borough","Alaska","West","Pacific","02090","64.676044","-146.548159 ","9960","51","0","0","9/10/2021 12:00:00 AM","2019","96849","NYTIMES-USCENSUS"
"9/11/2021 12:00:00 AM","Dallas County","Iowa","Midwest","West North Central","19049","41.68532","-94.040706 ","12490","102","0","0","9/10/2021 12:00:00 AM","2019","93453","NYTIMES-USCENSUS"
"9/11/2021 12:00:00 AM","Raleigh County","West Virginia","South","South Atlantic","54081","37.762469","-81.264672 ","9036","117","117","0","9/10/2021 12:00:00 AM","2019","73361","NYTIMES-USCENSUS"
"9/11/2021 12:00:00 AM","Overton County","Tennessee","South","East South Central","47133","36.34485","-85.283076 ","4068","65","0","0","9/10/2021 12:00:00 AM","2019","22241","NYTIMES-USCENSUS"
"9/11/2021 12:00:00 AM","Kauai County","Hawaii","West","Pacific","15007","22.012038","-159.705965 ","1713","4","32","0","9/10/2021 12:00:00 AM","2019","72293","NYTIMES-USCENSUS"
"9/11/2021 12:00:00 AM","McDonald County","Missouri","Midwest","West North Central","29119","36.627955","-94.343716 ","3701","51","0","0","9/10/2021 12:00:00 AM","2019","22837","NYTIMES-USCENSUS"
"9/11/2021 12:00:00 AM","Burlington County","New Jersey","Northeast","Middle Atlantic","34005","39.875786","-74.663006 ","49802","908","124","0","9/10/2021 12:00:00 AM","2019","445349","NYTIMES-USCENSUS"
"9/11/2021 12:00:00 AM","Valdez-Cordova Census Area","Alaska","West","Pacific","02261","61.4","-144.5","1148","2","0","0","9/10/2021 12:00:00 AM","2019","9202","NYTIMES-USCENSUS"
"9/11/2021 12:00:00 AM","Jackson County","Iowa","Midwest","West North Central","19097","42.164226","-90.574582 ","2399","43","0","0","9/10/2021 12:00:00 AM","2019","19439","NYTIMES-USCENSUS"
"9/11/2021 12:00:00 AM","Johnson County","Indiana","Midwest","East North Central","18081","39.496092","-86.094264 ","22764","428","0","0","9/10/2021 12:00:00 AM","2019","158167","NYTIMES-USCENSUS"
"9/11/2021 12:00:00 AM","Berks County","Pennsylvania","Northeast","Middle Atlantic","42011","40.413957","-75.92686 ","52237","1062","145","4","9/10/2021 12:00:00 AM","2019","421164","NYTIMES-USCENSUS"
"9/11/2021 12:00:00 AM","Washington County","Missouri","Midwest","West North Central","29221","37.942611","-90.897018 ","3578","57","33","0","9/10/2021 12:00:00 AM","2019","24730","NYTIMES-USCENSUS"
"9/11/2021 12:00:00 AM","Walthall County","Mississippi","South","East South Central","28147","31.164492","-90.103431 ","1991","54","0","0","9/10/2021 12:00:00 AM","2019","14286","NYTIMES-USCENSUS"
"9/11/2021 12:00:00 AM","Wichita County","Kansas","Midwest","West North Central","20203","38.481922","-101.347434 ","249","6","0","0","9/10/2021 12:00:00 AM","2019","2119","NYTIMES-USCENSUS"
"9/11/2021 12:00:00 AM","Wake County","North Carolina","South","South Atlantic","37183","35.789846","-78.650624 ","116764","808","0","0","9/10/2021 12:00:00 AM","2019","1111761","NYTIMES-USCENSUS"
"9/11/2021 12:00:00 AM","Hempstead County","Arkansas","South","West South Central","05057","33.735953","-93.664355 ","2689","23","7","0","9/10/2021 12:00:00 AM","2019","21532","NYTIMES-USCENSUS"
"9/11/2021 12:00:00 AM","Troup County","Georgia","South","South Atlantic","13285","33.034482","-85.02836 ","10204","265","0","0","9/10/2021 12:00:00 AM","2019","69922","NYTIMES-USCENSUS"
"9/11/2021 12:00:00 AM","Ontonagon County","Michigan","Midwest","East North Central","26131","46.835325","-89.276912 ","539","22","0","0","9/10/2021 12:00:00 AM","2019","5720","NYTIMES-USCENSUS"
"9/11/2021 12:00:00 AM","Fresno County","California","West","Pacific","06019","36.761006","-119.655019 ","132281","1846","619","8","9/10/2021 12:00:00 AM","2019","999101","NYTIMES-USCENSUS"
"9/11/2021 12:00:00 AM","Llano County","Texas","South","West South Central","48299","30.707584","-98.68469 ","2351","61","2","0","9/10/2021 12:00:00 AM","2019","21795","NYTIMES-USCENSUS"
"9/11/2021 12:00:00 AM","Jersey County","Illinois","Midwest","East North Central","17083","39.080195","-90.361385 ","3152","71","0","0","9/10/2021 12:00:00 AM","2019","21773","NYTIMES-USCENSUS"
"9/11/2021 12:00:00 AM","Nottoway County","Virginia","South","South Atlantic","51135","37.141167","-78.053866 ","2275","56","0","0","9/10/2021 12:00:00 AM","2019","15232","NYTIMES-USCENSUS"
"9/11/2021 12:00:00 AM","Pittsburg County","Oklahoma","South","West South Central","40121","34.92554","-95.74813 ","5995","85","0","0","9/10/2021 12:00:00 AM","2019","43654","NYTIMES-USCENSUS"
"9/11/2021 12:00:00 AM","Thomas County","Nebraska","Midwest","West North Central","31171","41.85573","-100.524703 ","55","1","0","0","9/10/2021 12:00:00 AM","2019","722","NYTIMES-USCENSUS"
"9/11/2021 12:00:00 AM","Suffolk County","Massachusetts","Northeast","New England","25025","42.338551","-71.018253 ","100812","1873","0","0","9/10/2021 12:00:00 AM","2019","803907","NYTIMES-USCENSUS"
"9/11/2021 12:00:00 AM","Barton County","Kansas","Midwest","West North Central","20009","38.481239","-98.767837 ","3143","51","0","0","9/10/2021 12:00:00 AM","2019","25779","NYTIMES-USCENSUS"
"9/11/2021 12:00:00 AM","Mille Lacs County","Minnesota","Midwest","West North Central","27095","45.929043","-93.632996 ","3474","60","0","0","9/10/2021 12:00:00 AM","2019","26277","NYTIMES-USCENSUS"
"9/11/2021 12:00:00 AM","Cameron County","Pennsylvania","Northeast","Middle Atlantic","42023","41.438291","-78.198323 ","354","10","4","0","9/10/2021 12:00:00 AM","2019","4447","NYTIMES-USCENSUS"
"9/11/2021 12:00:00 AM","Manassas Park city","Virginia","South","South Atlantic","51685","38.769398","-77.442323 ","1249","11","0","0","9/10/2021 12:00:00 AM","2019","17478","NYTIMES-USCENSUS"
"9/11/2021 12:00:00 AM","Pulaski County","Kentucky","South","East South Central","21199","37.107452","-84.576969 ","9101","152","101","1","9/10/2021 12:00:00 AM","2019","64979","NYTIMES-USCENSUS"
"9/11/2021 12:00:00 AM","Robertson County","Tennessee","South","East South Central","47147","36.527509","-86.869354 ","12509","160","0","0","9/10/2021 12:00:00 AM","2019","71813","NYTIMES-USCENSUS"
"9/11/2021 12:00:00 AM","Grant County","Washington","West","Pacific","53025","47.213633","-119.467788 ","13857","149","0","0","9/10/2021 12:00:00 AM","2019","97733","NYTIMES-USCENSUS"
"9/11/2021 12:00:00 AM","Smith County","Tennessee","South","East South Central","47159","36.256645","-85.941915 ","3694","42","0","0","9/10/2021 12:00:00 AM","2019","20157","NYTIMES-USCENSUS"
"9/11/2021 12:00:00 AM","Marion County","Florida","South","South Atlantic","12083","29.202805","-82.0431 ","52411","996","0","0","9/10/2021 12:00:00 AM","2019","365579","NYTIMES-USCENSUS"
"9/11/2021 12:00:00 AM","Moore County","Texas","South","West South Central","48341","35.835676","-101.890502 ","3228","78","23","0","9/10/2021 12:00:00 AM","2019","20940","NYTIMES-USCENSUS"
"9/11/2021 12:00:00 AM","Prince William County","Virginia","South","South Atlantic","51153","38.701119","-77.479579 ","50211","524","0","0","9/10/2021 12:00:00 AM","2019","470335","NYTIMES-USCENSUS"
"9/11/2021 12:00:00 AM","Cochise County","Arizona","West","Mountain","04003","31.840129","-109.775163 ","13504","307","47","0","9/10/2021 12:00:00 AM","2019","125922","NYTIMES-USCENSUS"
"9/11/2021 12:00:00 AM","Randolph County","Arkansas","South","West South Central","05121","36.341298","-91.028441 ","2887","50","17","0","9/10/2021 12:00:00 AM","2019","17958","NYTIMES-USCENSUS"
"9/11/2021 12:00:00 AM","Tuscarawas County","Ohio","Midwest","East North Central","39157","40.44749","-81.471105 ","10135","263","86","0","9/10/2021 12:00:00 AM","2019","91987","NYTIMES-USCENSUS"
"9/11/2021 12:00:00 AM","Currituck County","North Carolina","South","South Atlantic","37053","36.372174","-75.941224 ","2158","19","0","0","9/10/2021 12:00:00 AM","2019","27763","NYTIMES-USCENSUS"
"9/11/2021 12:00:00 AM","Lapeer County","Michigan","Midwest","East North Central","26087","43.088633","-83.224325 ","10491","225","0","0","9/10/2021 12:00:00 AM","2019","87607","NYTIMES-USCENSUS"
"9/11/2021 12:00:00 AM","Wilkes County","Georgia","South","South Atlantic","13317","33.779031","-82.747921 ","1343","33","0","0","9/10/2021 12:00:00 AM","2019","9777","NYTIMES-USCENSUS"
"9/11/2021 12:00:00 AM","Steuben County","Indiana","Midwest","East North Central","18151","41.643467","-85.002405 ","4732","66","0","0","9/10/2021 12:00:00 AM","2019","34594","NYTIMES-USCENSUS"
"9/11/2021 12:00:00 AM","Monroe County","Wisconsin","Midwest","East North Central","55081","43.945175","-90.619969 ","5428","52","0","0","9/10/2021 12:00:00 AM","2019","46253","NYTIMES-USCENSUS"
"9/11/2021 12:00:00 AM","Washoe County","Nevada","West","Mountain","32031","40.73132","-119.663269 ","57048","777","0","0","9/10/2021 12:00:00 AM","2019","471519","NYTIMES-USCENSUS"
"9/11/2021 12:00:00 AM","Covington County","Alabama","South","East South Central","01039","31.243987","-86.448721 ","6101","153","35","0","9/10/2021 12:00:00 AM","2019","37049","NYTIMES-USCENSUS"
"9/11/2021 12:00:00 AM","Pickens County","Georgia","South","South Atlantic","13227","34.456746","-84.490351 ","4804","89","0","0","9/10/2021 12:00:00 AM","2019","32591","NYTIMES-USCENSUS"
"9/11/2021 12:00:00 AM","Clay County","Missouri","Midwest","West North Central","29047","39.315551","-94.421502 ","13399","191","70","0","9/10/2021 12:00:00 AM","2019","249948","NYTIMES-USCENSUS"
"9/11/2021 12:00:00 AM","Weber County","Utah","West","Mountain","49057","41.270325","-111.876883 ","36227","249","0","0","9/10/2021 12:00:00 AM","2019","260213","NYTIMES-USCENSUS"
"9/11/2021 12:00:00 AM","Covington city","Virginia","South","South Atlantic","51580","37.78106","-79.985434 ","667","14","0","0","9/10/2021 12:00:00 AM","2019","5538","NYTIMES-USCENSUS"
"9/11/2021 12:00:00 AM","Limestone County","Alabama","South","East South Central","01083","34.810239","-86.981399 ","13566","176","106","1","9/10/2021 12:00:00 AM","2019","98915","NYTIMES-USCENSUS"
"9/11/2021 12:00:00 AM","Dickinson County","Michigan","Midwest","East North Central","26043","46.012833","-87.866139 ","3096","75","0","0","9/10/2021 12:00:00 AM","2019","25239","NYTIMES-USCENSUS"
"9/11/2021 12:00:00 AM","Juneau City and Borough","Alaska","West","Pacific","02110","58.37291","-134.178445 ","2513","3","0","0","9/10/2021 12:00:00 AM","2019","31974","NYTIMES-USCENSUS"
"9/11/2021 12:00:00 AM","Norton County","Kansas","Midwest","West North Central","20137","39.783867","-99.899235 ","1301","30","0","0","9/10/2021 12:00:00 AM","2019","5361","NYTIMES-USCENSUS"
"9/11/2021 12:00:00 AM","Will County","Illinois","Midwest","East North Central","17197","41.448474","-87.978456 ","85397","1148","0","0","9/10/2021 12:00:00 AM","2019","690743","NYTIMES-USCENSUS"
"9/11/2021 12:00:00 AM","Hampton County","South Carolina","South","South Atlantic","45049","32.778334","-81.143822 ","2802","66","0","0","9/10/2021 12:00:00 AM","2019","19222","NYTIMES-USCENSUS"
"9/11/2021 12:00:00 AM","Caldwell Parish","Louisiana","South","West South Central","22021","32.101219","-92.114231 ","1800","33","0","0","9/10/2021 12:00:00 AM","2019","9918","NYTIMES-USCENSUS"
"9/11/2021 12:00:00 AM","Jefferson County","Oregon","West","Pacific","41031","44.645151","-121.178632 ","3015","45","0","0","9/10/2021 12:00:00 AM","2019","24658","NYTIMES-USCENSUS"
"9/11/2021 12:00:00 AM","Dunklin County","Missouri","Midwest","West North Central","29069","36.153025","-90.062254 ","3916","55","33","0","9/10/2021 12:00:00 AM","2019","29131","NYTIMES-USCENSUS"
"9/11/2021 12:00:00 AM","Plumas County","California","West","Pacific","06063","39.992295","-120.824371 ","1136","6","13","0","9/10/2021 12:00:00 AM","2019","18807","NYTIMES-USCENSUS"
"9/11/2021 12:00:00 AM","Carbon County","Montana","West","Mountain","30009","45.224468","-109.028554 ","1048","19","0","0","9/10/2021 12:00:00 AM","2019","10725","NYTIMES-USCENSUS"
"9/11/2021 12:00:00 AM","Sarpy County","Nebraska","Midwest","West North Central","31153","41.115064","-96.109125 ","25000","144","0","0","9/10/2021 12:00:00 AM","2019","187196","NYTIMES-USCENSUS"
"9/11/2021 12:00:00 AM","Erie County","Ohio","Midwest","East North Central","39043","41.394143","-82.586835 ","9270","169","39","0","9/10/2021 12:00:00 AM","2019","74266","NYTIMES-USCENSUS"
"9/11/2021 12:00:00 AM","Orange County","New York","Northeast","Middle Atlantic","36071","41.40241","-74.306252 ","53363","746","139","1","9/10/2021 12:00:00 AM","2019","384940","NYTIMES-USCENSUS"
"9/11/2021 12:00:00 AM","Hockley County","Texas","South","West South Central","48219","33.605932","-102.343398 ","3788","119","28","0","9/10/2021 12:00:00 AM","2019","23021","NYTIMES-USCENSUS"
"9/11/2021 12:00:00 AM","Osage County","Oklahoma","South","West South Central","40113","36.624299","-96.408112 ","6167","100","0","0","9/10/2021 12:00:00 AM","2019","46963","NYTIMES-USCENSUS"
"9/11/2021 12:00:00 AM","Deaf Smith County","Texas","South","West South Central","48117","34.940766","-102.607564 ","3215","68","24","0","9/10/2021 12:00:00 AM","2019","18546","NYTIMES-USCENSUS"
"9/11/2021 12:00:00 AM","Bristol County","Massachusetts","Northeast","New England","25005","41.748588","-71.088894 ","73467","1795","0","0","9/10/2021 12:00:00 AM","2019","565217","NYTIMES-USCENSUS"
"9/11/2021 12:00:00 AM","Eddy County","North Dakota","Midwest","West North Central","38027","47.723436","-98.900474 ","488","6","1","0","9/10/2021 12:00:00 AM","2019","2287","NYTIMES-USCENSUS"
"9/11/2021 12:00:00 AM","Delaware County","Pennsylvania","Northeast","Middle Atlantic","42045","39.916685","-75.398818 ","57161","1444","149","0","9/10/2021 12:00:00 AM","2019","566747","NYTIMES-USCENSUS"
"9/11/2021 12:00:00 AM","Brown County","Wisconsin","Midwest","East North Central","55009","44.474024","-87.99613 ","38989","315","0","0","9/10/2021 12:00:00 AM","2019","264542","NYTIMES-USCENSUS"
"9/11/2021 12:00:00 AM","Marion County","Illinois","Midwest","East North Central","17121","38.648236","-88.920362 ","6249","139","0","0","9/10/2021 12:00:00 AM","2019","37205","NYTIMES-USCENSUS"
"9/11/2021 12:00:00 AM","Oklahoma County","Oklahoma","South","West South Central","40109","35.554611","-97.409401 ","106564","1401","0","0","9/10/2021 12:00:00 AM","2019","797434","NYTIMES-USCENSUS"
"9/11/2021 12:00:00 AM","Lyon County","Kentucky","South","East South Central","21143","37.023976","-88.083391 ","1779","23","0","0","9/10/2021 12:00:00 AM","2019","8210","NYTIMES-USCENSUS"
"9/11/2021 12:00:00 AM","Perry County","Missouri","Midwest","West North Central","29157","37.71113","-89.802125 ","2750","32","15","0","9/10/2021 12:00:00 AM","2019","19136","NYTIMES-USCENSUS"
"9/11/2021 12:00:00 AM","Marion County","Mississippi","South","East South Central","28091","31.230167","-89.821712 ","3927","97","0","0","9/10/2021 12:00:00 AM","2019","24573","NYTIMES-USCENSUS"
"9/11/2021 12:00:00 AM","Barren County","Kentucky","South","East South Central","21009","36.962805","-85.932108 ","6503","111","0","0","9/10/2021 12:00:00 AM","2019","44249","NYTIMES-USCENSUS"
"9/11/2021 12:00:00 AM","Union County","Oregon","West","Pacific","41061","45.304081","-117.999149 ","2508","34","0","0","9/10/2021 12:00:00 AM","2019","26835","NYTIMES-USCENSUS"
"9/11/2021 12:00:00 AM","Daviess County","Indiana","Midwest","East North Central","18027","38.69609","-87.076943 ","3875","104","0","0","9/10/2021 12:00:00 AM","2019","33351","NYTIMES-USCENSUS"
"9/11/2021 12:00:00 AM","Sequatchie County","Tennessee","South","East South Central","47153","35.372336","-85.410082 ","2547","30","0","0","9/10/2021 12:00:00 AM","2019","15026","NYTIMES-USCENSUS"
"9/11/2021 12:00:00 AM","Crane County","Texas","South","West South Central","48103","31.422796","-102.487774 ","737","14","14","0","9/10/2021 12:00:00 AM","2019","4797","NYTIMES-USCENSUS"
"9/11/2021 12:00:00 AM","Klickitat County","Washington","West","Pacific","53039","45.870446","-120.779305 ","1394","14","0","0","9/10/2021 12:00:00 AM","2019","22425","NYTIMES-USCENSUS"
"9/11/2021 12:00:00 AM","Orange County","Florida","South","South Atlantic","12095","28.514391","-81.323284 ","213034","1310","0","0","9/10/2021 12:00:00 AM","2019","1393452","NYTIMES-USCENSUS"
"9/11/2021 12:00:00 AM","Claiborne County","Mississippi","South","East South Central","28021","31.97281","-90.915424 ","1231","34","0","0","9/10/2021 12:00:00 AM","2019","8988","NYTIMES-USCENSUS"
"9/11/2021 12:00:00 AM","Webster County","Iowa","Midwest","West North Central","19187","42.433579","-94.175831 ","6161","102","0","0","9/10/2021 12:00:00 AM","2019","35904","NYTIMES-USCENSUS"
"9/11/2021 12:00:00 AM","Coconino County","Arizona","West","Mountain","04005","35.829692","-111.773728 ","20398","342","82","0","9/10/2021 12:00:00 AM","2019","143476","NYTIMES-USCENSUS"
"9/11/2021 12:00:00 AM","Clark County","South Dakota","Midwest","West North Central","46025","44.855211","-97.724912 ","475","5","0","0","9/10/2021 12:00:00 AM","2019","3736","NYTIMES-USCENSUS"
"9/11/2021 12:00:00 AM","Cumberland County","North Carolina","South","South Atlantic","37051","35.050192","-78.828719 ","39208","402","0","0","9/10/2021 12:00:00 AM","2019","335509","NYTIMES-USCENSUS"
"9/11/2021 12:00:00 AM","Carroll County","Indiana","Midwest","East North Central","18015","40.58498","-86.565141 ","2340","27","0","0","9/10/2021 12:00:00 AM","2019","20257","NYTIMES-USCENSUS"
"9/11/2021 12:00:00 AM","Floyd County","Indiana","Midwest","East North Central","18043","38.318081","-85.911847 ","9901","204","0","0","9/10/2021 12:00:00 AM","2019","78522","NYTIMES-USCENSUS"
"9/11/2021 12:00:00 AM","Columbus County","North Carolina","South","South Atlantic","37047","34.261602","-78.639308 ","9180","192","0","0","9/10/2021 12:00:00 AM","2019","55508","NYTIMES-USCENSUS"
"9/11/2021 12:00:00 AM","Blaine County","Oklahoma","South","West South Central","40011","35.877795","-98.429031 ","1298","23","0","0","9/10/2021 12:00:00 AM","2019","9429","NYTIMES-USCENSUS"
"9/11/2021 12:00:00 AM","McCook County","South Dakota","Midwest","West North Central","46087","43.680416","-97.358048 ","842","25","0","0","9/10/2021 12:00:00 AM","2019","5586","NYTIMES-USCENSUS"
"9/11/2021 12:00:00 AM","Hopkins County","Texas","South","West South Central","48223","33.148967","-95.565434 ","4742","127","34","0","9/10/2021 12:00:00 AM","2019","37084","NYTIMES-USCENSUS"
"9/11/2021 12:00:00 AM","Tillman County","Oklahoma","South","West South Central","40141","34.371085","-98.931701 ","897","18","0","0","9/10/2021 12:00:00 AM","2019","7250","NYTIMES-USCENSUS"
"9/11/2021 12:00:00 AM","Sagadahoc County","Maine","Northeast","New England","23023","43.916845","-69.844227 ","1619","12","4","0","9/10/2021 12:00:00 AM","2019","35856","NYTIMES-USCENSUS"
"9/11/2021 12:00:00 AM","Montgomery County","Pennsylvania","Northeast","Middle Atlantic","42091","40.209999","-75.370201 ","77426","1764","206","0","9/10/2021 12:00:00 AM","2019","830915","NYTIMES-USCENSUS"
"9/11/2021 12:00:00 AM","Lavaca County","Texas","South","West South Central","48285","29.382578","-96.923633 ","3012","83","0","2","9/10/2021 12:00:00 AM","2019","20154","NYTIMES-USCENSUS"
"9/11/2021 12:00:00 AM","Newton County","Missouri","Midwest","West North Central","29145","36.908371","-94.335034 ","7427","110","13","0","9/10/2021 12:00:00 AM","2019","58236","NYTIMES-USCENSUS"
"9/11/2021 12:00:00 AM","Alfalfa County","Oklahoma","South","West South Central","40003","36.729703","-98.323445 ","1232","7","0","0","9/10/2021 12:00:00 AM","2019","5702","NYTIMES-USCENSUS"
"9/11/2021 12:00:00 AM","Crosby County","Texas","South","West South Central","48107","33.609144","-101.29871 ","903","32","8","1","9/10/2021 12:00:00 AM","2019","5737","NYTIMES-USCENSUS"
"9/11/2021 12:00:00 AM","Washington County","Alabama","South","East South Central","01129","31.408503","-88.212404 ","2387","43","10","0","9/10/2021 12:00:00 AM","2019","16326","NYTIMES-USCENSUS"
"9/11/2021 12:00:00 AM","Washtenaw County","Michigan","Midwest","East North Central","26161","42.252217","-83.843423 ","29785","317","0","0","9/10/2021 12:00:00 AM","2019","367601","NYTIMES-USCENSUS"
"9/11/2021 12:00:00 AM","Stanislaus County","California","West","Pacific","06099","37.562316","-121.002831 ","78021","1194","0","0","9/10/2021 12:00:00 AM","2019","550660","NYTIMES-USCENSUS"
"9/11/2021 12:00:00 AM","McKenzie County","North Dakota","Midwest","West North Central","38053","47.742475","-103.403215 ","1853","15","18","0","9/10/2021 12:00:00 AM","2019","15024","NYTIMES-USCENSUS"
"9/11/2021 12:00:00 AM","Washington County","Illinois","Midwest","East North Central","17189","38.35314","-89.417187 ","2011","33","0","0","9/10/2021 12:00:00 AM","2019","13887","NYTIMES-USCENSUS"
"9/11/2021 12:00:00 AM","Lincoln County","Washington","West","Pacific","53043","47.582743","-118.417692 ","1012","14","0","0","9/10/2021 12:00:00 AM","2019","10939","NYTIMES-USCENSUS"
"9/11/2021 12:00:00 AM","Lake County","Montana","West","Mountain","30047","47.642901","-114.083687 ","2614","45","0","0","9/10/2021 12:00:00 AM","2019","30458","NYTIMES-USCENSUS"
"9/11/2021 12:00:00 AM","St. Clair County","Alabama","South","East South Central","01115","33.719491","-86.311327 ","14416","267","121","1","9/10/2021 12:00:00 AM","2019","89512","NYTIMES-USCENSUS"
"9/11/2021 12:00:00 AM","Sutter County","California","West","Pacific","06101","39.03619","-121.70394 ","12656","145","72","1","9/10/2021 12:00:00 AM","2019","96971","NYTIMES-USCENSUS"
"9/11/2021 12:00:00 AM","Archer County","Texas","South","West South Central","48009","33.616305","-98.687267 ","1004","14","3","0","9/10/2021 12:00:00 AM","2019","8553","NYTIMES-USCENSUS"
"9/11/2021 12:00:00 AM","Davidson County","North Carolina","South","South Atlantic","37057","35.795131","-80.207107 ","22146","235","0","0","9/10/2021 12:00:00 AM","2019","167609","NYTIMES-USCENSUS"
"9/11/2021 12:00:00 AM","Chesterfield County","Virginia","South","South Atlantic","51041","37.378434","-77.585847 ","34252","474","0","0","9/10/2021 12:00:00 AM","2019","352802","NYTIMES-USCENSUS"
"9/11/2021 12:00:00 AM","Madison County","Mississippi","South","East South Central","28089","32.63437","-90.03416 ","13807","262","0","0","9/10/2021 12:00:00 AM","2019","106272","NYTIMES-USCENSUS"
"9/11/2021 12:00:00 AM","Meade County","Kentucky","South","East South Central","21163","37.967476","-86.200863 ","2861","30","0","0","9/10/2021 12:00:00 AM","2019","28572","NYTIMES-USCENSUS"
"9/11/2021 12:00:00 AM","Fayette County","Alabama","South","East South Central","01057","33.716157","-87.764292 ","2636","67","24","0","9/10/2021 12:00:00 AM","2019","16302","NYTIMES-USCENSUS"
"9/11/2021 12:00:00 AM","Salem County","New Jersey","Northeast","Middle Atlantic","34033","39.573828","-75.357356 ","6883","194","29","0","9/10/2021 12:00:00 AM","2019","62385","NYTIMES-USCENSUS"
"9/11/2021 12:00:00 AM","Hemphill County","Texas","South","West South Central","48211","35.815956","-100.27921 ","636","3","2","0","9/10/2021 12:00:00 AM","2019","3819","NYTIMES-USCENSUS"
"9/11/2021 12:00:00 AM","Switzerland County","Indiana","Midwest","East North Central","18155","38.825854","-85.029681 ","1177","9","0","0","9/10/2021 12:00:00 AM","2019","10751","NYTIMES-USCENSUS"
"9/11/2021 12:00:00 AM","Wythe County","Virginia","South","South Atlantic","51197","36.899867","-81.083001 ","3572","87","0","0","9/10/2021 12:00:00 AM","2019","28684","NYTIMES-USCENSUS"
"9/11/2021 12:00:00 AM","Terry County","Texas","South","West South Central","48445","33.171229","-102.339284 ","1918","61","0","0","9/10/2021 12:00:00 AM","2019","12337","NYTIMES-USCENSUS"
"9/11/2021 12:00:00 AM","Jasper County","South Carolina","South","South Atlantic","45053","32.43059","-81.021627 ","3559","60","0","0","9/10/2021 12:00:00 AM","2019","30073","NYTIMES-USCENSUS"
"9/11/2021 12:00:00 AM","Luna County","New Mexico","West","Mountain","35029","32.184523","-107.747191 ","3682","92","0","0","9/10/2021 12:00:00 AM","2019","23709","NYTIMES-USCENSUS"
"9/11/2021 12:00:00 AM","Highlands County","Florida","South","South Atlantic","12055","27.34108","-81.342353 ","14317","366","0","0","9/10/2021 12:00:00 AM","2019","106221","NYTIMES-USCENSUS"
"9/11/2021 12:00:00 AM","Gove County","Kansas","Midwest","West North Central","20063","38.917239","-100.48736 ","419","21","0","0","9/10/2021 12:00:00 AM","2019","2636","NYTIMES-USCENSUS"
"9/11/2021 12:00:00 AM","Pocahontas County","West Virginia","South","South Atlantic","54075","38.332606","-80.010121 ","876","15","6","0","9/10/2021 12:00:00 AM","2019","8247","NYTIMES-USCENSUS"
"9/11/2021 12:00:00 AM","Taliaferro County","Georgia","South","South Atlantic","13265","33.559319","-82.875272 ","158","3","0","0","9/10/2021 12:00:00 AM","2019","1537","NYTIMES-USCENSUS"
"9/11/2021 12:00:00 AM","Jackson County","Indiana","Midwest","East North Central","18071","38.911957","-86.042516 ","6262","80","0","0","9/10/2021 12:00:00 AM","2019","44231","NYTIMES-USCENSUS"
"9/11/2021 12:00:00 AM","Liberty County","Georgia","South","South Atlantic","13179","31.807458","-81.457871 ","6760","77","0","0","9/10/2021 12:00:00 AM","2019","61435","NYTIMES-USCENSUS"
"9/11/2021 12:00:00 AM","Manassas city","Virginia","South","South Atlantic","51683","38.746808","-77.482633 ","4603","49","0","0","9/10/2021 12:00:00 AM","2019","41085","NYTIMES-USCENSUS"
"9/11/2021 12:00:00 AM","DeKalb County","Tennessee","South","East South Central","47041","35.982219","-85.833596 ","3757","59","0","0","9/10/2021 12:00:00 AM","2019","20490","NYTIMES-USCENSUS"
"9/11/2021 12:00:00 AM","Grant County","North Dakota","Midwest","West North Central","38037","46.357827","-101.639049 ","239","7","4","0","9/10/2021 12:00:00 AM","2019","2274","NYTIMES-USCENSUS"
"9/11/2021 12:00:00 AM","Clay County","West Virginia","South","South Atlantic","54015","38.459826","-81.081866 ","890","12","39","0","9/10/2021 12:00:00 AM","2019","8508","NYTIMES-USCENSUS"
"9/11/2021 12:00:00 AM","Hood County","Texas","South","West South Central","48221","32.430149","-97.831677 ","8697","159","21","1","9/10/2021 12:00:00 AM","2019","61643","NYTIMES-USCENSUS"
"9/11/2021 12:00:00 AM","Adair County","Iowa","Midwest","West North Central","19001","41.328528","-94.478164 ","937","32","0","0","9/10/2021 12:00:00 AM","2019","7152","NYTIMES-USCENSUS"
"9/11/2021 12:00:00 AM","Henrico County","Virginia","South","South Atlantic","51087","37.43752","-77.300333 ","30630","660","0","0","9/10/2021 12:00:00 AM","2019","330818","NYTIMES-USCENSUS"
"9/11/2021 12:00:00 AM","Andrews County","Texas","South","West South Central","48003","32.312258","-102.640206 ","2280","49","0","0","9/10/2021 12:00:00 AM","2019","18705","NYTIMES-USCENSUS"
"9/11/2021 12:00:00 AM","Atoka County","Oklahoma","South","West South Central","40005","34.392469","-96.036558 ","2426","29","0","0","9/10/2021 12:00:00 AM","2019","13758","NYTIMES-USCENSUS"
"9/11/2021 12:00:00 AM","Bexar County","Texas","South","West South Central","48029","29.448671","-98.520147 ","296585","4316","0","39","9/10/2021 12:00:00 AM","2019","2003554","NYTIMES-USCENSUS"
"9/11/2021 12:00:00 AM","Beadle County","South Dakota","Midwest","West North Central","46005","44.418265","-98.279422 ","3066","43","0","0","9/10/2021 12:00:00 AM","2019","18453","NYTIMES-USCENSUS"
"9/11/2021 12:00:00 AM","Marinette County","Wisconsin","Midwest","East North Central","55075","45.346899","-87.991198 ","5175","77","0","0","9/10/2021 12:00:00 AM","2019","40350","NYTIMES-USCENSUS"
"9/11/2021 12:00:00 AM","Lake County","Florida","South","South Atlantic","12069","28.764113","-81.712282 ","49249","663","0","0","9/10/2021 12:00:00 AM","2019","367118","NYTIMES-USCENSUS"
"9/11/2021 12:00:00 AM","Morrison County","Minnesota","Midwest","West North Central","27097","46.020484","-94.266619 ","4585","62","0","0","9/10/2021 12:00:00 AM","2019","33386","NYTIMES-USCENSUS"
"9/11/2021 12:00:00 AM","Saluda County","South Carolina","South","South Atlantic","45081","34.005278","-81.727903 ","2225","50","0","0","9/10/2021 12:00:00 AM","2019","20473","NYTIMES-USCENSUS"
"9/11/2021 12:00:00 AM","Union County","North Carolina","South","South Atlantic","37179","34.99182","-80.530426 ","31458","266","0","0","9/10/2021 12:00:00 AM","2019","239859","NYTIMES-USCENSUS"
"9/11/2021 12:00:00 AM","Mercer County","Illinois","Midwest","East North Central","17131","41.205605","-90.74177 ","1819","34","0","0","9/10/2021 12:00:00 AM","2019","15437","NYTIMES-USCENSUS"
"9/11/2021 12:00:00 AM","Lawrence County","South Dakota","Midwest","West North Central","46081","44.348514","-103.806362 ","3733","51","0","0","9/10/2021 12:00:00 AM","2019","25844","NYTIMES-USCENSUS"
"9/11/2021 12:00:00 AM","Otsego County","Michigan","Midwest","East North Central","26137","45.021787","-84.576603 ","2603","43","0","0","9/10/2021 12:00:00 AM","2019","24668","NYTIMES-USCENSUS"
"9/11/2021 12:00:00 AM","Lincoln County","Mississippi","South","East South Central","28085","31.535216","-90.453566 ","5139","127","0","0","9/10/2021 12:00:00 AM","2019","34153","NYTIMES-USCENSUS"
"9/11/2021 12:00:00 AM","Passaic County","New Jersey","Northeast","Middle Atlantic","34031","41.036655","-74.299408 ","77890","1970","102","1","9/10/2021 12:00:00 AM","2019","501826","NYTIMES-USCENSUS"
"9/11/2021 12:00:00 AM","Nez Perce County","Idaho","West","Mountain","16069","46.333791","-116.760909 ","5088","68","0","0","9/10/2021 12:00:00 AM","2019","40408","NYTIMES-USCENSUS"
"9/11/2021 12:00:00 AM","Apache County","Arizona","West","Mountain","04001","35.385084","-109.490172 ","12760","457","17","1","9/10/2021 12:00:00 AM","2019","71887","NYTIMES-USCENSUS"
"9/11/2021 12:00:00 AM","Mineral County","Nevada","West","Mountain","32021","38.516647","-118.416279 ","446","8","0","0","9/10/2021 12:00:00 AM","2019","4505","NYTIMES-USCENSUS"
"9/11/2021 12:00:00 AM","Caldwell County","Missouri","Midwest","West North Central","29025","39.658998","-93.979179 ","1066","18","3","0","9/10/2021 12:00:00 AM","2019","9020","NYTIMES-USCENSUS"
"9/11/2021 12:00:00 AM","Macon County","Illinois","Midwest","East North Central","17115","39.860237","-88.961529 ","13779","235","0","0","9/10/2021 12:00:00 AM","2019","104009","NYTIMES-USCENSUS"
"9/11/2021 12:00:00 AM","Steele County","Minnesota","Midwest","West North Central","27147","44.015261","-93.220453 ","4845","21","0","0","9/10/2021 12:00:00 AM","2019","36649","NYTIMES-USCENSUS"
"9/11/2021 12:00:00 AM","Alamance County","North Carolina","South","South Atlantic","37001","36.043954","-79.400573 ","22767","306","0","0","9/10/2021 12:00:00 AM","2019","169509","NYTIMES-USCENSUS"
"9/11/2021 12:00:00 AM","Morgan County","Utah","West","Mountain","49029","41.091027","-111.577885 ","1513","11","0","0","9/10/2021 12:00:00 AM","2019","12124","NYTIMES-USCENSUS"
"9/11/2021 12:00:00 AM","Tioga County","Pennsylvania","Northeast","Middle Atlantic","42117","41.766859","-77.257288 ","3485","115","25","0","9/10/2021 12:00:00 AM","2019","40591","NYTIMES-USCENSUS"
"9/11/2021 12:00:00 AM","Buena Vista County","Iowa","Midwest","West North Central","19021","42.741522","-95.141432 ","4663","42","0","0","9/10/2021 12:00:00 AM","2019","19620","NYTIMES-USCENSUS"
"9/11/2021 12:00:00 AM","Pickens County","Alabama","South","East South Central","01107","33.2968","-88.096864 ","2909","65","4","1","9/10/2021 12:00:00 AM","2019","19930","NYTIMES-USCENSUS"
"9/11/2021 12:00:00 AM","Petersburg city","Virginia","South","South Atlantic","51730","37.20473","-77.392368 ","4652","93","0","0","9/10/2021 12:00:00 AM","2019","31346","NYTIMES-USCENSUS"
"9/11/2021 12:00:00 AM","Irion County","Texas","South","West South Central","48235","31.303424","-100.981304 ","170","2","0","0","9/10/2021 12:00:00 AM","2019","1536","NYTIMES-USCENSUS"
"9/11/2021 12:00:00 AM","Preston County","West Virginia","South","South Atlantic","54077","39.46903","-79.668865 ","3587","52","55","0","9/10/2021 12:00:00 AM","2019","33432","NYTIMES-USCENSUS"
"9/11/2021 12:00:00 AM","Putnam County","West Virginia","South","South Atlantic","54079","38.510518","-81.906109 ","6762","105","77","0","9/10/2021 12:00:00 AM","2019","56450","NYTIMES-USCENSUS"
"9/11/2021 12:00:00 AM","Hardy County","West Virginia","South","South Atlantic","54031","39.011361","-78.841729 ","1951","25","27","0","9/10/2021 12:00:00 AM","2019","13776","NYTIMES-USCENSUS"
"9/11/2021 12:00:00 AM","Chelan County","Washington","West","Pacific","53007","47.860974","-120.619041 ","9309","89","0","0","9/10/2021 12:00:00 AM","2019","77200","NYTIMES-USCENSUS"
"9/11/2021 12:00:00 AM","Oceana County","Michigan","Midwest","East North Central","26127","43.603954","-86.467177 ","2945","62","0","0","9/10/2021 12:00:00 AM","2019","26467","NYTIMES-USCENSUS"
"9/11/2021 12:00:00 AM","Crawford County","Arkansas","South","West South Central","05033","35.583011","-94.236219 ","9707","149","90","0","9/10/2021 12:00:00 AM","2019","63257","NYTIMES-USCENSUS"
"9/11/2021 12:00:00 AM","Jackson County","Missouri","Midwest","West North Central","29095","39.005364","-94.343211 ","51567","588","162","2","9/10/2021 12:00:00 AM","2019","703011","NYTIMES-USCENSUS"
"9/11/2021 12:00:00 AM","Phillips County","Arkansas","South","West South Central","05107","34.423687","-90.855593 ","2956","62","17","0","9/10/2021 12:00:00 AM","2019","17782","NYTIMES-USCENSUS"
"9/11/2021 12:00:00 AM","Concordia Parish","Louisiana","South","West South Central","22029","31.469805","-91.626315 ","2950","69","0","0","9/10/2021 12:00:00 AM","2019","19259","NYTIMES-USCENSUS"
"9/11/2021 12:00:00 AM","Redwood County","Minnesota","Midwest","West North Central","27127","44.403536","-95.254241 ","1921","41","0","0","9/10/2021 12:00:00 AM","2019","15170","NYTIMES-USCENSUS"
"9/11/2021 12:00:00 AM","Russell County","Alabama","South","East South Central","01113","32.289811","-85.18698 ","5776","51","30","0","9/10/2021 12:00:00 AM","2019","57961","NYTIMES-USCENSUS"
"9/11/2021 12:00:00 AM","Cherokee County","Iowa","Midwest","West North Central","19035","42.742737","-95.633262 ","1745","39","0","0","9/10/2021 12:00:00 AM","2019","11235","NYTIMES-USCENSUS"
"9/11/2021 12:00:00 AM","Washington County","Iowa","Midwest","West North Central","19183","41.329401","-91.725052 ","2974","54","0","0","9/10/2021 12:00:00 AM","2019","21965","NYTIMES-USCENSUS"
"9/11/2021 12:00:00 AM","Cass County","Nebraska","Midwest","West North Central","31025","40.909878","-96.140609 ","2985","17","0","0","9/10/2021 12:00:00 AM","2019","26248","NYTIMES-USCENSUS"
"9/11/2021 12:00:00 AM","Morris County","Texas","South","West South Central","48343","33.116466","-94.731265 ","1437","42","11","0","9/10/2021 12:00:00 AM","2019","12388","NYTIMES-USCENSUS"
"9/11/2021 12:00:00 AM","Potter County","Texas","South","West South Central","48375","35.398675","-101.893804 ","21344","506","0","0","9/10/2021 12:00:00 AM","2019","117415","NYTIMES-USCENSUS"
"9/11/2021 12:00:00 AM","Montgomery County","Ohio","Midwest","East North Central","39113","39.753736","-84.290591 ","63589","1113","541","0","9/10/2021 12:00:00 AM","2019","531687","NYTIMES-USCENSUS"
"9/11/2021 12:00:00 AM","Virginia Beach city","Virginia","South","South Atlantic","51810","36.779525","-76.029142 ","44285","455","0","0","9/10/2021 12:00:00 AM","2019","449974","NYTIMES-USCENSUS"
"9/11/2021 12:00:00 AM","Calhoun County","Iowa","Midwest","West North Central","19025","42.38617","-94.643683 ","1619","13","0","0","9/10/2021 12:00:00 AM","2019","9668","NYTIMES-USCENSUS"
"9/11/2021 12:00:00 AM","New Castle County","Delaware","South","South Atlantic","10003","39.575915","-75.644132 ","72267","946","329","0","9/10/2021 12:00:00 AM","2019","558753","NYTIMES-USCENSUS"
"9/11/2021 12:00:00 AM","Van Buren County","Michigan","Midwest","East North Central","26159","42.28215","-86.306076 ","7815","147","0","0","9/10/2021 12:00:00 AM","2019","75677","NYTIMES-USCENSUS"
"9/11/2021 12:00:00 AM","Greene County","Georgia","South","South Atlantic","13133","33.576704","-83.166625 ","2493","65","0","0","9/10/2021 12:00:00 AM","2019","18324","NYTIMES-USCENSUS"
"9/11/2021 12:00:00 AM","Harvey County","Kansas","Midwest","West North Central","20079","38.050144","-97.436706 ","4368","74","0","0","9/10/2021 12:00:00 AM","2019","34429","NYTIMES-USCENSUS"
"9/11/2021 12:00:00 AM","Surry County","Virginia","South","South Atlantic","51181","37.119761","-76.880172 ","527","9","0","0","9/10/2021 12:00:00 AM","2019","6422","NYTIMES-USCENSUS"
"9/11/2021 12:00:00 AM","Loudon County","Tennessee","South","East South Central","47105","35.735085","-84.314085 ","7903","78","0","0","9/10/2021 12:00:00 AM","2019","54068","NYTIMES-USCENSUS"
"9/11/2021 12:00:00 AM","Allegany County","Maryland","South","South Atlantic","24001","39.612313","-78.703104 ","8081","220","18","1","9/10/2021 12:00:00 AM","2019","70416","NYTIMES-USCENSUS"
"9/11/2021 12:00:00 AM","New Kent County","Virginia","South","South Atlantic","51127","37.51016","-76.999331 ","1893","20","0","0","9/10/2021 12:00:00 AM","2019","23091","NYTIMES-USCENSUS"
"9/11/2021 12:00:00 AM","Huron County","Michigan","Midwest","East North Central","26063","43.907616","-82.857045 ","4344","87","0","0","9/10/2021 12:00:00 AM","2019","30981","NYTIMES-USCENSUS"
"9/11/2021 12:00:00 AM","Becker County","Minnesota","Midwest","West North Central","27005","46.937629","-95.741757 ","4190","59","0","0","9/10/2021 12:00:00 AM","2019","34423","NYTIMES-USCENSUS"
"9/11/2021 12:00:00 AM","Crawford County","Kansas","Midwest","West North Central","20037","37.505821","-94.853897 ","6419","104","0","0","9/10/2021 12:00:00 AM","2019","38818","NYTIMES-USCENSUS"
"9/11/2021 12:00:00 AM","Juneau County","Wisconsin","Midwest","East North Central","55057","43.932836","-90.113984 ","3655","31","0","0","9/10/2021 12:00:00 AM","2019","26687","NYTIMES-USCENSUS"
"9/11/2021 12:00:00 AM","Osage County","Kansas","Midwest","West North Central","20139","38.650215","-95.708255 ","1719","30","0","0","9/10/2021 12:00:00 AM","2019","15949","NYTIMES-USCENSUS"
"9/11/2021 12:00:00 AM","Loudoun County","Virginia","South","South Atlantic","51107","39.0812","-77.638898 ","31101","285","0","0","9/10/2021 12:00:00 AM","2019","413538","NYTIMES-USCENSUS"
"9/11/2021 12:00:00 AM","Venango County","Pennsylvania","Northeast","Middle Atlantic","42121","41.400714","-79.765813 ","4645","109","43","1","9/10/2021 12:00:00 AM","2019","50668","NYTIMES-USCENSUS"
"9/11/2021 12:00:00 AM","Davis County","Utah","West","Mountain","49011","41.037559","-112.201943 ","46822","222","0","0","9/10/2021 12:00:00 AM","2019","355481","NYTIMES-USCENSUS"
"9/11/2021 12:00:00 AM","Owen County","Indiana","Midwest","East North Central","18119","39.317339","-86.838845 ","2710","63","0","0","9/10/2021 12:00:00 AM","2019","20799","NYTIMES-USCENSUS"
"9/11/2021 12:00:00 AM","Gloucester County","New Jersey","Northeast","Middle Atlantic","34015","39.722875","-75.145679 ","34370","676","94","3","9/10/2021 12:00:00 AM","2019","291636","NYTIMES-USCENSUS"
"9/11/2021 12:00:00 AM","Big Horn County","Wyoming","West","Mountain","56003","44.525117","-107.994848 ","1465","38","0","0","9/10/2021 12:00:00 AM","2019","11790","NYTIMES-USCENSUS"
"9/11/2021 12:00:00 AM","Parmer County","Texas","South","West South Central","48369","34.532163","-102.784853 ","1468","35","16","0","9/10/2021 12:00:00 AM","2019","9605","NYTIMES-USCENSUS"
"9/11/2021 12:00:00 AM","Barry County","Michigan","Midwest","East North Central","26015","42.582811","-85.31455 ","6580","74","0","0","9/10/2021 12:00:00 AM","2019","61550","NYTIMES-USCENSUS"
"9/11/2021 12:00:00 AM","Mercer County","West Virginia","South","South Atlantic","54055","37.403448","-81.106456 ","6671","135","78","0","9/10/2021 12:00:00 AM","2019","58758","NYTIMES-USCENSUS"
"9/11/2021 12:00:00 AM","Calvert County","Maryland","South","South Atlantic","24009","38.522719","-76.529762 ","4806","91","28","0","9/10/2021 12:00:00 AM","2019","92525","NYTIMES-USCENSUS"
"9/11/2021 12:00:00 AM","Custer County","Idaho","West","Mountain","16037","44.273351","-114.252267 ","291","3","0","0","9/10/2021 12:00:00 AM","2019","4315","NYTIMES-USCENSUS"
"9/11/2021 12:00:00 AM","Kent County","Rhode Island","Northeast","New England","44003","41.675118","-71.580282 ","20528","372","0","0","9/10/2021 12:00:00 AM","2019","164292","NYTIMES-USCENSUS"
"9/11/2021 12:00:00 AM","Broadwater County","Montana","West","Mountain","30007","46.329849","-111.497873 ","625","8","0","0","9/10/2021 12:00:00 AM","2019","6237","NYTIMES-USCENSUS"
"9/11/2021 12:00:00 AM","Green County","Kentucky","South","East South Central","21087","37.278065","-85.537925 ","1875","23","18","0","9/10/2021 12:00:00 AM","2019","10941","NYTIMES-USCENSUS"
"9/11/2021 12:00:00 AM","Oconee County","South Carolina","South","South Atlantic","45073","34.748766","-83.06154 ","13092","163","0","0","9/10/2021 12:00:00 AM","2019","79546","NYTIMES-USCENSUS"
"9/11/2021 12:00:00 AM","Lenoir County","North Carolina","South","South Atlantic","37107","35.240066","-77.635514 ","8032","134","0","0","9/10/2021 12:00:00 AM","2019","55949","NYTIMES-USCENSUS"
"9/11/2021 12:00:00 AM","Walton County","Florida","South","South Atlantic","12131","30.571247","-86.162798 ","11092","89","0","0","9/10/2021 12:00:00 AM","2019","74071","NYTIMES-USCENSUS"
"9/11/2021 12:00:00 AM","Saratoga County","New York","Northeast","Middle Atlantic","36091","43.106135","-73.855387 ","17888","182","95","1","9/10/2021 12:00:00 AM","2019","229863","NYTIMES-USCENSUS"
"9/11/2021 12:00:00 AM","Comal County","Texas","South","West South Central","48091","29.812377","-98.258129 ","16976","394","235","2","9/10/2021 12:00:00 AM","2019","156209","NYTIMES-USCENSUS"
"9/11/2021 12:00:00 AM","DeKalb County","Illinois","Midwest","East North Central","17037","41.894612","-88.768991 ","11594","130","0","0","9/10/2021 12:00:00 AM","2019","104897","NYTIMES-USCENSUS"
"9/11/2021 12:00:00 AM","Edwards County","Illinois","Midwest","East North Central","17047","38.417095","-88.047941 ","917","14","0","0","9/10/2021 12:00:00 AM","2019","6395","NYTIMES-USCENSUS"
"9/11/2021 12:00:00 AM","Fulton County","Ohio","Midwest","East North Central","39051","41.597264","-84.124267 ","4991","81","33","0","9/10/2021 12:00:00 AM","2019","42126","NYTIMES-USCENSUS"
"9/11/2021 12:00:00 AM","Warren County","Mississippi","South","East South Central","28149","32.356095","-90.852384 ","6217","151","0","0","9/10/2021 12:00:00 AM","2019","45381","NYTIMES-USCENSUS"
"9/11/2021 12:00:00 AM","Hyde County","North Carolina","South","South Atlantic","37095","35.408157","-76.153687 ","754","9","0","0","9/10/2021 12:00:00 AM","2019","4937","NYTIMES-USCENSUS"
"9/11/2021 12:00:00 AM","Yolo County","California","West","Pacific","06113","38.679609","-121.90275 ","18674","239","101","0","9/10/2021 12:00:00 AM","2019","220500","NYTIMES-USCENSUS"
"9/11/2021 12:00:00 AM","Evans County","Georgia","South","South Atlantic","13109","32.153083","-81.890153 ","1508","40","0","0","9/10/2021 12:00:00 AM","2019","10654","NYTIMES-USCENSUS"
"9/11/2021 12:00:00 AM","Adams County","Ohio","Midwest","East North Central","39001","38.834468","-83.478082 ","3266","63","38","0","9/10/2021 12:00:00 AM","2019","27698","NYTIMES-USCENSUS"
"9/11/2021 12:00:00 AM","Swain County","North Carolina","South","South Atlantic","37173","35.568849","-83.465614 ","1609","22","0","0","9/10/2021 12:00:00 AM","2019","14271","NYTIMES-USCENSUS"
"9/11/2021 12:00:00 AM","Northwest Arctic Borough","Alaska","West","Pacific","02188","67.005066","-160.021086 ","918","3","0","0","9/10/2021 12:00:00 AM","2019","7621","NYTIMES-USCENSUS"
"9/11/2021 12:00:00 AM","Schuyler County","Missouri","Midwest","West North Central","29197","40.469361","-92.519016 ","398","7","1","0","9/10/2021 12:00:00 AM","2019","4660","NYTIMES-USCENSUS"
"9/11/2021 12:00:00 AM","Dallas County","Missouri","Midwest","West North Central","29059","37.683583","-93.033815 ","2143","38","5","0","9/10/2021 12:00:00 AM","2019","16878","NYTIMES-USCENSUS"
"9/11/2021 12:00:00 AM","Hill County","Montana","West","Mountain","30041","48.631959","-110.106321 ","2398","48","0","0","9/10/2021 12:00:00 AM","2019","16484","NYTIMES-USCENSUS"
"9/11/2021 12:00:00 AM","Kenosha County","Wisconsin","Midwest","East North Central","55059","42.585882","-87.876398 ","21106","345","0","0","9/10/2021 12:00:00 AM","2019","169561","NYTIMES-USCENSUS"
"9/11/2021 12:00:00 AM","Barron County","Wisconsin","Midwest","East North Central","55005","45.437192","-91.852892 ","6742","86","0","0","9/10/2021 12:00:00 AM","2019","45244","NYTIMES-USCENSUS"
"9/11/2021 12:00:00 AM","Taos County","New Mexico","West","Mountain","35055","36.577183","-105.638878 ","2103","57","0","0","9/10/2021 12:00:00 AM","2019","32723","NYTIMES-USCENSUS"
"9/11/2021 12:00:00 AM","Allegan County","Michigan","Midwest","East North Central","26005","42.421251","-86.261403 ","12371","168","0","0","9/10/2021 12:00:00 AM","2019","118081","NYTIMES-USCENSUS"
"9/11/2021 12:00:00 AM","Cheatham County","Tennessee","South","East South Central","47021","36.255169","-87.100808 ","6111","58","0","0","9/10/2021 12:00:00 AM","2019","40667","NYTIMES-USCENSUS"
"9/11/2021 12:00:00 AM","Sioux County","North Dakota","Midwest","West North Central","38085","46.110618","-101.061284 ","726","14","2","1","9/10/2021 12:00:00 AM","2019","4230","NYTIMES-USCENSUS"
"9/11/2021 12:00:00 AM","Copiah County","Mississippi","South","East South Central","28029","31.866915","-90.448758 ","4167","81","0","0","9/10/2021 12:00:00 AM","2019","28065","NYTIMES-USCENSUS"
"9/11/2021 12:00:00 AM","Trumbull County","Ohio","Midwest","East North Central","39155","41.306374","-80.7704 ","18788","500","114","0","9/10/2021 12:00:00 AM","2019","197974","NYTIMES-USCENSUS"
"9/11/2021 12:00:00 AM","Osborne County","Kansas","Midwest","West North Central","20141","39.348261","-98.767942 ","343","13","0","0","9/10/2021 12:00:00 AM","2019","3421","NYTIMES-USCENSUS"
"9/11/2021 12:00:00 AM","Berrien County","Michigan","Midwest","East North Central","26021","41.791382","-86.742543 ","16960","306","0","0","9/10/2021 12:00:00 AM","2019","153401","NYTIMES-USCENSUS"
"9/11/2021 12:00:00 AM","Harrison County","Missouri","Midwest","West North Central","29081","40.34562","-93.992582 ","1044","17","6","0","9/10/2021 12:00:00 AM","2019","8352","NYTIMES-USCENSUS"
"9/11/2021 12:00:00 AM","Sumner County","Kansas","Midwest","West North Central","20191","37.236662","-97.493352 ","2764","57","0","0","9/10/2021 12:00:00 AM","2019","22836","NYTIMES-USCENSUS"
"9/11/2021 12:00:00 AM","Newport County","Rhode Island","Northeast","New England","44005","41.501045","-71.283063 ","7876","45","0","0","9/10/2021 12:00:00 AM","2019","82082","NYTIMES-USCENSUS"
"9/11/2021 12:00:00 AM","Brooks County","Georgia","South","South Atlantic","13027","30.822934","-83.581905 ","2263","56","0","0","9/10/2021 12:00:00 AM","2019","15457","NYTIMES-USCENSUS"
"9/11/2021 12:00:00 AM","St. Tammany Parish","Louisiana","South","West South Central","22103","30.410022","-89.951962 ","41120","644","0","0","9/10/2021 12:00:00 AM","2019","260419","NYTIMES-USCENSUS"
"9/11/2021 12:00:00 AM","Orleans Parish","Louisiana","South","West South Central","22071","30.05342","-89.934502 ","44464","925","0","0","9/10/2021 12:00:00 AM","2019","390144","NYTIMES-USCENSUS"
"9/11/2021 12:00:00 AM","Frio County","Texas","South","West South Central","48163","28.869383","-99.109005 ","3537","61","0","0","9/10/2021 12:00:00 AM","2019","20306","NYTIMES-USCENSUS"
"9/11/2021 12:00:00 AM","Chase County","Kansas","Midwest","West North Central","20017","38.299475","-96.594029 ","306","3","0","0","9/10/2021 12:00:00 AM","2019","2648","NYTIMES-USCENSUS"
"9/11/2021 12:00:00 AM","Miami County","Ohio","Midwest","East North Central","39109","40.053326","-84.228413 ","13029","242","99","0","9/10/2021 12:00:00 AM","2019","106987","NYTIMES-USCENSUS"
"9/11/2021 12:00:00 AM","Taylor County","Georgia","South","South Atlantic","13269","32.554667","-84.251426 ","1153","26","0","0","9/10/2021 12:00:00 AM","2019","8020","NYTIMES-USCENSUS"
"9/11/2021 12:00:00 AM","Union County","New Mexico","West","Mountain","35059","36.488085","-103.475723 ","458","10","0","0","9/10/2021 12:00:00 AM","2019","4059","NYTIMES-USCENSUS"
"9/11/2021 12:00:00 AM","Wharton County","Texas","South","West South Central","48481","29.27848","-96.229674 ","5450","140","18","1","9/10/2021 12:00:00 AM","2019","41556","NYTIMES-USCENSUS"
"9/11/2021 12:00:00 AM","Franklin County","Mississippi","South","East South Central","28037","31.477773","-90.895457 ","1129","27","0","0","9/10/2021 12:00:00 AM","2019","7713","NYTIMES-USCENSUS"
"9/11/2021 12:00:00 AM","Chicot County","Arkansas","South","West South Central","05017","33.267139","-91.297158 ","1908","43","8","0","9/10/2021 12:00:00 AM","2019","10118","NYTIMES-USCENSUS"
"9/11/2021 12:00:00 AM","Anson County","North Carolina","South","South Atlantic","37007","34.974972","-80.109763 ","3277","63","0","0","9/10/2021 12:00:00 AM","2019","24446","NYTIMES-USCENSUS"
"9/11/2021 12:00:00 AM","Payne County","Oklahoma","South","West South Central","40119","36.079225","-96.975255 ","10863","81","0","0","9/10/2021 12:00:00 AM","2019","81784","NYTIMES-USCENSUS"
"9/11/2021 12:00:00 AM","Hutchinson County","Texas","South","West South Central","48233","35.837047","-101.362746 ","3046","76","34","1","9/10/2021 12:00:00 AM","2019","20938","NYTIMES-USCENSUS"
"9/11/2021 12:00:00 AM","Washington County","Wisconsin","Midwest","East North Central","55131","43.391156","-88.232917 ","18850","211","0","0","9/10/2021 12:00:00 AM","2019","136034","NYTIMES-USCENSUS"
"9/11/2021 12:00:00 AM","Red Willow County","Nebraska","Midwest","West North Central","31145","40.16942","-100.468576 ","1282","15","0","0","9/10/2021 12:00:00 AM","2019","10724","NYTIMES-USCENSUS"
"9/11/2021 12:00:00 AM","Heard County","Georgia","South","South Atlantic","13149","33.291347","-85.137886 ","1368","24","0","0","9/10/2021 12:00:00 AM","2019","11923","NYTIMES-USCENSUS"
"9/11/2021 12:00:00 AM","Laurens County","Georgia","South","South Atlantic","13175","32.39322","-82.926317 ","8329","199","0","0","9/10/2021 12:00:00 AM","2019","47546","NYTIMES-USCENSUS"
"9/11/2021 12:00:00 AM","Washington County","New York","Northeast","Middle Atlantic","36115","43.312377","-73.439428 ","3679","59","29","0","9/10/2021 12:00:00 AM","2019","61204","NYTIMES-USCENSUS"
"9/11/2021 12:00:00 AM","Dukes County","Massachusetts","Northeast","New England","25007","41.38097","-70.701499 ","1742","0","0","0","9/10/2021 12:00:00 AM","2019","17332","NYTIMES-USCENSUS"
"9/11/2021 12:00:00 AM","Randolph County","West Virginia","South","South Atlantic","54083","38.781095","-79.867788 ","4054","25","49","0","9/10/2021 12:00:00 AM","2019","28695","NYTIMES-USCENSUS"
"9/11/2021 12:00:00 AM","Lucas County","Ohio","Midwest","East North Central","39095","41.682321","-83.468903 ","48690","851","258","0","9/10/2021 12:00:00 AM","2019","428348","NYTIMES-USCENSUS"
"9/11/2021 12:00:00 AM","Dickey County","North Dakota","Midwest","West North Central","38021","46.107756","-98.496518 ","854","33","1","0","9/10/2021 12:00:00 AM","2019","4872","NYTIMES-USCENSUS"
"9/11/2021 12:00:00 AM","Putnam County","Illinois","Midwest","East North Central","17155","41.198961","-89.298347 ","532","5","0","0","9/10/2021 12:00:00 AM","2019","5739","NYTIMES-USCENSUS"
"9/11/2021 12:00:00 AM","Madison County","Arkansas","South","West South Central","05087","36.012545","-93.724053 ","2279","33","11","0","9/10/2021 12:00:00 AM","2019","16576","NYTIMES-USCENSUS"
"9/11/2021 12:00:00 AM","Ogle County","Illinois","Midwest","East North Central","17141","42.041884","-89.320176 ","6900","93","0","0","9/10/2021 12:00:00 AM","2019","50643","NYTIMES-USCENSUS"
"9/11/2021 12:00:00 AM","Scott County","Virginia","South","South Atlantic","51169","36.712776","-82.613624 ","2378","66","0","0","9/10/2021 12:00:00 AM","2019","21566","NYTIMES-USCENSUS"
"9/11/2021 12:00:00 AM","Spotsylvania County","Virginia","South","South Atlantic","51177","38.182431","-77.657226 ","12446","130","0","0","9/10/2021 12:00:00 AM","2019","136215","NYTIMES-USCENSUS"
"9/11/2021 12:00:00 AM","Lipscomb County","Texas","South","West South Central","48295","36.2802","-100.272683 ","367","12","0","0","9/10/2021 12:00:00 AM","2019","3233","NYTIMES-USCENSUS"
"9/11/2021 12:00:00 AM","Toombs County","Georgia","South","South Atlantic","13279","32.117753","-82.330597 ","5044","139","0","0","9/10/2021 12:00:00 AM","2019","26830","NYTIMES-USCENSUS"
"9/11/2021 12:00:00 AM","Montgomery County","Georgia","South","South Atlantic","13209","32.172108","-82.533349 ","1371","25","0","0","9/10/2021 12:00:00 AM","2019","9172","NYTIMES-USCENSUS"
"9/11/2021 12:00:00 AM","Hancock County","Kentucky","South","East South Central","21091","37.843325","-86.792761 ","1199","16","0","0","9/10/2021 12:00:00 AM","2019","8722","NYTIMES-USCENSUS"
"9/11/2021 12:00:00 AM","Cleveland County","Oklahoma","South","West South Central","40027","35.206376","-97.323088 ","38490","474","0","0","9/10/2021 12:00:00 AM","2019","284014","NYTIMES-USCENSUS"
"9/11/2021 12:00:00 AM","Zavala County","Texas","South","West South Central","48507","28.864652","-99.75983 ","2316","50","0","1","9/10/2021 12:00:00 AM","2019","11840","NYTIMES-USCENSUS"
"9/11/2021 12:00:00 AM","Marion County","Kentucky","South","East South Central","21155","37.552604","-85.268959 ","3310","40","0","0","9/10/2021 12:00:00 AM","2019","19273","NYTIMES-USCENSUS"
"9/11/2021 12:00:00 AM","Jefferson County","Washington","West","Pacific","53031","47.805708","-123.527057 ","824","9","0","0","9/10/2021 12:00:00 AM","2019","32221","NYTIMES-USCENSUS"
"9/11/2021 12:00:00 AM","Mobile County","Alabama","South","East South Central","01097","30.684572","-88.196568 ","68791","1121","409","7","9/10/2021 12:00:00 AM","2019","413210","NYTIMES-USCENSUS"
"9/11/2021 12:00:00 AM","York County","Maine","Northeast","New England","23031","43.426019","-70.668425 ","15250","144","65","0","9/10/2021 12:00:00 AM","2019","207641","NYTIMES-USCENSUS"
"9/11/2021 12:00:00 AM","Morgan County","West Virginia","South","South Atlantic","54065","39.557345","-78.256517 ","1578","26","25","0","9/10/2021 12:00:00 AM","2019","17884","NYTIMES-USCENSUS"
"9/11/2021 12:00:00 AM","Clay County","Mississippi","South","East South Central","28025","33.65967","-88.782468 ","2779","70","0","0","9/10/2021 12:00:00 AM","2019","19316","NYTIMES-USCENSUS"
"9/11/2021 12:00:00 AM","Turner County","Georgia","South","South Atlantic","13287","31.7248","-83.620319 ","1554","44","0","0","9/10/2021 12:00:00 AM","2019","7985","NYTIMES-USCENSUS"
"9/11/2021 12:00:00 AM","Westmoreland County","Pennsylvania","Northeast","Middle Atlantic","42129","40.311068","-79.466688 ","37986","810","155","0","9/10/2021 12:00:00 AM","2019","348899","NYTIMES-USCENSUS"
"9/11/2021 12:00:00 AM","Kimble County","Texas","South","West South Central","48267","30.479472","-99.746396 ","389","11","0","0","9/10/2021 12:00:00 AM","2019","4337","NYTIMES-USCENSUS"
"9/11/2021 12:00:00 AM","Richland Parish","Louisiana","South","West South Central","22083","32.413158","-91.748353 ","3917","72","0","0","9/10/2021 12:00:00 AM","2019","20122","NYTIMES-USCENSUS"
"9/11/2021 12:00:00 AM","Juniata County","Pennsylvania","Northeast","Middle Atlantic","42067","40.530673","-77.400438 ","2397","95","6","1","9/10/2021 12:00:00 AM","2019","24763","NYTIMES-USCENSUS"
"9/11/2021 12:00:00 AM","Shelby County","Ohio","Midwest","East North Central","39149","40.33668","-84.204142 ","5478","98","38","0","9/10/2021 12:00:00 AM","2019","48590","NYTIMES-USCENSUS"
"9/11/2021 12:00:00 AM","Person County","North Carolina","South","South Atlantic","37145","36.38635","-78.965623 ","4322","77","0","0","9/10/2021 12:00:00 AM","2019","39490","NYTIMES-USCENSUS"
"9/11/2021 12:00:00 AM","Clay County","Illinois","Midwest","East North Central","17025","38.746819","-88.482325 ","2218","52","0","0","9/10/2021 12:00:00 AM","2019","13184","NYTIMES-USCENSUS"
"9/11/2021 12:00:00 AM","Rio Arriba County","New Mexico","West","Mountain","35039","36.509669","-106.693983 ","4286","82","0","0","9/10/2021 12:00:00 AM","2019","38921","NYTIMES-USCENSUS"
"9/11/2021 12:00:00 AM","Hawaii County","Hawaii","West","Pacific","15001","19.597764","-155.502443 ","8788","65","106","2","9/10/2021 12:00:00 AM","2019","201513","NYTIMES-USCENSUS"
"9/11/2021 12:00:00 AM","Bond County","Illinois","Midwest","East North Central","17005","38.885924","-89.436592 ","2380","29","0","0","9/10/2021 12:00:00 AM","2019","16426","NYTIMES-USCENSUS"
"9/11/2021 12:00:00 AM","Chester County","Pennsylvania","Northeast","Middle Atlantic","42029","39.974029","-75.749751 ","45136","841","138","0","9/10/2021 12:00:00 AM","2019","524989","NYTIMES-USCENSUS"
"9/11/2021 12:00:00 AM","Covington County","Mississippi","South","East South Central","28031","31.633331","-89.548897 ","3986","89","0","0","9/10/2021 12:00:00 AM","2019","18636","NYTIMES-USCENSUS"
"9/11/2021 12:00:00 AM","Noxubee County","Mississippi","South","East South Central","28103","33.106606","-88.566152 ","1703","37","0","0","9/10/2021 12:00:00 AM","2019","10417","NYTIMES-USCENSUS"
"9/11/2021 12:00:00 AM","Rockingham County","New Hampshire","Northeast","New England","33015","42.988664","-71.09908 ","27097","282","0","0","9/10/2021 12:00:00 AM","2019","309769","NYTIMES-USCENSUS"
"9/11/2021 12:00:00 AM","Thomas County","Georgia","South","South Atlantic","13275","30.864619","-83.919815 ","6983","148","0","0","9/10/2021 12:00:00 AM","2019","44451","NYTIMES-USCENSUS"
"9/11/2021 12:00:00 AM","Payette County","Idaho","West","Mountain","16075","44.00243","-116.750238 ","3192","43","0","0","9/10/2021 12:00:00 AM","2019","23951","NYTIMES-USCENSUS"
"9/11/2021 12:00:00 AM","Branch County","Michigan","Midwest","East North Central","26023","41.918455","-85.066885 ","6565","128","0","0","9/10/2021 12:00:00 AM","2019","43517","NYTIMES-USCENSUS"
"9/11/2021 12:00:00 AM","Pettis County","Missouri","Midwest","West North Central","29159","38.727367","-93.285207 ","6777","92","32","0","9/10/2021 12:00:00 AM","2019","42339","NYTIMES-USCENSUS"
"9/11/2021 12:00:00 AM","El Dorado County","California","West","Pacific","06017","38.785612","-120.534225 ","15418","122","81","0","9/10/2021 12:00:00 AM","2019","192843","NYTIMES-USCENSUS"
"9/11/2021 12:00:00 AM","Union County","South Dakota","Midwest","West North Central","46127","42.831106","-96.650829 ","2380","43","0","0","9/10/2021 12:00:00 AM","2019","15932","NYTIMES-USCENSUS"
"9/11/2021 12:00:00 AM","Greensville County","Virginia","South","South Atlantic","51081","36.680336","-77.560277 ","1713","26","0","0","9/10/2021 12:00:00 AM","2019","11336","NYTIMES-USCENSUS"
"9/11/2021 12:00:00 AM","Henry County","Indiana","Midwest","East North Central","18065","39.929591","-85.397363 ","7239","125","0","0","9/10/2021 12:00:00 AM","2019","47972","NYTIMES-USCENSUS"
"9/11/2021 12:00:00 AM","Fayette County","Texas","South","West South Central","48149","29.877886","-96.921231 ","3441","82","14","1","9/10/2021 12:00:00 AM","2019","25346","NYTIMES-USCENSUS"
"9/11/2021 12:00:00 AM","Knox County","Ohio","Midwest","East North Central","39083","40.40362","-82.422393 ","6115","120","61","0","9/10/2021 12:00:00 AM","2019","62322","NYTIMES-USCENSUS"
"9/11/2021 12:00:00 AM","Southampton County","Virginia","South","South Atlantic","51175","36.720068","-77.103813 ","2151","58","0","0","9/10/2021 12:00:00 AM","2019","17631","NYTIMES-USCENSUS"
"9/11/2021 12:00:00 AM","Johnson County","Kansas","Midwest","West North Central","20091","38.883907","-94.82233 ","71739","857","0","0","9/10/2021 12:00:00 AM","2019","602401","NYTIMES-USCENSUS"
"9/11/2021 12:00:00 AM","Broward County","Florida","South","South Atlantic","12011","26.193535","-80.476683 ","336741","3079","0","0","9/10/2021 12:00:00 AM","2019","1952778","NYTIMES-USCENSUS"
"9/11/2021 12:00:00 AM","Gadsden County","Florida","South","South Atlantic","12039","30.578687","-84.612607 ","8111","99","0","0","9/10/2021 12:00:00 AM","2019","45660","NYTIMES-USCENSUS"
"9/11/2021 12:00:00 AM","Sheridan County","Kansas","Midwest","West North Central","20179","39.350547","-100.441228 ","458","14","0","0","9/10/2021 12:00:00 AM","2019","2521","NYTIMES-USCENSUS"
"9/11/2021 12:00:00 AM","Dallam County","Texas","South","West South Central","48111","36.28637","-102.59402 ","1103","26","9","0","9/10/2021 12:00:00 AM","2019","7287","NYTIMES-USCENSUS"
"9/11/2021 12:00:00 AM","Jim Hogg County","Texas","South","West South Central","48247","27.053231","-98.747572 ","852","19","7","0","9/10/2021 12:00:00 AM","2019","5200","NYTIMES-USCENSUS"
"9/11/2021 12:00:00 AM","Colbert County","Alabama","South","East South Central","01033","34.703112","-87.801457 ","8099","159","32","1","9/10/2021 12:00:00 AM","2019","55241","NYTIMES-USCENSUS"
"9/11/2021 12:00:00 AM","Bay County","Florida","South","South Atlantic","12005","30.15914","-85.534395 ","30026","394","0","0","9/10/2021 12:00:00 AM","2019","174705","NYTIMES-USCENSUS"
"9/11/2021 12:00:00 AM","Merrimack County","New Hampshire","Northeast","New England","33013","43.299579","-71.680041 ","10882","123","0","0","9/10/2021 12:00:00 AM","2019","151391","NYTIMES-USCENSUS"
"9/11/2021 12:00:00 AM","Morgan County","Missouri","Midwest","West North Central","29141","38.420806","-92.874835 ","2415","55","10","0","9/10/2021 12:00:00 AM","2019","20627","NYTIMES-USCENSUS"
"9/11/2021 12:00:00 AM","Ochiltree County","Texas","South","West South Central","48357","36.278744","-100.815864 ","1325","30","6","1","9/10/2021 12:00:00 AM","2019","9836","NYTIMES-USCENSUS"
"9/11/2021 12:00:00 AM","Chase County","Nebraska","Midwest","West North Central","31029","40.53039","-101.694192 ","477","5","0","0","9/10/2021 12:00:00 AM","2019","3924","NYTIMES-USCENSUS"
"9/11/2021 12:00:00 AM","Marion County","Alabama","South","East South Central","01093","34.138219","-87.881551 ","4417","113","52","1","9/10/2021 12:00:00 AM","2019","29709","NYTIMES-USCENSUS"
"9/11/2021 12:00:00 AM","Wabaunsee County","Kansas","Midwest","West North Central","20197","38.955154","-96.201262 ","848","16","0","0","9/10/2021 12:00:00 AM","2019","6931","NYTIMES-USCENSUS"
"9/11/2021 12:00:00 AM","Jefferson County","Georgia","South","South Atlantic","13163","33.058176","-82.420004 ","2469","70","0","0","9/10/2021 12:00:00 AM","2019","15362","NYTIMES-USCENSUS"
"9/11/2021 12:00:00 AM","Glascock County","Georgia","South","South Atlantic","13125","33.227491","-82.606913 ","377","19","0","0","9/10/2021 12:00:00 AM","2019","2971","NYTIMES-USCENSUS"
"9/11/2021 12:00:00 AM","Franklin County","Tennessee","South","East South Central","47051","35.155926","-86.099203 ","6966","94","0","0","9/10/2021 12:00:00 AM","2019","42208","NYTIMES-USCENSUS"
"9/11/2021 12:00:00 AM","Kerr County","Texas","South","West South Central","48265","30.059953","-99.353339 ","5756","107","0","0","9/10/2021 12:00:00 AM","2019","52600","NYTIMES-USCENSUS"
"9/11/2021 12:00:00 AM","Genesee County","New York","Northeast","Middle Atlantic","36037","43.00091","-78.192778 ","5858","125","17","0","9/10/2021 12:00:00 AM","2019","57280","NYTIMES-USCENSUS"
"9/11/2021 12:00:00 AM","Lewis County","Missouri","Midwest","West North Central","29111","40.084559","-91.728803 ","1514","21","23","0","9/10/2021 12:00:00 AM","2019","9776","NYTIMES-USCENSUS"
"9/11/2021 12:00:00 AM","Okaloosa County","Florida","South","South Atlantic","12091","30.614325","-86.59108 ","31903","367","0","0","9/10/2021 12:00:00 AM","2019","210738","NYTIMES-USCENSUS"
"9/11/2021 12:00:00 AM","Stafford County","Virginia","South","South Atlantic","51179","38.423084","-77.458048 ","13915","89","0","0","9/10/2021 12:00:00 AM","2019","152882","NYTIMES-USCENSUS"
"9/11/2021 12:00:00 AM","De Soto Parish","Louisiana","South","West South Central","22031","32.059248","-93.740797 ","4414","100","0","0","9/10/2021 12:00:00 AM","2019","27463","NYTIMES-USCENSUS"
"9/11/2021 12:00:00 AM","Taylor County","Wisconsin","Midwest","East North Central","55119","45.211656","-90.504853 ","2485","41","0","0","9/10/2021 12:00:00 AM","2019","20343","NYTIMES-USCENSUS"
"9/11/2021 12:00:00 AM","Wright County","Iowa","Midwest","West North Central","19197","42.733007","-93.734735 ","2130","41","0","0","9/10/2021 12:00:00 AM","2019","12562","NYTIMES-USCENSUS"
"9/11/2021 12:00:00 AM","Clatsop County","Oregon","West","Pacific","41007","46.024509","-123.705037 ","1988","24","0","0","9/10/2021 12:00:00 AM","2019","40224","NYTIMES-USCENSUS"
"9/11/2021 12:00:00 AM","Stillwater County","Montana","West","Mountain","30095","45.658545","-109.381576 ","846","16","0","0","9/10/2021 12:00:00 AM","2019","9642","NYTIMES-USCENSUS"
"9/11/2021 12:00:00 AM","Gogebic County","Michigan","Midwest","East North Central","26053","46.488054","-89.788314 ","1561","53","0","0","9/10/2021 12:00:00 AM","2019","13975","NYTIMES-USCENSUS"
"9/11/2021 12:00:00 AM","Gilmer County","Georgia","South","South Atlantic","13123","34.690506","-84.454624 ","4118","104","0","0","9/10/2021 12:00:00 AM","2019","31369","NYTIMES-USCENSUS"
"9/11/2021 12:00:00 AM","Upson County","Georgia","South","South Atlantic","13293","32.881837","-84.292283 ","4992","138","0","0","9/10/2021 12:00:00 AM","2019","26320","NYTIMES-USCENSUS"
"9/11/2021 12:00:00 AM","Faribault County","Minnesota","Midwest","West North Central","27043","43.676522","-93.947234 ","1737","22","0","0","9/10/2021 12:00:00 AM","2019","13653","NYTIMES-USCENSUS"
"9/11/2021 12:00:00 AM","Charles Mix County","South Dakota","Midwest","West North Central","46023","43.206185","-98.595143 ","1545","24","0","0","9/10/2021 12:00:00 AM","2019","9292","NYTIMES-USCENSUS"
"9/11/2021 12:00:00 AM","Mecklenburg County","North Carolina","South","South Atlantic","37119","35.246862","-80.833832 ","140746","1083","0","0","9/10/2021 12:00:00 AM","2019","1110356","NYTIMES-USCENSUS"
"9/11/2021 12:00:00 AM","Stoddard County","Missouri","Midwest","West North Central","29207","36.851557","-89.947481 ","3729","57","17","0","9/10/2021 12:00:00 AM","2019","29025","NYTIMES-USCENSUS"
"9/11/2021 12:00:00 AM","Tippecanoe County","Indiana","Midwest","East North Central","18157","40.389133","-86.893554 ","26160","245","0","0","9/10/2021 12:00:00 AM","2019","195732","NYTIMES-USCENSUS"
"9/11/2021 12:00:00 AM","Crawford County","Ohio","Midwest","East North Central","39033","40.848524","-82.924783 ","5013","112","40","0","9/10/2021 12:00:00 AM","2019","41494","NYTIMES-USCENSUS"
"9/11/2021 12:00:00 AM","Oliver County","North Dakota","Midwest","West North Central","38065","47.118079","-101.33142 ","165","3","0","0","9/10/2021 12:00:00 AM","2019","1959","NYTIMES-USCENSUS"
"9/11/2021 12:00:00 AM","McClain County","Oklahoma","South","West South Central","40087","35.016436","-97.449803 ","6753","83","0","0","9/10/2021 12:00:00 AM","2019","40474","NYTIMES-USCENSUS"
"9/11/2021 12:00:00 AM","DeSoto County","Mississippi","South","East South Central","28033","34.874922","-89.991211 ","28890","334","0","0","9/10/2021 12:00:00 AM","2019","184945","NYTIMES-USCENSUS"
"9/11/2021 12:00:00 AM","Kent County","Maryland","South","South Atlantic","24029","39.241279","-76.125987 ","1501","51","8","0","9/10/2021 12:00:00 AM","2019","19422","NYTIMES-USCENSUS"
"9/11/2021 12:00:00 AM","Cook County","Georgia","South","South Atlantic","13075","31.152516","-83.429445 ","3405","50","0","0","9/10/2021 12:00:00 AM","2019","17270","NYTIMES-USCENSUS"
"9/11/2021 12:00:00 AM","Washington Parish","Louisiana","South","West South Central","22117","30.852144","-90.046253 ","7499","185","0","0","9/10/2021 12:00:00 AM","2019","46194","NYTIMES-USCENSUS"
"9/11/2021 12:00:00 AM","Crisp County","Georgia","South","South Atlantic","13081","31.920268","-83.75653 ","2851","96","0","0","9/10/2021 12:00:00 AM","2019","22372","NYTIMES-USCENSUS"
"9/11/2021 12:00:00 AM","Clarke County","Iowa","Midwest","West North Central","19039","41.029726","-93.785259 ","1210","24","0","0","9/10/2021 12:00:00 AM","2019","9395","NYTIMES-USCENSUS"
"9/11/2021 12:00:00 AM","Bowman County","North Dakota","Midwest","West North Central","38011","46.110144","-103.505943 ","465","5","3","0","9/10/2021 12:00:00 AM","2019","3024","NYTIMES-USCENSUS"
"9/11/2021 12:00:00 AM","Traill County","North Dakota","Midwest","West North Central","38097","47.446215","-97.164754 ","1144","18","5","0","9/10/2021 12:00:00 AM","2019","8036","NYTIMES-USCENSUS"
"9/11/2021 12:00:00 AM","Houston County","Tennessee","South","East South Central","47083","36.285782","-87.705598 ","1577","38","0","0","9/10/2021 12:00:00 AM","2019","8201","NYTIMES-USCENSUS"
"9/11/2021 12:00:00 AM","Kanabec County","Minnesota","Midwest","West North Central","27065","45.94776","-93.297788 ","1606","29","0","0","9/10/2021 12:00:00 AM","2019","16337","NYTIMES-USCENSUS"
"9/11/2021 12:00:00 AM","Logan County","Kentucky","South","East South Central","21141","36.859607","-86.881288 ","4293","77","0","0","9/10/2021 12:00:00 AM","2019","27102","NYTIMES-USCENSUS"
"9/11/2021 12:00:00 AM","Elk County","Pennsylvania","Northeast","Middle Atlantic","42047","41.427332","-78.653937 ","3220","44","26","0","9/10/2021 12:00:00 AM","2019","29910","NYTIMES-USCENSUS"
"9/11/2021 12:00:00 AM","Laurel County","Kentucky","South","East South Central","21125","37.113268","-84.119395 ","11535","87","0","0","9/10/2021 12:00:00 AM","2019","60813","NYTIMES-USCENSUS"
"9/11/2021 12:00:00 AM","Stutsman County","North Dakota","Midwest","West North Central","38093","46.972223","-98.956123 ","3843","82","18","0","9/10/2021 12:00:00 AM","2019","20704","NYTIMES-USCENSUS"
"9/11/2021 12:00:00 AM","Morgan County","Georgia","South","South Atlantic","13211","33.598696","-83.499435 ","2942","32","0","0","9/10/2021 12:00:00 AM","2019","19276","NYTIMES-USCENSUS"
"9/11/2021 12:00:00 AM","Barrow County","Georgia","South","South Atlantic","13013","33.992009","-83.712303 ","13144","161","0","0","9/10/2021 12:00:00 AM","2019","83240","NYTIMES-USCENSUS"
"9/11/2021 12:00:00 AM","Clay County","Florida","South","South Atlantic","12019","29.986584","-81.865036 ","31369","352","0","0","9/10/2021 12:00:00 AM","2019","219252","NYTIMES-USCENSUS"
"9/11/2021 12:00:00 AM","Brevard County","Florida","South","South Atlantic","12009","28.298311","-80.700333 ","75107","914","0","0","9/10/2021 12:00:00 AM","2019","601942","NYTIMES-USCENSUS"
"9/11/2021 12:00:00 AM","Tyler County","Texas","South","West South Central","48457","30.769295","-94.375656 ","2243","56","0","1","9/10/2021 12:00:00 AM","2019","21672","NYTIMES-USCENSUS"
"9/11/2021 12:00:00 AM","Pratt County","Kansas","Midwest","West North Central","20151","37.647594","-98.74012 ","1074","26","0","0","9/10/2021 12:00:00 AM","2019","9164","NYTIMES-USCENSUS"
"9/11/2021 12:00:00 AM","Pawnee County","Oklahoma","South","West South Central","40117","36.313704","-96.696669 ","2387","57","0","0","9/10/2021 12:00:00 AM","2019","16376","NYTIMES-USCENSUS"
"9/11/2021 12:00:00 AM","Lewis County","West Virginia","South","South Atlantic","54041","38.988877","-80.495477 ","2031","29","31","0","9/10/2021 12:00:00 AM","2019","15907","NYTIMES-USCENSUS"
"9/11/2021 12:00:00 AM","Ellsworth County","Kansas","Midwest","West North Central","20053","38.700845","-98.205355 ","1295","25","0","0","9/10/2021 12:00:00 AM","2019","6102","NYTIMES-USCENSUS"
"9/11/2021 12:00:00 AM","Harris County","Texas","South","West South Central","48201","29.857273","-95.393037 ","525128","7622","2972","43","9/10/2021 12:00:00 AM","2019","4713325","NYTIMES-USCENSUS"
"9/11/2021 12:00:00 AM","Finney County","Kansas","Midwest","West North Central","20055","38.049808","-100.739967 ","6799","77","0","0","9/10/2021 12:00:00 AM","2019","36467","NYTIMES-USCENSUS"
"9/11/2021 12:00:00 AM","Houston County","Texas","South","West South Central","48225","31.323036","-95.4216 ","2582","64","7","0","9/10/2021 12:00:00 AM","2019","22968","NYTIMES-USCENSUS"
"9/11/2021 12:00:00 AM","Iberville Parish","Louisiana","South","West South Central","22047","30.270653","-91.365872 ","5607","120","0","0","9/10/2021 12:00:00 AM","2019","32511","NYTIMES-USCENSUS"
"9/11/2021 12:00:00 AM","Pulaski County","Indiana","Midwest","East North Central","18131","41.045272","-86.692538 ","1498","50","0","0","9/10/2021 12:00:00 AM","2019","12353","NYTIMES-USCENSUS"
"9/11/2021 12:00:00 AM","Evangeline Parish","Louisiana","South","West South Central","22039","30.720693","-92.404086 ","5398","113","0","0","9/10/2021 12:00:00 AM","2019","33395","NYTIMES-USCENSUS"
"9/11/2021 12:00:00 AM","Ashtabula County","Ohio","Midwest","East North Central","39007","41.906637","-80.745592 ","7919","184","36","0","9/10/2021 12:00:00 AM","2019","97241","NYTIMES-USCENSUS"
"9/11/2021 12:00:00 AM","St. Johns County","Florida","South","South Atlantic","12109","29.890487","-81.40004 ","36945","221","0","0","9/10/2021 12:00:00 AM","2019","264672","NYTIMES-USCENSUS"
"9/11/2021 12:00:00 AM","Prairie County","Arkansas","South","West South Central","05117","34.831116","-91.55362 ","1235","27","3","0","9/10/2021 12:00:00 AM","2019","8062","NYTIMES-USCENSUS"
"9/11/2021 12:00:00 AM","Jackson County","Illinois","Midwest","East North Central","17077","37.786096","-89.381212 ","7290","86","0","0","9/10/2021 12:00:00 AM","2019","56750","NYTIMES-USCENSUS"
"9/11/2021 12:00:00 AM","Gray County","Kansas","Midwest","West North Central","20069","37.744513","-100.451716 ","701","14","0","0","9/10/2021 12:00:00 AM","2019","5988","NYTIMES-USCENSUS"
"9/11/2021 12:00:00 AM","Gilchrist County","Florida","South","South Atlantic","12041","29.723456","-82.795801 ","2894","44","0","0","9/10/2021 12:00:00 AM","2019","18582","NYTIMES-USCENSUS"
"9/11/2021 12:00:00 AM","McLean County","Illinois","Midwest","East North Central","17113","40.494559","-88.844539 ","21155","239","0","0","9/10/2021 12:00:00 AM","2019","171517","NYTIMES-USCENSUS"
"9/11/2021 12:00:00 AM","Colonial Heights city","Virginia","South","South Atlantic","51570","37.261685","-77.396804 ","2183","62","0","0","9/10/2021 12:00:00 AM","2019","17370","NYTIMES-USCENSUS"
"9/11/2021 12:00:00 AM","Comanche County","Kansas","Midwest","West North Central","20033","37.181442","-99.251293 ","202","11","0","0","9/10/2021 12:00:00 AM","2019","1700","NYTIMES-USCENSUS"
"9/11/2021 12:00:00 AM","Marion County","Georgia","South","South Atlantic","13197","32.359312","-84.528735 ","872","28","0","0","9/10/2021 12:00:00 AM","2019","8359","NYTIMES-USCENSUS"
"9/11/2021 12:00:00 AM","Lassen County","California","West","Pacific","06035","40.715287","-120.621223 ","6577","31","0","0","9/10/2021 12:00:00 AM","2019","30573","NYTIMES-USCENSUS"
"9/11/2021 12:00:00 AM","Neshoba County","Mississippi","South","East South Central","28099","32.752518","-89.119274 ","6288","197","0","0","9/10/2021 12:00:00 AM","2019","29118","NYTIMES-USCENSUS"
"9/11/2021 12:00:00 AM","Wapello County","Iowa","Midwest","West North Central","19179","41.031275","-92.409466 ","4853","127","0","0","9/10/2021 12:00:00 AM","2019","34969","NYTIMES-USCENSUS"
"9/11/2021 12:00:00 AM","San Jacinto County","Texas","South","West South Central","48407","30.574388","-95.163136 ","2445","50","26","2","9/10/2021 12:00:00 AM","2019","28859","NYTIMES-USCENSUS"
"9/11/2021 12:00:00 AM","Benton County","Washington","West","Pacific","53005","46.228125","-119.516659 ","26345","283","0","0","9/10/2021 12:00:00 AM","2019","204390","NYTIMES-USCENSUS"
"9/11/2021 12:00:00 AM","Kiowa County","Kansas","Midwest","West North Central","20097","37.561231","-99.286539 ","287","5","0","0","9/10/2021 12:00:00 AM","2019","2475","NYTIMES-USCENSUS"
"9/11/2021 12:00:00 AM","Clay County","Tennessee","South","East South Central","47027","36.545749","-85.545717 ","1290","32","0","0","9/10/2021 12:00:00 AM","2019","7615","NYTIMES-USCENSUS"
"9/11/2021 12:00:00 AM","Hartford County","Connecticut","Northeast","New England","09003","41.806053","-72.732916 ","92462","2490","0","0","9/10/2021 12:00:00 AM","2019","891720","NYTIMES-USCENSUS"
"9/11/2021 12:00:00 AM","Grundy County","Iowa","Midwest","West North Central","19075","42.403339","-92.790244 ","1545","35","0","0","9/10/2021 12:00:00 AM","2019","12232","NYTIMES-USCENSUS"
