"monitor_date","county","state_name","region","subregion","fips","latitude","longitude","case_count_to_date","death_count_to_date","case_count","death_count","previous_monitor_date","population_year","population","source"
"3/7/2022 12:00:00 AM","Solano County","California","West","Pacific","06095","38.267226","-121.939594 ","86265","435","86265","435","","2019","447643","NYTIMES-USCENSUS"
"3/7/2022 12:00:00 AM","Vermilion County","Illinois","Midwest","East North Central","17183","40.186754","-87.726778 ","27827","304","27827","304","","2019","75758","NYTIMES-USCENSUS"
"3/7/2022 12:00:00 AM","Clay County","Florida","South","South Atlantic","12019","29.986584","-81.865036 ","53376","792","53376","792","","2019","219252","NYTIMES-USCENSUS"
"3/7/2022 12:00:00 AM","Williamson County","Tennessee","South","East South Central","47187","35.894807","-86.898068 ","61546","382","61546","382","","2019","238412","NYTIMES-USCENSUS"
"3/7/2022 12:00:00 AM","Wood County","West Virginia","South","South Atlantic","54107","39.211602","-81.516234 ","21993","335","21993","335","","2019","83518","NYTIMES-USCENSUS"
"3/7/2022 12:00:00 AM","DeKalb County","Alabama","South","East South Central","01049","34.460915","-85.804021 ","18596","313","18596","313","","2019","71513","NYTIMES-USCENSUS"
"3/7/2022 12:00:00 AM","Newton County","Arkansas","South","West South Central","05101","35.910742","-93.215898 ","1703","45","1703","45","","2019","7753","NYTIMES-USCENSUS"
"3/7/2022 12:00:00 AM","Gonzales County","Texas","South","West South Central","48177","29.461912","-97.49192 ","4679","95","4679","95","","2019","20837","NYTIMES-USCENSUS"
"3/7/2022 12:00:00 AM","Charlottesville city","Virginia","South","South Atlantic","51540","38.037658","-78.485381 ","10037","72","10037","72","","2019","47266","NYTIMES-USCENSUS"
"3/7/2022 12:00:00 AM","Hockley County","Texas","South","West South Central","48219","33.605932","-102.343398 ","7587","157","7587","157","","2019","23021","NYTIMES-USCENSUS"
"3/7/2022 12:00:00 AM","Moore County","Tennessee","South","East South Central","47127","35.288888","-86.358684 ","2225","37","2225","37","","2019","6488","NYTIMES-USCENSUS"
"3/7/2022 12:00:00 AM","Pennington County","South Dakota","Midwest","West North Central","46103","44.002349","-102.823801 ","32523","331","32523","331","","2019","113775","NYTIMES-USCENSUS"
"3/7/2022 12:00:00 AM","Waseca County","Minnesota","Midwest","West North Central","27161","44.01846","-93.589844 ","5417","39","5417","39","","2019","18612","NYTIMES-USCENSUS"
"3/7/2022 12:00:00 AM","Wicomico County","Maryland","South","South Atlantic","24045","38.36737","-75.632083 ","19511","320","19511","320","","2019","103609","NYTIMES-USCENSUS"
"3/7/2022 12:00:00 AM","Kalamazoo County","Michigan","Midwest","East North Central","26077","42.246266","-85.532854 ","58492","656","58492","656","","2019","265066","NYTIMES-USCENSUS"
"3/7/2022 12:00:00 AM","Arapahoe County","Colorado","West","Mountain","08005","39.644554","-104.331706 ","149633","1232","149633","1232","","2019","656590","NYTIMES-USCENSUS"
"3/7/2022 12:00:00 AM","Grant County","Arkansas","South","West South Central","05053","34.285568","-92.422979 ","4381","59","4381","59","","2019","18265","NYTIMES-USCENSUS"
"3/7/2022 12:00:00 AM","Jefferson County","Florida","South","South Atlantic","12065","30.396898","-83.921761 ","3918","44","3918","44","","2019","14246","NYTIMES-USCENSUS"
"3/7/2022 12:00:00 AM","Colusa County","California","West","Pacific","06011","39.177739","-122.237563 ","4510","21","4510","21","","2019","21547","NYTIMES-USCENSUS"
"3/7/2022 12:00:00 AM","Monroe County","Tennessee","South","East South Central","47123","35.447818","-84.249705 ","14400","217","14400","217","","2019","46545","NYTIMES-USCENSUS"
"3/7/2022 12:00:00 AM","Wilcox County","Alabama","South","East South Central","01131","31.990082","-87.304935 ","2864","42","2864","42","","2019","10373","NYTIMES-USCENSUS"
"3/7/2022 12:00:00 AM","St. Louis city","Missouri","Midwest","West North Central","29510","38.635699","-90.244582 ","55789","742","55789","742","","2019","300576","NYTIMES-USCENSUS"
"3/7/2022 12:00:00 AM","Onslow County","North Carolina","South","South Atlantic","37133","34.763109","-77.499469 ","51524","366","51524","366","","2019","197938","NYTIMES-USCENSUS"
"3/7/2022 12:00:00 AM","Otter Tail County","Minnesota","Midwest","West North Central","27111","46.405727","-95.714581 ","13346","162","13346","162","","2019","58746","NYTIMES-USCENSUS"
"3/7/2022 12:00:00 AM","Elbert County","Colorado","West","Mountain","08039","39.315157","-104.114076 ","4670","37","4670","37","","2019","26729","NYTIMES-USCENSUS"
"3/7/2022 12:00:00 AM","Stutsman County","North Dakota","Midwest","West North Central","38093","46.972223","-98.956123 ","7011","96","7011","96","","2019","20704","NYTIMES-USCENSUS"
"3/7/2022 12:00:00 AM","Cuming County","Nebraska","Midwest","West North Central","31039","41.915865","-96.788517 ","1804","15","1804","15","","2019","8846","NYTIMES-USCENSUS"
"3/7/2022 12:00:00 AM","Polk County","Missouri","Midwest","West North Central","29167","37.616761","-93.400817 ","8001","103","8001","103","","2019","32149","NYTIMES-USCENSUS"
"3/7/2022 12:00:00 AM","Winnebago County","Iowa","Midwest","West North Central","19189","43.378124","-93.743488 ","2935","44","2935","44","","2019","10354","NYTIMES-USCENSUS"
"3/7/2022 12:00:00 AM","Indian River County","Florida","South","South Atlantic","12061","27.700528","-80.574789 ","32175","627","32175","627","","2019","159923","NYTIMES-USCENSUS"
"3/7/2022 12:00:00 AM","Franklin County","Vermont","Northeast","New England","50011","44.858964","-72.909402 ","9273","66","9273","66","","2019","49402","NYTIMES-USCENSUS"
"3/7/2022 12:00:00 AM","Dimmit County","Texas","South","West South Central","48127","28.423587","-99.765871 ","5724","51","5724","51","","2019","10124","NYTIMES-USCENSUS"
"3/7/2022 12:00:00 AM","Polk County","Arkansas","South","West South Central","05113","34.490915","-94.230884 ","4084","136","4084","136","","2019","19964","NYTIMES-USCENSUS"
"3/7/2022 12:00:00 AM","Richmond city","Virginia","South","South Atlantic","51760","37.531399","-77.476009 ","43844","468","43844","468","","2019","230436","NYTIMES-USCENSUS"
"3/7/2022 12:00:00 AM","Screven County","Georgia","South","South Atlantic","13251","32.744751","-81.617585 ","2610","67","2610","67","","2019","13966","NYTIMES-USCENSUS"
"3/7/2022 12:00:00 AM","Adams County","Idaho","West","Mountain","16003","44.877004","-116.461624 ","692","15","692","15","","2019","4294","NYTIMES-USCENSUS"
"3/7/2022 12:00:00 AM","Albany County","New York","Northeast","Middle Atlantic","36001","42.58824","-73.97401 ","58143","503","58143","503","","2019","305506","NYTIMES-USCENSUS"
"3/7/2022 12:00:00 AM","Thurston County","Nebraska","Midwest","West North Central","31173","42.154061","-96.533943 ","1774","20","1774","20","","2019","7224","NYTIMES-USCENSUS"
"3/7/2022 12:00:00 AM","Le Sueur County","Minnesota","Midwest","West North Central","27079","44.373424","-93.730143 ","6404","49","6404","49","","2019","28887","NYTIMES-USCENSUS"
"3/7/2022 12:00:00 AM","Neshoba County","Mississippi","South","East South Central","28099","32.752518","-89.119274 ","10581","235","10581","235","","2019","29118","NYTIMES-USCENSUS"
"3/7/2022 12:00:00 AM","Morton County","Kansas","Midwest","West North Central","20129","37.185249","-101.809516 ","622","11","622","11","","2019","2587","NYTIMES-USCENSUS"
"3/7/2022 12:00:00 AM","McIntosh County","Oklahoma","South","West South Central","40091","35.369108","-95.671787 ","4879","118","4879","118","","2019","19596","NYTIMES-USCENSUS"
"3/7/2022 12:00:00 AM","Garrard County","Kentucky","South","East South Central","21079","37.630162","-84.545856 ","4735","71","4735","71","","2019","17666","NYTIMES-USCENSUS"
"3/7/2022 12:00:00 AM","Kimble County","Texas","South","West South Central","48267","30.479472","-99.746396 ","673","15","673","15","","2019","4337","NYTIMES-USCENSUS"
"3/7/2022 12:00:00 AM","Shasta County","California","West","Pacific","06089","40.760514","-122.043556 ","36457","573","36457","573","","2019","180080","NYTIMES-USCENSUS"
"3/7/2022 12:00:00 AM","Amite County","Mississippi","South","East South Central","28005","31.203933","-90.795542 ","3223","68","3223","68","","2019","12297","NYTIMES-USCENSUS"
"3/7/2022 12:00:00 AM","Pike County","Mississippi","South","East South Central","28113","31.177516","-90.397725 ","9565","183","9565","183","","2019","39288","NYTIMES-USCENSUS"
"3/7/2022 12:00:00 AM","Escambia County","Alabama","South","East South Central","01053","31.122287","-87.16841 ","9965","159","9965","159","","2019","36633","NYTIMES-USCENSUS"
"3/7/2022 12:00:00 AM","Coosa County","Alabama","South","East South Central","01037","32.931445","-86.243482 ","2923","55","2923","55","","2019","10663","NYTIMES-USCENSUS"
"3/7/2022 12:00:00 AM","Rabun County","Georgia","South","South Atlantic","13241","34.883934","-83.40487 ","3648","92","3648","92","","2019","17137","NYTIMES-USCENSUS"
"3/7/2022 12:00:00 AM","Zapata County","Texas","South","West South Central","48505","26.996981","-99.182603 ","3652","52","3652","52","","2019","14179","NYTIMES-USCENSUS"
"3/7/2022 12:00:00 AM","Coffey County","Kansas","Midwest","West North Central","20031","38.23645","-95.729137 ","2405","39","2405","39","","2019","8179","NYTIMES-USCENSUS"
"3/7/2022 12:00:00 AM","Dallas County","Iowa","Midwest","West North Central","19049","41.68532","-94.040706 ","22856","135","22856","135","","2019","93453","NYTIMES-USCENSUS"
"3/7/2022 12:00:00 AM","Fulton County","Arkansas","South","West South Central","05049","36.381322","-91.819285 ","2652","85","2652","85","","2019","12477","NYTIMES-USCENSUS"
"3/7/2022 12:00:00 AM","Creek County","Oklahoma","South","West South Central","40037","35.907398","-96.380177 ","18045","312","18045","312","","2019","71522","NYTIMES-USCENSUS"
"3/7/2022 12:00:00 AM","Franklin County","Nebraska","Midwest","West North Central","31061","40.183203","-98.96208 ","419","10","419","10","","2019","2979","NYTIMES-USCENSUS"
"3/7/2022 12:00:00 AM","Idaho County","Idaho","West","Mountain","16049","45.849644","-115.467337 ","2930","50","2930","50","","2019","16667","NYTIMES-USCENSUS"
"3/7/2022 12:00:00 AM","Franklin County","Tennessee","South","East South Central","47051","35.155926","-86.099203 ","12770","165","12770","165","","2019","42208","NYTIMES-USCENSUS"
"3/7/2022 12:00:00 AM","Livingston County","Kentucky","South","East South Central","21139","37.209517","-88.363426 ","2337","58","2337","58","","2019","9194","NYTIMES-USCENSUS"
"3/7/2022 12:00:00 AM","Osceola County","Florida","South","South Atlantic","12097","28.059027","-81.139312 ","112508","1083","112508","1083","","2019","375751","NYTIMES-USCENSUS"
"3/7/2022 12:00:00 AM","Nodaway County","Missouri","Midwest","West North Central","29147","40.361136","-94.883146 ","5998","43","5998","43","","2019","22092","NYTIMES-USCENSUS"
"3/7/2022 12:00:00 AM","Lincoln County","Maine","Northeast","New England","23015","43.994781","-69.513624 ","5031","31","5031","31","","2019","34634","NYTIMES-USCENSUS"
"3/7/2022 12:00:00 AM","Broward County","Florida","South","South Atlantic","12011","26.193535","-80.476683 ","596696","5587","596696","5587","","2019","1952778","NYTIMES-USCENSUS"
"3/7/2022 12:00:00 AM","Appling County","Georgia","South","South Atlantic","13001","31.739712","-82.290103 ","4755","119","4755","119","","2019","18386","NYTIMES-USCENSUS"
"3/7/2022 12:00:00 AM","Marion County","Texas","South","West South Central","48315","32.798182","-94.356853 ","1654","59","1654","59","","2019","9854","NYTIMES-USCENSUS"
"3/7/2022 12:00:00 AM","San Benito County","California","West","Pacific","06069","36.611651","-121.085811 ","13344","94","13344","94","","2019","62808","NYTIMES-USCENSUS"
"3/7/2022 12:00:00 AM","Deuel County","South Dakota","Midwest","West North Central","46039","44.75629","-96.690239 ","1034","12","1034","12","","2019","4351","NYTIMES-USCENSUS"
"3/7/2022 12:00:00 AM","Plaquemines Parish","Louisiana","South","West South Central","22075","29.282447","-89.576068 ","6387","44","6387","44","","2019","23197","NYTIMES-USCENSUS"
"3/7/2022 12:00:00 AM","Smith County","Kansas","Midwest","West North Central","20183","39.78466","-98.785429 ","644","8","644","8","","2019","3583","NYTIMES-USCENSUS"
"3/7/2022 12:00:00 AM","Pecos County","Texas","South","West South Central","48371","30.773298","-102.718153 ","2647","69","2647","69","","2019","15823","NYTIMES-USCENSUS"
"3/7/2022 12:00:00 AM","Hand County","South Dakota","Midwest","West North Central","46059","44.546713","-99.004575 ","561","11","561","11","","2019","3191","NYTIMES-USCENSUS"
"3/7/2022 12:00:00 AM","Pearl River County","Mississippi","South","East South Central","28109","30.774793","-89.586904 ","14978","268","14978","268","","2019","55535","NYTIMES-USCENSUS"
"3/7/2022 12:00:00 AM","Brown County","Illinois","Midwest","East North Central","17009","39.962069","-90.750309 ","2393","21","2393","21","","2019","6578","NYTIMES-USCENSUS"
"3/7/2022 12:00:00 AM","Lipscomb County","Texas","South","West South Central","48295","36.2802","-100.272683 ","647","16","647","16","","2019","3233","NYTIMES-USCENSUS"
"3/7/2022 12:00:00 AM","Renville County","North Dakota","Midwest","West North Central","38075","48.712781","-101.658152 ","547","15","547","15","","2019","2327","NYTIMES-USCENSUS"
"3/7/2022 12:00:00 AM","Henry County","Illinois","Midwest","East North Central","17073","41.350021","-90.130838 ","12572","145","12572","145","","2019","48913","NYTIMES-USCENSUS"
"3/7/2022 12:00:00 AM","Nassau County","Florida","South","South Atlantic","12089","30.605963","-81.765087 ","21628","276","21628","276","","2019","88625","NYTIMES-USCENSUS"
"3/7/2022 12:00:00 AM","Benton County","Arkansas","South","West South Central","05007","36.337819","-94.256298 ","66042","792","66042","792","","2019","279141","NYTIMES-USCENSUS"
"3/7/2022 12:00:00 AM","Noble County","Indiana","Midwest","East North Central","18113","41.404679","-85.417271 ","13032","156","13032","156","","2019","47744","NYTIMES-USCENSUS"
"3/7/2022 12:00:00 AM","Tuscola County","Michigan","Midwest","East North Central","26157","43.487902","-83.436618 ","13162","271","13162","271","","2019","52245","NYTIMES-USCENSUS"
"3/7/2022 12:00:00 AM","Jefferson County","Pennsylvania","Northeast","Middle Atlantic","42065","41.138028","-79.012419 ","8898","222","8898","222","","2019","43425","NYTIMES-USCENSUS"
"3/7/2022 12:00:00 AM","Randolph County","North Carolina","South","South Atlantic","37151","35.709915","-79.806215 ","35220","397","35220","397","","2019","143667","NYTIMES-USCENSUS"
"3/7/2022 12:00:00 AM","Orange County","New York","Northeast","Middle Atlantic","36071","41.40241","-74.306252 ","105604","942","105604","942","","2019","384940","NYTIMES-USCENSUS"
"3/7/2022 12:00:00 AM","Orleans County","New York","Northeast","Middle Atlantic","36073","43.339906","-78.207028 ","8534","112","8534","112","","2019","40352","NYTIMES-USCENSUS"
"3/7/2022 12:00:00 AM","Metcalfe County","Kentucky","South","East South Central","21169","36.99243","-85.633456 ","2833","59","2833","59","","2019","10071","NYTIMES-USCENSUS"
"3/7/2022 12:00:00 AM","Fayette County","West Virginia","South","South Atlantic","54019","38.030933","-81.086051 ","12936","179","12936","179","","2019","42406","NYTIMES-USCENSUS"
"3/7/2022 12:00:00 AM","Randolph County","Illinois","Midwest","East North Central","17157","38.056515","-89.82121 ","10395","127","10395","127","","2019","31782","NYTIMES-USCENSUS"
"3/7/2022 12:00:00 AM","Warrick County","Indiana","Midwest","East North Central","18173","38.097728","-87.272049 ","20197","233","20197","233","","2019","62998","NYTIMES-USCENSUS"
"3/7/2022 12:00:00 AM","Mesa County","Colorado","West","Mountain","08077","39.019524","-108.460571 ","41523","528","41523","528","","2019","154210","NYTIMES-USCENSUS"
"3/7/2022 12:00:00 AM","Jackson Parish","Louisiana","South","West South Central","22049","32.30429","-92.5617 ","4334","72","4334","72","","2019","15744","NYTIMES-USCENSUS"
"3/7/2022 12:00:00 AM","Calhoun County","West Virginia","South","South Atlantic","54013","38.844159","-81.115478 ","1807","13","1807","13","","2019","7109","NYTIMES-USCENSUS"
"3/7/2022 12:00:00 AM","Haskell County","Oklahoma","South","West South Central","40061","35.232431","-95.109642 ","2767","37","2767","37","","2019","12627","NYTIMES-USCENSUS"
"3/7/2022 12:00:00 AM","Torrance County","New Mexico","West","Mountain","35057","34.554978","-105.890557 ","3100","51","3100","51","","2019","15461","NYTIMES-USCENSUS"
"3/7/2022 12:00:00 AM","Blue Earth County","Minnesota","Midwest","West North Central","27013","44.03371","-94.064012 ","17528","97","17528","97","","2019","67653","NYTIMES-USCENSUS"
"3/7/2022 12:00:00 AM","Lincoln County","Oregon","West","Pacific","41041","44.641061","-123.911212 ","6944","74","6944","74","","2019","49962","NYTIMES-USCENSUS"
"3/7/2022 12:00:00 AM","Calhoun County","Iowa","Midwest","West North Central","19025","42.38617","-94.643683 ","2584","22","2584","22","","2019","9668","NYTIMES-USCENSUS"
"3/7/2022 12:00:00 AM","Pierce County","North Dakota","Midwest","West North Central","38069","48.238883","-99.966497 ","1057","32","1057","32","","2019","3975","NYTIMES-USCENSUS"
"3/7/2022 12:00:00 AM","Rappahannock County","Virginia","South","South Atlantic","51157","38.684522","-78.168824 ","895","9","895","9","","2019","7370","NYTIMES-USCENSUS"
"3/7/2022 12:00:00 AM","Green County","Wisconsin","Midwest","East North Central","55045","42.675522","-89.605074 ","8936","52","8936","52","","2019","36960","NYTIMES-USCENSUS"
"3/7/2022 12:00:00 AM","Whitfield County","Georgia","South","South Atlantic","13313","34.801726","-84.968541 ","33809","411","33809","411","","2019","104628","NYTIMES-USCENSUS"
"3/7/2022 12:00:00 AM","Hughes County","South Dakota","Midwest","West North Central","46065","44.384452","-99.975684 ","4289","58","4289","58","","2019","17526","NYTIMES-USCENSUS"
"3/7/2022 12:00:00 AM","Codington County","South Dakota","Midwest","West North Central","46029","44.966285","-97.198837 ","8368","99","8368","99","","2019","28009","NYTIMES-USCENSUS"
"3/7/2022 12:00:00 AM","Ouray County","Colorado","West","Mountain","08091","38.154731","-107.78848 ","842","6","842","6","","2019","4952","NYTIMES-USCENSUS"
"3/7/2022 12:00:00 AM","San Francisco County","California","West","Pacific","06075","37.727239","-123.032229 ","132328","806","132328","806","","2019","881549","NYTIMES-USCENSUS"
"3/7/2022 12:00:00 AM","Kittson County","Minnesota","Midwest","West North Central","27069","48.77604","-96.780349 ","1022","27","1022","27","","2019","4298","NYTIMES-USCENSUS"
"3/7/2022 12:00:00 AM","Bryan County","Oklahoma","South","West South Central","40013","33.964004","-96.265135 ","13483","127","13483","127","","2019","47995","NYTIMES-USCENSUS"
"3/7/2022 12:00:00 AM","Lincoln Parish","Louisiana","South","West South Central","22061","32.601823","-92.662303 ","12172","137","12172","137","","2019","46742","NYTIMES-USCENSUS"
"3/7/2022 12:00:00 AM","Houston County","Texas","South","West South Central","48225","31.323036","-95.4216 ","3994","107","3994","107","","2019","22968","NYTIMES-USCENSUS"
"3/7/2022 12:00:00 AM","Oglethorpe County","Georgia","South","South Atlantic","13221","33.866806","-83.074081 ","3194","50","3194","50","","2019","15259","NYTIMES-USCENSUS"
"3/7/2022 12:00:00 AM","Indiana County","Pennsylvania","Northeast","Middle Atlantic","42063","40.651432","-79.087545 ","17259","346","17259","346","","2019","84073","NYTIMES-USCENSUS"
"3/7/2022 12:00:00 AM","Gillespie County","Texas","South","West South Central","48171","30.325093","-98.94185 ","5294","107","5294","107","","2019","26988","NYTIMES-USCENSUS"
"3/7/2022 12:00:00 AM","Atchison County","Kansas","Midwest","West North Central","20005","39.532544","-95.313397 ","4257","33","4257","33","","2019","16073","NYTIMES-USCENSUS"
"3/7/2022 12:00:00 AM","Daviess County","Kentucky","South","East South Central","21059","37.731671","-87.087139 ","30856","361","30856","361","","2019","101511","NYTIMES-USCENSUS"
"3/7/2022 12:00:00 AM","Hardin County","Texas","South","West South Central","48199","30.329648","-94.393178 ","11997","245","11997","245","","2019","57602","NYTIMES-USCENSUS"
"3/7/2022 12:00:00 AM","Cheatham County","Tennessee","South","East South Central","47021","36.255169","-87.100808 ","10856","115","10856","115","","2019","40667","NYTIMES-USCENSUS"
"3/7/2022 12:00:00 AM","Plumas County","California","West","Pacific","06063","39.992295","-120.824371 ","3055","13","3055","13","","2019","18807","NYTIMES-USCENSUS"
"3/7/2022 12:00:00 AM","North Slope Borough","Alaska","West","Pacific","02185","69.449343","-153.47283 ","4282","11","4282","11","","2019","9832","NYTIMES-USCENSUS"
"3/7/2022 12:00:00 AM","Lassen County","California","West","Pacific","06035","40.715287","-120.621223 ","10678","67","10678","67","","2019","30573","NYTIMES-USCENSUS"
"3/7/2022 12:00:00 AM","Newaygo County","Michigan","Midwest","East North Central","26123","43.562712","-85.791372 ","11401","153","11401","153","","2019","48980","NYTIMES-USCENSUS"
"3/7/2022 12:00:00 AM","McDuffie County","Georgia","South","South Atlantic","13189","33.480613","-82.479533 ","5017","93","5017","93","","2019","21312","NYTIMES-USCENSUS"
"3/7/2022 12:00:00 AM","Macon County","Tennessee","South","East South Central","47111","36.537757","-86.00096 ","8380","139","8380","139","","2019","24602","NYTIMES-USCENSUS"
"3/7/2022 12:00:00 AM","Cayuga County","New York","Northeast","Middle Atlantic","36011","43.008546","-76.574587 ","15699","144","15699","144","","2019","76576","NYTIMES-USCENSUS"
"3/7/2022 12:00:00 AM","Wilkinson County","Mississippi","South","East South Central","28157","31.161091","-91.324617 ","1792","46","1792","46","","2019","8630","NYTIMES-USCENSUS"
"3/7/2022 12:00:00 AM","Curry County","Oregon","West","Pacific","41015","42.466439","-124.210929 ","3299","44","3299","44","","2019","22925","NYTIMES-USCENSUS"
"3/7/2022 12:00:00 AM","Greenbrier County","West Virginia","South","South Atlantic","54025","37.924418","-80.45059 ","9368","146","9368","146","","2019","34662","NYTIMES-USCENSUS"
"3/7/2022 12:00:00 AM","St. Bernard Parish","Louisiana","South","West South Central","22087","29.91811","-89.263494 ","11167","107","11167","107","","2019","47244","NYTIMES-USCENSUS"
"3/7/2022 12:00:00 AM","Benton County","Washington","West","Pacific","53005","46.228125","-119.516659 ","51659","459","51659","459","","2019","204390","NYTIMES-USCENSUS"
"3/7/2022 12:00:00 AM","Morris County","Kansas","Midwest","West North Central","20127","38.688204","-96.651448 ","1496","26","1496","26","","2019","5620","NYTIMES-USCENSUS"
"3/7/2022 12:00:00 AM","Cass County","Illinois","Midwest","East North Central","17017","39.969202","-90.245704 ","4581","44","4581","44","","2019","12147","NYTIMES-USCENSUS"
"3/7/2022 12:00:00 AM","Cherokee County","North Carolina","South","South Atlantic","37039","35.13715","-84.061449 ","7073","113","7073","113","","2019","28612","NYTIMES-USCENSUS"
"3/7/2022 12:00:00 AM","Brown County","Indiana","Midwest","East North Central","18013","39.195113","-86.230121 ","2583","62","2583","62","","2019","15092","NYTIMES-USCENSUS"
"3/7/2022 12:00:00 AM","Campbell County","Tennessee","South","East South Central","47013","36.401592","-84.159249 ","11917","150","11917","150","","2019","39842","NYTIMES-USCENSUS"
"3/7/2022 12:00:00 AM","Beauregard Parish","Louisiana","South","West South Central","22011","30.645018","-93.340253 ","9226","140","9226","140","","2019","37497","NYTIMES-USCENSUS"
"3/7/2022 12:00:00 AM","Greene County","Tennessee","South","East South Central","47059","36.179487","-82.847523 ","21883","350","21883","350","","2019","69069","NYTIMES-USCENSUS"
"3/7/2022 12:00:00 AM","Musselshell County","Montana","West","Mountain","30065","46.505281","-108.439763 ","911","26","911","26","","2019","4633","NYTIMES-USCENSUS"
"3/7/2022 12:00:00 AM","Trousdale County","Tennessee","South","East South Central","47169","36.39303","-86.156691 ","4200","45","4200","45","","2019","11284","NYTIMES-USCENSUS"
"3/7/2022 12:00:00 AM","Erie County","New York","Northeast","Middle Atlantic","36029","42.752759","-78.778192 ","206235","2591","206235","2591","","2019","918702","NYTIMES-USCENSUS"
"3/7/2022 12:00:00 AM","Baldwin County","Alabama","South","East South Central","01003","30.659218","-87.746067 ","55132","653","55132","653","","2019","223234","NYTIMES-USCENSUS"
"3/7/2022 12:00:00 AM","Polk County","Texas","South","West South Central","48373","30.784553","-94.837338 ","7781","244","7781","244","","2019","51353","NYTIMES-USCENSUS"
"3/7/2022 12:00:00 AM","Moore County","Texas","South","West South Central","48341","35.835676","-101.890502 ","5432","110","5432","110","","2019","20940","NYTIMES-USCENSUS"
"3/7/2022 12:00:00 AM","Bee County","Texas","South","West South Central","48025","28.416077","-97.742586 ","8168","149","8168","149","","2019","32565","NYTIMES-USCENSUS"
"3/7/2022 12:00:00 AM","Harlan County","Kentucky","South","East South Central","21095","36.859223","-83.221497 ","9101","186","9101","186","","2019","26010","NYTIMES-USCENSUS"
"3/7/2022 12:00:00 AM","Ingham County","Michigan","Midwest","East North Central","26065","42.603534","-84.373811 ","63288","734","63288","734","","2019","292406","NYTIMES-USCENSUS"
"3/7/2022 12:00:00 AM","Sweetwater County","Wyoming","West","Mountain","56037","41.660328","-108.875677 ","11021","123","11021","123","","2019","42343","NYTIMES-USCENSUS"
"3/7/2022 12:00:00 AM","Essex County","Virginia","South","South Atlantic","51057","37.936389","-76.933747 ","2246","31","2246","31","","2019","10953","NYTIMES-USCENSUS"
"3/7/2022 12:00:00 AM","Monroe County","Pennsylvania","Northeast","Middle Atlantic","42089","41.05624","-75.329065 ","36692","511","36692","511","","2019","170271","NYTIMES-USCENSUS"
"3/7/2022 12:00:00 AM","Shiawassee County","Michigan","Midwest","East North Central","26155","42.951545","-84.146352 ","17671","225","17671","225","","2019","68122","NYTIMES-USCENSUS"
"3/7/2022 12:00:00 AM","Cherokee County","Georgia","South","South Atlantic","13057","34.244317","-84.475057 ","63002","591","63002","591","","2019","258773","NYTIMES-USCENSUS"
"3/7/2022 12:00:00 AM","Aransas County","Texas","South","West South Central","48007","28.122621","-96.967501 ","4053","79","4053","79","","2019","23510","NYTIMES-USCENSUS"
"3/7/2022 12:00:00 AM","Hocking County","Ohio","Midwest","East North Central","39073","39.490342","-82.483447 ","6566","115","6566","115","","2019","28264","NYTIMES-USCENSUS"
"3/7/2022 12:00:00 AM","Oktibbeha County","Mississippi","South","East South Central","28105","33.422313","-88.876151 ","11064","158","11064","158","","2019","49587","NYTIMES-USCENSUS"
"3/7/2022 12:00:00 AM","Inyo County","California","West","Pacific","06027","36.56216","-117.404209 ","4527","56","4527","56","","2019","18039","NYTIMES-USCENSUS"
"3/7/2022 12:00:00 AM","Polk County","Florida","South","South Atlantic","12105","27.953649","-81.693534 ","198831","2822","198831","2822","","2019","724777","NYTIMES-USCENSUS"
"3/7/2022 12:00:00 AM","Mississippi County","Arkansas","South","West South Central","05093","35.766944","-90.052207 ","13161","195","13161","195","","2019","40651","NYTIMES-USCENSUS"
"3/7/2022 12:00:00 AM","Summers County","West Virginia","South","South Atlantic","54089","37.655999","-80.856325 ","2763","49","2763","49","","2019","12573","NYTIMES-USCENSUS"
"3/7/2022 12:00:00 AM","Mineral County","Nevada","West","Mountain","32021","38.516647","-118.416279 ","959","16","959","16","","2019","4505","NYTIMES-USCENSUS"
"3/7/2022 12:00:00 AM","Montgomery County","Arkansas","South","West South Central","05097","34.545656","-93.664153 ","1487","56","1487","56","","2019","8986","NYTIMES-USCENSUS"
"3/7/2022 12:00:00 AM","Bladen County","North Carolina","South","South Atlantic","37017","34.591938","-78.539489 ","9276","118","9276","118","","2019","32722","NYTIMES-USCENSUS"
"3/7/2022 12:00:00 AM","Bonneville County","Idaho","West","Mountain","16019","43.395171","-111.621878 ","30792","281","30792","281","","2019","119062","NYTIMES-USCENSUS"
"3/7/2022 12:00:00 AM","Montgomery County","Alabama","South","East South Central","01101","32.202881","-86.204461 ","54482","884","54482","884","","2019","226486","NYTIMES-USCENSUS"
"3/7/2022 12:00:00 AM","Union County","North Carolina","South","South Atlantic","37179","34.99182","-80.530426 ","61254","474","61254","474","","2019","239859","NYTIMES-USCENSUS"
"3/7/2022 12:00:00 AM","Saline County","Illinois","Midwest","East North Central","17165","37.751508","-88.545024 ","7803","108","7803","108","","2019","23491","NYTIMES-USCENSUS"
"3/7/2022 12:00:00 AM","Lawrence County","Indiana","Midwest","East North Central","18093","38.839815","-86.48782 ","11805","253","11805","253","","2019","45370","NYTIMES-USCENSUS"
"3/7/2022 12:00:00 AM","Moultrie County","Illinois","Midwest","East North Central","17139","39.636896","-88.625726 ","4045","52","4045","52","","2019","14501","NYTIMES-USCENSUS"
"3/7/2022 12:00:00 AM","Brown County","Wisconsin","Midwest","East North Central","55009","44.474024","-87.99613 ","83557","490","83557","490","","2019","264542","NYTIMES-USCENSUS"
"3/7/2022 12:00:00 AM","Yakima County","Washington","West","Pacific","53077","46.456558","-120.740145 ","72574","752","72574","752","","2019","250873","NYTIMES-USCENSUS"
"3/7/2022 12:00:00 AM","Clay County","Indiana","Midwest","East North Central","18021","39.393928","-87.115858 ","6814","87","6814","87","","2019","26225","NYTIMES-USCENSUS"
"3/7/2022 12:00:00 AM","Crook County","Oregon","West","Pacific","41013","44.163054","-120.371585 ","6001","76","6001","76","","2019","24404","NYTIMES-USCENSUS"
"3/7/2022 12:00:00 AM","Taney County","Missouri","Midwest","West North Central","29213","36.649827","-93.042819 ","13225","215","13225","215","","2019","55928","NYTIMES-USCENSUS"
"3/7/2022 12:00:00 AM","Stone County","Arkansas","South","West South Central","05137","35.857001","-92.140482 ","2884","61","2884","61","","2019","12506","NYTIMES-USCENSUS"
"3/7/2022 12:00:00 AM","Gilpin County","Colorado","West","Mountain","08047","39.861156","-105.528878 ","927","4","927","4","","2019","6243","NYTIMES-USCENSUS"
"3/7/2022 12:00:00 AM","Ben Hill County","Georgia","South","South Atlantic","13017","31.740772","-83.147197 ","4321","118","4321","118","","2019","16700","NYTIMES-USCENSUS"
"3/7/2022 12:00:00 AM","Wayne County","Pennsylvania","Northeast","Middle Atlantic","42127","41.646602","-75.292493 ","10016","166","10016","166","","2019","51361","NYTIMES-USCENSUS"
"3/7/2022 12:00:00 AM","Oneida County","New York","Northeast","Middle Atlantic","36065","43.242727","-75.434282 ","52318","778","52318","778","","2019","228671","NYTIMES-USCENSUS"
"3/7/2022 12:00:00 AM","Taylor County","Texas","South","West South Central","48441","32.297126","-99.89043 ","33599","707","33599","707","","2019","138034","NYTIMES-USCENSUS"
"3/7/2022 12:00:00 AM","Kootenai County","Idaho","West","Mountain","16055","47.675957","-116.695919 ","39210","581","39210","581","","2019","165697","NYTIMES-USCENSUS"
"3/7/2022 12:00:00 AM","Clay County","Tennessee","South","East South Central","47027","36.545749","-85.545717 ","2216","46","2216","46","","2019","7615","NYTIMES-USCENSUS"
"3/7/2022 12:00:00 AM","Lafayette County","Missouri","Midwest","West North Central","29107","39.068705","-93.802639 ","7686","123","7686","123","","2019","32708","NYTIMES-USCENSUS"
"3/7/2022 12:00:00 AM","Santa Rosa County","Florida","South","South Atlantic","12113","30.675348","-87.018919 ","48204","584","48204","584","","2019","184313","NYTIMES-USCENSUS"
"3/7/2022 12:00:00 AM","Santa Cruz County","Arizona","West","Mountain","04023","31.525733","-110.845228 ","16561","224","16561","224","","2019","46498","NYTIMES-USCENSUS"
"3/7/2022 12:00:00 AM","Catahoula Parish","Louisiana","South","West South Central","22025","31.666517","-91.846703 ","2690","55","2690","55","","2019","9494","NYTIMES-USCENSUS"
"3/7/2022 12:00:00 AM","Lewis and Clark County","Montana","West","Mountain","30049","47.132013","-112.373367 ","17455","172","17455","172","","2019","69432","NYTIMES-USCENSUS"
"3/7/2022 12:00:00 AM","Roseau County","Minnesota","Midwest","West North Central","27135","48.761068","-95.821504 ","4384","44","4384","44","","2019","15165","NYTIMES-USCENSUS"
"3/7/2022 12:00:00 AM","Cook County","Illinois","Midwest","East North Central","17031","41.894294","-87.645455 ","1114552","14678","1114552","14678","","2019","5150233","NYTIMES-USCENSUS"
"3/7/2022 12:00:00 AM","Lincoln County","Kentucky","South","East South Central","21137","37.457174","-84.658335 ","6215","121","6215","121","","2019","24549","NYTIMES-USCENSUS"
"3/7/2022 12:00:00 AM","Terrebonne Parish","Louisiana","South","West South Central","22109","29.33413","-90.843674 ","30749","407","30749","407","","2019","110461","NYTIMES-USCENSUS"
"3/7/2022 12:00:00 AM","Attala County","Mississippi","South","East South Central","28007","33.090468","-89.588622 ","5247","111","5247","111","","2019","18174","NYTIMES-USCENSUS"
"3/7/2022 12:00:00 AM","Jefferson County","New York","Northeast","Middle Atlantic","36045","43.996389","-76.052968 ","19672","130","19672","130","","2019","109834","NYTIMES-USCENSUS"
"3/7/2022 12:00:00 AM","Greensville County","Virginia","South","South Atlantic","51081","36.680336","-77.560277 ","3300","38","3300","38","","2019","11336","NYTIMES-USCENSUS"
"3/7/2022 12:00:00 AM","Wayne County","Michigan","Midwest","East North Central","26163","42.284664","-83.261953 ","393852","7715","393852","7715","","2019","1749343","NYTIMES-USCENSUS"
"3/7/2022 12:00:00 AM","Saginaw County","Michigan","Midwest","East North Central","26145","43.328267","-84.05541 ","50135","924","50135","924","","2019","190539","NYTIMES-USCENSUS"
"3/7/2022 12:00:00 AM","Wilkin County","Minnesota","Midwest","West North Central","27167","46.362335","-96.476657 ","1624","22","1624","22","","2019","6207","NYTIMES-USCENSUS"
"3/7/2022 12:00:00 AM","Lenoir County","North Carolina","South","South Atlantic","37107","35.240066","-77.635514 ","15601","204","15601","204","","2019","55949","NYTIMES-USCENSUS"
"3/7/2022 12:00:00 AM","Orange County","North Carolina","South","South Atlantic","37135","36.062526","-79.120034 ","25604","122","25604","122","","2019","148476","NYTIMES-USCENSUS"
"3/7/2022 12:00:00 AM","Lander County","Nevada","West","Mountain","32015","39.90021","-117.04724 ","1188","20","1188","20","","2019","5532","NYTIMES-USCENSUS"
"3/7/2022 12:00:00 AM","Jasper County","Illinois","Midwest","East North Central","17079","39.004886","-88.150725 ","2668","28","2668","28","","2019","9610","NYTIMES-USCENSUS"
"3/7/2022 12:00:00 AM","Moffat County","Colorado","West","Mountain","08081","40.610864","-108.217154 ","2939","51","2939","51","","2019","13283","NYTIMES-USCENSUS"
"3/7/2022 12:00:00 AM","Cerro Gordo County","Iowa","Midwest","West North Central","19033","43.074975","-93.250965 ","11018","159","11018","159","","2019","42450","NYTIMES-USCENSUS"
"3/7/2022 12:00:00 AM","Moore County","North Carolina","South","South Atlantic","37125","35.308272","-79.492725 ","24010","312","24010","312","","2019","100880","NYTIMES-USCENSUS"
"3/7/2022 12:00:00 AM","Reagan County","Texas","South","West South Central","48383","31.375191","-101.514395 ","855","14","855","14","","2019","3849","NYTIMES-USCENSUS"
"3/7/2022 12:00:00 AM","Jefferson County","Arkansas","South","West South Central","05069","34.277239","-91.929673 ","18508","266","18508","266","","2019","66824","NYTIMES-USCENSUS"
"3/7/2022 12:00:00 AM","Wayne County","Illinois","Midwest","East North Central","17191","38.431857","-88.43243 ","5265","83","5265","83","","2019","16215","NYTIMES-USCENSUS"
"3/7/2022 12:00:00 AM","Lancaster County","Pennsylvania","Northeast","Middle Atlantic","42071","40.041992","-76.250198 ","120295","1854","120295","1854","","2019","545724","NYTIMES-USCENSUS"
"3/7/2022 12:00:00 AM","York County","Nebraska","Midwest","West North Central","31185","40.873056","-97.596742 ","3893","19","3893","19","","2019","13679","NYTIMES-USCENSUS"
"3/7/2022 12:00:00 AM","Garfield County","Nebraska","Midwest","West North Central","31071","41.906868","-98.951231 ","398","2","398","2","","2019","1969","NYTIMES-USCENSUS"
"3/7/2022 12:00:00 AM","Latimer County","Oklahoma","South","West South Central","40077","34.875137","-95.272262 ","2267","32","2267","32","","2019","10073","NYTIMES-USCENSUS"
"3/7/2022 12:00:00 AM","Bon Homme County","South Dakota","Midwest","West North Central","46009","42.985799","-97.884199 ","2289","38","2289","38","","2019","6901","NYTIMES-USCENSUS"
"3/7/2022 12:00:00 AM","King County","Washington","West","Pacific","53033","47.490552","-121.833977 ","367807","2593","367807","2593","","2019","2252782","NYTIMES-USCENSUS"
"3/7/2022 12:00:00 AM","Garfield County","Colorado","West","Mountain","08045","39.599352","-107.90978 ","14249","89","14249","89","","2019","60061","NYTIMES-USCENSUS"
"3/7/2022 12:00:00 AM","Gila County","Arizona","West","Mountain","04007","33.789618","-110.81187 ","16863","357","16863","357","","2019","54018","NYTIMES-USCENSUS"
"3/7/2022 12:00:00 AM","Hancock County","Ohio","Midwest","East North Central","39063","41.000217","-83.665947 ","17048","268","17048","268","","2019","75783","NYTIMES-USCENSUS"
"3/7/2022 12:00:00 AM","Bennington County","Vermont","Northeast","New England","50003","43.035325","-73.11146 ","9341","65","9341","65","","2019","35470","NYTIMES-USCENSUS"
"3/7/2022 12:00:00 AM","Orangeburg County","South Carolina","South","South Atlantic","45075","33.436135","-80.802913 ","23234","404","23234","404","","2019","86175","NYTIMES-USCENSUS"
"3/7/2022 12:00:00 AM","Franklin County","New York","Northeast","Middle Atlantic","36033","44.594376","-74.31067 ","9169","44","9169","44","","2019","50022","NYTIMES-USCENSUS"
"3/7/2022 12:00:00 AM","Pulaski County","Georgia","South","South Atlantic","13235","32.238803","-83.481845 ","2160","72","2160","72","","2019","11137","NYTIMES-USCENSUS"
"3/7/2022 12:00:00 AM","Salem County","New Jersey","Northeast","Middle Atlantic","34033","39.573828","-75.357356 ","14213","245","14213","245","","2019","62385","NYTIMES-USCENSUS"
"3/7/2022 12:00:00 AM","San Miguel County","New Mexico","West","Mountain","35047","35.476859","-104.803519 ","5720","51","5720","51","","2019","27277","NYTIMES-USCENSUS"
"3/7/2022 12:00:00 AM","Chester County","Pennsylvania","Northeast","Middle Atlantic","42029","39.974029","-75.749751 ","90773","1122","90773","1122","","2019","524989","NYTIMES-USCENSUS"
"3/7/2022 12:00:00 AM","Jackson County","Iowa","Midwest","West North Central","19097","42.164226","-90.574582 ","4591","68","4591","68","","2019","19439","NYTIMES-USCENSUS"
"3/7/2022 12:00:00 AM","McMinn County","Tennessee","South","East South Central","47107","35.424472","-84.619949 ","16604","236","16604","236","","2019","53794","NYTIMES-USCENSUS"
"3/7/2022 12:00:00 AM","Greene County","Alabama","South","East South Central","01063","32.844497","-87.9642 ","1856","48","1856","48","","2019","8111","NYTIMES-USCENSUS"
"3/7/2022 12:00:00 AM","Glades County","Florida","South","South Atlantic","12043","26.95481","-81.19082 ","1984","36","1984","36","","2019","13811","NYTIMES-USCENSUS"
"3/7/2022 12:00:00 AM","Monroe County","Kentucky","South","East South Central","21171","36.714077","-85.713508 ","3603","74","3603","74","","2019","10650","NYTIMES-USCENSUS"
"3/7/2022 12:00:00 AM","Galax city","Virginia","South","South Atlantic","51640","36.66564","-80.914308 ","2540","76","2540","76","","2019","6347","NYTIMES-USCENSUS"
"3/7/2022 12:00:00 AM","Union County","Iowa","Midwest","West North Central","19175","41.02855","-94.245091 ","2707","49","2707","49","","2019","12241","NYTIMES-USCENSUS"
"3/7/2022 12:00:00 AM","Grant County","Oklahoma","South","West South Central","40053","36.788254","-97.788151 ","1027","14","1027","14","","2019","4333","NYTIMES-USCENSUS"
"3/7/2022 12:00:00 AM","Grady County","Georgia","South","South Atlantic","13131","30.875908","-84.24508 ","5739","108","5739","108","","2019","24633","NYTIMES-USCENSUS"
"3/7/2022 12:00:00 AM","Kittitas County","Washington","West","Pacific","53037","47.124441","-120.676709 ","8071","58","8071","58","","2019","47935","NYTIMES-USCENSUS"
"3/7/2022 12:00:00 AM","Washington County","Kansas","Midwest","West North Central","20201","39.776714","-97.095611 ","1391","20","1391","20","","2019","5406","NYTIMES-USCENSUS"
"3/7/2022 12:00:00 AM","Gaston County","North Carolina","South","South Atlantic","37071","35.293344","-81.177256 ","64760","782","64760","782","","2019","224529","NYTIMES-USCENSUS"
"3/7/2022 12:00:00 AM","Roberts County","South Dakota","Midwest","West North Central","46109","45.623397","-96.947551 ","2416","50","2416","50","","2019","10394","NYTIMES-USCENSUS"
"3/7/2022 12:00:00 AM","Rooks County","Kansas","Midwest","West North Central","20163","39.346006","-99.324492 ","1364","20","1364","20","","2019","4920","NYTIMES-USCENSUS"
"3/7/2022 12:00:00 AM","Walla Walla County","Washington","West","Pacific","53071","46.254606","-118.48037 ","15502","138","15502","138","","2019","60760","NYTIMES-USCENSUS"
"3/7/2022 12:00:00 AM","Mecklenburg County","North Carolina","South","South Atlantic","37119","35.246862","-80.833832 ","275663","1551","275663","1551","","2019","1110356","NYTIMES-USCENSUS"
"3/7/2022 12:00:00 AM","Walworth County","Wisconsin","Midwest","East North Central","55127","42.66811","-88.541731 ","26760","276","26760","276","","2019","103868","NYTIMES-USCENSUS"
"3/7/2022 12:00:00 AM","Westmoreland County","Virginia","South","South Atlantic","51193","38.109311","-76.803933 ","3219","49","3219","49","","2019","18015","NYTIMES-USCENSUS"
"3/7/2022 12:00:00 AM","Randall County","Texas","South","West South Central","48381","34.962529","-101.895547 ","37554","478","37554","478","","2019","137713","NYTIMES-USCENSUS"
"3/7/2022 12:00:00 AM","Storey County","Nevada","West","Mountain","32029","39.438385","-119.524646 ","344","10","344","10","","2019","4123","NYTIMES-USCENSUS"
"3/7/2022 12:00:00 AM","Newberry County","South Carolina","South","South Atlantic","45071","34.289881","-81.599676 ","13230","184","13230","184","","2019","38440","NYTIMES-USCENSUS"
"3/7/2022 12:00:00 AM","Thomas County","Georgia","South","South Atlantic","13275","30.864619","-83.919815 ","11869","203","11869","203","","2019","44451","NYTIMES-USCENSUS"
"3/7/2022 12:00:00 AM","Fleming County","Kentucky","South","East South Central","21069","38.367848","-83.699205 ","3657","48","3657","48","","2019","14581","NYTIMES-USCENSUS"
"3/7/2022 12:00:00 AM","Wheeler County","Georgia","South","South Atlantic","13309","32.105258","-82.733849 ","1407","38","1407","38","","2019","7855","NYTIMES-USCENSUS"
"3/7/2022 12:00:00 AM","Archuleta County","Colorado","West","Mountain","08007","37.202395","-107.050863 ","2843","14","2843","14","","2019","14029","NYTIMES-USCENSUS"
"3/7/2022 12:00:00 AM","Hood County","Texas","South","West South Central","48221","32.430149","-97.831677 ","13292","266","13292","266","","2019","61643","NYTIMES-USCENSUS"
"3/7/2022 12:00:00 AM","Caribou County","Idaho","West","Mountain","16029","42.786072","-111.544273 ","1480","26","1480","26","","2019","7155","NYTIMES-USCENSUS"
"3/7/2022 12:00:00 AM","Upson County","Georgia","South","South Atlantic","13293","32.881837","-84.292283 ","7716","227","7716","227","","2019","26320","NYTIMES-USCENSUS"
"3/7/2022 12:00:00 AM","Linn County","Missouri","Midwest","West North Central","29115","39.86444","-93.108019 ","2521","62","2521","62","","2019","11920","NYTIMES-USCENSUS"
"3/7/2022 12:00:00 AM","Mason County","West Virginia","South","South Atlantic","54053","38.770914","-82.029007 ","6570","88","6570","88","","2019","26516","NYTIMES-USCENSUS"
"3/7/2022 12:00:00 AM","Gaines County","Texas","South","West South Central","48165","32.743942","-102.631561 ","1886","83","1886","83","","2019","21492","NYTIMES-USCENSUS"
"3/7/2022 12:00:00 AM","Panola County","Texas","South","West South Central","48365","32.163978","-94.305156 ","4508","128","4508","128","","2019","23194","NYTIMES-USCENSUS"
"3/7/2022 12:00:00 AM","Adair County","Kentucky","South","East South Central","21001","37.105559","-85.28138 ","5572","99","5572","99","","2019","19202","NYTIMES-USCENSUS"
"3/7/2022 12:00:00 AM","Tuscaloosa County","Alabama","South","East South Central","01125","33.29022","-87.522783 ","55038","736","55038","736","","2019","209355","NYTIMES-USCENSUS"
"3/7/2022 12:00:00 AM","Colbert County","Alabama","South","East South Central","01033","34.703112","-87.801457 ","16187","244","16187","244","","2019","55241","NYTIMES-USCENSUS"
"3/7/2022 12:00:00 AM","Calhoun County","Georgia","South","South Atlantic","13037","31.521279","-84.62629 ","1362","22","1362","22","","2019","6189","NYTIMES-USCENSUS"
"3/7/2022 12:00:00 AM","Worth County","Iowa","Midwest","West North Central","19195","43.373491","-93.248533 ","1748","14","1748","14","","2019","7381","NYTIMES-USCENSUS"
"3/7/2022 12:00:00 AM","Logan County","Ohio","Midwest","East North Central","39091","40.387553","-83.766343 ","10176","166","10176","166","","2019","45672","NYTIMES-USCENSUS"
"3/7/2022 12:00:00 AM","Sarasota County","Florida","South","South Atlantic","12115","27.225327","-82.423714 ","88637","1503","88637","1503","","2019","433742","NYTIMES-USCENSUS"
"3/7/2022 12:00:00 AM","Noxubee County","Mississippi","South","East South Central","28103","33.106606","-88.566152 ","2715","48","2715","48","","2019","10417","NYTIMES-USCENSUS"
"3/7/2022 12:00:00 AM","Ward County","Texas","South","West South Central","48475","31.513069","-103.105113 ","2804","43","2804","43","","2019","11998","NYTIMES-USCENSUS"
"3/7/2022 12:00:00 AM","Mason County","Michigan","Midwest","East North Central","26105","43.957196","-86.442937 ","6661","86","6661","86","","2019","29144","NYTIMES-USCENSUS"
"3/7/2022 12:00:00 AM","Casey County","Kentucky","South","East South Central","21045","37.321962","-84.92822 ","3959","66","3959","66","","2019","16159","NYTIMES-USCENSUS"
"3/7/2022 12:00:00 AM","Jackson County","Tennessee","South","East South Central","47087","36.35425","-85.674128 ","3189","59","3189","59","","2019","11786","NYTIMES-USCENSUS"
"3/7/2022 12:00:00 AM","Floyd County","Virginia","South","South Atlantic","51063","36.931433","-80.350266 ","2531","45","2531","45","","2019","15749","NYTIMES-USCENSUS"
"3/7/2022 12:00:00 AM","Osage County","Oklahoma","South","West South Central","40113","36.624299","-96.408112 ","10823","158","10823","158","","2019","46963","NYTIMES-USCENSUS"
"3/7/2022 12:00:00 AM","Logan County","Nebraska","Midwest","West North Central","31113","41.542155","-100.443665 ","148","0","148","0","","2019","748","NYTIMES-USCENSUS"
"3/7/2022 12:00:00 AM","Sullivan County","New York","Northeast","Middle Atlantic","36105","41.719993","-74.771577 ","18216","127","18216","127","","2019","75432","NYTIMES-USCENSUS"
"3/7/2022 12:00:00 AM","Guernsey County","Ohio","Midwest","East North Central","39059","40.056665","-81.497875 ","10401","147","10401","147","","2019","38875","NYTIMES-USCENSUS"
"3/7/2022 12:00:00 AM","Hunt County","Texas","South","West South Central","48231","33.123308","-96.08423 ","15676","356","15676","356","","2019","98594","NYTIMES-USCENSUS"
"3/7/2022 12:00:00 AM","Dodge County","Minnesota","Midwest","West North Central","27039","44.020706","-92.869353 ","5597","21","5597","21","","2019","20934","NYTIMES-USCENSUS"
"3/7/2022 12:00:00 AM","Orange County","California","West","Pacific","06059","33.675687","-117.777207 ","582707","6689","582707","6689","","2019","3175692","NYTIMES-USCENSUS"
"3/7/2022 12:00:00 AM","Hutchinson County","Texas","South","West South Central","48233","35.837047","-101.362746 ","6608","133","6608","133","","2019","20938","NYTIMES-USCENSUS"
"3/7/2022 12:00:00 AM","Nez Perce County","Idaho","West","Mountain","16069","46.333791","-116.760909 ","8891","142","8891","142","","2019","40408","NYTIMES-USCENSUS"
"3/7/2022 12:00:00 AM","Clay County","Minnesota","Midwest","West North Central","27027","46.898377","-96.494901 ","19527","121","19527","121","","2019","64222","NYTIMES-USCENSUS"
"3/7/2022 12:00:00 AM","Gogebic County","Michigan","Midwest","East North Central","26053","46.488054","-89.788314 ","3241","68","3241","68","","2019","13975","NYTIMES-USCENSUS"
"3/7/2022 12:00:00 AM","Franklin County","Kentucky","South","East South Central","21073","38.234919","-84.868786 ","13230","135","13230","135","","2019","50991","NYTIMES-USCENSUS"
"3/7/2022 12:00:00 AM","Quitman County","Mississippi","South","East South Central","28119","34.252833","-90.290171 ","1559","31","1559","31","","2019","6792","NYTIMES-USCENSUS"
"3/7/2022 12:00:00 AM","Cecil County","Maryland","South","South Atlantic","24015","39.562354","-75.941585 ","15291","255","15291","255","","2019","102855","NYTIMES-USCENSUS"
"3/7/2022 12:00:00 AM","Boone County","Iowa","Midwest","West North Central","19015","42.038642","-93.938603 ","5429","53","5429","53","","2019","26234","NYTIMES-USCENSUS"
"3/7/2022 12:00:00 AM","Dodge County","Wisconsin","Midwest","East North Central","55027","43.429628","-88.701939 ","26921","310","26921","310","","2019","87839","NYTIMES-USCENSUS"
"3/7/2022 12:00:00 AM","Hillsdale County","Michigan","Midwest","East North Central","26059","41.927461","-84.637479 ","10272","194","10272","194","","2019","45605","NYTIMES-USCENSUS"
"3/7/2022 12:00:00 AM","Laclede County","Missouri","Midwest","West North Central","29105","37.659698","-92.594843 ","8071","168","8071","168","","2019","35723","NYTIMES-USCENSUS"
"3/7/2022 12:00:00 AM","Shelby County","Alabama","South","East South Central","01117","33.263043","-86.678089 ","59978","423","59978","423","","2019","217702","NYTIMES-USCENSUS"
"3/7/2022 12:00:00 AM","Bergen County","New Jersey","Northeast","Middle Atlantic","34003","40.959698","-74.074727 ","219360","3405","219360","3405","","2019","932202","NYTIMES-USCENSUS"
"3/7/2022 12:00:00 AM","Jefferson County","Texas","South","West South Central","48245","29.854","-94.149331 ","44491","812","44491","812","","2019","251565","NYTIMES-USCENSUS"
"3/7/2022 12:00:00 AM","Stone County","Missouri","Midwest","West North Central","29209","36.745822","-93.457842 ","5742","114","5742","114","","2019","31952","NYTIMES-USCENSUS"
"3/7/2022 12:00:00 AM","Madison County","Missouri","Midwest","West North Central","29123","37.474481","-90.343413 ","3558","50","3558","50","","2019","12088","NYTIMES-USCENSUS"
"3/7/2022 12:00:00 AM","Turner County","South Dakota","Midwest","West North Central","46125","43.30867","-97.150185 ","1957","62","1957","62","","2019","8384","NYTIMES-USCENSUS"
"3/7/2022 12:00:00 AM","Cortland County","New York","Northeast","Middle Atlantic","36023","42.594039","-76.07624 ","10331","114","10331","114","","2019","47581","NYTIMES-USCENSUS"
"3/7/2022 12:00:00 AM","Peoria County","Illinois","Midwest","East North Central","17143","40.785972","-89.766993 ","46076","555","46076","555","","2019","179179","NYTIMES-USCENSUS"
"3/7/2022 12:00:00 AM","Susquehanna County","Pennsylvania","Northeast","Middle Atlantic","42115","41.819665","-75.800969 ","7647","105","7647","105","","2019","40328","NYTIMES-USCENSUS"
"3/7/2022 12:00:00 AM","St. Louis County","Missouri","Midwest","West North Central","29189","38.640688","-90.446073 ","218410","3214","218410","3214","","2019","994205","NYTIMES-USCENSUS"
"3/7/2022 12:00:00 AM","Murray County","Oklahoma","South","West South Central","40099","34.485766","-97.071557 ","4151","68","4151","68","","2019","14073","NYTIMES-USCENSUS"
"3/7/2022 12:00:00 AM","Blair County","Pennsylvania","Northeast","Middle Atlantic","42013","40.498683","-78.309597 ","29467","598","29467","598","","2019","121829","NYTIMES-USCENSUS"
"3/7/2022 12:00:00 AM","Jackson County","South Dakota","Midwest","West North Central","46071","43.677506","-101.626323 ","626","21","626","21","","2019","3344","NYTIMES-USCENSUS"
"3/7/2022 12:00:00 AM","Stephens County","Georgia","South","South Atlantic","13257","34.553582","-83.290588 ","6288","138","6288","138","","2019","25925","NYTIMES-USCENSUS"
"3/7/2022 12:00:00 AM","Gallatin County","Illinois","Midwest","East North Central","17059","37.768677","-88.227964 ","1393","17","1393","17","","2019","4828","NYTIMES-USCENSUS"
"3/7/2022 12:00:00 AM","San Patricio County","Texas","South","West South Central","48409","28.011794","-97.517157 ","10998","334","10998","334","","2019","66730","NYTIMES-USCENSUS"
"3/7/2022 12:00:00 AM","Greene County","Ohio","Midwest","East North Central","39057","39.687479","-83.894894 ","37313","497","37313","497","","2019","168937","NYTIMES-USCENSUS"
"3/7/2022 12:00:00 AM","Little River County","Arkansas","South","West South Central","05081","33.701941","-94.236287 ","3232","89","3232","89","","2019","12259","NYTIMES-USCENSUS"
"3/7/2022 12:00:00 AM","Walthall County","Mississippi","South","East South Central","28147","31.164492","-90.103431 ","3579","78","3579","78","","2019","14286","NYTIMES-USCENSUS"
"3/7/2022 12:00:00 AM","Shawnee County","Kansas","Midwest","West North Central","20177","39.041805","-95.755664 ","47915","566","47915","566","","2019","176875","NYTIMES-USCENSUS"
"3/7/2022 12:00:00 AM","Newport County","Rhode Island","Northeast","New England","44005","41.501045","-71.283063 ","19411","81","19411","81","","2019","82082","NYTIMES-USCENSUS"
"3/7/2022 12:00:00 AM","Bartholomew County","Indiana","Midwest","East North Central","18005","39.205843","-85.897999 ","21273","247","21273","247","","2019","83779","NYTIMES-USCENSUS"
"3/7/2022 12:00:00 AM","Clarke County","Iowa","Midwest","West North Central","19039","41.029726","-93.785259 ","2244","35","2244","35","","2019","9395","NYTIMES-USCENSUS"
"3/7/2022 12:00:00 AM","Pierce County","Nebraska","Midwest","West North Central","31139","42.271413","-97.610992 ","1275","21","1275","21","","2019","7148","NYTIMES-USCENSUS"
"3/7/2022 12:00:00 AM","Stanton County","Kansas","Midwest","West North Central","20187","37.565932","-101.789383 ","430","8","430","8","","2019","2006","NYTIMES-USCENSUS"
"3/7/2022 12:00:00 AM","Butler County","Nebraska","Midwest","West North Central","31023","41.226072","-97.132039 ","1893","14","1893","14","","2019","8016","NYTIMES-USCENSUS"
"3/7/2022 12:00:00 AM","Berkshire County","Massachusetts","Northeast","New England","25003","42.371493","-73.217928 ","22674","404","22674","404","","2019","124944","NYTIMES-USCENSUS"
"3/7/2022 12:00:00 AM","Crawford County","Missouri","Midwest","West North Central","29055","37.966559","-91.313936 ","5364","97","5364","97","","2019","23920","NYTIMES-USCENSUS"
"3/7/2022 12:00:00 AM","Boundary County","Idaho","West","Mountain","16021","48.773131","-116.524668 ","2021","57","2021","57","","2019","12245","NYTIMES-USCENSUS"
"3/7/2022 12:00:00 AM","Haskell County","Kansas","Midwest","West North Central","20081","37.554979","-100.879952 ","961","11","961","11","","2019","3968","NYTIMES-USCENSUS"
"3/7/2022 12:00:00 AM","Greene County","Pennsylvania","Northeast","Middle Atlantic","42059","39.847707","-80.225655 ","8365","100","8365","100","","2019","36233","NYTIMES-USCENSUS"
"3/7/2022 12:00:00 AM","Staunton city","Virginia","South","South Atlantic","51790","38.157978","-79.061876 ","5550","105","5550","105","","2019","24932","NYTIMES-USCENSUS"
"3/7/2022 12:00:00 AM","Gasconade County","Missouri","Midwest","West North Central","29073","38.441183","-91.50578 ","3312","94","3312","94","","2019","14706","NYTIMES-USCENSUS"
"3/7/2022 12:00:00 AM","Aroostook County","Maine","Northeast","New England","23003","46.709193","-68.612409 ","12050","145","12050","145","","2019","67055","NYTIMES-USCENSUS"
"3/7/2022 12:00:00 AM","Grand Forks County","North Dakota","Midwest","West North Central","38035","47.926003","-97.450851 ","22004","124","22004","124","","2019","69451","NYTIMES-USCENSUS"
"3/7/2022 12:00:00 AM","Mingo County","West Virginia","South","South Atlantic","54059","37.721161","-82.158989 ","7850","119","7850","119","","2019","23424","NYTIMES-USCENSUS"
"3/7/2022 12:00:00 AM","LaGrange County","Indiana","Midwest","East North Central","18087","41.642462","-85.427845 ","5840","102","5840","102","","2019","39614","NYTIMES-USCENSUS"
"3/7/2022 12:00:00 AM","Sequatchie County","Tennessee","South","East South Central","47153","35.372336","-85.410082 ","4183","66","4183","66","","2019","15026","NYTIMES-USCENSUS"
"3/7/2022 12:00:00 AM","Fairbanks North Star Borough","Alaska","West","Pacific","02090","64.676044","-146.548159 ","26932","130","26932","130","","2019","96849","NYTIMES-USCENSUS"
"3/7/2022 12:00:00 AM","Marshall County","Kentucky","South","East South Central","21157","36.882017","-88.332752 ","8353","99","8353","99","","2019","31100","NYTIMES-USCENSUS"
"3/7/2022 12:00:00 AM","Rusk County","Texas","South","West South Central","48401","32.109423","-94.756382 ","10658","226","10658","226","","2019","54406","NYTIMES-USCENSUS"
"3/7/2022 12:00:00 AM","New London County","Connecticut","Northeast","New England","09011","41.472652","-72.108634 ","53884","629","53884","629","","2019","265206","NYTIMES-USCENSUS"
"3/7/2022 12:00:00 AM","Navarro County","Texas","South","West South Central","48349","32.048448","-96.476909 ","12369","217","12369","217","","2019","50113","NYTIMES-USCENSUS"
"3/7/2022 12:00:00 AM","Acadia Parish","Louisiana","South","West South Central","22001","30.291497","-92.411037 ","15818","287","15818","287","","2019","62045","NYTIMES-USCENSUS"
"3/7/2022 12:00:00 AM","Whiteside County","Illinois","Midwest","East North Central","17195","41.750673","-89.911005 ","15231","264","15231","264","","2019","55175","NYTIMES-USCENSUS"
"3/7/2022 12:00:00 AM","Burlington County","New Jersey","Northeast","Middle Atlantic","34005","39.875786","-74.663006 ","101035","1180","101035","1180","","2019","445349","NYTIMES-USCENSUS"
"3/7/2022 12:00:00 AM","Harding County","New Mexico","West","Mountain","35021","35.859352","-103.853424 ","80","4","80","4","","2019","625","NYTIMES-USCENSUS"
"3/7/2022 12:00:00 AM","Pulaski County","Missouri","Midwest","West North Central","29169","37.824835","-92.207022 ","8779","112","8779","112","","2019","52607","NYTIMES-USCENSUS"
"3/7/2022 12:00:00 AM","Cumberland County","North Carolina","South","South Atlantic","37051","35.050192","-78.828719 ","82042","557","82042","557","","2019","335509","NYTIMES-USCENSUS"
"3/7/2022 12:00:00 AM","Manassas city","Virginia","South","South Atlantic","51683","38.746808","-77.482633 ","9011","70","9011","70","","2019","41085","NYTIMES-USCENSUS"
"3/7/2022 12:00:00 AM","Floyd County","Iowa","Midwest","West North Central","19067","43.052741","-92.787367 ","3502","61","3502","61","","2019","15642","NYTIMES-USCENSUS"
"3/7/2022 12:00:00 AM","Queen Anne's County","Maryland","South","South Atlantic","24035","39.040693","-76.082405 ","7021","108","7021","108","","2019","50381","NYTIMES-USCENSUS"
"3/7/2022 12:00:00 AM","Davie County","North Carolina","South","South Atlantic","37059","35.929355","-80.542552 ","11057","90","11057","90","","2019","42846","NYTIMES-USCENSUS"
"3/7/2022 12:00:00 AM","King George County","Virginia","South","South Atlantic","51099","38.27718","-77.162636 ","4970","36","4970","36","","2019","26836","NYTIMES-USCENSUS"
"3/7/2022 12:00:00 AM","Tazewell County","Virginia","South","South Atlantic","51185","37.125395","-81.562924 ","10008","158","10008","158","","2019","40595","NYTIMES-USCENSUS"
"3/7/2022 12:00:00 AM","Hampshire County","West Virginia","South","South Atlantic","54027","39.312139","-78.611989 ","5783","68","5783","68","","2019","23175","NYTIMES-USCENSUS"
"3/7/2022 12:00:00 AM","Seward County","Kansas","Midwest","West North Central","20175","37.18096","-100.855257 ","6920","59","6920","59","","2019","21428","NYTIMES-USCENSUS"
"3/7/2022 12:00:00 AM","St. Charles County","Missouri","Midwest","West North Central","29183","38.781102","-90.674915 ","101140","886","101140","886","","2019","402022","NYTIMES-USCENSUS"
"3/7/2022 12:00:00 AM","Waldo County","Maine","Northeast","New England","23027","44.505822","-69.138961 ","5877","55","5877","55","","2019","39715","NYTIMES-USCENSUS"
"3/7/2022 12:00:00 AM","Marion County","Iowa","Midwest","West North Central","19125","41.331433","-93.093868 ","7497","119","7497","119","","2019","33253","NYTIMES-USCENSUS"
"3/7/2022 12:00:00 AM","Autauga County","Alabama","South","East South Central","01001","32.532237","-86.64644 ","15539","203","15539","203","","2019","55869","NYTIMES-USCENSUS"
"3/7/2022 12:00:00 AM","Matagorda County","Texas","South","West South Central","48321","28.77476","-96.001532 ","8197","174","8197","174","","2019","36643","NYTIMES-USCENSUS"
"3/7/2022 12:00:00 AM","Douglas County","Nebraska","Midwest","West North Central","31055","41.297091","-96.154066 ","148513","1084","148513","1084","","2019","571327","NYTIMES-USCENSUS"
"3/7/2022 12:00:00 AM","Morgan County","Utah","West","Mountain","49029","41.091027","-111.577885 ","2863","13","2863","13","","2019","12124","NYTIMES-USCENSUS"
"3/7/2022 12:00:00 AM","Lawrence County","Kentucky","South","East South Central","21127","38.074453","-82.73829 ","4485","59","4485","59","","2019","15317","NYTIMES-USCENSUS"
"3/7/2022 12:00:00 AM","McIntosh County","North Dakota","Midwest","West North Central","38051","46.108682","-99.416487 ","680","9","680","9","","2019","2497","NYTIMES-USCENSUS"
"3/7/2022 12:00:00 AM","Morgan County","West Virginia","South","South Atlantic","54065","39.557345","-78.256517 ","4208","67","4208","67","","2019","17884","NYTIMES-USCENSUS"
"3/7/2022 12:00:00 AM","Weakley County","Tennessee","South","East South Central","47183","36.303596","-88.721194 ","9440","134","9440","134","","2019","33328","NYTIMES-USCENSUS"
"3/7/2022 12:00:00 AM","Tillamook County","Oregon","West","Pacific","41057","45.45589","-123.759299 ","3604","57","3604","57","","2019","27036","NYTIMES-USCENSUS"
"3/7/2022 12:00:00 AM","Columbiana County","Ohio","Midwest","East North Central","39029","40.770073","-80.778455 ","24280","475","24280","475","","2019","101883","NYTIMES-USCENSUS"
"3/7/2022 12:00:00 AM","Wilson County","North Carolina","South","South Atlantic","37195","35.700357","-77.921598 ","21374","299","21374","299","","2019","81801","NYTIMES-USCENSUS"
"3/7/2022 12:00:00 AM","Marion County","Arkansas","South","West South Central","05089","36.266664","-92.678577 ","3322","85","3322","85","","2019","16694","NYTIMES-USCENSUS"
"3/7/2022 12:00:00 AM","Red River County","Texas","South","West South Central","48387","33.619625","-95.048429 ","2261","64","2261","64","","2019","12023","NYTIMES-USCENSUS"
"3/7/2022 12:00:00 AM","Dorchester County","South Carolina","South","South Atlantic","45035","33.082186","-80.404697 ","55706","479","55706","479","","2019","162809","NYTIMES-USCENSUS"
"3/7/2022 12:00:00 AM","Otero County","New Mexico","West","Mountain","35035","32.615599","-105.751308 ","15411","179","15411","179","","2019","67490","NYTIMES-USCENSUS"
"3/7/2022 12:00:00 AM","Hidalgo County","Texas","South","West South Central","48215","26.396384","-98.18099 ","195191","3827","195191","3827","","2019","868707","NYTIMES-USCENSUS"
"3/7/2022 12:00:00 AM","Cleveland County","Oklahoma","South","West South Central","40027","35.206376","-97.323088 ","78440","765","78440","765","","2019","284014","NYTIMES-USCENSUS"
"3/7/2022 12:00:00 AM","Grant County","Wisconsin","Midwest","East North Central","55043","42.870028","-90.694229 ","12584","143","12584","143","","2019","51439","NYTIMES-USCENSUS"
"3/7/2022 12:00:00 AM","Clayton County","Georgia","South","South Atlantic","13063","33.542686","-84.355573 ","63248","911","63248","911","","2019","292256","NYTIMES-USCENSUS"
"3/7/2022 12:00:00 AM","Lincoln County","Nebraska","Midwest","West North Central","31111","41.050322","-100.744481 ","8662","107","8662","107","","2019","34914","NYTIMES-USCENSUS"
"3/7/2022 12:00:00 AM","Chambers County","Alabama","South","East South Central","01017","32.915504","-85.394032 ","8443","157","8443","157","","2019","33254","NYTIMES-USCENSUS"
"3/7/2022 12:00:00 AM","Chittenden County","Vermont","Northeast","New England","50007","44.463329","-73.06941 ","30043","158","30043","158","","2019","163774","NYTIMES-USCENSUS"
"3/7/2022 12:00:00 AM","Portage County","Wisconsin","Midwest","East North Central","55097","44.476246","-89.49807 ","17825","153","17825","153","","2019","70772","NYTIMES-USCENSUS"
"3/7/2022 12:00:00 AM","Dixie County","Florida","South","South Atlantic","12029","29.552675","-83.236232 ","4014","65","4014","65","","2019","16826","NYTIMES-USCENSUS"
"3/7/2022 12:00:00 AM","Alexander County","Illinois","Midwest","East North Central","17003","37.183658","-89.349516 ","1271","15","1271","15","","2019","5761","NYTIMES-USCENSUS"
"3/7/2022 12:00:00 AM","Carroll County","Maryland","South","South Atlantic","24013","39.563328","-77.01533 ","21129","390","21129","390","","2019","168447","NYTIMES-USCENSUS"
"3/7/2022 12:00:00 AM","Licking County","Ohio","Midwest","East North Central","39089","40.091505","-82.483435 ","41430","463","41430","463","","2019","176862","NYTIMES-USCENSUS"
"3/7/2022 12:00:00 AM","Holmes County","Ohio","Midwest","East North Central","39075","40.565597","-81.930001 ","5089","180","5089","180","","2019","43960","NYTIMES-USCENSUS"
"3/7/2022 12:00:00 AM","Livingston County","New York","Northeast","Middle Atlantic","36051","42.729042","-77.778463 ","11497","113","11497","113","","2019","62914","NYTIMES-USCENSUS"
"3/7/2022 12:00:00 AM","Florence County","Wisconsin","Midwest","East North Central","55037","45.871828","-88.406988 ","1075","15","1075","15","","2019","4295","NYTIMES-USCENSUS"
"3/7/2022 12:00:00 AM","Uvalde County","Texas","South","West South Central","48463","29.350308","-99.768427 ","10532","138","10532","138","","2019","26741","NYTIMES-USCENSUS"
"3/7/2022 12:00:00 AM","Saguache County","Colorado","West","Mountain","08109","38.031651","-106.234666 ","1150","12","1150","12","","2019","6824","NYTIMES-USCENSUS"
"3/7/2022 12:00:00 AM","Union County","Georgia","South","South Atlantic","13291","34.833333","-83.989257 ","4833","147","4833","147","","2019","24511","NYTIMES-USCENSUS"
"3/7/2022 12:00:00 AM","Kennebec County","Maine","Northeast","New England","23011","44.417012","-69.765764 ","22195","223","22195","223","","2019","122302","NYTIMES-USCENSUS"
"3/7/2022 12:00:00 AM","Todd County","South Dakota","Midwest","West North Central","46121","43.208794","-100.707664 ","2952","49","2952","49","","2019","10177","NYTIMES-USCENSUS"
"3/7/2022 12:00:00 AM","Leavenworth County","Kansas","Midwest","West North Central","20103","39.189511","-95.038977 ","19248","174","19248","174","","2019","81758","NYTIMES-USCENSUS"
"3/7/2022 12:00:00 AM","Carson City","Nevada","West","Mountain","32510","39.15306","-119.747368 ","14465","204","14465","204","","2019","55916","NYTIMES-USCENSUS"
"3/7/2022 12:00:00 AM","Essex County","New Jersey","Northeast","Middle Atlantic","34013","40.7874","-74.246292 ","209714","3573","209714","3573","","2019","798975","NYTIMES-USCENSUS"
"3/7/2022 12:00:00 AM","Tunica County","Mississippi","South","East South Central","28143","34.652201","-90.37177 ","2510","45","2510","45","","2019","9632","NYTIMES-USCENSUS"
"3/7/2022 12:00:00 AM","St. Francis County","Arkansas","South","West South Central","05123","35.022838","-90.751506 ","7053","87","7053","87","","2019","24994","NYTIMES-USCENSUS"
"3/7/2022 12:00:00 AM","Nemaha County","Nebraska","Midwest","West North Central","31127","40.387389","-95.852721 ","1481","19","1481","19","","2019","6972","NYTIMES-USCENSUS"
"3/7/2022 12:00:00 AM","Houston County","Georgia","South","South Atlantic","13153","32.458287","-83.662522 ","39175","476","39175","476","","2019","157863","NYTIMES-USCENSUS"
"3/7/2022 12:00:00 AM","Union County","New Jersey","Northeast","Middle Atlantic","34039","40.659871","-74.308696 ","142933","2350","142933","2350","","2019","556341","NYTIMES-USCENSUS"
"3/7/2022 12:00:00 AM","Putnam County","Indiana","Midwest","East North Central","18133","39.665548","-86.853373 ","9289","125","9289","125","","2019","37576","NYTIMES-USCENSUS"
"3/7/2022 12:00:00 AM","Pinellas County","Florida","South","South Atlantic","12103","27.905342","-82.798066 ","206891","3153","206891","3153","","2019","974996","NYTIMES-USCENSUS"
"3/7/2022 12:00:00 AM","Sharp County","Arkansas","South","West South Central","05135","36.173399","-91.471069 ","4585","100","4585","100","","2019","17442","NYTIMES-USCENSUS"
"3/7/2022 12:00:00 AM","Ionia County","Michigan","Midwest","East North Central","26067","42.94465","-85.073766 ","19388","174","19388","174","","2019","64697","NYTIMES-USCENSUS"
"3/7/2022 12:00:00 AM","Fayette County","Illinois","Midwest","East North Central","17051","39.001125","-89.017923 ","7053","100","7053","100","","2019","21336","NYTIMES-USCENSUS"
"3/7/2022 12:00:00 AM","Anderson County","Kentucky","South","East South Central","21005","38.005396","-84.986417 ","6240","65","6240","65","","2019","22747","NYTIMES-USCENSUS"
"3/7/2022 12:00:00 AM","Carter County","Missouri","Midwest","West North Central","29035","36.944858","-90.945705 ","1491","21","1491","21","","2019","5982","NYTIMES-USCENSUS"
"3/7/2022 12:00:00 AM","St. Clair County","Illinois","Midwest","East North Central","17163","38.470198","-89.928546 ","68848","760","68848","760","","2019","259686","NYTIMES-USCENSUS"
"3/7/2022 12:00:00 AM","Bureau County","Illinois","Midwest","East North Central","17011","41.401304","-89.528377 ","8295","139","8295","139","","2019","32628","NYTIMES-USCENSUS"
"3/7/2022 12:00:00 AM","Reynolds County","Missouri","Midwest","West North Central","29179","37.366464","-90.972282 ","1147","24","1147","24","","2019","6270","NYTIMES-USCENSUS"
"3/7/2022 12:00:00 AM","New Castle County","Delaware","South","South Atlantic","10003","39.575915","-75.644132 ","145740","1338","145740","1338","","2019","558753","NYTIMES-USCENSUS"
"3/7/2022 12:00:00 AM","Jefferson Davis Parish","Louisiana","South","West South Central","22053","30.269529","-92.816221 ","6916","150","6916","150","","2019","31368","NYTIMES-USCENSUS"
"3/7/2022 12:00:00 AM","Berks County","Pennsylvania","Northeast","Middle Atlantic","42011","40.413957","-75.92686 ","101745","1576","101745","1576","","2019","421164","NYTIMES-USCENSUS"
"3/7/2022 12:00:00 AM","Washington County","Colorado","West","Mountain","08121","39.96579","-103.209744 ","1037","27","1037","27","","2019","4908","NYTIMES-USCENSUS"
"3/7/2022 12:00:00 AM","Carroll County","Mississippi","South","East South Central","28015","33.440795","-89.918887 ","2556","50","2556","50","","2019","9947","NYTIMES-USCENSUS"
"3/7/2022 12:00:00 AM","Stephenson County","Illinois","Midwest","East North Central","17177","42.349726","-89.665994 ","11412","173","11412","173","","2019","44498","NYTIMES-USCENSUS"
"3/7/2022 12:00:00 AM","Chautauqua County","New York","Northeast","Middle Atlantic","36013","42.304216","-79.407595 ","23383","290","23383","290","","2019","126903","NYTIMES-USCENSUS"
"3/7/2022 12:00:00 AM","Stillwater County","Montana","West","Mountain","30095","45.658545","-109.381576 ","1522","29","1522","29","","2019","9642","NYTIMES-USCENSUS"
"3/7/2022 12:00:00 AM","McLeod County","Minnesota","Midwest","West North Central","27085","44.821657","-94.272323 ","10416","106","10416","106","","2019","35893","NYTIMES-USCENSUS"
"3/7/2022 12:00:00 AM","Hillsborough County","New Hampshire","Northeast","New England","33011","42.911532","-71.723055 ","95986","883","95986","883","","2019","417025","NYTIMES-USCENSUS"
"3/7/2022 12:00:00 AM","Clinton County","Iowa","Midwest","West North Central","19045","41.898073","-90.534243 ","11470","143","11470","143","","2019","46429","NYTIMES-USCENSUS"
"3/7/2022 12:00:00 AM","Jackson County","Georgia","South","South Atlantic","13157","34.130905","-83.562557 ","21199","278","21199","278","","2019","72977","NYTIMES-USCENSUS"
"3/7/2022 12:00:00 AM","Stanislaus County","California","West","Pacific","06099","37.562316","-121.002831 ","136135","1685","136135","1685","","2019","550660","NYTIMES-USCENSUS"
"3/7/2022 12:00:00 AM","Clinton County","Missouri","Midwest","West North Central","29049","39.608723","-94.395803 ","4720","114","4720","114","","2019","20387","NYTIMES-USCENSUS"
"3/7/2022 12:00:00 AM","Dillingham Census Area","Alaska","West","Pacific","02070","59.543326","-158.267123 ","1554","11","1554","11","","2019","4916","NYTIMES-USCENSUS"
"3/7/2022 12:00:00 AM","Saline County","Missouri","Midwest","West North Central","29195","39.13584","-93.204164 ","6250","99","6250","99","","2019","22761","NYTIMES-USCENSUS"
"3/7/2022 12:00:00 AM","Austin County","Texas","South","West South Central","48015","29.891901","-96.27017 ","5581","71","5581","71","","2019","30032","NYTIMES-USCENSUS"
"3/7/2022 12:00:00 AM","York County","Virginia","South","South Atlantic","51199","37.220914","-76.395533 ","9665","105","9665","105","","2019","68280","NYTIMES-USCENSUS"
"3/7/2022 12:00:00 AM","Brown County","Minnesota","Midwest","West North Central","27015","44.246541","-94.733647 ","6481","77","6481","77","","2019","25008","NYTIMES-USCENSUS"
"3/7/2022 12:00:00 AM","Ottawa County","Oklahoma","South","West South Central","40115","36.835764","-94.802681 ","9074","121","9074","121","","2019","31127","NYTIMES-USCENSUS"
"3/7/2022 12:00:00 AM","Barrow County","Georgia","South","South Atlantic","13013","33.992009","-83.712303 ","21830","246","21830","246","","2019","83240","NYTIMES-USCENSUS"
"3/7/2022 12:00:00 AM","Carteret County","North Carolina","South","South Atlantic","37031","34.858343","-76.53586 ","13968","85","13968","85","","2019","69473","NYTIMES-USCENSUS"
"3/7/2022 12:00:00 AM","Ochiltree County","Texas","South","West South Central","48357","36.278744","-100.815864 ","2195","48","2195","48","","2019","9836","NYTIMES-USCENSUS"
"3/7/2022 12:00:00 AM","Chippewa County","Wisconsin","Midwest","East North Central","55017","45.069092","-91.283505 ","18530","176","18530","176","","2019","64658","NYTIMES-USCENSUS"
"3/7/2022 12:00:00 AM","Winnebago County","Wisconsin","Midwest","East North Central","55139","44.085707","-88.668149 ","51173","361","51173","361","","2019","171907","NYTIMES-USCENSUS"
"3/7/2022 12:00:00 AM","Medina County","Texas","South","West South Central","48325","29.353661","-99.111085 ","9992","194","9992","194","","2019","51584","NYTIMES-USCENSUS"
"3/7/2022 12:00:00 AM","Union County","Indiana","Midwest","East North Central","18161","39.623111","-84.925152 ","2044","21","2044","21","","2019","7054","NYTIMES-USCENSUS"
"3/7/2022 12:00:00 AM","Cochise County","Arizona","West","Mountain","04003","31.840129","-109.775163 ","31019","544","31019","544","","2019","125922","NYTIMES-USCENSUS"
"3/7/2022 12:00:00 AM","Clark County","Washington","West","Pacific","53011","45.77173","-122.485953 ","85083","765","85083","765","","2019","488241","NYTIMES-USCENSUS"
"3/7/2022 12:00:00 AM","Charles Mix County","South Dakota","Midwest","West North Central","46023","43.206185","-98.595143 ","2918","33","2918","33","","2019","9292","NYTIMES-USCENSUS"
"3/7/2022 12:00:00 AM","Marion County","Illinois","Midwest","East North Central","17121","38.648236","-88.920362 ","11810","212","11810","212","","2019","37205","NYTIMES-USCENSUS"
"3/7/2022 12:00:00 AM","Mercer County","North Dakota","Midwest","West North Central","38057","47.307147","-101.833328 ","2548","24","2548","24","","2019","8187","NYTIMES-USCENSUS"
"3/7/2022 12:00:00 AM","Salt Lake County","Utah","West","Mountain","49035","40.667883","-111.92424 ","339945","1561","339945","1561","","2019","1160437","NYTIMES-USCENSUS"
"3/7/2022 12:00:00 AM","Pierce County","Georgia","South","South Atlantic","13229","31.353998","-82.21037 ","5626","124","5626","124","","2019","19465","NYTIMES-USCENSUS"
"3/7/2022 12:00:00 AM","Oldham County","Texas","South","West South Central","48359","35.401921","-102.59762 ","544","6","544","6","","2019","2112","NYTIMES-USCENSUS"
"3/7/2022 12:00:00 AM","Scott County","Kansas","Midwest","West North Central","20171","38.481877","-100.90636 ","1277","34","1277","34","","2019","4823","NYTIMES-USCENSUS"
"3/7/2022 12:00:00 AM","Gregory County","South Dakota","Midwest","West North Central","46053","43.175142","-99.206591 ","1063","34","1063","34","","2019","4185","NYTIMES-USCENSUS"
"3/7/2022 12:00:00 AM","Breckinridge County","Kentucky","South","East South Central","21027","37.777988","-86.432919 ","4989","73","4989","73","","2019","20477","NYTIMES-USCENSUS"
"3/7/2022 12:00:00 AM","Berrien County","Georgia","South","South Atlantic","13019","31.288652","-83.22787 ","4908","79","4908","79","","2019","19397","NYTIMES-USCENSUS"
"3/7/2022 12:00:00 AM","Pend Oreille County","Washington","West","Pacific","53051","48.543825","-117.232191 ","2460","32","2460","32","","2019","13724","NYTIMES-USCENSUS"
"3/7/2022 12:00:00 AM","Kankakee County","Illinois","Midwest","East North Central","17091","41.13951","-87.861117 ","28635","367","28635","367","","2019","109862","NYTIMES-USCENSUS"
"3/7/2022 12:00:00 AM","Garden County","Nebraska","Midwest","West North Central","31069","41.633364","-102.302985 ","366","1","366","1","","2019","1837","NYTIMES-USCENSUS"
"3/7/2022 12:00:00 AM","Duval County","Florida","South","South Atlantic","12031","30.335245","-81.648113 ","251111","3208","251111","3208","","2019","957755","NYTIMES-USCENSUS"
"3/7/2022 12:00:00 AM","Fresno County","California","West","Pacific","06019","36.761006","-119.655019 ","249441","2653","249441","2653","","2019","999101","NYTIMES-USCENSUS"
"3/7/2022 12:00:00 AM","Chippewa County","Michigan","Midwest","East North Central","26033","46.321819","-84.52063 ","11515","112","11515","112","","2019","37349","NYTIMES-USCENSUS"
"3/7/2022 12:00:00 AM","Richland County","South Carolina","South","South Atlantic","45079","34.029095","-80.898037 ","121886","907","121886","907","","2019","415759","NYTIMES-USCENSUS"
"3/7/2022 12:00:00 AM","Talladega County","Alabama","South","East South Central","01121","33.369314","-86.17593 ","22184","355","22184","355","","2019","79978","NYTIMES-USCENSUS"
"3/7/2022 12:00:00 AM","McCracken County","Kentucky","South","East South Central","21145","37.054111","-88.712454 ","17851","229","17851","229","","2019","65418","NYTIMES-USCENSUS"
"3/7/2022 12:00:00 AM","Collier County","Florida","South","South Atlantic","12021","26.118786","-81.400955 ","82787","962","82787","962","","2019","384902","NYTIMES-USCENSUS"
"3/7/2022 12:00:00 AM","Polk County","Minnesota","Midwest","West North Central","27119","47.774254","-96.400027 ","8523","102","8523","102","","2019","31364","NYTIMES-USCENSUS"
"3/7/2022 12:00:00 AM","Llano County","Texas","South","West South Central","48299","30.707584","-98.68469 ","3854","96","3854","96","","2019","21795","NYTIMES-USCENSUS"
"3/7/2022 12:00:00 AM","Cobb County","Georgia","South","South Atlantic","13067","33.939929","-84.574121 ","169953","1696","169953","1696","","2019","760141","NYTIMES-USCENSUS"
"3/7/2022 12:00:00 AM","Skamania County","Washington","West","Pacific","53059","46.024785","-121.953232 ","1467","11","1467","11","","2019","12083","NYTIMES-USCENSUS"
"3/7/2022 12:00:00 AM","Lincoln County","Montana","West","Mountain","30053","48.552385","-115.463185 ","4669","86","4669","86","","2019","19980","NYTIMES-USCENSUS"
"3/7/2022 12:00:00 AM","Langlade County","Wisconsin","Midwest","East North Central","55067","45.254863","-89.06707 ","5177","79","5177","79","","2019","19189","NYTIMES-USCENSUS"
"3/7/2022 12:00:00 AM","Johnson County","Kansas","Midwest","West North Central","20091","38.883907","-94.82233 ","144413","1178","144413","1178","","2019","602401","NYTIMES-USCENSUS"
"3/7/2022 12:00:00 AM","Logan County","Kentucky","South","East South Central","21141","36.859607","-86.881288 ","8290","115","8290","115","","2019","27102","NYTIMES-USCENSUS"
"3/7/2022 12:00:00 AM","Calloway County","Kentucky","South","East South Central","21035","36.620978","-88.274086 ","7912","86","7912","86","","2019","39001","NYTIMES-USCENSUS"
"3/7/2022 12:00:00 AM","Pike County","Illinois","Midwest","East North Central","17149","39.625106","-90.889034 ","4996","68","4996","68","","2019","15561","NYTIMES-USCENSUS"
"3/7/2022 12:00:00 AM","McLennan County","Texas","South","West South Central","48309","31.549596","-97.201511 ","56589","891","56589","891","","2019","256623","NYTIMES-USCENSUS"
"3/7/2022 12:00:00 AM","Jasper County","Mississippi","South","East South Central","28061","32.016748","-89.119176 ","4814","74","4814","74","","2019","16383","NYTIMES-USCENSUS"
"3/7/2022 12:00:00 AM","Colorado County","Texas","South","West South Central","48089","29.596296","-96.508935 ","3719","61","3719","61","","2019","21493","NYTIMES-USCENSUS"
"3/7/2022 12:00:00 AM","Wharton County","Texas","South","West South Central","48481","29.27848","-96.229674 ","8832","206","8832","206","","2019","41556","NYTIMES-USCENSUS"
"3/7/2022 12:00:00 AM","Tuolumne County","California","West","Pacific","06109","38.021434","-119.964733 ","13126","179","13126","179","","2019","54478","NYTIMES-USCENSUS"
"3/7/2022 12:00:00 AM","Cook County","Georgia","South","South Atlantic","13075","31.152516","-83.429445 ","4878","70","4878","70","","2019","17270","NYTIMES-USCENSUS"
"3/7/2022 12:00:00 AM","Sangamon County","Illinois","Midwest","East North Central","17167","39.756886","-89.662435 ","54361","422","54361","422","","2019","194672","NYTIMES-USCENSUS"
"3/7/2022 12:00:00 AM","Vanderburgh County","Indiana","Midwest","East North Central","18163","38.02007","-87.586166 ","57092","615","57092","615","","2019","181451","NYTIMES-USCENSUS"
"3/7/2022 12:00:00 AM","Cherokee County","Oklahoma","South","West South Central","40021","35.904367","-94.996796 ","14459","139","14459","139","","2019","48657","NYTIMES-USCENSUS"
"3/7/2022 12:00:00 AM","Gunnison County","Colorado","West","Mountain","08051","38.670499","-107.05688 ","3292","14","3292","14","","2019","17462","NYTIMES-USCENSUS"
"3/7/2022 12:00:00 AM","Cheshire County","New Hampshire","Northeast","New England","33005","42.92546","-72.248183 ","14320","104","14320","104","","2019","76085","NYTIMES-USCENSUS"
"3/7/2022 12:00:00 AM","Perry County","Pennsylvania","Northeast","Middle Atlantic","42099","40.39778","-77.266328 ","8787","180","8787","180","","2019","46272","NYTIMES-USCENSUS"
"3/7/2022 12:00:00 AM","Fayette County","Pennsylvania","Northeast","Middle Atlantic","42051","39.918907","-79.640119 ","30764","646","30764","646","","2019","129274","NYTIMES-USCENSUS"
"3/7/2022 12:00:00 AM","Kiowa County","Kansas","Midwest","West North Central","20097","37.561231","-99.286539 ","667","7","667","7","","2019","2475","NYTIMES-USCENSUS"
"3/7/2022 12:00:00 AM","Ringgold County","Iowa","Midwest","West North Central","19159","40.735334","-94.244251 ","1126","33","1126","33","","2019","4894","NYTIMES-USCENSUS"
"3/7/2022 12:00:00 AM","Johnson County","Iowa","Midwest","West North Central","19103","41.670668","-91.590529 ","33682","139","33682","139","","2019","151140","NYTIMES-USCENSUS"
"3/7/2022 12:00:00 AM","Crawford County","Indiana","Midwest","East North Central","18025","38.289433","-86.440871 ","2534","36","2534","36","","2019","10577","NYTIMES-USCENSUS"
"3/7/2022 12:00:00 AM","Breathitt County","Kentucky","South","East South Central","21025","37.517807","-83.317158 ","3582","51","3582","51","","2019","12630","NYTIMES-USCENSUS"
"3/7/2022 12:00:00 AM","Phelps County","Missouri","Midwest","West North Central","29161","37.866326","-91.790349 ","10015","231","10015","231","","2019","44573","NYTIMES-USCENSUS"
"3/7/2022 12:00:00 AM","San Juan County","Colorado","West","Mountain","08111","37.781049","-107.670257 ","193","0","193","0","","2019","728","NYTIMES-USCENSUS"
"3/7/2022 12:00:00 AM","Pratt County","Kansas","Midwest","West North Central","20151","37.647594","-98.74012 ","1925","30","1925","30","","2019","9164","NYTIMES-USCENSUS"
"3/7/2022 12:00:00 AM","Burleson County","Texas","South","West South Central","48051","30.493487","-96.622091 ","4989","65","4989","65","","2019","18443","NYTIMES-USCENSUS"
"3/7/2022 12:00:00 AM","Lewis County","West Virginia","South","South Atlantic","54041","38.988877","-80.495477 ","5260","78","5260","78","","2019","15907","NYTIMES-USCENSUS"
"3/7/2022 12:00:00 AM","Cass County","Minnesota","Midwest","West North Central","27021","46.951745","-94.333705 ","6799","79","6799","79","","2019","29779","NYTIMES-USCENSUS"
"3/7/2022 12:00:00 AM","Barton County","Kansas","Midwest","West North Central","20009","38.481239","-98.767837 ","6478","86","6478","86","","2019","25779","NYTIMES-USCENSUS"
"3/7/2022 12:00:00 AM","Poinsett County","Arkansas","South","West South Central","05111","35.56887","-90.681104 ","7866","121","7866","121","","2019","23528","NYTIMES-USCENSUS"
"3/7/2022 12:00:00 AM","El Paso County","Colorado","West","Mountain","08041","38.827383","-104.527472 ","179870","1594","179870","1594","","2019","720403","NYTIMES-USCENSUS"
"3/7/2022 12:00:00 AM","Rice County","Minnesota","Midwest","West North Central","27131","44.350775","-93.298513 ","17554","171","17554","171","","2019","66972","NYTIMES-USCENSUS"
"3/7/2022 12:00:00 AM","Pope County","Arkansas","South","West South Central","05115","35.456557","-93.026818 ","18306","194","18306","194","","2019","64072","NYTIMES-USCENSUS"
"3/7/2022 12:00:00 AM","Lincoln County","South Dakota","Midwest","West North Central","46083","43.27942","-96.722286 ","15453","98","15453","98","","2019","61128","NYTIMES-USCENSUS"
"3/7/2022 12:00:00 AM","Morgan County","Missouri","Midwest","West North Central","29141","38.420806","-92.874835 ","3992","101","3992","101","","2019","20627","NYTIMES-USCENSUS"
"3/7/2022 12:00:00 AM","Stephens County","Oklahoma","South","West South Central","40137","34.481361","-97.855607 ","10851","189","10851","189","","2019","43143","NYTIMES-USCENSUS"
"3/7/2022 12:00:00 AM","Carroll County","Tennessee","South","East South Central","47017","35.965748","-88.452379 ","8871","147","8871","147","","2019","27767","NYTIMES-USCENSUS"
"3/7/2022 12:00:00 AM","DeSoto County","Mississippi","South","East South Central","28033","34.874922","-89.991211 ","49909","539","49909","539","","2019","184945","NYTIMES-USCENSUS"
"3/7/2022 12:00:00 AM","Giles County","Tennessee","South","East South Central","47055","35.202723","-87.035319 ","9374","172","9374","172","","2019","29464","NYTIMES-USCENSUS"
"3/7/2022 12:00:00 AM","Callaway County","Missouri","Midwest","West North Central","29027","38.835547","-91.923446 ","11941","119","11941","119","","2019","44743","NYTIMES-USCENSUS"
"3/7/2022 12:00:00 AM","Clinton County","Pennsylvania","Northeast","Middle Atlantic","42035","41.239508","-77.629009 ","8992","124","8992","124","","2019","38632","NYTIMES-USCENSUS"
"3/7/2022 12:00:00 AM","Valencia County","New Mexico","West","Mountain","35061","34.71684","-106.806582 ","18864","251","18864","251","","2019","76688","NYTIMES-USCENSUS"
"3/7/2022 12:00:00 AM","Martin County","Indiana","Midwest","East North Central","18101","38.705322","-86.801847 ","2158","25","2158","25","","2019","10255","NYTIMES-USCENSUS"
"3/7/2022 12:00:00 AM","DeWitt County","Texas","South","West South Central","48123","29.082346","-97.361654 ","6423","96","6423","96","","2019","20160","NYTIMES-USCENSUS"
"3/7/2022 12:00:00 AM","Washington County","Kentucky","South","East South Central","21229","37.754209","-85.175416 ","3859","56","3859","56","","2019","12095","NYTIMES-USCENSUS"
"3/7/2022 12:00:00 AM","Cherokee County","Texas","South","West South Central","48073","31.843881","-95.156343 ","7923","248","7923","248","","2019","52646","NYTIMES-USCENSUS"
"3/7/2022 12:00:00 AM","Wilkes County","Georgia","South","South Atlantic","13317","33.779031","-82.747921 ","2231","47","2231","47","","2019","9777","NYTIMES-USCENSUS"
"3/7/2022 12:00:00 AM","Hughes County","Oklahoma","South","West South Central","40063","35.052934","-96.251183 ","2543","58","2543","58","","2019","13279","NYTIMES-USCENSUS"
"3/7/2022 12:00:00 AM","Power County","Idaho","West","Mountain","16077","42.694126","-112.844407 ","1487","20","1487","20","","2019","7681","NYTIMES-USCENSUS"
"3/7/2022 12:00:00 AM","Piatt County","Illinois","Midwest","East North Central","17147","40.009033","-88.592355 ","4356","28","4356","28","","2019","16344","NYTIMES-USCENSUS"
"3/7/2022 12:00:00 AM","Cassia County","Idaho","West","Mountain","16031","42.282313","-113.626328 ","4855","52","4855","52","","2019","24030","NYTIMES-USCENSUS"
"3/7/2022 12:00:00 AM","Alpine County","California","West","Pacific","06003","38.621783","-119.798352 ","126","0","126","0","","2019","1129","NYTIMES-USCENSUS"
"3/7/2022 12:00:00 AM","Hampden County","Massachusetts","Northeast","New England","25013","42.136198","-72.635648 ","131556","2067","131556","2067","","2019","466372","NYTIMES-USCENSUS"
"3/7/2022 12:00:00 AM","Monroe County","Wisconsin","Midwest","East North Central","55081","43.945175","-90.619969 ","11838","82","11838","82","","2019","46253","NYTIMES-USCENSUS"
"3/7/2022 12:00:00 AM","Litchfield County","Connecticut","Northeast","New England","09005","41.791883","-73.235404 ","31306","448","31306","448","","2019","180333","NYTIMES-USCENSUS"
"3/7/2022 12:00:00 AM","Lancaster County","South Carolina","South","South Atlantic","45057","34.686818","-80.703688 ","24956","274","24956","274","","2019","98012","NYTIMES-USCENSUS"
"3/7/2022 12:00:00 AM","Amador County","California","West","Pacific","06005","38.443549","-120.653858 ","9020","84","9020","84","","2019","39752","NYTIMES-USCENSUS"
"3/7/2022 12:00:00 AM","Yellow Medicine County","Minnesota","Midwest","West North Central","27173","44.715736","-95.862756 ","2499","28","2499","28","","2019","9709","NYTIMES-USCENSUS"
"3/7/2022 12:00:00 AM","Oxford County","Maine","Northeast","New England","23017","44.4945","-70.734421 ","10918","139","10918","139","","2019","57975","NYTIMES-USCENSUS"
"3/7/2022 12:00:00 AM","Lemhi County","Idaho","West","Mountain","16059","44.928506","-113.887042 ","1249","25","1249","25","","2019","8027","NYTIMES-USCENSUS"
"3/7/2022 12:00:00 AM","Williamsburg County","South Carolina","South","South Atlantic","45089","33.626462","-79.716474 ","8514","144","8514","144","","2019","30368","NYTIMES-USCENSUS"
"3/7/2022 12:00:00 AM","Calvert County","Maryland","South","South Atlantic","24009","38.522719","-76.529762 ","11043","141","11043","141","","2019","92525","NYTIMES-USCENSUS"
"3/7/2022 12:00:00 AM","Avery County","North Carolina","South","South Atlantic","37011","36.07209","-81.920285 ","4402","42","4402","42","","2019","17557","NYTIMES-USCENSUS"
"3/7/2022 12:00:00 AM","Refugio County","Texas","South","West South Central","48391","28.322116","-97.162472 ","1752","32","1752","32","","2019","6948","NYTIMES-USCENSUS"
"3/7/2022 12:00:00 AM","Butler County","Pennsylvania","Northeast","Middle Atlantic","42019","40.913847","-79.918978 ","44149","710","44149","710","","2019","187853","NYTIMES-USCENSUS"
"3/7/2022 12:00:00 AM","Juneau City and Borough","Alaska","West","Pacific","02110","58.37291","-134.178445 ","7902","18","7902","18","","2019","31974","NYTIMES-USCENSUS"
"3/7/2022 12:00:00 AM","Warren County","Tennessee","South","East South Central","47177","35.67825","-85.777343 ","12936","167","12936","167","","2019","41277","NYTIMES-USCENSUS"
"3/7/2022 12:00:00 AM","Todd County","Minnesota","Midwest","West North Central","27153","46.066569","-94.900576 ","6650","56","6650","56","","2019","24664","NYTIMES-USCENSUS"
"3/7/2022 12:00:00 AM","Mitchell County","Georgia","South","South Atlantic","13205","31.228997","-84.192038 ","5215","112","5215","112","","2019","21863","NYTIMES-USCENSUS"
"3/7/2022 12:00:00 AM","Fillmore County","Nebraska","Midwest","West North Central","31059","40.52504","-97.596705 ","1126","13","1126","13","","2019","5462","NYTIMES-USCENSUS"
"3/7/2022 12:00:00 AM","Holt County","Missouri","Midwest","West North Central","29087","40.095724","-95.219072 ","1044","27","1044","27","","2019","4403","NYTIMES-USCENSUS"
"3/7/2022 12:00:00 AM","St. Lawrence County","New York","Northeast","Middle Atlantic","36089","44.488112","-75.074311 ","20623","179","20623","179","","2019","107740","NYTIMES-USCENSUS"
"3/7/2022 12:00:00 AM","Wadena County","Minnesota","Midwest","West North Central","27159","46.586986","-94.988608 ","4120","52","4120","52","","2019","13682","NYTIMES-USCENSUS"
"3/7/2022 12:00:00 AM","Bradley County","Arkansas","South","West South Central","05011","33.466549","-92.169156 ","2978","46","2978","46","","2019","10763","NYTIMES-USCENSUS"
"3/7/2022 12:00:00 AM","Hart County","Kentucky","South","East South Central","21099","37.305827","-85.878443 ","5347","94","5347","94","","2019","19035","NYTIMES-USCENSUS"
"3/7/2022 12:00:00 AM","Seward County","Nebraska","Midwest","West North Central","31159","40.871944","-97.140383 ","3362","41","3362","41","","2019","17284","NYTIMES-USCENSUS"
"3/7/2022 12:00:00 AM","Wilson County","Kansas","Midwest","West North Central","20205","37.558515","-95.745175 ","2799","40","2799","40","","2019","8525","NYTIMES-USCENSUS"
"3/7/2022 12:00:00 AM","Armstrong County","Texas","South","West South Central","48011","34.964179","-101.356636 ","503","9","503","9","","2019","1887","NYTIMES-USCENSUS"
"3/7/2022 12:00:00 AM","Marquette County","Michigan","Midwest","East North Central","26103","46.656596","-87.584028 ","15706","122","15706","122","","2019","66699","NYTIMES-USCENSUS"
"3/7/2022 12:00:00 AM","Cape Girardeau County","Missouri","Midwest","West North Central","29031","37.384141","-89.685658 ","18536","233","18536","233","","2019","78871","NYTIMES-USCENSUS"
"3/7/2022 12:00:00 AM","Clarion County","Pennsylvania","Northeast","Middle Atlantic","42031","41.198159","-79.420369 ","8175","198","8175","198","","2019","38438","NYTIMES-USCENSUS"
"3/7/2022 12:00:00 AM","Wright County","Iowa","Midwest","West North Central","19197","42.733007","-93.734735 ","3603","62","3603","62","","2019","12562","NYTIMES-USCENSUS"
"3/7/2022 12:00:00 AM","Walworth County","South Dakota","Midwest","West North Central","46129","45.427605","-100.027856 ","1306","25","1306","25","","2019","5435","NYTIMES-USCENSUS"
"3/7/2022 12:00:00 AM","Lake County","Florida","South","South Atlantic","12069","28.764113","-81.712282 ","84142","1431","84142","1431","","2019","367118","NYTIMES-USCENSUS"
"3/7/2022 12:00:00 AM","Ida County","Iowa","Midwest","West North Central","19093","42.39186","-95.507421 ","1797","47","1797","47","","2019","6860","NYTIMES-USCENSUS"
"3/7/2022 12:00:00 AM","Jackson County","Texas","South","West South Central","48239","28.959802","-96.58908 ","3223","59","3223","59","","2019","14760","NYTIMES-USCENSUS"
"3/7/2022 12:00:00 AM","Smith County","Tennessee","South","East South Central","47159","36.256645","-85.941915 ","6149","74","6149","74","","2019","20157","NYTIMES-USCENSUS"
"3/7/2022 12:00:00 AM","Calhoun County","Texas","South","West South Central","48057","28.441719","-96.579574 ","5669","47","5669","47","","2019","21290","NYTIMES-USCENSUS"
"3/7/2022 12:00:00 AM","Monmouth County","New Jersey","Northeast","Middle Atlantic","34025","40.287048","-74.152446 ","161754","2149","161754","2149","","2019","618795","NYTIMES-USCENSUS"
"3/7/2022 12:00:00 AM","Pocahontas County","Iowa","Midwest","West North Central","19151","42.734033","-94.678279 ","1573","27","1573","27","","2019","6619","NYTIMES-USCENSUS"
"3/7/2022 12:00:00 AM","Garfield County","Oklahoma","South","West South Central","40047","36.378132","-97.788741 ","15068","263","15068","263","","2019","61056","NYTIMES-USCENSUS"
"3/7/2022 12:00:00 AM","Gibson County","Tennessee","South","East South Central","47053","35.991632","-88.933812 ","17187","250","17187","250","","2019","49133","NYTIMES-USCENSUS"
"3/7/2022 12:00:00 AM","Columbia County","Florida","South","South Atlantic","12023","30.221651","-82.623371 ","21107","352","21107","352","","2019","71686","NYTIMES-USCENSUS"
"3/7/2022 12:00:00 AM","Fulton County","New York","Northeast","Middle Atlantic","36035","43.115609","-74.423678 ","12308","166","12308","166","","2019","53383","NYTIMES-USCENSUS"
"3/7/2022 12:00:00 AM","Crawford County","Michigan","Midwest","East North Central","26039","44.680175","-84.611343 ","2540","29","2540","29","","2019","14029","NYTIMES-USCENSUS"
"3/7/2022 12:00:00 AM","Mitchell County","Texas","South","West South Central","48335","32.304117","-100.924392 ","1861","47","1861","47","","2019","8545","NYTIMES-USCENSUS"
"3/7/2022 12:00:00 AM","Pemiscot County","Missouri","Midwest","West North Central","29155","36.209916","-89.785942 ","2960","73","2960","73","","2019","15805","NYTIMES-USCENSUS"
"3/7/2022 12:00:00 AM","McCook County","South Dakota","Midwest","West North Central","46087","43.680416","-97.358048 ","1339","31","1339","31","","2019","5586","NYTIMES-USCENSUS"
"3/7/2022 12:00:00 AM","Orange County","Virginia","South","South Atlantic","51137","38.249326","-78.011092 ","6863","85","6863","85","","2019","37051","NYTIMES-USCENSUS"
"3/7/2022 12:00:00 AM","Washakie County","Wyoming","West","Mountain","56043","43.878831","-107.669052 ","2342","43","2342","43","","2019","7805","NYTIMES-USCENSUS"
"3/7/2022 12:00:00 AM","Palo Alto County","Iowa","Midwest","West North Central","19147","43.075337","-94.669055 ","2024","37","2024","37","","2019","8886","NYTIMES-USCENSUS"
"3/7/2022 12:00:00 AM","Grand Traverse County","Michigan","Midwest","East North Central","26055","44.718688","-85.553848 ","17002","219","17002","219","","2019","93088","NYTIMES-USCENSUS"
"3/7/2022 12:00:00 AM","Sandoval County","New Mexico","West","Mountain","35043","35.685091","-106.883119 ","33094","384","33094","384","","2019","146748","NYTIMES-USCENSUS"
"3/7/2022 12:00:00 AM","Rutherford County","Tennessee","South","East South Central","47149","35.843369","-86.417213 ","95130","860","95130","860","","2019","332285","NYTIMES-USCENSUS"
"3/7/2022 12:00:00 AM","Fremont County","Iowa","Midwest","West North Central","19071","40.74259","-95.599182 ","1373","24","1373","24","","2019","6960","NYTIMES-USCENSUS"
"3/7/2022 12:00:00 AM","Gove County","Kansas","Midwest","West North Central","20063","38.917239","-100.48736 ","785","23","785","23","","2019","2636","NYTIMES-USCENSUS"
"3/7/2022 12:00:00 AM","Lyon County","Minnesota","Midwest","West North Central","27083","44.409195","-95.847268 ","7018","72","7018","72","","2019","25474","NYTIMES-USCENSUS"
"3/7/2022 12:00:00 AM","Ouachita County","Arkansas","South","West South Central","05103","33.591168","-92.878413 ","5401","95","5401","95","","2019","23382","NYTIMES-USCENSUS"
"3/7/2022 12:00:00 AM","Asotin County","Washington","West","Pacific","53003","46.181861","-117.227781 ","4392","64","4392","64","","2019","22582","NYTIMES-USCENSUS"
"3/7/2022 12:00:00 AM","Tallapoosa County","Alabama","South","East South Central","01123","32.863308","-85.799618 ","11317","223","11317","223","","2019","40367","NYTIMES-USCENSUS"
"3/7/2022 12:00:00 AM","Kanabec County","Minnesota","Midwest","West North Central","27065","45.94776","-93.297788 ","3460","54","3460","54","","2019","16337","NYTIMES-USCENSUS"
"3/7/2022 12:00:00 AM","Grayson County","Virginia","South","South Atlantic","51077","36.652229","-81.215324 ","3979","76","3979","76","","2019","15550","NYTIMES-USCENSUS"
"3/7/2022 12:00:00 AM","Kaufman County","Texas","South","West South Central","48257","32.598944","-96.288377 ","34941","522","34941","522","","2019","136154","NYTIMES-USCENSUS"
"3/7/2022 12:00:00 AM","Slope County","North Dakota","Midwest","West North Central","38087","46.445834","-103.462462 ","63","0","63","0","","2019","750","NYTIMES-USCENSUS"
"3/7/2022 12:00:00 AM","Logan County","Illinois","Midwest","East North Central","17107","40.129277","-89.365309 ","9389","97","9389","97","","2019","28618","NYTIMES-USCENSUS"
