"monitor_date","county","state_name","region","subregion","fips","latitude","longitude","case_count_to_date","death_count_to_date","case_count","death_count","previous_monitor_date","population_year","population","source"
"11/25/2022 12:00:00 AM","Adair County","Missouri","Midwest","West North Central","29001","40.190666","-92.603592 ","6409","70","0","0","11/24/2022 12:00:00 AM","2019","25343","NYTIMES-USCENSUS"
"11/25/2022 12:00:00 AM","Ziebach County","South Dakota","Midwest","West North Central","46137","44.989764","-101.660827 ","701","11","0","0","11/24/2022 12:00:00 AM","2019","2756","NYTIMES-USCENSUS"
"11/25/2022 12:00:00 AM","Zavala County","Texas","South","West South Central","48507","28.864652","-99.75983 ","4416","70","0","0","11/24/2022 12:00:00 AM","2019","11840","NYTIMES-USCENSUS"
"11/25/2022 12:00:00 AM","Zapata County","Texas","South","West South Central","48505","26.996981","-99.182603 ","4309","56","0","0","11/24/2022 12:00:00 AM","2019","14179","NYTIMES-USCENSUS"
"11/25/2022 12:00:00 AM","Yuma County","Colorado","West","Mountain","08125","40.00077","-102.421649 ","2234","27","0","0","11/24/2022 12:00:00 AM","2019","10019","NYTIMES-USCENSUS"
"11/25/2022 12:00:00 AM","Yukon-Koyukuk Census Area","Alaska","West","Pacific","02290","65.375727","-151.57785 ","1691","12","0","0","11/24/2022 12:00:00 AM","2019","5230","NYTIMES-USCENSUS"
"11/25/2022 12:00:00 AM","Yuba County","California","West","Pacific","06115","39.27013","-121.344259 ","20977","150","0","0","11/24/2022 12:00:00 AM","2019","78668","NYTIMES-USCENSUS"
"11/25/2022 12:00:00 AM","Young County","Texas","South","West South Central","48503","33.158778","-98.67839 ","4338","98","0","0","11/24/2022 12:00:00 AM","2019","18010","NYTIMES-USCENSUS"
"11/25/2022 12:00:00 AM","York County","Virginia","South","South Atlantic","51199","37.220914","-76.395533 ","12842","122","13","0","11/24/2022 12:00:00 AM","2019","68280","NYTIMES-USCENSUS"
"11/25/2022 12:00:00 AM","Yolo County","California","West","Pacific","06113","38.679609","-121.90275 ","52844","408","0","0","11/24/2022 12:00:00 AM","2019","220500","NYTIMES-USCENSUS"
"11/25/2022 12:00:00 AM","Yoakum County","Texas","South","West South Central","48501","33.162339","-102.832241 ","1638","42","0","0","11/24/2022 12:00:00 AM","2019","8713","NYTIMES-USCENSUS"
"11/25/2022 12:00:00 AM","Yellowstone County","Montana","West","Mountain","30111","45.936987","-108.276656 ","49415","588","186","1","11/24/2022 12:00:00 AM","2019","161300","NYTIMES-USCENSUS"
"11/25/2022 12:00:00 AM","Yellow Medicine County","Minnesota","Midwest","West North Central","27173","44.715736","-95.862756 ","2970","36","0","0","11/24/2022 12:00:00 AM","2019","9709","NYTIMES-USCENSUS"
"11/25/2022 12:00:00 AM","Yell County","Arkansas","South","West South Central","05149","34.997713","-93.408303 ","7449","115","0","0","11/24/2022 12:00:00 AM","2019","21341","NYTIMES-USCENSUS"
"11/25/2022 12:00:00 AM","Yazoo County","Mississippi","South","East South Central","28163","32.765675","-90.387928 ","9512","114","0","0","11/24/2022 12:00:00 AM","2019","29690","NYTIMES-USCENSUS"
"11/25/2022 12:00:00 AM","Yavapai County","Arizona","West","Mountain","04025","34.631071","-112.577225 ","56955","1309","0","0","11/24/2022 12:00:00 AM","2019","235099","NYTIMES-USCENSUS"
"11/25/2022 12:00:00 AM","Yates County","New York","Northeast","Middle Atlantic","36123","42.638237","-77.104324 ","4287","49","1","0","11/24/2022 12:00:00 AM","2019","24913","NYTIMES-USCENSUS"
"11/25/2022 12:00:00 AM","Yankton County","South Dakota","Midwest","West North Central","46135","43.006603","-97.388361 ","6628","60","0","0","11/24/2022 12:00:00 AM","2019","22814","NYTIMES-USCENSUS"
"11/25/2022 12:00:00 AM","Yancey County","North Carolina","South","South Atlantic","37199","35.889326","-82.303954 ","6172","98","0","0","11/24/2022 12:00:00 AM","2019","18069","NYTIMES-USCENSUS"
"11/25/2022 12:00:00 AM","Yamhill County","Oregon","West","Pacific","41071","45.247827","-123.316399 ","21757","246","0","0","11/24/2022 12:00:00 AM","2019","107100","NYTIMES-USCENSUS"
"11/25/2022 12:00:00 AM","Yalobusha County","Mississippi","South","East South Central","28161","34.030666","-89.703807 ","4688","62","0","0","11/24/2022 12:00:00 AM","2019","12108","NYTIMES-USCENSUS"
"11/25/2022 12:00:00 AM","Yakima County","Washington","West","Pacific","53077","46.456558","-120.740145 ","82864","841","0","0","11/24/2022 12:00:00 AM","2019","250873","NYTIMES-USCENSUS"
"11/25/2022 12:00:00 AM","Yadkin County","North Carolina","South","South Atlantic","37197","36.158765","-80.665164 ","14045","150","0","0","11/24/2022 12:00:00 AM","2019","37667","NYTIMES-USCENSUS"
"11/25/2022 12:00:00 AM","Wythe County","Virginia","South","South Atlantic","51197","36.899867","-81.083001 ","9077","166","8","2","11/24/2022 12:00:00 AM","2019","28684","NYTIMES-USCENSUS"
"11/25/2022 12:00:00 AM","Warren County","Indiana","Midwest","East North Central","18171","40.352498","-87.375163 ","2311","30","0","0","11/24/2022 12:00:00 AM","2019","8265","NYTIMES-USCENSUS"
"11/25/2022 12:00:00 AM","Ware County","Georgia","South","South Atlantic","13299","31.050881","-82.421507 ","11122","298","0","0","11/24/2022 12:00:00 AM","2019","35734","NYTIMES-USCENSUS"
"11/25/2022 12:00:00 AM","Ward County","North Dakota","Midwest","West North Central","38101","48.216686","-101.540537 ","23250","251","66","0","11/24/2022 12:00:00 AM","2019","67641","NYTIMES-USCENSUS"
"11/25/2022 12:00:00 AM","Wapello County","Iowa","Midwest","West North Central","19179","41.031275","-92.409466 ","10002","218","0","0","11/24/2022 12:00:00 AM","2019","34969","NYTIMES-USCENSUS"
"11/25/2022 12:00:00 AM","Walworth County","South Dakota","Midwest","West North Central","46129","45.427605","-100.027856 ","1457","28","0","0","11/24/2022 12:00:00 AM","2019","5435","NYTIMES-USCENSUS"
"11/25/2022 12:00:00 AM","Walton County","Georgia","South","South Atlantic","13297","33.783887","-83.731829 ","25151","467","0","0","11/24/2022 12:00:00 AM","2019","94593","NYTIMES-USCENSUS"
"11/25/2022 12:00:00 AM","Walthall County","Mississippi","South","East South Central","28147","31.164492","-90.103431 ","4347","83","0","0","11/24/2022 12:00:00 AM","2019","14286","NYTIMES-USCENSUS"
"11/25/2022 12:00:00 AM","Walsh County","North Dakota","Midwest","West North Central","38099","48.376979","-97.72223 ","3930","39","3","0","11/24/2022 12:00:00 AM","2019","10641","NYTIMES-USCENSUS"
"11/25/2022 12:00:00 AM","Wallowa County","Oregon","West","Pacific","41063","45.593753","-117.18558 ","1531","25","0","0","11/24/2022 12:00:00 AM","2019","7208","NYTIMES-USCENSUS"
"11/25/2022 12:00:00 AM","Waller County","Texas","South","West South Central","48473","30.01359","-95.982149 ","11282","125","0","0","11/24/2022 12:00:00 AM","2019","55246","NYTIMES-USCENSUS"
"11/25/2022 12:00:00 AM","Walla Walla County","Washington","West","Pacific","53071","46.254606","-118.48037 ","18223","163","0","0","11/24/2022 12:00:00 AM","2019","60760","NYTIMES-USCENSUS"
"11/25/2022 12:00:00 AM","Walker County","Georgia","South","South Atlantic","13295","34.735802","-85.305456 ","19431","298","0","0","11/24/2022 12:00:00 AM","2019","69761","NYTIMES-USCENSUS"
"11/25/2022 12:00:00 AM","Waldo County","Maine","Northeast","New England","23027","44.505822","-69.138961 ","7686","76","0","0","11/24/2022 12:00:00 AM","2019","39715","NYTIMES-USCENSUS"
"11/25/2022 12:00:00 AM","Wakulla County","Florida","South","South Atlantic","12129","30.091335","-84.359111 ","11657","141","0","0","11/24/2022 12:00:00 AM","2019","33739","NYTIMES-USCENSUS"
"11/25/2022 12:00:00 AM","Wake County","North Carolina","South","South Atlantic","37183","35.789846","-78.650624 ","372989","1275","0","0","11/24/2022 12:00:00 AM","2019","1111761","NYTIMES-USCENSUS"
"11/25/2022 12:00:00 AM","Wagoner County","Oklahoma","South","West South Central","40145","35.963388","-95.514201 ","25746","289","0","0","11/24/2022 12:00:00 AM","2019","81289","NYTIMES-USCENSUS"
"11/25/2022 12:00:00 AM","Wadena County","Minnesota","Midwest","West North Central","27159","46.586986","-94.988608 ","4990","64","0","0","11/24/2022 12:00:00 AM","2019","13682","NYTIMES-USCENSUS"
"11/25/2022 12:00:00 AM","Wabaunsee County","Kansas","Midwest","West North Central","20197","38.955154","-96.201262 ","1853","24","0","0","11/24/2022 12:00:00 AM","2019","6931","NYTIMES-USCENSUS"
"11/25/2022 12:00:00 AM","Carroll County","New Hampshire","Northeast","New England","33003","43.867774","-71.20156 ","11739","72","0","0","11/24/2022 12:00:00 AM","2019","48910","NYTIMES-USCENSUS"
"11/25/2022 12:00:00 AM","Carroll County","Mississippi","South","East South Central","28015","33.440795","-89.918887 ","2944","58","0","0","11/24/2022 12:00:00 AM","2019","9947","NYTIMES-USCENSUS"
"11/25/2022 12:00:00 AM","Carroll County","Georgia","South","South Atlantic","13045","33.582237","-85.080527 ","27196","489","0","0","11/24/2022 12:00:00 AM","2019","119992","NYTIMES-USCENSUS"
"11/25/2022 12:00:00 AM","Carroll County","Indiana","Midwest","East North Central","18015","40.58498","-86.565141 ","4747","72","0","0","11/24/2022 12:00:00 AM","2019","20257","NYTIMES-USCENSUS"
"11/25/2022 12:00:00 AM","Carroll County","Arkansas","South","West South Central","05015","36.33737","-93.540972 ","7038","119","0","0","11/24/2022 12:00:00 AM","2019","28380","NYTIMES-USCENSUS"
"11/25/2022 12:00:00 AM","Caroline County","Virginia","South","South Atlantic","51033","38.028033","-77.353736 ","8568","93","5","0","11/24/2022 12:00:00 AM","2019","30725","NYTIMES-USCENSUS"
"11/25/2022 12:00:00 AM","Carbon County","Montana","West","Mountain","30009","45.224468","-109.028554 ","2392","29","11","0","11/24/2022 12:00:00 AM","2019","10725","NYTIMES-USCENSUS"
"11/25/2022 12:00:00 AM","Carbon County","Utah","West","Mountain","49007","39.673284","-110.588484 ","5920","53","16","0","11/24/2022 12:00:00 AM","2019","20463","NYTIMES-USCENSUS"
"11/25/2022 12:00:00 AM","Carbon County","Pennsylvania","Northeast","Middle Atlantic","42025","40.918367","-75.705039 ","18997","322","0","0","11/24/2022 12:00:00 AM","2019","64182","NYTIMES-USCENSUS"
"11/25/2022 12:00:00 AM","Berrien County","Georgia","South","South Atlantic","13019","31.288652","-83.22787 ","5625","92","0","0","11/24/2022 12:00:00 AM","2019","19397","NYTIMES-USCENSUS"
"11/25/2022 12:00:00 AM","Berkeley County","South Carolina","South","South Atlantic","45015","33.2077","-79.953655 ","63061","513","0","0","11/24/2022 12:00:00 AM","2019","227907","NYTIMES-USCENSUS"
"11/25/2022 12:00:00 AM","Benton County","Oregon","West","Pacific","41003","44.493882","-123.424664 ","21026","88","0","0","11/24/2022 12:00:00 AM","2019","93053","NYTIMES-USCENSUS"
"11/25/2022 12:00:00 AM","Benton County","Iowa","Midwest","West North Central","19011","42.092547","-92.05763 ","6903","80","0","0","11/24/2022 12:00:00 AM","2019","25645","NYTIMES-USCENSUS"
"11/25/2022 12:00:00 AM","Benton County","Arkansas","South","West South Central","05007","36.337819","-94.256298 ","74723","944","11","0","11/24/2022 12:00:00 AM","2019","279141","NYTIMES-USCENSUS"
"11/25/2022 12:00:00 AM","Benton County","Mississippi","South","East South Central","28009","34.809593","-89.200213 ","2657","51","0","0","11/24/2022 12:00:00 AM","2019","8259","NYTIMES-USCENSUS"
"11/25/2022 12:00:00 AM","Benton County","Missouri","Midwest","West North Central","29015","38.301036","-93.287942 ","5154","113","0","0","11/24/2022 12:00:00 AM","2019","19443","NYTIMES-USCENSUS"
"11/25/2022 12:00:00 AM","Benton County","Indiana","Midwest","East North Central","18007","40.600939","-87.314786 ","2837","27","0","0","11/24/2022 12:00:00 AM","2019","8748","NYTIMES-USCENSUS"
"11/25/2022 12:00:00 AM","Benton County","Minnesota","Midwest","West North Central","27009","45.701225","-94.00144 ","16399","193","0","0","11/24/2022 12:00:00 AM","2019","40889","NYTIMES-USCENSUS"
"11/25/2022 12:00:00 AM","Benton County","Washington","West","Pacific","53005","46.228125","-119.516659 ","60403","519","0","0","11/24/2022 12:00:00 AM","2019","204390","NYTIMES-USCENSUS"
"11/25/2022 12:00:00 AM","Bell County","Texas","South","West South Central","48027","31.04275","-97.481268 ","81084","932","0","0","11/24/2022 12:00:00 AM","2019","362924","NYTIMES-USCENSUS"
"11/25/2022 12:00:00 AM","Bedford County","Pennsylvania","Northeast","Middle Atlantic","42009","39.998634","-78.494747 ","12397","285","0","0","11/24/2022 12:00:00 AM","2019","47888","NYTIMES-USCENSUS"
"11/25/2022 12:00:00 AM","Bedford County","Virginia","South","South Atlantic","51019","37.312257","-79.527223 ","20742","270","18","0","11/24/2022 12:00:00 AM","2019","78997","NYTIMES-USCENSUS"
"11/25/2022 12:00:00 AM","Beaver County","Pennsylvania","Northeast","Middle Atlantic","42007","40.68414","-80.350721 ","47203","791","0","0","11/24/2022 12:00:00 AM","2019","163929","NYTIMES-USCENSUS"
"11/25/2022 12:00:00 AM","Beaufort County","South Carolina","South","South Atlantic","45013","32.358112","-80.689422 ","51174","401","0","0","11/24/2022 12:00:00 AM","2019","192122","NYTIMES-USCENSUS"
"11/25/2022 12:00:00 AM","Allen County","Ohio","Midwest","East North Central","39003","40.771627","-84.106103 ","31880","494","0","0","11/24/2022 12:00:00 AM","2019","102351","NYTIMES-USCENSUS"
"11/25/2022 12:00:00 AM","Allen County","Kentucky","South","East South Central","21003","36.75077","-86.192458 ","8025","121","0","0","11/24/2022 12:00:00 AM","2019","21315","NYTIMES-USCENSUS"
"11/25/2022 12:00:00 AM","Allen County","Indiana","Midwest","East North Central","18003","41.091909","-85.071791 ","119130","1247","0","0","11/24/2022 12:00:00 AM","2019","379299","NYTIMES-USCENSUS"
"11/25/2022 12:00:00 AM","Alleghany County","Virginia","South","South Atlantic","51005","37.787905","-80.008669 ","4195","108","2","0","11/24/2022 12:00:00 AM","2019","14860","NYTIMES-USCENSUS"
"11/25/2022 12:00:00 AM","Allegany County","Maryland","South","South Atlantic","24001","39.612313","-78.703104 ","20692","379","0","0","11/24/2022 12:00:00 AM","2019","70416","NYTIMES-USCENSUS"
"11/25/2022 12:00:00 AM","Alexander County","Illinois","Midwest","East North Central","17003","37.183658","-89.349516 ","1513","32","0","0","11/24/2022 12:00:00 AM","2019","5761","NYTIMES-USCENSUS"
"11/25/2022 12:00:00 AM","Albany County","Wyoming","West","Mountain","56001","41.665514","-105.721883 ","11339","54","0","0","11/24/2022 12:00:00 AM","2019","38880","NYTIMES-USCENSUS"
"11/25/2022 12:00:00 AM","Adams County","Wisconsin","Midwest","East North Central","55001","43.973757","-89.767228 ","5599","68","2","0","11/24/2022 12:00:00 AM","2019","20220","NYTIMES-USCENSUS"
"11/25/2022 12:00:00 AM","Adams County","Ohio","Midwest","East North Central","39001","38.834468","-83.478082 ","8458","157","0","0","11/24/2022 12:00:00 AM","2019","27698","NYTIMES-USCENSUS"
"11/25/2022 12:00:00 AM","Adams County","Colorado","West","Mountain","08001","39.874325","-104.331872 ","162822","1481","0","0","11/24/2022 12:00:00 AM","2019","517421","NYTIMES-USCENSUS"
"11/25/2022 12:00:00 AM","Adams County","Illinois","Midwest","East North Central","17001","39.986052","-91.194961 ","26413","253","0","0","11/24/2022 12:00:00 AM","2019","65435","NYTIMES-USCENSUS"
"11/25/2022 12:00:00 AM","Adams County","Mississippi","South","East South Central","28001","31.486224","-91.351797 ","8353","150","0","0","11/24/2022 12:00:00 AM","2019","30693","NYTIMES-USCENSUS"
"11/25/2022 12:00:00 AM","Adams County","Pennsylvania","Northeast","Middle Atlantic","42001","39.869471","-77.21773 ","29741","402","0","0","11/24/2022 12:00:00 AM","2019","103009","NYTIMES-USCENSUS"
"11/25/2022 12:00:00 AM","Adams County","Indiana","Midwest","East North Central","18001","40.745733","-84.93613 ","8319","119","0","0","11/24/2022 12:00:00 AM","2019","35777","NYTIMES-USCENSUS"
"11/25/2022 12:00:00 AM","Adams County","Washington","West","Pacific","53001","47.011238","-118.512861 ","5548","44","0","0","11/24/2022 12:00:00 AM","2019","19983","NYTIMES-USCENSUS"
"11/25/2022 12:00:00 AM","Adams County","Nebraska","Midwest","West North Central","31001","40.520632","-98.500044 ","7386","90","0","0","11/24/2022 12:00:00 AM","2019","31363","NYTIMES-USCENSUS"
"11/25/2022 12:00:00 AM","Adams County","Idaho","West","Mountain","16003","44.877004","-116.461624 ","781","16","0","0","11/24/2022 12:00:00 AM","2019","4294","NYTIMES-USCENSUS"
"11/25/2022 12:00:00 AM","Adair County","Oklahoma","South","West South Central","40001","35.898043","-94.651026 ","9362","113","0","0","11/24/2022 12:00:00 AM","2019","22194","NYTIMES-USCENSUS"
"11/25/2022 12:00:00 AM","Adair County","Kentucky","South","East South Central","21001","37.105559","-85.28138 ","7368","113","0","0","11/24/2022 12:00:00 AM","2019","19202","NYTIMES-USCENSUS"
"11/25/2022 12:00:00 AM","Saunders County","Nebraska","Midwest","West North Central","31155","41.223388","-96.642097 ","5458","53","0","0","11/24/2022 12:00:00 AM","2019","21578","NYTIMES-USCENSUS"
"11/25/2022 12:00:00 AM","Sauk County","Wisconsin","Midwest","East North Central","55111","43.428001","-89.943318 ","20104","153","5","0","11/24/2022 12:00:00 AM","2019","64442","NYTIMES-USCENSUS"
"11/25/2022 12:00:00 AM","Sarpy County","Nebraska","Midwest","West North Central","31153","41.115064","-96.109125 ","56518","319","0","0","11/24/2022 12:00:00 AM","2019","187196","NYTIMES-USCENSUS"
"11/25/2022 12:00:00 AM","Sargent County","North Dakota","Midwest","West North Central","38081","46.108204","-97.630051 ","1234","9","2","0","11/24/2022 12:00:00 AM","2019","3898","NYTIMES-USCENSUS"
"11/25/2022 12:00:00 AM","Saratoga County","New York","Northeast","Middle Atlantic","36091","43.106135","-73.855387 ","59063","425","14","0","11/24/2022 12:00:00 AM","2019","229863","NYTIMES-USCENSUS"
"11/25/2022 12:00:00 AM","Sarasota County","Florida","South","South Atlantic","12115","27.225327","-82.423714 ","114837","1916","0","0","11/24/2022 12:00:00 AM","2019","433742","NYTIMES-USCENSUS"
"11/25/2022 12:00:00 AM","Santa Rosa County","Florida","South","South Atlantic","12113","30.675348","-87.018919 ","56706","680","0","0","11/24/2022 12:00:00 AM","2019","184313","NYTIMES-USCENSUS"
"11/25/2022 12:00:00 AM","Santa Fe County","New Mexico","West","Mountain","35049","35.514531","-105.963972 ","39077","367","0","0","11/24/2022 12:00:00 AM","2019","150358","NYTIMES-USCENSUS"
"11/25/2022 12:00:00 AM","Santa Cruz County","California","West","Pacific","06087","37.012347","-122.007789 ","68283","335","0","0","11/24/2022 12:00:00 AM","2019","273213","NYTIMES-USCENSUS"
"11/25/2022 12:00:00 AM","Santa Clara County","California","West","Pacific","06085","37.221614","-121.68954 ","461135","2558","0","0","11/24/2022 12:00:00 AM","2019","1927852","NYTIMES-USCENSUS"
"11/25/2022 12:00:00 AM","Santa Barbara County","California","West","Pacific","06083","34.536677","-120.038364 ","114155","735","0","0","11/24/2022 12:00:00 AM","2019","446499","NYTIMES-USCENSUS"
"11/25/2022 12:00:00 AM","Sanpete County","Utah","West","Mountain","49039","39.373426","-111.576933 ","8866","57","24","0","11/24/2022 12:00:00 AM","2019","30939","NYTIMES-USCENSUS"
"11/25/2022 12:00:00 AM","Sanilac County","Michigan","Midwest","East North Central","26151","43.449155","-82.642815 ","10126","218","0","0","11/24/2022 12:00:00 AM","2019","41170","NYTIMES-USCENSUS"
"11/25/2022 12:00:00 AM","Sangamon County","Illinois","Midwest","East North Central","17167","39.756886","-89.662435 ","71912","465","0","0","11/24/2022 12:00:00 AM","2019","194672","NYTIMES-USCENSUS"
"11/25/2022 12:00:00 AM","Sandusky County","Ohio","Midwest","East North Central","39143","41.355319","-83.142776 ","16576","253","0","0","11/24/2022 12:00:00 AM","2019","58518","NYTIMES-USCENSUS"
"11/25/2022 12:00:00 AM","Sandoval County","New Mexico","West","Mountain","35043","35.685091","-106.883119 ","43176","488","0","0","11/24/2022 12:00:00 AM","2019","146748","NYTIMES-USCENSUS"
"11/25/2022 12:00:00 AM","Sanborn County","South Dakota","Midwest","West North Central","46111","44.018942","-98.091709 ","653","8","0","0","11/24/2022 12:00:00 AM","2019","2344","NYTIMES-USCENSUS"
"11/25/2022 12:00:00 AM","San Saba County","Texas","South","West South Central","48411","31.155138","-98.819292 ","1407","38","0","0","11/24/2022 12:00:00 AM","2019","6055","NYTIMES-USCENSUS"
"11/25/2022 12:00:00 AM","San Patricio County","Texas","South","West South Central","48409","28.011794","-97.517157 ","13782","359","0","0","11/24/2022 12:00:00 AM","2019","66730","NYTIMES-USCENSUS"
"11/25/2022 12:00:00 AM","San Miguel County","Colorado","West","Mountain","08113","38.009319","-108.427263 ","2629","8","0","0","11/24/2022 12:00:00 AM","2019","8179","NYTIMES-USCENSUS"
"11/25/2022 12:00:00 AM","San Mateo County","California","West","Pacific","06081","37.414672","-122.371546 ","183247","847","0","0","11/24/2022 12:00:00 AM","2019","766573","NYTIMES-USCENSUS"
"11/25/2022 12:00:00 AM","San Luis Obispo County","California","West","Pacific","06079","35.388189","-120.448897 ","71260","530","0","0","11/24/2022 12:00:00 AM","2019","283111","NYTIMES-USCENSUS"
"11/25/2022 12:00:00 AM","Ransom County","North Dakota","Midwest","West North Central","38073","46.449276","-97.647554 ","1816","28","2","0","11/24/2022 12:00:00 AM","2019","5218","NYTIMES-USCENSUS"
"11/25/2022 12:00:00 AM","Rankin County","Mississippi","South","East South Central","28121","32.267123","-89.946063 ","44238","519","0","0","11/24/2022 12:00:00 AM","2019","155271","NYTIMES-USCENSUS"
"11/25/2022 12:00:00 AM","Randolph County","Illinois","Midwest","East North Central","17157","38.056515","-89.82121 ","12222","138","0","0","11/24/2022 12:00:00 AM","2019","31782","NYTIMES-USCENSUS"
"11/25/2022 12:00:00 AM","Randall County","Texas","South","West South Central","48381","34.962529","-101.895547 ","42953","531","0","0","11/24/2022 12:00:00 AM","2019","137713","NYTIMES-USCENSUS"
"11/25/2022 12:00:00 AM","Ramsey County","Minnesota","Midwest","West North Central","27123","45.015204","-93.099965 ","152486","1456","0","0","11/24/2022 12:00:00 AM","2019","550321","NYTIMES-USCENSUS"
"11/25/2022 12:00:00 AM","Ralls County","Missouri","Midwest","West North Central","29173","39.553455","-91.524787 ","2808","35","0","0","11/24/2022 12:00:00 AM","2019","10309","NYTIMES-USCENSUS"
"11/25/2022 12:00:00 AM","Raleigh County","West Virginia","South","South Atlantic","54081","37.762469","-81.264672 ","28945","397","0","0","11/24/2022 12:00:00 AM","2019","73361","NYTIMES-USCENSUS"
"11/25/2022 12:00:00 AM","Rains County","Texas","South","West South Central","48379","32.870457","-95.795613 ","2140","66","0","0","11/24/2022 12:00:00 AM","2019","12514","NYTIMES-USCENSUS"
"11/25/2022 12:00:00 AM","Radford city","Virginia","South","South Atlantic","51750","37.120119","-80.559147 ","4801","48","0","0","11/24/2022 12:00:00 AM","2019","18249","NYTIMES-USCENSUS"
"11/25/2022 12:00:00 AM","Racine County","Wisconsin","Midwest","East North Central","55101","42.780392","-87.771599 ","67852","732","32","0","11/24/2022 12:00:00 AM","2019","196311","NYTIMES-USCENSUS"
"11/25/2022 12:00:00 AM","Rabun County","Georgia","South","South Atlantic","13241","34.883934","-83.40487 ","4016","104","0","0","11/24/2022 12:00:00 AM","2019","17137","NYTIMES-USCENSUS"
"11/25/2022 12:00:00 AM","Quitman County","Georgia","South","South Atlantic","13239","31.862938","-85.004798 ","519","16","0","0","11/24/2022 12:00:00 AM","2019","2299","NYTIMES-USCENSUS"
"11/25/2022 12:00:00 AM","Queen Anne's County","Maryland","South","South Atlantic","24035","39.040693","-76.082405 ","8428","128","0","0","11/24/2022 12:00:00 AM","2019","50381","NYTIMES-USCENSUS"
"11/25/2022 12:00:00 AM","Quay County","New Mexico","West","Mountain","35037","35.107018","-103.548071 ","2431","69","0","0","11/24/2022 12:00:00 AM","2019","8253","NYTIMES-USCENSUS"
"11/25/2022 12:00:00 AM","Putnam County","Indiana","Midwest","East North Central","18133","39.665548","-86.853373 ","10674","133","0","0","11/24/2022 12:00:00 AM","2019","37576","NYTIMES-USCENSUS"
"11/25/2022 12:00:00 AM","Pushmataha County","Oklahoma","South","West South Central","40127","34.377899","-95.408082 ","3101","60","0","0","11/24/2022 12:00:00 AM","2019","11096","NYTIMES-USCENSUS"
"11/25/2022 12:00:00 AM","Pulaski County","Georgia","South","South Atlantic","13235","32.238803","-83.481845 ","2557","84","0","0","11/24/2022 12:00:00 AM","2019","11137","NYTIMES-USCENSUS"
"11/25/2022 12:00:00 AM","Pueblo County","Colorado","West","Mountain","08101","38.162765","-104.484668 ","59432","852","0","0","11/24/2022 12:00:00 AM","2019","168424","NYTIMES-USCENSUS"
"11/25/2022 12:00:00 AM","Prowers County","Colorado","West","Mountain","08099","37.958181","-102.392161 ","3098","52","0","0","11/24/2022 12:00:00 AM","2019","12172","NYTIMES-USCENSUS"
"11/25/2022 12:00:00 AM","Providence County","Rhode Island","Northeast","New England","44007","41.869768","-71.578625 ","263963","2647","0","0","11/24/2022 12:00:00 AM","2019","638931","NYTIMES-USCENSUS"
"11/25/2022 12:00:00 AM","Prince William County","Virginia","South","South Atlantic","51153","38.701119","-77.479579 ","119481","798","96","1","11/24/2022 12:00:00 AM","2019","470335","NYTIMES-USCENSUS"
"11/25/2022 12:00:00 AM","Wabasha County","Minnesota","Midwest","West North Central","27157","44.289634","-92.233454 ","6481","20","0","0","11/24/2022 12:00:00 AM","2019","21627","NYTIMES-USCENSUS"
"11/25/2022 12:00:00 AM","Wabash County","Indiana","Midwest","East North Central","18169","40.843747","-85.795192 ","9864","166","0","0","11/24/2022 12:00:00 AM","2019","30996","NYTIMES-USCENSUS"
"11/25/2022 12:00:00 AM","Volusia County","Florida","South","South Atlantic","12127","29.057769","-81.161792 ","143834","2227","0","0","11/24/2022 12:00:00 AM","2019","553284","NYTIMES-USCENSUS"
"11/25/2022 12:00:00 AM","Virginia Beach city","Virginia","South","South Atlantic","51810","36.779525","-76.029142 ","109106","913","77","0","11/24/2022 12:00:00 AM","2019","449974","NYTIMES-USCENSUS"
"11/25/2022 12:00:00 AM","Vinton County","Ohio","Midwest","East North Central","39163","39.252042","-82.485961 ","3517","59","0","0","11/24/2022 12:00:00 AM","2019","13085","NYTIMES-USCENSUS"
"11/25/2022 12:00:00 AM","Vilas County","Wisconsin","Midwest","East North Central","55125","46.049848","-89.501254 ","6242","100","1","0","11/24/2022 12:00:00 AM","2019","22195","NYTIMES-USCENSUS"
"11/25/2022 12:00:00 AM","Vigo County","Indiana","Midwest","East North Central","18167","39.429143","-87.390375 ","33528","434","0","0","11/24/2022 12:00:00 AM","2019","107038","NYTIMES-USCENSUS"
"11/25/2022 12:00:00 AM","Victoria County","Texas","South","West South Central","48469","28.79637","-96.971198 ","22049","424","0","0","11/24/2022 12:00:00 AM","2019","92084","NYTIMES-USCENSUS"
"11/25/2022 12:00:00 AM","Vernon Parish","Louisiana","South","West South Central","22115","31.102841","-93.18833 ","11254","197","0","0","11/24/2022 12:00:00 AM","2019","47429","NYTIMES-USCENSUS"
"11/25/2022 12:00:00 AM","Summit County","Ohio","Midwest","East North Central","39153","41.121847","-81.534928 ","135835","1804","0","0","11/24/2022 12:00:00 AM","2019","541013","NYTIMES-USCENSUS"
"11/25/2022 12:00:00 AM","Summers County","West Virginia","South","South Atlantic","54089","37.655999","-80.856325 ","3567","61","0","0","11/24/2022 12:00:00 AM","2019","12573","NYTIMES-USCENSUS"
"11/25/2022 12:00:00 AM","Sully County","South Dakota","Midwest","West North Central","46119","44.722325","-100.131399 ","261","3","0","0","11/24/2022 12:00:00 AM","2019","1391","NYTIMES-USCENSUS"
"11/25/2022 12:00:00 AM","Sullivan County","New Hampshire","Northeast","New England","33019","43.361188","-72.222084 ","11343","78","0","0","11/24/2022 12:00:00 AM","2019","43146","NYTIMES-USCENSUS"
"11/25/2022 12:00:00 AM","Suffolk County","Massachusetts","Northeast","New England","25025","42.338551","-71.018253 ","257526","2112","0","0","11/24/2022 12:00:00 AM","2019","803907","NYTIMES-USCENSUS"
"11/25/2022 12:00:00 AM","Suffolk city","Virginia","South","South Atlantic","51800","36.697157","-76.634781 ","23056","327","12","1","11/24/2022 12:00:00 AM","2019","92108","NYTIMES-USCENSUS"
"11/25/2022 12:00:00 AM","Sublette County","Wyoming","West","Mountain","56035","42.767928","-109.91617 ","2271","28","0","0","11/24/2022 12:00:00 AM","2019","9831","NYTIMES-USCENSUS"
"11/25/2022 12:00:00 AM","Stutsman County","North Dakota","Midwest","West North Central","38093","46.972223","-98.956123 ","8001","97","19","0","11/24/2022 12:00:00 AM","2019","20704","NYTIMES-USCENSUS"
"11/25/2022 12:00:00 AM","Strafford County","New Hampshire","Northeast","New England","33017","43.293272","-71.035589 ","35412","235","0","0","11/24/2022 12:00:00 AM","2019","130633","NYTIMES-USCENSUS"
"11/25/2022 12:00:00 AM","Story County","Iowa","Midwest","West North Central","19169","42.037538","-93.466093 ","22410","97","0","0","11/24/2022 12:00:00 AM","2019","97117","NYTIMES-USCENSUS"
"11/25/2022 12:00:00 AM","Storey County","Nevada","West","Mountain","32029","39.438385","-119.524646 ","180","14","0","0","11/24/2022 12:00:00 AM","2019","4123","NYTIMES-USCENSUS"
"11/25/2022 12:00:00 AM","Stone County","Arkansas","South","West South Central","05137","35.857001","-92.140482 ","3491","74","1","0","11/24/2022 12:00:00 AM","2019","12506","NYTIMES-USCENSUS"
"11/25/2022 12:00:00 AM","Stokes County","North Carolina","South","South Atlantic","37169","36.393797","-80.269921 ","14193","198","0","0","11/24/2022 12:00:00 AM","2019","45591","NYTIMES-USCENSUS"
"11/25/2022 12:00:00 AM","Stoddard County","Missouri","Midwest","West North Central","29207","36.851557","-89.947481 ","6894","147","0","0","11/24/2022 12:00:00 AM","2019","29025","NYTIMES-USCENSUS"
"11/25/2022 12:00:00 AM","Stillwater County","Montana","West","Mountain","30095","45.658545","-109.381576 ","1692","32","1","0","11/24/2022 12:00:00 AM","2019","9642","NYTIMES-USCENSUS"
"11/25/2022 12:00:00 AM","Stewart County","Tennessee","South","East South Central","47161","36.458464","-87.811889 ","3651","65","0","0","11/24/2022 12:00:00 AM","2019","13715","NYTIMES-USCENSUS"
"11/25/2022 12:00:00 AM","Stevens County","Washington","West","Pacific","53065","48.388728","-117.854455 ","9621","160","0","0","11/24/2022 12:00:00 AM","2019","45723","NYTIMES-USCENSUS"
"11/25/2022 12:00:00 AM","Steuben County","Indiana","Midwest","East North Central","18151","41.643467","-85.002405 ","10993","122","0","0","11/24/2022 12:00:00 AM","2019","34594","NYTIMES-USCENSUS"
"11/25/2022 12:00:00 AM","Stephenson County","Illinois","Midwest","East North Central","17177","42.349726","-89.665994 ","14207","218","0","0","11/24/2022 12:00:00 AM","2019","44498","NYTIMES-USCENSUS"
"11/25/2022 12:00:00 AM","Stephens County","Georgia","South","South Atlantic","13257","34.553582","-83.290588 ","7002","175","0","0","11/24/2022 12:00:00 AM","2019","25925","NYTIMES-USCENSUS"
"11/25/2022 12:00:00 AM","Steele County","North Dakota","Midwest","West North Central","38091","47.451062","-97.71892 ","418","2","0","0","11/24/2022 12:00:00 AM","2019","1890","NYTIMES-USCENSUS"
"11/25/2022 12:00:00 AM","Stearns County","Minnesota","Midwest","West North Central","27145","45.555235","-94.610482 ","59224","406","0","0","11/24/2022 12:00:00 AM","2019","161075","NYTIMES-USCENSUS"
"11/25/2022 12:00:00 AM","Ste. Genevieve County","Missouri","Midwest","West North Central","29186","37.885845","-90.161531 ","4503","45","0","0","11/24/2022 12:00:00 AM","2019","17894","NYTIMES-USCENSUS"
"11/25/2022 12:00:00 AM","Staunton city","Virginia","South","South Atlantic","51790","38.157978","-79.061876 ","7433","132","5","0","11/24/2022 12:00:00 AM","2019","24932","NYTIMES-USCENSUS"
"11/25/2022 12:00:00 AM","Starr County","Texas","South","West South Central","48427","26.530903","-98.740235 ","23317","376","0","0","11/24/2022 12:00:00 AM","2019","64633","NYTIMES-USCENSUS"
"11/25/2022 12:00:00 AM","Starke County","Indiana","Midwest","East North Central","18149","41.284478","-86.644636 ","5400","109","0","0","11/24/2022 12:00:00 AM","2019","22995","NYTIMES-USCENSUS"
"11/25/2022 12:00:00 AM","Stark County","Ohio","Midwest","East North Central","39151","40.814131","-81.365667 ","93854","1785","0","0","11/24/2022 12:00:00 AM","2019","370606","NYTIMES-USCENSUS"
"11/25/2022 12:00:00 AM","Stanton County","Nebraska","Midwest","West North Central","31167","41.905045","-97.177109 ","717","14","0","0","11/24/2022 12:00:00 AM","2019","5920","NYTIMES-USCENSUS"
"11/25/2022 12:00:00 AM","Schoolcraft County","Michigan","Midwest","East North Central","26153","46.021122","-86.197029 ","2109","18","0","0","11/24/2022 12:00:00 AM","2019","8094","NYTIMES-USCENSUS"
"11/25/2022 12:00:00 AM","Schoharie County","New York","Northeast","Middle Atlantic","36095","42.591294","-74.438172 ","6318","58","1","0","11/24/2022 12:00:00 AM","2019","30999","NYTIMES-USCENSUS"
"11/25/2022 12:00:00 AM","Schley County","Georgia","South","South Atlantic","13249","32.263444","-84.322708 ","1349","12","0","0","11/24/2022 12:00:00 AM","2019","5257","NYTIMES-USCENSUS"
"11/25/2022 12:00:00 AM","Schenectady County","New York","Northeast","Middle Atlantic","36093","42.817552","-74.043559 ","41920","352","15","0","11/24/2022 12:00:00 AM","2019","155299","NYTIMES-USCENSUS"
"11/25/2022 12:00:00 AM","Sawyer County","Wisconsin","Midwest","East North Central","55113","45.864911","-91.147133 ","5728","64","2","0","11/24/2022 12:00:00 AM","2019","16558","NYTIMES-USCENSUS"
"11/25/2022 12:00:00 AM","Jefferson County","Kentucky","South","East South Central","21111","38.189532","-85.657624 ","274507","2575","0","0","11/24/2022 12:00:00 AM","2019","766757","NYTIMES-USCENSUS"
"11/25/2022 12:00:00 AM","Jefferson County","Oregon","West","Pacific","41031","44.645151","-121.178632 ","8689","102","0","0","11/24/2022 12:00:00 AM","2019","24658","NYTIMES-USCENSUS"
"11/25/2022 12:00:00 AM","Jefferson County","Oklahoma","South","West South Central","40067","34.105082","-97.83889 ","1494","29","0","0","11/24/2022 12:00:00 AM","2019","6002","NYTIMES-USCENSUS"
"11/25/2022 12:00:00 AM","Jefferson County","Mississippi","South","East South Central","28063","31.733633","-91.043878 ","1742","39","0","0","11/24/2022 12:00:00 AM","2019","6990","NYTIMES-USCENSUS"
"11/25/2022 12:00:00 AM","Jefferson County","Idaho","West","Mountain","16051","43.796965","-112.318588 ","6659","68","0","0","11/24/2022 12:00:00 AM","2019","29871","NYTIMES-USCENSUS"
"11/25/2022 12:00:00 AM","Jefferson County","Iowa","Midwest","West North Central","19101","41.006376","-91.966628 ","4119","56","0","0","11/24/2022 12:00:00 AM","2019","18295","NYTIMES-USCENSUS"
"11/25/2022 12:00:00 AM","Jefferson County","West Virginia","South","South Atlantic","54037","39.307398","-77.86322 ","17427","147","0","0","11/24/2022 12:00:00 AM","2019","57146","NYTIMES-USCENSUS"
"11/25/2022 12:00:00 AM","Jefferson County","Kansas","Midwest","West North Central","20087","39.239644","-95.375314 ","5505","70","0","0","11/24/2022 12:00:00 AM","2019","19043","NYTIMES-USCENSUS"
"11/25/2022 12:00:00 AM","Jasper County","Iowa","Midwest","West North Central","19099","41.685551","-93.054147 ","9952","120","0","0","11/24/2022 12:00:00 AM","2019","37185","NYTIMES-USCENSUS"
"11/25/2022 12:00:00 AM","Jasper County","Texas","South","West South Central","48241","30.752932","-94.022294 ","7849","206","0","0","11/24/2022 12:00:00 AM","2019","35529","NYTIMES-USCENSUS"
"11/25/2022 12:00:00 AM","Jasper County","Georgia","South","South Atlantic","13159","33.316981","-83.689151 ","3579","80","0","0","11/24/2022 12:00:00 AM","2019","14219","NYTIMES-USCENSUS"
"11/25/2022 12:00:00 AM","Jasper County","Mississippi","South","East South Central","28061","32.016748","-89.119176 ","5831","79","0","0","11/24/2022 12:00:00 AM","2019","16383","NYTIMES-USCENSUS"
"11/25/2022 12:00:00 AM","Jasper County","Illinois","Midwest","East North Central","17079","39.004886","-88.150725 ","3102","34","0","0","11/24/2022 12:00:00 AM","2019","9610","NYTIMES-USCENSUS"
"11/25/2022 12:00:00 AM","Jasper County","Missouri","Midwest","West North Central","29097","37.205197","-94.337259 ","23313","469","0","0","11/24/2022 12:00:00 AM","2019","121328","NYTIMES-USCENSUS"
"11/25/2022 12:00:00 AM","Jasper County","Indiana","Midwest","East North Central","18073","41.017688","-87.118814 ","10573","159","0","0","11/24/2022 12:00:00 AM","2019","33562","NYTIMES-USCENSUS"
"11/25/2022 12:00:00 AM","Jackson County","Texas","South","West South Central","48239","28.959802","-96.58908 ","3724","61","0","0","11/24/2022 12:00:00 AM","2019","14760","NYTIMES-USCENSUS"
"11/25/2022 12:00:00 AM","Jackson County","Tennessee","South","East South Central","47087","36.35425","-85.674128 ","3703","66","0","0","11/24/2022 12:00:00 AM","2019","11786","NYTIMES-USCENSUS"
"11/25/2022 12:00:00 AM","Jackson County","Wisconsin","Midwest","East North Central","55053","44.32459","-90.79951 ","6672","45","2","0","11/24/2022 12:00:00 AM","2019","20643","NYTIMES-USCENSUS"
"11/25/2022 12:00:00 AM","Jackson County","Missouri","Midwest","West North Central","29095","39.005364","-94.343211 ","112836","1831","0","0","11/24/2022 12:00:00 AM","2019","703011","NYTIMES-USCENSUS"
"11/25/2022 12:00:00 AM","Jackson County","Illinois","Midwest","East North Central","17077","37.786096","-89.381212 ","19278","167","0","0","11/24/2022 12:00:00 AM","2019","56750","NYTIMES-USCENSUS"
"11/25/2022 12:00:00 AM","Jackson County","Georgia","South","South Atlantic","13157","34.130905","-83.562557 ","23761","308","0","0","11/24/2022 12:00:00 AM","2019","72977","NYTIMES-USCENSUS"
"11/25/2022 12:00:00 AM","Jackson County","Oregon","West","Pacific","41029","42.411621","-122.675611 ","52255","603","0","0","11/24/2022 12:00:00 AM","2019","220944","NYTIMES-USCENSUS"
"11/25/2022 12:00:00 AM","Jackson County","Arkansas","South","West South Central","05067","35.596467","-91.223205 ","6978","74","0","0","11/24/2022 12:00:00 AM","2019","16719","NYTIMES-USCENSUS"
"11/25/2022 12:00:00 AM","Jackson County","Iowa","Midwest","West North Central","19097","42.164226","-90.574582 ","5342","73","0","0","11/24/2022 12:00:00 AM","2019","19439","NYTIMES-USCENSUS"
"11/25/2022 12:00:00 AM","Jackson County","West Virginia","South","South Atlantic","54035","38.834234","-81.677717 ","8373","145","0","0","11/24/2022 12:00:00 AM","2019","28576","NYTIMES-USCENSUS"
"11/25/2022 12:00:00 AM","Jackson County","Florida","South","South Atlantic","12063","30.789249","-85.208814 ","17100","291","0","0","11/24/2022 12:00:00 AM","2019","46414","NYTIMES-USCENSUS"
"11/25/2022 12:00:00 AM","Jackson County","Indiana","Midwest","East North Central","18071","38.911957","-86.042516 ","14430","137","0","0","11/24/2022 12:00:00 AM","2019","44231","NYTIMES-USCENSUS"
"11/25/2022 12:00:00 AM","Jackson County","Alabama","South","East South Central","01071","34.764114","-85.980056 ","17219","275","0","0","11/24/2022 12:00:00 AM","2019","51626","NYTIMES-USCENSUS"
"11/25/2022 12:00:00 AM","Jackson County","Oklahoma","South","West South Central","40065","34.594006","-99.412235 ","7826","110","0","0","11/24/2022 12:00:00 AM","2019","24530","NYTIMES-USCENSUS"
"11/25/2022 12:00:00 AM","Jackson County","North Carolina","South","South Atlantic","37099","35.285454","-83.123966 ","11556","107","0","0","11/24/2022 12:00:00 AM","2019","43938","NYTIMES-USCENSUS"
"11/25/2022 12:00:00 AM","Jackson County","Kansas","Midwest","West North Central","20085","39.411145","-95.794485 ","4462","37","0","0","11/24/2022 12:00:00 AM","2019","13171","NYTIMES-USCENSUS"
"11/25/2022 12:00:00 AM","Jackson County","Ohio","Midwest","East North Central","39079","39.013477","-82.614142 ","11211","147","0","0","11/24/2022 12:00:00 AM","2019","32413","NYTIMES-USCENSUS"
"11/25/2022 12:00:00 AM","Jackson County","Michigan","Midwest","East North Central","26075","42.248474","-84.420868 ","53366","651","0","0","11/24/2022 12:00:00 AM","2019","158510","NYTIMES-USCENSUS"
"11/25/2022 12:00:00 AM","Jackson County","South Dakota","Midwest","West North Central","46071","43.677506","-101.626323 ","718","21","0","0","11/24/2022 12:00:00 AM","2019","3344","NYTIMES-USCENSUS"
"11/25/2022 12:00:00 AM","Jackson County","Minnesota","Midwest","West North Central","27063","43.671111","-95.149731 ","2544","19","0","0","11/24/2022 12:00:00 AM","2019","9846","NYTIMES-USCENSUS"
"11/25/2022 12:00:00 AM","Jackson County","Mississippi","South","East South Central","28059","30.456005","-88.625101 ","43869","489","0","0","11/24/2022 12:00:00 AM","2019","143617","NYTIMES-USCENSUS"
"11/25/2022 12:00:00 AM","Harrison County","Ohio","Midwest","East North Central","39067","40.292318","-81.091565 ","3979","80","0","0","11/24/2022 12:00:00 AM","2019","15040","NYTIMES-USCENSUS"
"11/25/2022 12:00:00 AM","Harrison County","Kentucky","South","East South Central","21097","38.444578","-84.334131 ","8202","87","0","0","11/24/2022 12:00:00 AM","2019","18886","NYTIMES-USCENSUS"
"11/25/2022 12:00:00 AM","Harrison County","Mississippi","South","East South Central","28047","30.416536","-89.083376 ","62994","700","0","0","11/24/2022 12:00:00 AM","2019","208080","NYTIMES-USCENSUS"
"11/25/2022 12:00:00 AM","Harrison County","West Virginia","South","South Atlantic","54033","39.279182","-80.386498 ","24978","276","0","0","11/24/2022 12:00:00 AM","2019","67256","NYTIMES-USCENSUS"
"11/25/2022 12:00:00 AM","Harrison County","Texas","South","West South Central","48203","32.547991","-94.374434 ","15338","293","0","0","11/24/2022 12:00:00 AM","2019","66553","NYTIMES-USCENSUS"
"11/25/2022 12:00:00 AM","Harrison County","Iowa","Midwest","West North Central","19085","41.688584","-95.827149 ","3717","99","0","0","11/24/2022 12:00:00 AM","2019","14049","NYTIMES-USCENSUS"
"11/25/2022 12:00:00 AM","Monroe County","Illinois","Midwest","East North Central","17133","38.277983","-90.179078 ","10943","134","0","0","11/24/2022 12:00:00 AM","2019","34637","NYTIMES-USCENSUS"
"11/25/2022 12:00:00 AM","Mitchell County","Kansas","Midwest","West North Central","20123","39.393026","-98.207362 ","1678","26","0","0","11/24/2022 12:00:00 AM","2019","5979","NYTIMES-USCENSUS"
"11/25/2022 12:00:00 AM","Mitchell County","Texas","South","West South Central","48335","32.304117","-100.924392 ","2054","50","0","0","11/24/2022 12:00:00 AM","2019","8545","NYTIMES-USCENSUS"
"11/25/2022 12:00:00 AM","Mitchell County","Georgia","South","South Atlantic","13205","31.228997","-84.192038 ","6088","125","0","0","11/24/2022 12:00:00 AM","2019","21863","NYTIMES-USCENSUS"
"11/25/2022 12:00:00 AM","Mitchell County","Iowa","Midwest","West North Central","19131","43.348564","-92.784466 ","2734","49","0","0","11/24/2022 12:00:00 AM","2019","10586","NYTIMES-USCENSUS"
"11/25/2022 12:00:00 AM","Mississippi County","Missouri","Midwest","West North Central","29133","36.826264","-89.295929 ","4254","63","0","0","11/24/2022 12:00:00 AM","2019","13180","NYTIMES-USCENSUS"
"11/25/2022 12:00:00 AM","Mineral County","West Virginia","South","South Atlantic","54057","39.404781","-78.95669 ","9770","171","0","0","11/24/2022 12:00:00 AM","2019","26868","NYTIMES-USCENSUS"
"11/25/2022 12:00:00 AM","Mineral County","Colorado","West","Mountain","08079","37.549067","-107.003236 ","292","4","0","0","11/24/2022 12:00:00 AM","2019","769","NYTIMES-USCENSUS"
"11/25/2022 12:00:00 AM","Mineral County","Nevada","West","Mountain","32021","38.516647","-118.416279 ","1435","23","0","0","11/24/2022 12:00:00 AM","2019","4505","NYTIMES-USCENSUS"
"11/25/2022 12:00:00 AM","Mills County","Iowa","Midwest","West North Central","19129","41.033703","-95.619101 ","3841","45","0","0","11/24/2022 12:00:00 AM","2019","15109","NYTIMES-USCENSUS"
"11/25/2022 12:00:00 AM","Miller County","Missouri","Midwest","West North Central","29131","38.21668","-92.429876 ","6760","126","0","0","11/24/2022 12:00:00 AM","2019","25619","NYTIMES-USCENSUS"
"11/25/2022 12:00:00 AM","Miller County","Arkansas","South","West South Central","05091","33.305505","-93.901502 ","11188","199","0","0","11/24/2022 12:00:00 AM","2019","43257","NYTIMES-USCENSUS"
"11/25/2022 12:00:00 AM","Lawrence County","Illinois","Midwest","East North Central","17101","38.718954","-87.730221 ","6476","59","0","0","11/24/2022 12:00:00 AM","2019","15678","NYTIMES-USCENSUS"
"11/25/2022 12:00:00 AM","Lawrence County","Alabama","South","East South Central","01079","34.529776","-87.321865 ","9001","182","0","0","11/24/2022 12:00:00 AM","2019","32924","NYTIMES-USCENSUS"
"11/25/2022 12:00:00 AM","Lawrence County","Indiana","Midwest","East North Central","18093","38.839815","-86.48782 ","13883","278","0","0","11/24/2022 12:00:00 AM","2019","45370","NYTIMES-USCENSUS"
"11/25/2022 12:00:00 AM","Lawrence County","South Dakota","Midwest","West North Central","46081","44.348514","-103.806362 ","7569","88","0","0","11/24/2022 12:00:00 AM","2019","25844","NYTIMES-USCENSUS"
"11/25/2022 12:00:00 AM","Lawrence County","Mississippi","South","East South Central","28077","31.550009","-90.10753 ","4235","57","0","0","11/24/2022 12:00:00 AM","2019","12586","NYTIMES-USCENSUS"
"11/25/2022 12:00:00 AM","Lawrence County","Pennsylvania","Northeast","Middle Atlantic","42073","40.992735","-80.334446 ","22225","446","0","0","11/24/2022 12:00:00 AM","2019","85512","NYTIMES-USCENSUS"
"11/25/2022 12:00:00 AM","Lawrence County","Arkansas","South","West South Central","05075","36.041098","-91.101153 ","6210","87","0","0","11/24/2022 12:00:00 AM","2019","16406","NYTIMES-USCENSUS"
"11/25/2022 12:00:00 AM","Lawrence County","Missouri","Midwest","West North Central","29109","37.10659","-93.830551 ","8872","181","0","0","11/24/2022 12:00:00 AM","2019","38355","NYTIMES-USCENSUS"
"11/25/2022 12:00:00 AM","Lawrence County","Tennessee","South","East South Central","47099","35.220476","-87.396546 ","16337","224","0","0","11/24/2022 12:00:00 AM","2019","44142","NYTIMES-USCENSUS"
"11/25/2022 12:00:00 AM","Lawrence County","Ohio","Midwest","East North Central","39087","38.603866","-82.517186 ","22728","282","0","0","11/24/2022 12:00:00 AM","2019","59463","NYTIMES-USCENSUS"
"11/25/2022 12:00:00 AM","Laurens County","Georgia","South","South Atlantic","13175","32.39322","-82.926317 ","15658","322","0","0","11/24/2022 12:00:00 AM","2019","47546","NYTIMES-USCENSUS"
"11/25/2022 12:00:00 AM","Lauderdale County","Mississippi","South","East South Central","28075","32.403998","-88.660449 ","21070","380","0","0","11/24/2022 12:00:00 AM","2019","74125","NYTIMES-USCENSUS"
"11/25/2022 12:00:00 AM","Lauderdale County","Tennessee","South","East South Central","47097","35.762951","-89.627732 ","8836","112","0","0","11/24/2022 12:00:00 AM","2019","25633","NYTIMES-USCENSUS"
"11/25/2022 12:00:00 AM","Lane County","Oregon","West","Pacific","41039","43.928334","-122.897581 ","75229","662","0","0","11/24/2022 12:00:00 AM","2019","382067","NYTIMES-USCENSUS"
"11/25/2022 12:00:00 AM","Lancaster County","South Carolina","South","South Atlantic","45057","34.686818","-80.703688 ","29787","321","0","0","11/24/2022 12:00:00 AM","2019","98012","NYTIMES-USCENSUS"
"11/25/2022 12:00:00 AM","Lancaster County","Pennsylvania","Northeast","Middle Atlantic","42071","40.041992","-76.250198 ","141466","2010","0","0","11/24/2022 12:00:00 AM","2019","545724","NYTIMES-USCENSUS"
"11/25/2022 12:00:00 AM","Lancaster County","Nebraska","Midwest","West North Central","31109","40.783547","-96.688658 ","90647","462","0","0","11/24/2022 12:00:00 AM","2019","319090","NYTIMES-USCENSUS"
"11/25/2022 12:00:00 AM","Jefferson County","Alabama","South","East South Central","01073","33.553444","-86.896536 ","222433","2483","0","0","11/24/2022 12:00:00 AM","2019","658573","NYTIMES-USCENSUS"
"11/25/2022 12:00:00 AM","Jefferson County","Illinois","Midwest","East North Central","17081","38.30078","-88.92421 ","12917","181","0","0","11/24/2022 12:00:00 AM","2019","37684","NYTIMES-USCENSUS"
"11/25/2022 12:00:00 AM","Jefferson County","New York","Northeast","Middle Atlantic","36045","43.996389","-76.052968 ","25668","154","6","0","11/24/2022 12:00:00 AM","2019","109834","NYTIMES-USCENSUS"
"11/25/2022 12:00:00 AM","Jefferson County","Indiana","Midwest","East North Central","18077","38.783604","-85.44009 ","10669","173","0","0","11/24/2022 12:00:00 AM","2019","32308","NYTIMES-USCENSUS"
"11/25/2022 12:00:00 AM","Jefferson County","Texas","South","West South Central","48245","29.854","-94.149331 ","60820","870","0","0","11/24/2022 12:00:00 AM","2019","251565","NYTIMES-USCENSUS"
"11/25/2022 12:00:00 AM","Jefferson County","Colorado","West","Mountain","08059","39.579511","-105.245462 ","155619","1477","0","0","11/24/2022 12:00:00 AM","2019","582881","NYTIMES-USCENSUS"
"11/25/2022 12:00:00 AM","Jefferson County","Wisconsin","Midwest","East North Central","55055","43.013804","-88.773985 ","25720","257","6","0","11/24/2022 12:00:00 AM","2019","84769","NYTIMES-USCENSUS"
"11/25/2022 12:00:00 AM","Jefferson County","Georgia","South","South Atlantic","13163","33.058176","-82.420004 ","4090","117","0","0","11/24/2022 12:00:00 AM","2019","15362","NYTIMES-USCENSUS"
"11/25/2022 12:00:00 AM","Jefferson County","Florida","South","South Atlantic","12065","30.396898","-83.921761 ","4768","68","0","0","11/24/2022 12:00:00 AM","2019","14246","NYTIMES-USCENSUS"
"11/25/2022 12:00:00 AM","Jefferson County","Montana","West","Mountain","30043","46.124232","-112.059428 ","3038","28","11","0","11/24/2022 12:00:00 AM","2019","12221","NYTIMES-USCENSUS"
"11/25/2022 12:00:00 AM","Jefferson County","Pennsylvania","Northeast","Middle Atlantic","42065","41.138028","-79.012419 ","10628","257","0","0","11/24/2022 12:00:00 AM","2019","43425","NYTIMES-USCENSUS"
"11/25/2022 12:00:00 AM","Jefferson County","Missouri","Midwest","West North Central","29099","38.25763","-90.543681 ","64582","710","0","0","11/24/2022 12:00:00 AM","2019","225081","NYTIMES-USCENSUS"
"11/25/2022 12:00:00 AM","Jefferson County","Washington","West","Pacific","53031","47.805708","-123.527057 ","4471","33","0","0","11/24/2022 12:00:00 AM","2019","32221","NYTIMES-USCENSUS"
"11/25/2022 12:00:00 AM","Jefferson County","Nebraska","Midwest","West North Central","31095","40.175736","-97.143103 ","1400","20","0","0","11/24/2022 12:00:00 AM","2019","7046","NYTIMES-USCENSUS"
"11/25/2022 12:00:00 AM","Jefferson County","Arkansas","South","West South Central","05069","34.277239","-91.929673 ","21615","308","-1","0","11/24/2022 12:00:00 AM","2019","66824","NYTIMES-USCENSUS"
"11/25/2022 12:00:00 AM","Jefferson County","Ohio","Midwest","East North Central","39081","40.399384","-80.763527 ","17980","336","0","0","11/24/2022 12:00:00 AM","2019","65325","NYTIMES-USCENSUS"
"11/25/2022 12:00:00 AM","Douglas County","Kansas","Midwest","West North Central","20045","38.896417","-95.290947 ","33129","165","0","0","11/24/2022 12:00:00 AM","2019","122259","NYTIMES-USCENSUS"
"11/25/2022 12:00:00 AM","Douglas County","Oregon","West","Pacific","41019","43.286328","-123.154476 ","25032","441","0","0","11/24/2022 12:00:00 AM","2019","110980","NYTIMES-USCENSUS"
"11/25/2022 12:00:00 AM","Douglas County","Nebraska","Midwest","West North Central","31055","41.297091","-96.154066 ","172794","1227","0","0","11/24/2022 12:00:00 AM","2019","571327","NYTIMES-USCENSUS"
"11/25/2022 12:00:00 AM","Douglas County","Illinois","Midwest","East North Central","17041","39.766078","-88.222866 ","7600","65","0","0","11/24/2022 12:00:00 AM","2019","19465","NYTIMES-USCENSUS"
"11/25/2022 12:00:00 AM","Douglas County","Missouri","Midwest","West North Central","29067","36.946517","-92.515892 ","2974","85","0","0","11/24/2022 12:00:00 AM","2019","13185","NYTIMES-USCENSUS"
"11/25/2022 12:00:00 AM","Douglas County","South Dakota","Midwest","West North Central","46043","43.391506","-98.358433 ","779","18","0","0","11/24/2022 12:00:00 AM","2019","2921","NYTIMES-USCENSUS"
"11/25/2022 12:00:00 AM","Douglas County","Minnesota","Midwest","West North Central","27041","45.936835","-95.462155 ","12718","128","0","0","11/24/2022 12:00:00 AM","2019","38141","NYTIMES-USCENSUS"
"11/25/2022 12:00:00 AM","Douglas County","Georgia","South","South Atlantic","13097","33.701242","-84.767314 ","41451","448","0","0","11/24/2022 12:00:00 AM","2019","146343","NYTIMES-USCENSUS"
"11/25/2022 12:00:00 AM","Douglas County","Nevada","West","Mountain","32005","38.905129","-119.609019 ","8553","120","0","0","11/24/2022 12:00:00 AM","2019","48905","NYTIMES-USCENSUS"
"11/25/2022 12:00:00 AM","Douglas County","Colorado","West","Mountain","08035","39.325414","-104.925987 ","98783","512","0","0","11/24/2022 12:00:00 AM","2019","351154","NYTIMES-USCENSUS"
"11/25/2022 12:00:00 AM","Douglas County","Wisconsin","Midwest","East North Central","55031","46.463218","-91.892477 ","13868","109","2","0","11/24/2022 12:00:00 AM","2019","43150","NYTIMES-USCENSUS"
"11/25/2022 12:00:00 AM","Dorchester County","Maryland","South","South Atlantic","24019","38.429196","-76.047433 ","9080","113","0","0","11/24/2022 12:00:00 AM","2019","31929","NYTIMES-USCENSUS"
"11/25/2022 12:00:00 AM","Coos County","Oregon","West","Pacific","41011","43.18591","-124.094133 ","14119","179","0","0","11/24/2022 12:00:00 AM","2019","64487","NYTIMES-USCENSUS"
"11/25/2022 12:00:00 AM","Cook County","Georgia","South","South Atlantic","13075","31.152516","-83.429445 ","5515","80","0","0","11/24/2022 12:00:00 AM","2019","17270","NYTIMES-USCENSUS"
"11/25/2022 12:00:00 AM","Cook County","Illinois","Midwest","East North Central","17031","41.894294","-87.645455 ","1446009","15499","0","0","11/24/2022 12:00:00 AM","2019","5150233","NYTIMES-USCENSUS"
"11/25/2022 12:00:00 AM","Comanche County","Texas","South","West South Central","48093","31.951645","-98.549617 ","3908","81","0","0","11/24/2022 12:00:00 AM","2019","13635","NYTIMES-USCENSUS"
"11/25/2022 12:00:00 AM","Comanche County","Oklahoma","South","West South Central","40031","34.662625","-98.476586 ","37412","416","0","0","11/24/2022 12:00:00 AM","2019","120749","NYTIMES-USCENSUS"
"11/25/2022 12:00:00 AM","Columbia County","Georgia","South","South Atlantic","13073","33.552075","-82.249608 ","41612","419","0","0","11/24/2022 12:00:00 AM","2019","156714","NYTIMES-USCENSUS"
"11/25/2022 12:00:00 AM","Columbia County","Wisconsin","Midwest","East North Central","55021","43.471882","-89.330472 ","18849","144","5","0","11/24/2022 12:00:00 AM","2019","57532","NYTIMES-USCENSUS"
"11/25/2022 12:00:00 AM","Columbia County","Florida","South","South Atlantic","12023","30.221651","-82.623371 ","24615","447","0","0","11/24/2022 12:00:00 AM","2019","71686","NYTIMES-USCENSUS"
"11/25/2022 12:00:00 AM","Columbia County","New York","Northeast","Middle Atlantic","36021","42.247696","-73.626718 ","13116","160","2","0","11/24/2022 12:00:00 AM","2019","59461","NYTIMES-USCENSUS"
"11/25/2022 12:00:00 AM","Columbia County","Pennsylvania","Northeast","Middle Atlantic","42037","41.045517","-76.40426 ","18497","269","0","0","11/24/2022 12:00:00 AM","2019","64964","NYTIMES-USCENSUS"
"11/25/2022 12:00:00 AM","Columbia County","Arkansas","South","West South Central","05027","33.223038","-93.232843 ","6428","104","0","0","11/24/2022 12:00:00 AM","2019","23457","NYTIMES-USCENSUS"
"11/25/2022 12:00:00 AM","Cedar County","Nebraska","Midwest","West North Central","31027","42.60456","-97.25687 ","1693","35","0","0","11/24/2022 12:00:00 AM","2019","8402","NYTIMES-USCENSUS"
"11/25/2022 12:00:00 AM","Cedar County","Iowa","Midwest","West North Central","19031","41.77236","-91.132611 ","4826","44","0","0","11/24/2022 12:00:00 AM","2019","18627","NYTIMES-USCENSUS"
"11/25/2022 12:00:00 AM","Cass County","Minnesota","Midwest","West North Central","27021","46.951745","-94.333705 ","8238","91","0","0","11/24/2022 12:00:00 AM","2019","29779","NYTIMES-USCENSUS"
"11/25/2022 12:00:00 AM","Cass County","Indiana","Midwest","East North Central","18017","40.753799","-86.355168 ","13410","179","0","0","11/24/2022 12:00:00 AM","2019","37689","NYTIMES-USCENSUS"
"11/25/2022 12:00:00 AM","Cass County","Michigan","Midwest","East North Central","26027","41.917243","-86.000142 ","12654","170","0","0","11/24/2022 12:00:00 AM","2019","51787","NYTIMES-USCENSUS"
"11/25/2022 12:00:00 AM","Cass County","North Dakota","Midwest","West North Central","38017","46.927003","-97.252375 ","68726","333","203","0","11/24/2022 12:00:00 AM","2019","181923","NYTIMES-USCENSUS"
"11/25/2022 12:00:00 AM","Cass County","Nebraska","Midwest","West North Central","31025","40.909878","-96.140609 ","6965","55","0","0","11/24/2022 12:00:00 AM","2019","26248","NYTIMES-USCENSUS"
"11/25/2022 12:00:00 AM","Cass County","Texas","South","West South Central","48067","33.083698","-94.357579 ","8593","205","0","0","11/24/2022 12:00:00 AM","2019","30026","NYTIMES-USCENSUS"
"11/25/2022 12:00:00 AM","Cass County","Iowa","Midwest","West North Central","19029","41.333824","-94.933302 ","3171","82","0","0","11/24/2022 12:00:00 AM","2019","12836","NYTIMES-USCENSUS"
"11/25/2022 12:00:00 AM","Cass County","Missouri","Midwest","West North Central","29037","38.646474","-94.354547 ","28930","336","0","0","11/24/2022 12:00:00 AM","2019","105780","NYTIMES-USCENSUS"
"11/25/2022 12:00:00 AM","Carter County","Tennessee","South","East South Central","47019","36.284744","-82.126593 ","20050","365","0","0","11/24/2022 12:00:00 AM","2019","56391","NYTIMES-USCENSUS"
"11/25/2022 12:00:00 AM","Carter County","Kentucky","South","East South Central","21043","38.314094","-83.038988 ","11398","119","0","0","11/24/2022 12:00:00 AM","2019","26797","NYTIMES-USCENSUS"
"11/25/2022 12:00:00 AM","Carter County","Missouri","Midwest","West North Central","29035","36.944858","-90.945705 ","1667","24","0","0","11/24/2022 12:00:00 AM","2019","5982","NYTIMES-USCENSUS"
"11/25/2022 12:00:00 AM","Carroll County","Illinois","Midwest","East North Central","17015","42.0709","-89.924189 ","4874","56","0","0","11/24/2022 12:00:00 AM","2019","14305","NYTIMES-USCENSUS"
"11/25/2022 12:00:00 AM","Carroll County","Kentucky","South","East South Central","21041","38.668394","-85.124024 ","4167","52","0","0","11/24/2022 12:00:00 AM","2019","10631","NYTIMES-USCENSUS"
"11/25/2022 12:00:00 AM","Carroll County","Ohio","Midwest","East North Central","39019","40.579884","-81.090787 ","6092","136","0","0","11/24/2022 12:00:00 AM","2019","26914","NYTIMES-USCENSUS"
"11/25/2022 12:00:00 AM","Carroll County","Missouri","Midwest","West North Central","29033","39.427375","-93.500227 ","2526","46","0","0","11/24/2022 12:00:00 AM","2019","8679","NYTIMES-USCENSUS"
"11/25/2022 12:00:00 AM","Carroll County","Iowa","Midwest","West North Central","19027","42.039502","-94.86765 ","5515","77","0","0","11/24/2022 12:00:00 AM","2019","20165","NYTIMES-USCENSUS"
"11/25/2022 12:00:00 AM","Carroll County","Virginia","South","South Atlantic","51035","36.731963","-80.727831 ","8956","160","6","1","11/24/2022 12:00:00 AM","2019","29791","NYTIMES-USCENSUS"
"11/25/2022 12:00:00 AM","Carroll County","Tennessee","South","East South Central","47017","35.965748","-88.452379 ","10791","167","0","0","11/24/2022 12:00:00 AM","2019","27767","NYTIMES-USCENSUS"
"11/25/2022 12:00:00 AM","Harrison County","Missouri","Midwest","West North Central","29081","40.34562","-93.992582 ","2306","34","0","0","11/24/2022 12:00:00 AM","2019","8352","NYTIMES-USCENSUS"
"11/25/2022 12:00:00 AM","Harris County","Texas","South","West South Central","48201","29.857273","-95.393037 ","1224810","11377","0","0","11/24/2022 12:00:00 AM","2019","4713325","NYTIMES-USCENSUS"
"11/25/2022 12:00:00 AM","Harper County","Kansas","Midwest","West North Central","20077","37.188184","-98.06659 ","1835","28","0","0","11/24/2022 12:00:00 AM","2019","5436","NYTIMES-USCENSUS"
"11/25/2022 12:00:00 AM","Harlan County","Kentucky","South","East South Central","21095","36.859223","-83.221497 ","12082","226","0","0","11/24/2022 12:00:00 AM","2019","26010","NYTIMES-USCENSUS"
"11/25/2022 12:00:00 AM","Hardin County","Illinois","Midwest","East North Central","17069","37.517852","-88.266148 ","1374","28","0","0","11/24/2022 12:00:00 AM","2019","3821","NYTIMES-USCENSUS"
"11/25/2022 12:00:00 AM","Hardin County","Kentucky","South","East South Central","21093","37.695836","-85.963183 ","41673","480","0","0","11/24/2022 12:00:00 AM","2019","110958","NYTIMES-USCENSUS"
"11/25/2022 12:00:00 AM","Hardin County","Iowa","Midwest","West North Central","19083","42.390208","-93.241669 ","4831","67","0","0","11/24/2022 12:00:00 AM","2019","16846","NYTIMES-USCENSUS"
"11/25/2022 12:00:00 AM","Hardin County","Tennessee","South","East South Central","47071","35.201893","-88.185696 ","10286","172","0","0","11/24/2022 12:00:00 AM","2019","25652","NYTIMES-USCENSUS"
"11/25/2022 12:00:00 AM","Hardin County","Ohio","Midwest","East North Central","39065","40.660415","-83.664077 ","8329","166","0","0","11/24/2022 12:00:00 AM","2019","31365","NYTIMES-USCENSUS"
"11/25/2022 12:00:00 AM","Hardeman County","Tennessee","South","East South Central","47069","35.218785","-88.988697 ","8972","131","0","0","11/24/2022 12:00:00 AM","2019","25050","NYTIMES-USCENSUS"
"11/25/2022 12:00:00 AM","Hancock County","Maine","Northeast","New England","23009","44.564906","-68.370703 ","9643","107","0","0","11/24/2022 12:00:00 AM","2019","54987","NYTIMES-USCENSUS"
"11/25/2022 12:00:00 AM","Hancock County","Ohio","Midwest","East North Central","39063","41.000217","-83.665947 ","20105","289","0","0","11/24/2022 12:00:00 AM","2019","75783","NYTIMES-USCENSUS"
"11/25/2022 12:00:00 AM","Hancock County","Georgia","South","South Atlantic","13141","33.26922","-83.000465 ","1874","91","0","0","11/24/2022 12:00:00 AM","2019","8457","NYTIMES-USCENSUS"
"11/25/2022 12:00:00 AM","Hancock County","West Virginia","South","South Atlantic","54029","40.516958","-80.570164 ","8084","169","0","0","11/24/2022 12:00:00 AM","2019","28810","NYTIMES-USCENSUS"
"11/25/2022 12:00:00 AM","Hancock County","Mississippi","South","East South Central","28045","30.391641","-89.482791 ","14424","161","0","0","11/24/2022 12:00:00 AM","2019","47632","NYTIMES-USCENSUS"
"11/25/2022 12:00:00 AM","Hancock County","Iowa","Midwest","West North Central","19081","43.075411","-93.743697 ","3177","50","0","0","11/24/2022 12:00:00 AM","2019","10630","NYTIMES-USCENSUS"
"11/25/2022 12:00:00 AM","Hancock County","Kentucky","South","East South Central","21091","37.843325","-86.792761 ","2996","28","0","0","11/24/2022 12:00:00 AM","2019","8722","NYTIMES-USCENSUS"
"11/25/2022 12:00:00 AM","Hancock County","Illinois","Midwest","East North Central","17067","40.401318","-91.168801 ","5110","72","0","0","11/24/2022 12:00:00 AM","2019","17708","NYTIMES-USCENSUS"
"11/25/2022 12:00:00 AM","Hancock County","Tennessee","South","East South Central","47067","36.521353","-83.227493 ","2488","42","0","0","11/24/2022 12:00:00 AM","2019","6620","NYTIMES-USCENSUS"
"11/25/2022 12:00:00 AM","Hampshire County","Massachusetts","Northeast","New England","25015","42.339459","-72.663694 ","37758","408","0","0","11/24/2022 12:00:00 AM","2019","160830","NYTIMES-USCENSUS"
"11/25/2022 12:00:00 AM","Hamilton County","Texas","South","West South Central","48193","31.707342","-98.111756 ","2054","35","0","0","11/24/2022 12:00:00 AM","2019","8461","NYTIMES-USCENSUS"
"11/25/2022 12:00:00 AM","Hamilton County","Tennessee","South","East South Central","47065","35.163472","-85.201843 ","116846","1239","0","0","11/24/2022 12:00:00 AM","2019","367804","NYTIMES-USCENSUS"
"11/25/2022 12:00:00 AM","Hamilton County","Kansas","Midwest","West North Central","20075","37.995244","-101.793689 ","535","5","0","0","11/24/2022 12:00:00 AM","2019","2539","NYTIMES-USCENSUS"
"11/25/2022 12:00:00 AM","Hamilton County","Indiana","Midwest","East North Central","18057","40.053513","-86.021709 ","93484","702","0","0","11/24/2022 12:00:00 AM","2019","338011","NYTIMES-USCENSUS"
"11/25/2022 12:00:00 AM","Hamilton County","New York","Northeast","Middle Atlantic","36041","43.657879","-74.502456 ","1055","5","1","0","11/24/2022 12:00:00 AM","2019","4416","NYTIMES-USCENSUS"
"11/25/2022 12:00:00 AM","Hamilton County","Iowa","Midwest","West North Central","19079","42.390789","-93.70913 ","3836","79","0","0","11/24/2022 12:00:00 AM","2019","14773","NYTIMES-USCENSUS"
"11/25/2022 12:00:00 AM","Hamilton County","Ohio","Midwest","East North Central","39061","39.196927","-84.544187 ","226493","2166","0","0","11/24/2022 12:00:00 AM","2019","817473","NYTIMES-USCENSUS"
"11/25/2022 12:00:00 AM","Hamilton County","Illinois","Midwest","East North Central","17065","38.085227","-88.539009 ","2569","36","0","0","11/24/2022 12:00:00 AM","2019","8116","NYTIMES-USCENSUS"
"11/25/2022 12:00:00 AM","Hamilton County","Nebraska","Midwest","West North Central","31081","40.872817","-98.022329 ","2626","32","0","0","11/24/2022 12:00:00 AM","2019","9324","NYTIMES-USCENSUS"
"11/25/2022 12:00:00 AM","Hall County","Nebraska","Midwest","West North Central","31079","40.866027","-98.502664 ","18391","193","0","0","11/24/2022 12:00:00 AM","2019","61353","NYTIMES-USCENSUS"
"11/25/2022 12:00:00 AM","Hall County","Georgia","South","South Atlantic","13139","34.317569","-83.8185 ","61805","902","0","0","11/24/2022 12:00:00 AM","2019","204441","NYTIMES-USCENSUS"
"11/25/2022 12:00:00 AM","Halifax County","Virginia","South","South Atlantic","51083","36.766461","-78.939614 ","8992","179","6","1","11/24/2022 12:00:00 AM","2019","33911","NYTIMES-USCENSUS"
"11/25/2022 12:00:00 AM","Hale County","Texas","South","West South Central","48189","34.068436","-101.822888 ","7830","249","0","0","11/24/2022 12:00:00 AM","2019","33406","NYTIMES-USCENSUS"
"11/25/2022 12:00:00 AM","Gilmer County","West Virginia","South","South Atlantic","54021","38.915867","-80.849413 ","2506","23","0","0","11/24/2022 12:00:00 AM","2019","7823","NYTIMES-USCENSUS"
"11/25/2022 12:00:00 AM","Giles County","Tennessee","South","East South Central","47055","35.202723","-87.035319 ","10991","206","0","0","11/24/2022 12:00:00 AM","2019","29464","NYTIMES-USCENSUS"
"11/25/2022 12:00:00 AM","Gibson County","Tennessee","South","East South Central","47053","35.991632","-88.933812 ","20493","284","0","0","11/24/2022 12:00:00 AM","2019","49133","NYTIMES-USCENSUS"
"11/25/2022 12:00:00 AM","Genesee County","Michigan","Midwest","East North Central","26049","43.021077","-83.706372 ","120825","1915","0","0","11/24/2022 12:00:00 AM","2019","405813","NYTIMES-USCENSUS"
"11/25/2022 12:00:00 AM","Garfield County","Colorado","West","Mountain","08045","39.599352","-107.90978 ","17474","103","0","0","11/24/2022 12:00:00 AM","2019","60061","NYTIMES-USCENSUS"
"11/25/2022 12:00:00 AM","Garfield County","Utah","West","Mountain","49017","37.831664","-111.450908 ","1048","16","15","0","11/24/2022 12:00:00 AM","2019","5051","NYTIMES-USCENSUS"
"11/25/2022 12:00:00 AM","Garfield County","Nebraska","Midwest","West North Central","31071","41.906868","-98.951231 ","465","10","0","0","11/24/2022 12:00:00 AM","2019","1969","NYTIMES-USCENSUS"
"11/25/2022 12:00:00 AM","Duval County","Texas","South","West South Central","48131","27.681123","-98.497393 ","4145","73","0","0","11/24/2022 12:00:00 AM","2019","11157","NYTIMES-USCENSUS"
"11/25/2022 12:00:00 AM","Dunn County","Wisconsin","Midwest","East North Central","55033","44.947751","-91.897645 ","15125","80","3","0","11/24/2022 12:00:00 AM","2019","45368","NYTIMES-USCENSUS"
"11/25/2022 12:00:00 AM","Dunklin County","Missouri","Midwest","West North Central","29069","36.153025","-90.062254 ","9296","134","0","0","11/24/2022 12:00:00 AM","2019","29131","NYTIMES-USCENSUS"
"11/25/2022 12:00:00 AM","Dukes County","Massachusetts","Northeast","New England","25007","41.38097","-70.701499 ","4237","0","0","0","11/24/2022 12:00:00 AM","2019","17332","NYTIMES-USCENSUS"
"11/25/2022 12:00:00 AM","Duchesne County","Utah","West","Mountain","49013","40.289393","-110.429584 ","4934","31","28","0","11/24/2022 12:00:00 AM","2019","19938","NYTIMES-USCENSUS"
"11/25/2022 12:00:00 AM","Dubuque County","Iowa","Midwest","West North Central","19061","42.463481","-90.878771 ","29724","318","0","0","11/24/2022 12:00:00 AM","2019","97311","NYTIMES-USCENSUS"
"11/25/2022 12:00:00 AM","Dubois County","Indiana","Midwest","East North Central","18037","38.373344","-86.873385 ","14166","169","0","0","11/24/2022 12:00:00 AM","2019","42736","NYTIMES-USCENSUS"
"11/25/2022 12:00:00 AM","Drew County","Arkansas","South","West South Central","05043","33.587242","-91.722778 ","5367","79","0","0","11/24/2022 12:00:00 AM","2019","18219","NYTIMES-USCENSUS"
"11/25/2022 12:00:00 AM","Dougherty County","Georgia","South","South Atlantic","13095","31.532588","-84.20904 ","23256","542","0","0","11/24/2022 12:00:00 AM","2019","87956","NYTIMES-USCENSUS"
"11/25/2022 12:00:00 AM","Door County","Wisconsin","Midwest","East North Central","55029","45.093417","-87.048683 ","8398","80","0","0","11/24/2022 12:00:00 AM","2019","27668","NYTIMES-USCENSUS"
"11/25/2022 12:00:00 AM","Dooly County","Georgia","South","South Atlantic","13093","32.151995","-83.807167 ","2731","74","0","0","11/24/2022 12:00:00 AM","2019","13390","NYTIMES-USCENSUS"
"11/25/2022 12:00:00 AM","Donley County","Texas","South","West South Central","48129","34.955036","-100.815846 ","1250","27","0","0","11/24/2022 12:00:00 AM","2019","3278","NYTIMES-USCENSUS"
"11/25/2022 12:00:00 AM","Doniphan County","Kansas","Midwest","West North Central","20043","39.788502","-95.147225 ","2755","39","0","0","11/24/2022 12:00:00 AM","2019","7600","NYTIMES-USCENSUS"
"11/25/2022 12:00:00 AM","Cottonwood County","Minnesota","Midwest","West North Central","27033","44.010639","-95.183152 ","3648","42","0","0","11/24/2022 12:00:00 AM","2019","11196","NYTIMES-USCENSUS"
"11/25/2022 12:00:00 AM","Cotton County","Oklahoma","South","West South Central","40033","34.290676","-98.373438 ","1591","39","0","0","11/24/2022 12:00:00 AM","2019","5666","NYTIMES-USCENSUS"
"11/25/2022 12:00:00 AM","Cottle County","Texas","South","West South Central","48101","34.091906","-100.276442 ","359","9","0","0","11/24/2022 12:00:00 AM","2019","1398","NYTIMES-USCENSUS"
"11/25/2022 12:00:00 AM","Costilla County","Colorado","West","Mountain","08023","37.277547","-105.42894 ","908","19","0","0","11/24/2022 12:00:00 AM","2019","3887","NYTIMES-USCENSUS"
"11/25/2022 12:00:00 AM","Coshocton County","Ohio","Midwest","East North Central","39031","40.29671","-81.930109 ","9683","166","0","0","11/24/2022 12:00:00 AM","2019","36600","NYTIMES-USCENSUS"
"11/25/2022 12:00:00 AM","Coryell County","Texas","South","West South Central","48099","31.391177","-97.798022 ","20327","225","0","0","11/24/2022 12:00:00 AM","2019","75951","NYTIMES-USCENSUS"
"11/25/2022 12:00:00 AM","Cortland County","New York","Northeast","Middle Atlantic","36023","42.594039","-76.07624 ","12841","131","2","0","11/24/2022 12:00:00 AM","2019","47581","NYTIMES-USCENSUS"
"11/25/2022 12:00:00 AM","Corson County","South Dakota","Midwest","West North Central","46031","45.685671","-101.179665 ","1172","24","0","0","11/24/2022 12:00:00 AM","2019","4086","NYTIMES-USCENSUS"
"11/25/2022 12:00:00 AM","Copiah County","Mississippi","South","East South Central","28029","31.866915","-90.448758 ","8700","124","0","0","11/24/2022 12:00:00 AM","2019","28065","NYTIMES-USCENSUS"
"11/25/2022 12:00:00 AM","Coosa County","Alabama","South","East South Central","01037","32.931445","-86.243482 ","3535","62","0","0","11/24/2022 12:00:00 AM","2019","10663","NYTIMES-USCENSUS"
"11/25/2022 12:00:00 AM","Coos County","New Hampshire","Northeast","New England","33007","44.652548","-71.289431 ","8087","129","0","0","11/24/2022 12:00:00 AM","2019","31563","NYTIMES-USCENSUS"
"11/25/2022 12:00:00 AM","Cooper County","Missouri","Midwest","West North Central","29053","38.847093","-92.810069 ","4593","80","0","0","11/24/2022 12:00:00 AM","2019","17709","NYTIMES-USCENSUS"
"11/25/2022 12:00:00 AM","Cooke County","Texas","South","West South Central","48097","33.639196","-97.210343 ","8267","152","0","0","11/24/2022 12:00:00 AM","2019","41257","NYTIMES-USCENSUS"
"11/25/2022 12:00:00 AM","Conway County","Arkansas","South","West South Central","05029","35.265702","-92.689248 ","6220","74","2","0","11/24/2022 12:00:00 AM","2019","20846","NYTIMES-USCENSUS"
"11/25/2022 12:00:00 AM","Converse County","Wyoming","West","Mountain","56009","42.984623","-105.524752 ","3593","56","0","0","11/24/2022 12:00:00 AM","2019","13822","NYTIMES-USCENSUS"
"11/25/2022 12:00:00 AM","Contra Costa County","California","West","Pacific","06013","37.919479","-121.951543 ","276970","1483","0","0","11/24/2022 12:00:00 AM","2019","1153526","NYTIMES-USCENSUS"
"11/25/2022 12:00:00 AM","Conejos County","Colorado","West","Mountain","08021","37.213406","-106.176447 ","2213","60","0","0","11/24/2022 12:00:00 AM","2019","8205","NYTIMES-USCENSUS"
"11/25/2022 12:00:00 AM","Conecuh County","Alabama","South","East South Central","01035","31.430926","-86.988722 ","3368","75","0","0","11/24/2022 12:00:00 AM","2019","12067","NYTIMES-USCENSUS"
"11/25/2022 12:00:00 AM","Concordia Parish","Louisiana","South","West South Central","22029","31.469805","-91.626315 ","5971","91","0","0","11/24/2022 12:00:00 AM","2019","19259","NYTIMES-USCENSUS"
"11/25/2022 12:00:00 AM","Concho County","Texas","South","West South Central","48095","31.318883","-99.863649 ","1296","12","0","0","11/24/2022 12:00:00 AM","2019","2726","NYTIMES-USCENSUS"
"11/25/2022 12:00:00 AM","Comanche County","Kansas","Midwest","West North Central","20033","37.181442","-99.251293 ","485","17","0","0","11/24/2022 12:00:00 AM","2019","1700","NYTIMES-USCENSUS"
"11/25/2022 12:00:00 AM","Comal County","Texas","South","West South Central","48091","29.812377","-98.258129 ","41196","572","0","0","11/24/2022 12:00:00 AM","2019","156209","NYTIMES-USCENSUS"
"11/25/2022 12:00:00 AM","Colusa County","California","West","Pacific","06011","39.177739","-122.237563 ","5149","50","0","0","11/24/2022 12:00:00 AM","2019","21547","NYTIMES-USCENSUS"
"11/25/2022 12:00:00 AM","Columbus County","North Carolina","South","South Atlantic","37047","34.261602","-78.639308 ","18332","283","0","0","11/24/2022 12:00:00 AM","2019","55508","NYTIMES-USCENSUS"
"11/25/2022 12:00:00 AM","Columbiana County","Ohio","Midwest","East North Central","39029","40.770073","-80.778455 ","28578","498","0","0","11/24/2022 12:00:00 AM","2019","101883","NYTIMES-USCENSUS"
"11/25/2022 12:00:00 AM","Columbia County","Oregon","West","Pacific","41009","45.941932","-123.081079 ","9814","113","0","0","11/24/2022 12:00:00 AM","2019","52354","NYTIMES-USCENSUS"
"11/25/2022 12:00:00 AM","Colquitt County","Georgia","South","South Atlantic","13071","31.189707","-83.769773 ","13262","268","0","0","11/24/2022 12:00:00 AM","2019","45600","NYTIMES-USCENSUS"
"11/25/2022 12:00:00 AM","Colorado County","Texas","South","West South Central","48089","29.596296","-96.508935 ","4286","67","0","0","11/24/2022 12:00:00 AM","2019","21493","NYTIMES-USCENSUS"
"11/25/2022 12:00:00 AM","Gladwin County","Michigan","Midwest","East North Central","26051","43.98975","-84.389816 ","6561","130","0","0","11/24/2022 12:00:00 AM","2019","25449","NYTIMES-USCENSUS"
"11/25/2022 12:00:00 AM","Glades County","Florida","South","South Atlantic","12043","26.95481","-81.19082 ","2235","38","0","0","11/24/2022 12:00:00 AM","2019","13811","NYTIMES-USCENSUS"
"11/25/2022 12:00:00 AM","Glacier County","Montana","West","Mountain","30035","48.705671","-112.990502 ","4588","77","8","0","11/24/2022 12:00:00 AM","2019","13753","NYTIMES-USCENSUS"
"11/25/2022 12:00:00 AM","Gilpin County","Colorado","West","Mountain","08047","39.861156","-105.528878 ","1149","6","0","0","11/24/2022 12:00:00 AM","2019","6243","NYTIMES-USCENSUS"
"11/25/2022 12:00:00 AM","Gilmer County","Georgia","South","South Atlantic","13123","34.690506","-84.454624 ","7945","188","0","0","11/24/2022 12:00:00 AM","2019","31369","NYTIMES-USCENSUS"
"11/25/2022 12:00:00 AM","Gillespie County","Texas","South","West South Central","48171","30.325093","-98.94185 ","6030","115","0","0","11/24/2022 12:00:00 AM","2019","26988","NYTIMES-USCENSUS"
"11/25/2022 12:00:00 AM","Giles County","Virginia","South","South Atlantic","51071","37.318072","-80.698321 ","4941","53","6","0","11/24/2022 12:00:00 AM","2019","16720","NYTIMES-USCENSUS"
"11/25/2022 12:00:00 AM","Gilchrist County","Florida","South","South Atlantic","12041","29.723456","-82.795801 ","5407","108","0","0","11/24/2022 12:00:00 AM","2019","18582","NYTIMES-USCENSUS"
"11/25/2022 12:00:00 AM","Gila County","Arizona","West","Mountain","04007","33.789618","-110.81187 ","20416","401","0","0","11/24/2022 12:00:00 AM","2019","54018","NYTIMES-USCENSUS"
"11/25/2022 12:00:00 AM","Gibson County","Indiana","Midwest","East North Central","18051","38.317398","-87.580523 ","13640","155","0","0","11/24/2022 12:00:00 AM","2019","33659","NYTIMES-USCENSUS"
"11/25/2022 12:00:00 AM","Georgetown County","South Carolina","South","South Atlantic","45043","33.417531","-79.296333 ","18704","262","0","0","11/24/2022 12:00:00 AM","2019","62680","NYTIMES-USCENSUS"
"11/25/2022 12:00:00 AM","George County","Mississippi","South","East South Central","28039","30.855431","-88.642268 ","8365","90","0","0","11/24/2022 12:00:00 AM","2019","24500","NYTIMES-USCENSUS"
"11/25/2022 12:00:00 AM","Gentry County","Missouri","Midwest","West North Central","29075","40.208127","-94.405321 ","2543","37","0","0","11/24/2022 12:00:00 AM","2019","6571","NYTIMES-USCENSUS"
"11/25/2022 12:00:00 AM","Geneva County","Alabama","South","East South Central","01061","31.092382","-85.821022 ","7522","171","0","0","11/24/2022 12:00:00 AM","2019","26271","NYTIMES-USCENSUS"
"11/25/2022 12:00:00 AM","Genesee County","New York","Northeast","Middle Atlantic","36037","43.00091","-78.192778 ","16046","219","2","0","11/24/2022 12:00:00 AM","2019","57280","NYTIMES-USCENSUS"
"11/25/2022 12:00:00 AM","Gem County","Idaho","West","Mountain","16045","44.061473","-116.398784 ","4146","83","0","0","11/24/2022 12:00:00 AM","2019","18112","NYTIMES-USCENSUS"
"11/25/2022 12:00:00 AM","Geauga County","Ohio","Midwest","East North Central","39055","41.499322","-81.173505 ","19326","285","0","0","11/24/2022 12:00:00 AM","2019","93649","NYTIMES-USCENSUS"
"11/25/2022 12:00:00 AM","Geary County","Kansas","Midwest","West North Central","20061","39.002139","-96.7681 ","10973","88","0","0","11/24/2022 12:00:00 AM","2019","31670","NYTIMES-USCENSUS"
"11/25/2022 12:00:00 AM","Gates County","North Carolina","South","South Atlantic","37073","36.442135","-76.702355 ","2283","41","0","0","11/24/2022 12:00:00 AM","2019","11562","NYTIMES-USCENSUS"
"11/25/2022 12:00:00 AM","Gaston County","North Carolina","South","South Atlantic","37071","35.293344","-81.177256 ","77369","939","0","0","11/24/2022 12:00:00 AM","2019","224529","NYTIMES-USCENSUS"
"11/25/2022 12:00:00 AM","Gasconade County","Missouri","Midwest","West North Central","29073","38.441183","-91.50578 ","3865","109","0","0","11/24/2022 12:00:00 AM","2019","14706","NYTIMES-USCENSUS"
"11/25/2022 12:00:00 AM","Garza County","Texas","South","West South Central","48169","33.183792","-101.301134 ","1427","31","0","0","11/24/2022 12:00:00 AM","2019","6229","NYTIMES-USCENSUS"
"11/25/2022 12:00:00 AM","Garvin County","Oklahoma","South","West South Central","40049","34.70935","-97.312723 ","8079","154","0","0","11/24/2022 12:00:00 AM","2019","27711","NYTIMES-USCENSUS"
"11/25/2022 12:00:00 AM","Garrett County","Maryland","South","South Atlantic","24023","39.547299","-79.274619 ","6776","123","0","0","11/24/2022 12:00:00 AM","2019","29014","NYTIMES-USCENSUS"
"11/25/2022 12:00:00 AM","Garrard County","Kentucky","South","East South Central","21079","37.630162","-84.545856 ","5696","87","0","0","11/24/2022 12:00:00 AM","2019","17666","NYTIMES-USCENSUS"
"11/25/2022 12:00:00 AM","Garland County","Arkansas","South","West South Central","05051","34.578852","-93.146932 ","26277","555","1","0","11/24/2022 12:00:00 AM","2019","99386","NYTIMES-USCENSUS"
"11/25/2022 12:00:00 AM","Garfield County","Oklahoma","South","West South Central","40047","36.378132","-97.788741 ","17364","304","0","0","11/24/2022 12:00:00 AM","2019","61056","NYTIMES-USCENSUS"
"11/25/2022 12:00:00 AM","Garden County","Nebraska","Midwest","West North Central","31069","41.633364","-102.302985 ","454","4","0","0","11/24/2022 12:00:00 AM","2019","1837","NYTIMES-USCENSUS"
"11/25/2022 12:00:00 AM","Galveston County","Texas","South","West South Central","48167","29.233453","-94.888456 ","115504","882","0","0","11/24/2022 12:00:00 AM","2019","342139","NYTIMES-USCENSUS"
"11/25/2022 12:00:00 AM","Eau Claire County","Wisconsin","Midwest","East North Central","55035","44.726355","-91.286414 ","35448","208","3","0","11/24/2022 12:00:00 AM","2019","104646","NYTIMES-USCENSUS"
"11/25/2022 12:00:00 AM","Eaton County","Michigan","Midwest","East North Central","26045","42.58953","-84.84645 ","33439","445","0","0","11/24/2022 12:00:00 AM","2019","110268","NYTIMES-USCENSUS"
"11/25/2022 12:00:00 AM","Eastland County","Texas","South","West South Central","48133","32.324645","-98.83656 ","3223","117","0","0","11/24/2022 12:00:00 AM","2019","18360","NYTIMES-USCENSUS"
"11/25/2022 12:00:00 AM","East Feliciana Parish","Louisiana","South","West South Central","22037","30.839784","-91.043434 ","7913","179","0","0","11/24/2022 12:00:00 AM","2019","19135","NYTIMES-USCENSUS"
"11/25/2022 12:00:00 AM","East Carroll Parish","Louisiana","South","West South Central","22035","32.73017","-91.234141 ","3102","38","0","0","11/24/2022 12:00:00 AM","2019","6861","NYTIMES-USCENSUS"
"11/25/2022 12:00:00 AM","East Baton Rouge Parish","Louisiana","South","West South Central","22033","30.54393","-91.093131 ","130273","1400","0","0","11/24/2022 12:00:00 AM","2019","440059","NYTIMES-USCENSUS"
"11/25/2022 12:00:00 AM","Early County","Georgia","South","South Atlantic","13099","31.324191","-84.906723 ","3062","65","0","0","11/24/2022 12:00:00 AM","2019","10190","NYTIMES-USCENSUS"
"11/25/2022 12:00:00 AM","Eagle County","Colorado","West","Mountain","08037","39.626992","-106.695169 ","18315","37","0","0","11/24/2022 12:00:00 AM","2019","55127","NYTIMES-USCENSUS"
"11/25/2022 12:00:00 AM","Dyer County","Tennessee","South","East South Central","47045","36.054196","-89.398306 ","14788","220","0","0","11/24/2022 12:00:00 AM","2019","37159","NYTIMES-USCENSUS"
"11/25/2022 12:00:00 AM","Duval County","Florida","South","South Atlantic","12031","30.335245","-81.648113 ","303985","3734","0","0","11/24/2022 12:00:00 AM","2019","957755","NYTIMES-USCENSUS"
"11/25/2022 12:00:00 AM","Dutchess County","New York","Northeast","Middle Atlantic","36027","41.75477","-73.740041 ","79981","761","62","0","11/24/2022 12:00:00 AM","2019","294218","NYTIMES-USCENSUS"
"11/25/2022 12:00:00 AM","Durham County","North Carolina","South","South Atlantic","37063","36.033828","-78.878125 ","96612","378","0","0","11/24/2022 12:00:00 AM","2019","321488","NYTIMES-USCENSUS"
"11/25/2022 12:00:00 AM","Duplin County","North Carolina","South","South Atlantic","37061","34.934403","-77.933543 ","19803","256","0","0","11/24/2022 12:00:00 AM","2019","58741","NYTIMES-USCENSUS"
"11/25/2022 12:00:00 AM","DuPage County","Illinois","Midwest","East North Central","17043","41.852058","-88.086039 ","273480","1899","0","0","11/24/2022 12:00:00 AM","2019","922921","NYTIMES-USCENSUS"
"11/25/2022 12:00:00 AM","Dunn County","North Dakota","Midwest","West North Central","38025","47.354557","-102.612322 ","1168","12","3","0","11/24/2022 12:00:00 AM","2019","4424","NYTIMES-USCENSUS"
"11/25/2022 12:00:00 AM","Beltrami County","Minnesota","Midwest","West North Central","27007","47.879508","-95.00505 ","13722","134","0","0","11/24/2022 12:00:00 AM","2019","47188","NYTIMES-USCENSUS"
"11/25/2022 12:00:00 AM","Belmont County","Ohio","Midwest","East North Central","39013","40.017682","-80.967727 ","18351","326","0","0","11/24/2022 12:00:00 AM","2019","67006","NYTIMES-USCENSUS"
"11/25/2022 12:00:00 AM","Bell County","Kentucky","South","East South Central","21013","36.728928","-83.680718 ","10604","168","0","0","11/24/2022 12:00:00 AM","2019","26032","NYTIMES-USCENSUS"
"11/25/2022 12:00:00 AM","Belknap County","New Hampshire","Northeast","New England","33001","43.519109","-71.425366 ","16577","199","0","0","11/24/2022 12:00:00 AM","2019","61303","NYTIMES-USCENSUS"
"11/25/2022 12:00:00 AM","Bee County","Texas","South","West South Central","48025","28.416077","-97.742586 ","9604","156","0","0","11/24/2022 12:00:00 AM","2019","32565","NYTIMES-USCENSUS"
"11/25/2022 12:00:00 AM","Bedford County","Tennessee","South","East South Central","47003","35.51366","-86.458294 ","17142","243","0","0","11/24/2022 12:00:00 AM","2019","49713","NYTIMES-USCENSUS"
"11/25/2022 12:00:00 AM","Beckham County","Oklahoma","South","West South Central","40009","35.270601","-99.690057 ","6817","111","0","0","11/24/2022 12:00:00 AM","2019","21859","NYTIMES-USCENSUS"
"11/25/2022 12:00:00 AM","Becker County","Minnesota","Midwest","West North Central","27005","46.937629","-95.741757 ","10140","99","0","0","11/24/2022 12:00:00 AM","2019","34423","NYTIMES-USCENSUS"
"11/25/2022 12:00:00 AM","Beaverhead County","Montana","West","Mountain","30001","45.133863","-112.892869 ","2417","32","5","0","11/24/2022 12:00:00 AM","2019","9453","NYTIMES-USCENSUS"
"11/25/2022 12:00:00 AM","Beaver County","Oklahoma","South","West South Central","40007","36.748334","-100.483056 ","1134","22","0","0","11/24/2022 12:00:00 AM","2019","5311","NYTIMES-USCENSUS"
"11/25/2022 12:00:00 AM","Beauregard Parish","Louisiana","South","West South Central","22011","30.645018","-93.340253 ","10712","145","0","0","11/24/2022 12:00:00 AM","2019","37497","NYTIMES-USCENSUS"
"11/25/2022 12:00:00 AM","Beaufort County","North Carolina","South","South Atlantic","37013","35.482313","-76.842014 ","15378","182","0","0","11/24/2022 12:00:00 AM","2019","46994","NYTIMES-USCENSUS"
"11/25/2022 12:00:00 AM","Beadle County","South Dakota","Midwest","West North Central","46005","44.418265","-98.279422 ","5322","64","0","0","11/24/2022 12:00:00 AM","2019","18453","NYTIMES-USCENSUS"
"11/25/2022 12:00:00 AM","Allegheny County","Pennsylvania","Northeast","Middle Atlantic","42003","40.469757","-79.980451 ","326108","3643","0","0","11/24/2022 12:00:00 AM","2019","1216045","NYTIMES-USCENSUS"
"11/25/2022 12:00:00 AM","Alleghany County","North Carolina","South","South Atlantic","37005","36.489356","-81.132299 ","3502","27","0","0","11/24/2022 12:00:00 AM","2019","11137","NYTIMES-USCENSUS"
"11/25/2022 12:00:00 AM","Allegany County","New York","Northeast","Middle Atlantic","36003","42.247853","-78.026153 ","10407","176","6","0","11/24/2022 12:00:00 AM","2019","46091","NYTIMES-USCENSUS"
"11/25/2022 12:00:00 AM","Allegan County","Michigan","Midwest","East North Central","26005","42.421251","-86.261403 ","31184","387","0","0","11/24/2022 12:00:00 AM","2019","118081","NYTIMES-USCENSUS"
"11/25/2022 12:00:00 AM","Allamakee County","Iowa","Midwest","West North Central","19005","43.274964","-91.382751 ","3131","63","0","0","11/24/2022 12:00:00 AM","2019","13687","NYTIMES-USCENSUS"
"11/25/2022 12:00:00 AM","Alfalfa County","Oklahoma","South","West South Central","40003","36.729703","-98.323445 ","1834","20","0","0","11/24/2022 12:00:00 AM","2019","5702","NYTIMES-USCENSUS"
"11/25/2022 12:00:00 AM","Alexandria city","Virginia","South","South Atlantic","51510","38.819251","-77.08367 ","42774","213","44","0","11/24/2022 12:00:00 AM","2019","159428","NYTIMES-USCENSUS"
"11/25/2022 12:00:00 AM","Alexander County","North Carolina","South","South Atlantic","37003","35.920951","-81.177467 ","12187","172","0","0","11/24/2022 12:00:00 AM","2019","37497","NYTIMES-USCENSUS"
"11/25/2022 12:00:00 AM","Alcorn County","Mississippi","South","East South Central","28003","34.886569","-88.581109 ","12109","163","0","0","11/24/2022 12:00:00 AM","2019","36953","NYTIMES-USCENSUS"
"11/25/2022 12:00:00 AM","Alcona County","Michigan","Midwest","East North Central","26001","44.657509","-83.29458 ","1887","76","0","0","11/24/2022 12:00:00 AM","2019","10405","NYTIMES-USCENSUS"
"11/25/2022 12:00:00 AM","Albemarle County","Virginia","South","South Atlantic","51003","38.024184","-78.553506 ","23640","194","37","0","11/24/2022 12:00:00 AM","2019","109330","NYTIMES-USCENSUS"
"11/25/2022 12:00:00 AM","Albany County","New York","Northeast","Middle Atlantic","36001","42.58824","-73.97401 ","75516","582","31","0","11/24/2022 12:00:00 AM","2019","305506","NYTIMES-USCENSUS"
"11/25/2022 12:00:00 AM","Alamosa County","Colorado","West","Mountain","08003","37.568442","-105.788041 ","5653","65","0","0","11/24/2022 12:00:00 AM","2019","16233","NYTIMES-USCENSUS"
"11/25/2022 12:00:00 AM","Alameda County","California","West","Pacific","06001","37.647139","-121.912488 ","376140","2072","0","0","11/24/2022 12:00:00 AM","2019","1671329","NYTIMES-USCENSUS"
"11/25/2022 12:00:00 AM","Alamance County","North Carolina","South","South Atlantic","37001","36.043954","-79.400573 ","57797","542","0","0","11/24/2022 12:00:00 AM","2019","169509","NYTIMES-USCENSUS"
"11/25/2022 12:00:00 AM","Alachua County","Florida","South","South Atlantic","12001","29.67574","-82.357221 ","84865","781","0","0","11/24/2022 12:00:00 AM","2019","269043","NYTIMES-USCENSUS"
"11/25/2022 12:00:00 AM","Aitkin County","Minnesota","Midwest","West North Central","27001","46.602446","-93.41976 ","3554","65","0","0","11/24/2022 12:00:00 AM","2019","15886","NYTIMES-USCENSUS"
"11/25/2022 12:00:00 AM","Aiken County","South Carolina","South","South Atlantic","45003","33.550013","-81.632983 ","49096","653","0","0","11/24/2022 12:00:00 AM","2019","170872","NYTIMES-USCENSUS"
"11/25/2022 12:00:00 AM","Addison County","Vermont","Northeast","New England","50001","44.031248","-73.141581 ","6688","26","0","0","11/24/2022 12:00:00 AM","2019","36777","NYTIMES-USCENSUS"
"11/25/2022 12:00:00 AM","Adams County","Iowa","Midwest","West North Central","19003","41.021656","-94.696906 ","911","14","0","0","11/24/2022 12:00:00 AM","2019","3602","NYTIMES-USCENSUS"
"11/25/2022 12:00:00 AM","Adair County","Iowa","Midwest","West North Central","19001","41.328528","-94.478164 ","1758","52","0","0","11/24/2022 12:00:00 AM","2019","7152","NYTIMES-USCENSUS"
"11/25/2022 12:00:00 AM","Ada County","Idaho","West","Mountain","16001","43.451477","-116.244376 ","155234","1097","0","0","11/24/2022 12:00:00 AM","2019","481587","NYTIMES-USCENSUS"
"11/25/2022 12:00:00 AM","Accomack County","Virginia","South","South Atlantic","51001","37.765944","-75.757807 ","8418","115","10","0","11/24/2022 12:00:00 AM","2019","32316","NYTIMES-USCENSUS"
"11/25/2022 12:00:00 AM","Acadia Parish","Louisiana","South","West South Central","22001","30.291497","-92.411037 ","18318","305","0","0","11/24/2022 12:00:00 AM","2019","62045","NYTIMES-USCENSUS"
"11/25/2022 12:00:00 AM","Abbeville County","South Carolina","South","South Atlantic","45001","34.229041","-82.454058 ","7384","95","0","0","11/24/2022 12:00:00 AM","2019","24527","NYTIMES-USCENSUS"
"11/25/2022 12:00:00 AM","Cerro Gordo County","Iowa","Midwest","West North Central","19033","43.074975","-93.250965 ","12393","175","0","0","11/24/2022 12:00:00 AM","2019","42450","NYTIMES-USCENSUS"
"11/25/2022 12:00:00 AM","Centre County","Pennsylvania","Northeast","Middle Atlantic","42027","40.909128","-77.847877 ","42260","379","0","0","11/24/2022 12:00:00 AM","2019","162385","NYTIMES-USCENSUS"
"11/25/2022 12:00:00 AM","Cedar County","Missouri","Midwest","West North Central","29039","37.733655","-93.850014 ","3543","62","0","0","11/24/2022 12:00:00 AM","2019","14349","NYTIMES-USCENSUS"
"11/25/2022 12:00:00 AM","Cecil County","Maryland","South","South Atlantic","24015","39.562354","-75.941585 ","19163","300","0","0","11/24/2022 12:00:00 AM","2019","102855","NYTIMES-USCENSUS"
"11/25/2022 12:00:00 AM","Cayuga County","New York","Northeast","Middle Atlantic","36011","43.008546","-76.574587 ","19648","185","5","0","11/24/2022 12:00:00 AM","2019","76576","NYTIMES-USCENSUS"
"11/25/2022 12:00:00 AM","Cattaraugus County","New York","Northeast","Middle Atlantic","36009","42.239099","-78.662332 ","18655","266","3","0","11/24/2022 12:00:00 AM","2019","76117","NYTIMES-USCENSUS"
"11/25/2022 12:00:00 AM","Catron County","New Mexico","West","Mountain","35003","33.901621","-108.391928 ","500","22","0","0","11/24/2022 12:00:00 AM","2019","3527","NYTIMES-USCENSUS"
"11/25/2022 12:00:00 AM","Catoosa County","Georgia","South","South Atlantic","13047","34.900212","-85.139385 ","16701","258","0","0","11/24/2022 12:00:00 AM","2019","67580","NYTIMES-USCENSUS"
"11/25/2022 12:00:00 AM","Catawba County","North Carolina","South","South Atlantic","37035","35.661883","-81.214906 ","57402","656","0","0","11/24/2022 12:00:00 AM","2019","159551","NYTIMES-USCENSUS"
"11/25/2022 12:00:00 AM","Catahoula Parish","Louisiana","South","West South Central","22025","31.666517","-91.846703 ","3012","59","0","0","11/24/2022 12:00:00 AM","2019","9494","NYTIMES-USCENSUS"
"11/25/2022 12:00:00 AM","Caswell County","North Carolina","South","South Atlantic","37033","36.394298","-79.339609 ","6303","76","0","0","11/24/2022 12:00:00 AM","2019","22604","NYTIMES-USCENSUS"
"11/25/2022 12:00:00 AM","Castro County","Texas","South","West South Central","48069","34.533621","-102.258786 ","2621","48","0","0","11/24/2022 12:00:00 AM","2019","7530","NYTIMES-USCENSUS"
"11/25/2022 12:00:00 AM","Cassia County","Idaho","West","Mountain","16031","42.282313","-113.626328 ","5431","55","0","0","11/24/2022 12:00:00 AM","2019","24030","NYTIMES-USCENSUS"
"11/25/2022 12:00:00 AM","Cass County","Illinois","Midwest","East North Central","17017","39.969202","-90.245704 ","5371","47","0","0","11/24/2022 12:00:00 AM","2019","12147","NYTIMES-USCENSUS"
"11/25/2022 12:00:00 AM","Casey County","Kentucky","South","East South Central","21045","37.321962","-84.92822 ","5121","85","0","0","11/24/2022 12:00:00 AM","2019","16159","NYTIMES-USCENSUS"
"11/25/2022 12:00:00 AM","Cascade County","Montana","West","Mountain","30013","47.316575","-111.350262 ","28903","370","125","0","11/24/2022 12:00:00 AM","2019","81366","NYTIMES-USCENSUS"
"11/25/2022 12:00:00 AM","Carver County","Minnesota","Midwest","West North Central","27019","44.82132","-93.800091 ","30975","128","0","0","11/24/2022 12:00:00 AM","2019","105089","NYTIMES-USCENSUS"
"11/25/2022 12:00:00 AM","Carteret County","North Carolina","South","South Atlantic","37031","34.858343","-76.53586 ","17570","155","0","0","11/24/2022 12:00:00 AM","2019","69473","NYTIMES-USCENSUS"
"11/25/2022 12:00:00 AM","Carter County","Oklahoma","South","West South Central","40019","34.251848","-97.287927 ","17589","254","0","0","11/24/2022 12:00:00 AM","2019","48111","NYTIMES-USCENSUS"
"11/25/2022 12:00:00 AM","Carson County","Texas","South","West South Central","48065","35.405496","-101.355356 ","1671","37","0","0","11/24/2022 12:00:00 AM","2019","5926","NYTIMES-USCENSUS"
"11/25/2022 12:00:00 AM","Carson City","Nevada","West","Mountain","32510","39.15306","-119.747368 ","16859","228","0","0","11/24/2022 12:00:00 AM","2019","55916","NYTIMES-USCENSUS"
"11/25/2022 12:00:00 AM","Carroll County","Maryland","South","South Atlantic","24013","39.563328","-77.01533 ","26447","445","0","0","11/24/2022 12:00:00 AM","2019","168447","NYTIMES-USCENSUS"
"11/25/2022 12:00:00 AM","Caroline County","Maryland","South","South Atlantic","24011","38.871531","-75.831662 ","7001","102","0","0","11/24/2022 12:00:00 AM","2019","33406","NYTIMES-USCENSUS"
"11/25/2022 12:00:00 AM","Carlton County","Minnesota","Midwest","West North Central","27017","46.603818","-92.671044 ","10912","112","0","0","11/24/2022 12:00:00 AM","2019","35871","NYTIMES-USCENSUS"
"11/25/2022 12:00:00 AM","Carlisle County","Kentucky","South","East South Central","21039","36.85718","-88.976614 ","1281","24","0","0","11/24/2022 12:00:00 AM","2019","4760","NYTIMES-USCENSUS"
"11/25/2022 12:00:00 AM","Caribou County","Idaho","West","Mountain","16029","42.786072","-111.544273 ","1640","36","4","0","11/24/2022 12:00:00 AM","2019","7155","NYTIMES-USCENSUS"
"11/25/2022 12:00:00 AM","Carbon County","Wyoming","West","Mountain","56007","41.70359","-106.933153 ","4944","55","0","0","11/24/2022 12:00:00 AM","2019","14800","NYTIMES-USCENSUS"
"11/25/2022 12:00:00 AM","Cape May County","New Jersey","Northeast","Middle Atlantic","34009","39.085841","-74.846354 ","28160","329","46","0","11/24/2022 12:00:00 AM","2019","92039","NYTIMES-USCENSUS"
"11/25/2022 12:00:00 AM","Cape Girardeau County","Missouri","Midwest","West North Central","29031","37.384141","-89.685658 ","22336","261","0","0","11/24/2022 12:00:00 AM","2019","78871","NYTIMES-USCENSUS"
"11/25/2022 12:00:00 AM","Bertie County","North Carolina","South","South Atlantic","37015","36.059043","-76.962364 ","5134","84","0","0","11/24/2022 12:00:00 AM","2019","18947","NYTIMES-USCENSUS"
"11/25/2022 12:00:00 AM","Berrien County","Michigan","Midwest","East North Central","26021","41.791382","-86.742543 ","40245","656","0","0","11/24/2022 12:00:00 AM","2019","153401","NYTIMES-USCENSUS"
"11/25/2022 12:00:00 AM","Bernalillo County","New Mexico","West","Mountain","35001","35.053628","-106.66908 ","189146","2140","0","0","11/24/2022 12:00:00 AM","2019","679121","NYTIMES-USCENSUS"
"11/25/2022 12:00:00 AM","Berkshire County","Massachusetts","Northeast","New England","25003","42.371493","-73.217928 ","33279","429","0","0","11/24/2022 12:00:00 AM","2019","124944","NYTIMES-USCENSUS"
"11/25/2022 12:00:00 AM","Berks County","Pennsylvania","Northeast","Middle Atlantic","42011","40.413957","-75.92686 ","120444","1701","0","0","11/24/2022 12:00:00 AM","2019","421164","NYTIMES-USCENSUS"
"11/25/2022 12:00:00 AM","Berkeley County","West Virginia","South","South Atlantic","54003","39.447938","-78.037754 ","42954","347","0","0","11/24/2022 12:00:00 AM","2019","119171","NYTIMES-USCENSUS"
"11/25/2022 12:00:00 AM","Bergen County","New Jersey","Northeast","Middle Atlantic","34003","40.959698","-74.074727 ","301199","3608","504","0","11/24/2022 12:00:00 AM","2019","932202","NYTIMES-USCENSUS"
"11/25/2022 12:00:00 AM","Benzie County","Michigan","Midwest","East North Central","26019","44.636844","-86.231999 ","4009","76","0","0","11/24/2022 12:00:00 AM","2019","17766","NYTIMES-USCENSUS"
"11/25/2022 12:00:00 AM","Benton County","Tennessee","South","East South Central","47005","36.070948","-88.071232 ","5344","103","0","0","11/24/2022 12:00:00 AM","2019","16160","NYTIMES-USCENSUS"
"11/25/2022 12:00:00 AM","Bent County","Colorado","West","Mountain","08011","37.931891","-103.077584 ","2877","49","0","0","11/24/2022 12:00:00 AM","2019","5577","NYTIMES-USCENSUS"
"11/25/2022 12:00:00 AM","Benson County","North Dakota","Midwest","West North Central","38005","48.071743","-99.351152 ","2217","23","10","0","11/24/2022 12:00:00 AM","2019","6832","NYTIMES-USCENSUS"
"11/25/2022 12:00:00 AM","Bennington County","Vermont","Northeast","New England","50003","43.035325","-73.11146 ","11834","81","0","0","11/24/2022 12:00:00 AM","2019","35470","NYTIMES-USCENSUS"
"11/25/2022 12:00:00 AM","Benewah County","Idaho","West","Mountain","16009","47.218451","-116.633541 ","2678","44","0","0","11/24/2022 12:00:00 AM","2019","9298","NYTIMES-USCENSUS"
"11/25/2022 12:00:00 AM","Ben Hill County","Georgia","South","South Atlantic","13017","31.740772","-83.147197 ","4892","123","0","0","11/24/2022 12:00:00 AM","2019","16700","NYTIMES-USCENSUS"
"11/25/2022 12:00:00 AM","Okmulgee County","Oklahoma","South","West South Central","40111","35.6435","-95.965947 ","11190","207","0","0","11/24/2022 12:00:00 AM","2019","38465","NYTIMES-USCENSUS"
"11/25/2022 12:00:00 AM","Oklahoma County","Oklahoma","South","West South Central","40109","35.554611","-97.409401 ","233938","2591","0","0","11/24/2022 12:00:00 AM","2019","797434","NYTIMES-USCENSUS"
"11/25/2022 12:00:00 AM","Okfuskee County","Oklahoma","South","West South Central","40107","35.466804","-96.327762 ","4044","69","0","0","11/24/2022 12:00:00 AM","2019","11993","NYTIMES-USCENSUS"
