"monitor_date","county","state_name","region","subregion","fips","latitude","longitude","case_count_to_date","death_count_to_date","case_count","death_count","previous_monitor_date","population_year","population","source"
"7/29/2021 12:00:00 AM","Scotts Bluff County","Nebraska","Midwest","West North Central","31157","41.850331","-103.701549 ","4750","96","0","0","7/28/2021 12:00:00 AM","2019","35618","NYTIMES-USCENSUS"
"7/29/2021 12:00:00 AM","Emmons County","North Dakota","Midwest","West North Central","38029","46.284255","-100.237842 ","441","13","0","0","7/28/2021 12:00:00 AM","2019","3241","NYTIMES-USCENSUS"
"7/29/2021 12:00:00 AM","Cherokee County","Oklahoma","South","West South Central","40021","35.904367","-94.996796 ","5950","79","0","0","7/28/2021 12:00:00 AM","2019","48657","NYTIMES-USCENSUS"
"7/29/2021 12:00:00 AM","Carroll County","Georgia","South","South Atlantic","13045","33.582237","-85.080527 ","12062","247","39","0","7/28/2021 12:00:00 AM","2019","119992","NYTIMES-USCENSUS"
"7/29/2021 12:00:00 AM","Newport County","Rhode Island","Northeast","New England","44005","41.501045","-71.283063 ","7058","43","0","0","7/28/2021 12:00:00 AM","2019","82082","NYTIMES-USCENSUS"
"7/29/2021 12:00:00 AM","Chaffee County","Colorado","West","Mountain","08015","38.734599","-106.300025 ","1831","25","3","0","7/28/2021 12:00:00 AM","2019","20356","NYTIMES-USCENSUS"
"7/29/2021 12:00:00 AM","Crittenden County","Arkansas","South","West South Central","05035","35.197559","-90.30512 ","6402","98","27","0","7/28/2021 12:00:00 AM","2019","47955","NYTIMES-USCENSUS"
"7/29/2021 12:00:00 AM","Hitchcock County","Nebraska","Midwest","West North Central","31087","40.176896","-101.044217 ","259","5","0","0","7/28/2021 12:00:00 AM","2019","2762","NYTIMES-USCENSUS"
"7/29/2021 12:00:00 AM","Jackson County","Tennessee","South","East South Central","47087","36.35425","-85.674128 ","1382","37","1","0","7/28/2021 12:00:00 AM","2019","11786","NYTIMES-USCENSUS"
"7/29/2021 12:00:00 AM","St. Joseph County","Indiana","Midwest","East North Central","18141","41.617723","-86.288048 ","37412","586","33","0","7/28/2021 12:00:00 AM","2019","271826","NYTIMES-USCENSUS"
"7/29/2021 12:00:00 AM","Lawrence County","Ohio","Midwest","East North Central","39087","38.603866","-82.517186 ","5975","104","11","0","7/28/2021 12:00:00 AM","2019","59463","NYTIMES-USCENSUS"
"7/29/2021 12:00:00 AM","Ashland County","Wisconsin","Midwest","East North Central","55003","46.544424","-90.679691 ","1417","15","4","0","7/28/2021 12:00:00 AM","2019","15562","NYTIMES-USCENSUS"
"7/29/2021 12:00:00 AM","Williamson County","Illinois","Midwest","East North Central","17199","37.730353","-88.930018 ","8203","150","38","0","7/28/2021 12:00:00 AM","2019","66597","NYTIMES-USCENSUS"
"7/29/2021 12:00:00 AM","Vernon County","Wisconsin","Midwest","East North Central","55123","43.599366","-90.821983 ","2058","43","0","0","7/28/2021 12:00:00 AM","2019","30822","NYTIMES-USCENSUS"
"7/29/2021 12:00:00 AM","St. Charles County","Missouri","Midwest","West North Central","29183","38.781102","-90.674915 ","50472","601","3","0","7/28/2021 12:00:00 AM","2019","402022","NYTIMES-USCENSUS"
"7/29/2021 12:00:00 AM","Ouachita Parish","Louisiana","South","West South Central","22073","32.480932","-92.151581 ","20747","469","144","0","7/28/2021 12:00:00 AM","2019","153279","NYTIMES-USCENSUS"
"7/29/2021 12:00:00 AM","Pontotoc County","Mississippi","South","East South Central","28115","34.227081","-89.037239 ","4462","73","16","0","7/28/2021 12:00:00 AM","2019","32174","NYTIMES-USCENSUS"
"7/29/2021 12:00:00 AM","Knox County","Tennessee","South","East South Central","47093","35.992726","-83.937721 ","53231","656","128","0","7/28/2021 12:00:00 AM","2019","470313","NYTIMES-USCENSUS"
"7/29/2021 12:00:00 AM","Washington County","Indiana","Midwest","East North Central","18175","38.600613","-86.104751 ","2553","37","7","0","7/28/2021 12:00:00 AM","2019","28036","NYTIMES-USCENSUS"
"7/29/2021 12:00:00 AM","Essex County","New Jersey","Northeast","Middle Atlantic","34013","40.7874","-74.246292 ","95827","3040","119","0","7/28/2021 12:00:00 AM","2019","798975","NYTIMES-USCENSUS"
"7/29/2021 12:00:00 AM","Ward County","North Dakota","Midwest","West North Central","38101","48.216686","-101.540537 ","10150","201","15","0","7/28/2021 12:00:00 AM","2019","67641","NYTIMES-USCENSUS"
"7/29/2021 12:00:00 AM","Carteret County","North Carolina","South","South Atlantic","37031","34.858343","-76.53586 ","5365","57","8","0","7/28/2021 12:00:00 AM","2019","69473","NYTIMES-USCENSUS"
"7/29/2021 12:00:00 AM","Smyth County","Virginia","South","South Atlantic","51173","36.842318","-81.539786 ","3017","96","5","0","7/28/2021 12:00:00 AM","2019","30104","NYTIMES-USCENSUS"
"7/29/2021 12:00:00 AM","Drew County","Arkansas","South","West South Central","05043","33.587242","-91.722778 ","2238","47","33","0","7/28/2021 12:00:00 AM","2019","18219","NYTIMES-USCENSUS"
"7/29/2021 12:00:00 AM","Perquimans County","North Carolina","South","South Atlantic","37143","36.180897","-76.403244 ","1054","11","1","0","7/28/2021 12:00:00 AM","2019","13463","NYTIMES-USCENSUS"
"7/29/2021 12:00:00 AM","Pasquotank County","North Carolina","South","South Atlantic","37139","36.265199","-76.260691 ","3487","87","4","0","7/28/2021 12:00:00 AM","2019","39824","NYTIMES-USCENSUS"
"7/29/2021 12:00:00 AM","Louisa County","Iowa","Midwest","West North Central","19115","41.218211","-91.256994 ","1307","49","0","0","7/28/2021 12:00:00 AM","2019","11035","NYTIMES-USCENSUS"
"7/29/2021 12:00:00 AM","Plaquemines Parish","Louisiana","South","West South Central","22075","29.282447","-89.576068 ","2877","27","22","0","7/28/2021 12:00:00 AM","2019","23197","NYTIMES-USCENSUS"
"7/29/2021 12:00:00 AM","Berkeley County","South Carolina","South","South Atlantic","45015","33.2077","-79.953655 ","18780","208","77","1","7/28/2021 12:00:00 AM","2019","227907","NYTIMES-USCENSUS"
"7/29/2021 12:00:00 AM","Hampton County","South Carolina","South","South Atlantic","45049","32.778334","-81.143822 ","2009","52","6","0","7/28/2021 12:00:00 AM","2019","19222","NYTIMES-USCENSUS"
"7/29/2021 12:00:00 AM","Quitman County","Mississippi","South","East South Central","28119","34.252833","-90.290171 ","846","19","3","0","7/28/2021 12:00:00 AM","2019","6792","NYTIMES-USCENSUS"
"7/29/2021 12:00:00 AM","Howard County","Texas","South","West South Central","48227","32.30343","-101.438721 ","4758","103","4","0","7/28/2021 12:00:00 AM","2019","36664","NYTIMES-USCENSUS"
"7/29/2021 12:00:00 AM","Androscoggin County","Maine","Northeast","New England","23001","44.167681","-70.207435 ","8490","88","4","0","7/28/2021 12:00:00 AM","2019","108277","NYTIMES-USCENSUS"
"7/29/2021 12:00:00 AM","Boyle County","Kentucky","South","East South Central","21021","37.618104","-84.868352 ","3601","78","11","0","7/28/2021 12:00:00 AM","2019","30060","NYTIMES-USCENSUS"
"7/29/2021 12:00:00 AM","Floyd County","Indiana","Midwest","East North Central","18043","38.318081","-85.911847 ","8073","187","20","0","7/28/2021 12:00:00 AM","2019","78522","NYTIMES-USCENSUS"
"7/29/2021 12:00:00 AM","King George County","Virginia","South","South Atlantic","51099","38.27718","-77.162636 ","1759","20","5","0","7/28/2021 12:00:00 AM","2019","26836","NYTIMES-USCENSUS"
"7/29/2021 12:00:00 AM","Hamilton County","Indiana","Midwest","East North Central","18057","40.053513","-86.021709 ","37441","445","60","0","7/28/2021 12:00:00 AM","2019","338011","NYTIMES-USCENSUS"
"7/29/2021 12:00:00 AM","Baltimore County","Maryland","South","South Atlantic","24005","39.443167","-76.616569 ","66603","1691","62","0","7/28/2021 12:00:00 AM","2019","827370","NYTIMES-USCENSUS"
"7/29/2021 12:00:00 AM","Clinton County","Missouri","Midwest","West North Central","29049","39.608723","-94.395803 ","2213","65","3","0","7/28/2021 12:00:00 AM","2019","20387","NYTIMES-USCENSUS"
"7/29/2021 12:00:00 AM","Whitley County","Indiana","Midwest","East North Central","18183","41.136426","-85.501892 ","4179","45","12","0","7/28/2021 12:00:00 AM","2019","33964","NYTIMES-USCENSUS"
"7/29/2021 12:00:00 AM","Hooker County","Nebraska","Midwest","West North Central","31091","41.920317","-101.117324 ","47","3","0","0","7/28/2021 12:00:00 AM","2019","682","NYTIMES-USCENSUS"
"7/29/2021 12:00:00 AM","Camden County","New Jersey","Northeast","Middle Atlantic","34007","39.802407","-74.961249 ","56658","1344","66","0","7/28/2021 12:00:00 AM","2019","506471","NYTIMES-USCENSUS"
"7/29/2021 12:00:00 AM","Upshur County","West Virginia","South","South Atlantic","54097","38.90253","-80.231606 ","2026","34","5","0","7/28/2021 12:00:00 AM","2019","24176","NYTIMES-USCENSUS"
"7/29/2021 12:00:00 AM","Windham County","Connecticut","Northeast","New England","09015","41.824999","-71.990702 ","11083","196","20","0","7/28/2021 12:00:00 AM","2019","116782","NYTIMES-USCENSUS"
"7/29/2021 12:00:00 AM","Avoyelles Parish","Louisiana","South","West South Central","22009","31.088503","-91.983275 ","4672","127","34","0","7/28/2021 12:00:00 AM","2019","40144","NYTIMES-USCENSUS"
"7/29/2021 12:00:00 AM","Autauga County","Alabama","South","East South Central","01001","32.532237","-86.64644 ","7479","114","0","0","7/28/2021 12:00:00 AM","2019","55869","NYTIMES-USCENSUS"
"7/29/2021 12:00:00 AM","Quay County","New Mexico","West","Mountain","35037","35.107018","-103.548071 ","551","11","1","0","7/28/2021 12:00:00 AM","2019","8253","NYTIMES-USCENSUS"
"7/29/2021 12:00:00 AM","Golden Valley County","Montana","West","Mountain","30037","46.380624","-109.174586 ","58","2","0","0","7/28/2021 12:00:00 AM","2019","821","NYTIMES-USCENSUS"
"7/29/2021 12:00:00 AM","Audubon County","Iowa","Midwest","West North Central","19009","41.679178","-94.904312 ","536","13","0","0","7/28/2021 12:00:00 AM","2019","5496","NYTIMES-USCENSUS"
"7/29/2021 12:00:00 AM","Alleghany County","North Carolina","South","South Atlantic","37005","36.489356","-81.132299 ","1106","5","1","0","7/28/2021 12:00:00 AM","2019","11137","NYTIMES-USCENSUS"
"7/29/2021 12:00:00 AM","Hillsdale County","Michigan","Midwest","East North Central","26059","41.927461","-84.637479 ","4436","94","0","0","7/28/2021 12:00:00 AM","2019","45605","NYTIMES-USCENSUS"
"7/29/2021 12:00:00 AM","Mathews County","Virginia","South","South Atlantic","51115","37.425348","-76.268808 ","610","14","1","0","7/28/2021 12:00:00 AM","2019","8834","NYTIMES-USCENSUS"
"7/29/2021 12:00:00 AM","Putnam County","Florida","South","South Atlantic","12107","29.593896","-81.732039 ","7507","160","0","0","7/28/2021 12:00:00 AM","2019","74521","NYTIMES-USCENSUS"
"7/29/2021 12:00:00 AM","Linn County","Oregon","West","Pacific","41043","44.488898","-122.537208 ","6248","82","46","1","7/28/2021 12:00:00 AM","2019","129749","NYTIMES-USCENSUS"
"7/29/2021 12:00:00 AM","Covington city","Virginia","South","South Atlantic","51580","37.78106","-79.985434 ","625","14","2","0","7/28/2021 12:00:00 AM","2019","5538","NYTIMES-USCENSUS"
"7/29/2021 12:00:00 AM","Garza County","Texas","South","West South Central","48169","33.183792","-101.301134 ","562","22","0","0","7/28/2021 12:00:00 AM","2019","6229","NYTIMES-USCENSUS"
"7/29/2021 12:00:00 AM","Finney County","Kansas","Midwest","West North Central","20055","38.049808","-100.739967 ","6155","73","0","0","7/28/2021 12:00:00 AM","2019","36467","NYTIMES-USCENSUS"
"7/29/2021 12:00:00 AM","Carroll County","Indiana","Midwest","East North Central","18015","40.58498","-86.565141 ","1987","24","8","0","7/28/2021 12:00:00 AM","2019","20257","NYTIMES-USCENSUS"
"7/29/2021 12:00:00 AM","Covington County","Alabama","South","East South Central","01039","31.243987","-86.448721 ","4649","125","0","0","7/28/2021 12:00:00 AM","2019","37049","NYTIMES-USCENSUS"
"7/29/2021 12:00:00 AM","Lake County","South Dakota","Midwest","West North Central","46079","44.02845","-97.123223 ","1391","20","0","0","7/28/2021 12:00:00 AM","2019","12797","NYTIMES-USCENSUS"
"7/29/2021 12:00:00 AM","Monroe County","Michigan","Midwest","East North Central","26115","41.916097","-83.487106 ","15566","267","0","0","7/28/2021 12:00:00 AM","2019","150500","NYTIMES-USCENSUS"
"7/29/2021 12:00:00 AM","Bradford County","Florida","South","South Atlantic","12007","29.952386","-82.166698 ","3467","58","0","0","7/28/2021 12:00:00 AM","2019","28201","NYTIMES-USCENSUS"
"7/29/2021 12:00:00 AM","Noxubee County","Mississippi","South","East South Central","28103","33.106606","-88.566152 ","1348","35","1","0","7/28/2021 12:00:00 AM","2019","10417","NYTIMES-USCENSUS"
"7/29/2021 12:00:00 AM","Glenn County","California","West","Pacific","06021","39.602546","-122.4017 ","3064","27","12","0","7/28/2021 12:00:00 AM","2019","28393","NYTIMES-USCENSUS"
"7/29/2021 12:00:00 AM","Hood County","Texas","South","West South Central","48221","32.430149","-97.831677 ","6973","138","44","0","7/28/2021 12:00:00 AM","2019","61643","NYTIMES-USCENSUS"
"7/29/2021 12:00:00 AM","Marshall County","Iowa","Midwest","West North Central","19127","42.0417","-92.981403 ","4936","79","0","0","7/28/2021 12:00:00 AM","2019","39369","NYTIMES-USCENSUS"
"7/29/2021 12:00:00 AM","Gentry County","Missouri","Midwest","West North Central","29075","40.208127","-94.405321 ","990","20","10","0","7/28/2021 12:00:00 AM","2019","6571","NYTIMES-USCENSUS"
"7/29/2021 12:00:00 AM","Valdez-Cordova Census Area","Alaska","West","Pacific","02261","61.4","-144.5","859","2","0","0","7/28/2021 12:00:00 AM","2019","9202","NYTIMES-USCENSUS"
"7/29/2021 12:00:00 AM","Claiborne County","Tennessee","South","East South Central","47025","36.501572","-83.660698 ","3289","75","5","0","7/28/2021 12:00:00 AM","2019","31959","NYTIMES-USCENSUS"
"7/29/2021 12:00:00 AM","Weakley County","Tennessee","South","East South Central","47183","36.303596","-88.721194 ","4313","69","6","0","7/28/2021 12:00:00 AM","2019","33328","NYTIMES-USCENSUS"
"7/29/2021 12:00:00 AM","Franklin County","Texas","South","West South Central","48159","33.175846","-95.219066 ","832","26","5","0","7/28/2021 12:00:00 AM","2019","10725","NYTIMES-USCENSUS"
"7/29/2021 12:00:00 AM","Sheridan County","Kansas","Midwest","West North Central","20179","39.350547","-100.441228 ","439","14","0","0","7/28/2021 12:00:00 AM","2019","2521","NYTIMES-USCENSUS"
"7/29/2021 12:00:00 AM","Marion County","Florida","South","South Atlantic","12083","29.202805","-82.0431 ","34235","996","0","0","7/28/2021 12:00:00 AM","2019","365579","NYTIMES-USCENSUS"
"7/29/2021 12:00:00 AM","Cabell County","West Virginia","South","South Atlantic","54011","38.419578","-82.243397 ","9068","179","19","0","7/28/2021 12:00:00 AM","2019","91945","NYTIMES-USCENSUS"
"7/29/2021 12:00:00 AM","Falls Church city","Virginia","South","South Atlantic","51610","38.884722","-77.175603 ","430","8","0","0","7/28/2021 12:00:00 AM","2019","14617","NYTIMES-USCENSUS"
"7/29/2021 12:00:00 AM","Champaign County","Illinois","Midwest","East North Central","17019","40.138985","-88.196975 ","21668","167","67","1","7/28/2021 12:00:00 AM","2019","209689","NYTIMES-USCENSUS"
"7/29/2021 12:00:00 AM","Brunswick County","Virginia","South","South Atlantic","51025","36.764204","-77.861483 ","1353","25","0","0","7/28/2021 12:00:00 AM","2019","16231","NYTIMES-USCENSUS"
"7/29/2021 12:00:00 AM","Stewart County","Georgia","South","South Atlantic","13259","32.073225","-84.834912 ","1161","25","1","0","7/28/2021 12:00:00 AM","2019","6621","NYTIMES-USCENSUS"
"7/29/2021 12:00:00 AM","Lawrence County","Illinois","Midwest","East North Central","17101","38.718954","-87.730221 ","2453","36","3","0","7/28/2021 12:00:00 AM","2019","15678","NYTIMES-USCENSUS"
"7/29/2021 12:00:00 AM","Lancaster County","Nebraska","Midwest","West North Central","31109","40.783547","-96.688658 ","32217","242","61","0","7/28/2021 12:00:00 AM","2019","319090","NYTIMES-USCENSUS"
"7/29/2021 12:00:00 AM","McCulloch County","Texas","South","West South Central","48307","31.205477","-99.359856 ","606","21","2","0","7/28/2021 12:00:00 AM","2019","7984","NYTIMES-USCENSUS"
"7/29/2021 12:00:00 AM","Young County","Texas","South","West South Central","48503","33.158778","-98.67839 ","2214","45","1","0","7/28/2021 12:00:00 AM","2019","18010","NYTIMES-USCENSUS"
"7/29/2021 12:00:00 AM","Carroll County","Virginia","South","South Atlantic","51035","36.731963","-80.727831 ","2759","79","8","0","7/28/2021 12:00:00 AM","2019","29791","NYTIMES-USCENSUS"
"7/29/2021 12:00:00 AM","Cache County","Utah","West","Mountain","49005","41.734117","-111.745399 ","17066","52","77","0","7/28/2021 12:00:00 AM","2019","128289","NYTIMES-USCENSUS"
"7/29/2021 12:00:00 AM","Ida County","Iowa","Midwest","West North Central","19093","42.39186","-95.507421 ","937","35","0","0","7/28/2021 12:00:00 AM","2019","6860","NYTIMES-USCENSUS"
"7/29/2021 12:00:00 AM","Kit Carson County","Colorado","West","Mountain","08063","39.30534","-102.603023 ","664","12","1","0","7/28/2021 12:00:00 AM","2019","7097","NYTIMES-USCENSUS"
"7/29/2021 12:00:00 AM","Oregon County","Missouri","Midwest","West North Central","29149","36.68531","-91.401827 ","985","6","10","0","7/28/2021 12:00:00 AM","2019","10529","NYTIMES-USCENSUS"
"7/29/2021 12:00:00 AM","Livingston County","New York","Northeast","Middle Atlantic","36051","42.729042","-77.778463 ","4555","60","2","0","7/28/2021 12:00:00 AM","2019","62914","NYTIMES-USCENSUS"
"7/29/2021 12:00:00 AM","Coal County","Oklahoma","South","West South Central","40029","34.582861","-96.288039 ","727","15","0","0","7/28/2021 12:00:00 AM","2019","5495","NYTIMES-USCENSUS"
"7/29/2021 12:00:00 AM","Litchfield County","Connecticut","Northeast","New England","09005","41.791883","-73.235404 ","14841","298","7","0","7/28/2021 12:00:00 AM","2019","180333","NYTIMES-USCENSUS"
"7/29/2021 12:00:00 AM","Benton County","Oregon","West","Pacific","41003","44.493882","-123.424664 ","3453","22","17","0","7/28/2021 12:00:00 AM","2019","93053","NYTIMES-USCENSUS"
"7/29/2021 12:00:00 AM","Lee County","Illinois","Midwest","East North Central","17103","41.747447","-89.299362 ","4241","93","1","0","7/28/2021 12:00:00 AM","2019","34096","NYTIMES-USCENSUS"
"7/29/2021 12:00:00 AM","Orange County","Indiana","Midwest","East North Central","18117","38.547381","-86.489257 ","1927","59","6","0","7/28/2021 12:00:00 AM","2019","19646","NYTIMES-USCENSUS"
"7/29/2021 12:00:00 AM","Spalding County","Georgia","South","South Atlantic","13255","33.262348","-84.284905 ","6789","206","20","1","7/28/2021 12:00:00 AM","2019","66703","NYTIMES-USCENSUS"
"7/29/2021 12:00:00 AM","Montcalm County","Michigan","Midwest","East North Central","26117","43.312782","-85.149468 ","8216","121","0","0","7/28/2021 12:00:00 AM","2019","63888","NYTIMES-USCENSUS"
"7/29/2021 12:00:00 AM","Monroe County","Missouri","Midwest","West North Central","29137","39.49827","-92.006458 ","1068","12","2","0","7/28/2021 12:00:00 AM","2019","8644","NYTIMES-USCENSUS"
"7/29/2021 12:00:00 AM","Jackson County","Kentucky","South","East South Central","21109","37.403458","-84.020576 ","1446","32","12","0","7/28/2021 12:00:00 AM","2019","13329","NYTIMES-USCENSUS"
"7/29/2021 12:00:00 AM","Caroline County","Virginia","South","South Atlantic","51033","38.028033","-77.353736 ","2770","40","8","0","7/28/2021 12:00:00 AM","2019","30725","NYTIMES-USCENSUS"
"7/29/2021 12:00:00 AM","Brown County","Minnesota","Midwest","West North Central","27015","44.246541","-94.733647 ","3091","40","1","0","7/28/2021 12:00:00 AM","2019","25008","NYTIMES-USCENSUS"
"7/29/2021 12:00:00 AM","Morgan County","Utah","West","Mountain","49029","41.091027","-111.577885 ","1377","11","6","0","7/28/2021 12:00:00 AM","2019","12124","NYTIMES-USCENSUS"
"7/29/2021 12:00:00 AM","Llano County","Texas","South","West South Central","48299","30.707584","-98.68469 ","1813","54","11","0","7/28/2021 12:00:00 AM","2019","21795","NYTIMES-USCENSUS"
"7/29/2021 12:00:00 AM","York County","Nebraska","Midwest","West North Central","31185","40.873056","-97.596742 ","1854","16","0","0","7/28/2021 12:00:00 AM","2019","13679","NYTIMES-USCENSUS"
"7/29/2021 12:00:00 AM","Montgomery County","Tennessee","South","East South Central","47125","36.500354","-87.380887 ","21677","235","55","0","7/28/2021 12:00:00 AM","2019","208993","NYTIMES-USCENSUS"
"7/29/2021 12:00:00 AM","Silver Bow County","Montana","West","Mountain","30093","45.896232","-112.660071 ","4186","86","6","0","7/28/2021 12:00:00 AM","2019","34915","NYTIMES-USCENSUS"
"7/29/2021 12:00:00 AM","West Baton Rouge Parish","Louisiana","South","West South Central","22121","30.464052","-91.309808 ","3376","64","15","1","7/28/2021 12:00:00 AM","2019","26465","NYTIMES-USCENSUS"
"7/29/2021 12:00:00 AM","Sherman County","Texas","South","West South Central","48421","36.278593","-101.899265 ","240","12","0","0","7/28/2021 12:00:00 AM","2019","3022","NYTIMES-USCENSUS"
"7/29/2021 12:00:00 AM","Lauderdale County","Tennessee","South","East South Central","47097","35.762951","-89.627732 ","3329","50","23","0","7/28/2021 12:00:00 AM","2019","25633","NYTIMES-USCENSUS"
"7/29/2021 12:00:00 AM","Middlesex County","New Jersey","Northeast","Middle Atlantic","34023","40.439621","-74.40743 ","93819","2377","84","-1","7/28/2021 12:00:00 AM","2019","825062","NYTIMES-USCENSUS"
"7/29/2021 12:00:00 AM","Russell County","Virginia","South","South Atlantic","51167","36.93342","-82.095934 ","2335","40","4","0","7/28/2021 12:00:00 AM","2019","26586","NYTIMES-USCENSUS"
"7/29/2021 12:00:00 AM","Webster County","Georgia","South","South Atlantic","13307","32.046691","-84.553828 ","155","4","0","0","7/28/2021 12:00:00 AM","2019","2607","NYTIMES-USCENSUS"
"7/29/2021 12:00:00 AM","Oglala Lakota County","South Dakota","Midwest","West North Central","46102","43.333393","-102.561486 ","2134","49","0","0","7/28/2021 12:00:00 AM","2019","14177","NYTIMES-USCENSUS"
"7/29/2021 12:00:00 AM","Butler County","Nebraska","Midwest","West North Central","31023","41.226072","-97.132039 ","864","12","0","0","7/28/2021 12:00:00 AM","2019","8016","NYTIMES-USCENSUS"
"7/29/2021 12:00:00 AM","Mahaska County","Iowa","Midwest","West North Central","19123","41.330797","-92.636366 ","2351","51","0","0","7/28/2021 12:00:00 AM","2019","22095","NYTIMES-USCENSUS"
"7/29/2021 12:00:00 AM","Kanawha County","West Virginia","South","South Atlantic","54039","38.328068","-81.523516 ","15685","363","22","2","7/28/2021 12:00:00 AM","2019","178124","NYTIMES-USCENSUS"
"7/29/2021 12:00:00 AM","Coos County","New Hampshire","Northeast","New England","33007","44.652548","-71.289431 ","2104","45","1","0","7/28/2021 12:00:00 AM","2019","31563","NYTIMES-USCENSUS"
"7/29/2021 12:00:00 AM","Ontario County","New York","Northeast","Middle Atlantic","36069","42.856357","-77.303497 ","7499","93","5","0","7/28/2021 12:00:00 AM","2019","109777","NYTIMES-USCENSUS"
"7/29/2021 12:00:00 AM","Mason County","Washington","West","Pacific","53045","47.350832","-123.173103 ","3042","38","4","0","7/28/2021 12:00:00 AM","2019","66768","NYTIMES-USCENSUS"
"7/29/2021 12:00:00 AM","Worcester County","Maryland","South","South Atlantic","24047","38.222133","-75.309931 ","3743","106","4","0","7/28/2021 12:00:00 AM","2019","52276","NYTIMES-USCENSUS"
"7/29/2021 12:00:00 AM","Union County","South Carolina","South","South Atlantic","45087","34.690397","-81.615896 ","3246","82","11","0","7/28/2021 12:00:00 AM","2019","27316","NYTIMES-USCENSUS"
"7/29/2021 12:00:00 AM","St. Clair County","Illinois","Midwest","East North Central","17163","38.470198","-89.928546 ","33221","570","0","0","7/28/2021 12:00:00 AM","2019","259686","NYTIMES-USCENSUS"
"7/29/2021 12:00:00 AM","Jefferson County","Kentucky","South","East South Central","21111","38.189532","-85.657624 ","84967","1346","190","0","7/28/2021 12:00:00 AM","2019","766757","NYTIMES-USCENSUS"
"7/29/2021 12:00:00 AM","Pope County","Illinois","Midwest","East North Central","17151","37.417169","-88.542374 ","340","4","0","0","7/28/2021 12:00:00 AM","2019","4177","NYTIMES-USCENSUS"
"7/29/2021 12:00:00 AM","Panola County","Mississippi","South","East South Central","28107","34.365205","-89.963065 ","4766","112","10","0","7/28/2021 12:00:00 AM","2019","34192","NYTIMES-USCENSUS"
"7/29/2021 12:00:00 AM","Union County","Ohio","Midwest","East North Central","39159","40.295901","-83.367042 ","5924","49","8","0","7/28/2021 12:00:00 AM","2019","58988","NYTIMES-USCENSUS"
"7/29/2021 12:00:00 AM","Lamar County","Texas","South","West South Central","48277","33.667263","-95.570348 ","6130","159","41","0","7/28/2021 12:00:00 AM","2019","49859","NYTIMES-USCENSUS"
"7/29/2021 12:00:00 AM","Walworth County","Wisconsin","Midwest","East North Central","55127","42.66811","-88.541731 ","12838","169","31","0","7/28/2021 12:00:00 AM","2019","103868","NYTIMES-USCENSUS"
"7/29/2021 12:00:00 AM","East Carroll Parish","Louisiana","South","West South Central","22035","32.73017","-91.234141 ","1180","28","3","0","7/28/2021 12:00:00 AM","2019","6861","NYTIMES-USCENSUS"
"7/29/2021 12:00:00 AM","Wheeler County","Texas","South","West South Central","48483","35.392593","-100.253107 ","578","11","1","0","7/28/2021 12:00:00 AM","2019","5056","NYTIMES-USCENSUS"
"7/29/2021 12:00:00 AM","Washington County","Virginia","South","South Atlantic","51191","36.747814","-81.950322 ","5135","115","9","1","7/28/2021 12:00:00 AM","2019","53740","NYTIMES-USCENSUS"
"7/29/2021 12:00:00 AM","Washington County","Kansas","Midwest","West North Central","20201","39.776714","-97.095611 ","566","14","0","0","7/28/2021 12:00:00 AM","2019","5406","NYTIMES-USCENSUS"
"7/29/2021 12:00:00 AM","Baca County","Colorado","West","Mountain","08009","37.30978","-102.543741 ","329","4","1","0","7/28/2021 12:00:00 AM","2019","3581","NYTIMES-USCENSUS"
"7/29/2021 12:00:00 AM","Waupaca County","Wisconsin","Midwest","East North Central","55135","44.478004","-88.967005 ","6175","167","3","0","7/28/2021 12:00:00 AM","2019","50990","NYTIMES-USCENSUS"
"7/29/2021 12:00:00 AM","Park County","Colorado","West","Mountain","08093","39.118914","-105.717648 ","876","5","1","0","7/28/2021 12:00:00 AM","2019","18845","NYTIMES-USCENSUS"
"7/29/2021 12:00:00 AM","Davie County","North Carolina","South","South Atlantic","37059","35.929355","-80.542552 ","4295","43","11","0","7/28/2021 12:00:00 AM","2019","42846","NYTIMES-USCENSUS"
"7/29/2021 12:00:00 AM","Pinellas County","Florida","South","South Atlantic","12103","27.905342","-82.798066 ","85554","1671","0","0","7/28/2021 12:00:00 AM","2019","974996","NYTIMES-USCENSUS"
"7/29/2021 12:00:00 AM","Beaver County","Pennsylvania","Northeast","Middle Atlantic","42007","40.68414","-80.350721 ","15715","391","35","1","7/28/2021 12:00:00 AM","2019","163929","NYTIMES-USCENSUS"
"7/29/2021 12:00:00 AM","Muskegon County","Michigan","Midwest","East North Central","26121","43.428739","-86.420908 ","18582","384","0","0","7/28/2021 12:00:00 AM","2019","173566","NYTIMES-USCENSUS"
"7/29/2021 12:00:00 AM","St. Louis city","Missouri","Midwest","West North Central","29510","38.635699","-90.244582 ","26805","541","181","3","7/28/2021 12:00:00 AM","2019","300576","NYTIMES-USCENSUS"
"7/29/2021 12:00:00 AM","Alameda County","California","West","Pacific","06001","37.647139","-121.912488 ","97331","1282","337","8","7/28/2021 12:00:00 AM","2019","1671329","NYTIMES-USCENSUS"
"7/29/2021 12:00:00 AM","Marion County","Iowa","Midwest","West North Central","19125","41.331433","-93.093868 ","3723","78","0","0","7/28/2021 12:00:00 AM","2019","33253","NYTIMES-USCENSUS"
"7/29/2021 12:00:00 AM","Latimer County","Oklahoma","South","West South Central","40077","34.875137","-95.272262 ","902","13","0","0","7/28/2021 12:00:00 AM","2019","10073","NYTIMES-USCENSUS"
"7/29/2021 12:00:00 AM","Union County","Illinois","Midwest","East North Central","17181","37.485652","-89.244639 ","2506","46","4","1","7/28/2021 12:00:00 AM","2019","16653","NYTIMES-USCENSUS"
"7/29/2021 12:00:00 AM","Cheyenne County","Kansas","Midwest","West North Central","20023","39.789917","-101.727325 ","374","13","0","0","7/28/2021 12:00:00 AM","2019","2657","NYTIMES-USCENSUS"
"7/29/2021 12:00:00 AM","Castro County","Texas","South","West South Central","48069","34.533621","-102.258786 ","1088","32","5","0","7/28/2021 12:00:00 AM","2019","7530","NYTIMES-USCENSUS"
"7/29/2021 12:00:00 AM","Refugio County","Texas","South","West South Central","48391","28.322116","-97.162472 ","740","23","13","0","7/28/2021 12:00:00 AM","2019","6948","NYTIMES-USCENSUS"
"7/29/2021 12:00:00 AM","Henry County","Virginia","South","South Atlantic","51089","36.620612","-79.980662 ","4732","124","5","0","7/28/2021 12:00:00 AM","2019","50557","NYTIMES-USCENSUS"
"7/29/2021 12:00:00 AM","Jack County","Texas","South","West South Central","48237","33.23216","-98.171177 ","610","16","2","0","7/28/2021 12:00:00 AM","2019","8935","NYTIMES-USCENSUS"
"7/29/2021 12:00:00 AM","Lee County","Virginia","South","South Atlantic","51105","36.701721","-83.130112 ","2458","48","2","0","7/28/2021 12:00:00 AM","2019","23423","NYTIMES-USCENSUS"
"7/29/2021 12:00:00 AM","Chowan County","North Carolina","South","South Atlantic","37041","36.128979","-76.602752 ","1540","37","3","2","7/28/2021 12:00:00 AM","2019","13943","NYTIMES-USCENSUS"
"7/29/2021 12:00:00 AM","Bailey County","Texas","South","West South Central","48017","34.067521","-102.830345 ","874","19","0","0","7/28/2021 12:00:00 AM","2019","7000","NYTIMES-USCENSUS"
"7/29/2021 12:00:00 AM","Fleming County","Kentucky","South","East South Central","21069","38.367848","-83.699205 ","1291","25","8","0","7/28/2021 12:00:00 AM","2019","14581","NYTIMES-USCENSUS"
"7/29/2021 12:00:00 AM","Tillamook County","Oregon","West","Pacific","41057","45.45589","-123.759299 ","749","5","8","0","7/28/2021 12:00:00 AM","2019","27036","NYTIMES-USCENSUS"
"7/29/2021 12:00:00 AM","Iredell County","North Carolina","South","South Atlantic","37097","35.806251","-80.874524 ","19791","237","58","0","7/28/2021 12:00:00 AM","2019","181806","NYTIMES-USCENSUS"
"7/29/2021 12:00:00 AM","Jackson County","Indiana","Midwest","East North Central","18071","38.911957","-86.042516 ","5184","78","8","0","7/28/2021 12:00:00 AM","2019","44231","NYTIMES-USCENSUS"
"7/29/2021 12:00:00 AM","Dodge County","Minnesota","Midwest","West North Central","27039","44.020706","-92.869353 ","1913","3","8","0","7/28/2021 12:00:00 AM","2019","20934","NYTIMES-USCENSUS"
"7/29/2021 12:00:00 AM","Tate County","Mississippi","South","East South Central","28137","34.649553","-89.943105 ","3528","88","4","0","7/28/2021 12:00:00 AM","2019","28321","NYTIMES-USCENSUS"
"7/29/2021 12:00:00 AM","Childress County","Texas","South","West South Central","48075","34.524624","-100.208166 ","1377","17","-5","0","7/28/2021 12:00:00 AM","2019","7306","NYTIMES-USCENSUS"
"7/29/2021 12:00:00 AM","Klickitat County","Washington","West","Pacific","53039","45.870446","-120.779305 ","926","12","1","1","7/28/2021 12:00:00 AM","2019","22425","NYTIMES-USCENSUS"
"7/29/2021 12:00:00 AM","Geneva County","Alabama","South","East South Central","01061","31.092382","-85.821022 ","2763","83","0","0","7/28/2021 12:00:00 AM","2019","26271","NYTIMES-USCENSUS"
"7/29/2021 12:00:00 AM","Franklin County","Georgia","South","South Atlantic","13119","34.375266","-83.227532 ","2821","57","5","0","7/28/2021 12:00:00 AM","2019","23349","NYTIMES-USCENSUS"
"7/29/2021 12:00:00 AM","Lake County","Minnesota","Midwest","West North Central","27075","47.517111","-91.411704 ","850","20","4","0","7/28/2021 12:00:00 AM","2019","10641","NYTIMES-USCENSUS"
"7/29/2021 12:00:00 AM","Decatur County","Iowa","Midwest","West North Central","19053","40.736379","-93.78458 ","664","9","0","0","7/28/2021 12:00:00 AM","2019","7870","NYTIMES-USCENSUS"
"7/29/2021 12:00:00 AM","Hidalgo County","Texas","South","West South Central","48215","26.396384","-98.18099 ","95791","2942","613","4","7/28/2021 12:00:00 AM","2019","868707","NYTIMES-USCENSUS"
"7/29/2021 12:00:00 AM","Allamakee County","Iowa","Midwest","West North Central","19005","43.274964","-91.382751 ","1564","52","0","0","7/28/2021 12:00:00 AM","2019","13687","NYTIMES-USCENSUS"
"7/29/2021 12:00:00 AM","Holmes County","Florida","South","South Atlantic","12059","30.862007","-85.815939 ","2353","49","0","0","7/28/2021 12:00:00 AM","2019","19617","NYTIMES-USCENSUS"
"7/29/2021 12:00:00 AM","Norton County","Kansas","Midwest","West North Central","20137","39.783867","-99.899235 ","1235","27","0","0","7/28/2021 12:00:00 AM","2019","5361","NYTIMES-USCENSUS"
"7/29/2021 12:00:00 AM","Seminole County","Georgia","South","South Atlantic","13253","30.93396","-84.867685 ","990","19","4","0","7/28/2021 12:00:00 AM","2019","8090","NYTIMES-USCENSUS"
"7/29/2021 12:00:00 AM","Itasca County","Minnesota","Midwest","West North Central","27061","47.490817","-93.611102 ","4637","68","4","0","7/28/2021 12:00:00 AM","2019","45130","NYTIMES-USCENSUS"
"7/29/2021 12:00:00 AM","Tuscarawas County","Ohio","Midwest","East North Central","39157","40.44749","-81.471105 ","8726","255","2","0","7/28/2021 12:00:00 AM","2019","91987","NYTIMES-USCENSUS"
"7/29/2021 12:00:00 AM","Miami-Dade County","Florida","South","South Atlantic","12086","25.616009","-80.50375 ","526897","6472","0","0","7/28/2021 12:00:00 AM","2019","2716940","NYTIMES-USCENSUS"
"7/29/2021 12:00:00 AM","Kershaw County","South Carolina","South","South Atlantic","45055","34.338356","-80.590885 ","7913","143","26","1","7/28/2021 12:00:00 AM","2019","66551","NYTIMES-USCENSUS"
"7/29/2021 12:00:00 AM","Cumberland County","New Jersey","Northeast","Middle Atlantic","34011","39.328434","-75.121628 ","17336","442","10","0","7/28/2021 12:00:00 AM","2019","149527","NYTIMES-USCENSUS"
"7/29/2021 12:00:00 AM","Noble County","Oklahoma","South","West South Central","40103","36.384901","-97.236335 ","1424","20","0","0","7/28/2021 12:00:00 AM","2019","11131","NYTIMES-USCENSUS"
"7/29/2021 12:00:00 AM","Currituck County","North Carolina","South","South Atlantic","37053","36.372174","-75.941224 ","1628","16","5","0","7/28/2021 12:00:00 AM","2019","27763","NYTIMES-USCENSUS"
"7/29/2021 12:00:00 AM","Montgomery County","Iowa","Midwest","West North Central","19137","41.021735","-95.15779 ","1069","38","0","0","7/28/2021 12:00:00 AM","2019","9917","NYTIMES-USCENSUS"
"7/29/2021 12:00:00 AM","Franklin County","Illinois","Midwest","East North Central","17055","37.991852","-88.926321 ","4902","91","24","0","7/28/2021 12:00:00 AM","2019","38469","NYTIMES-USCENSUS"
"7/29/2021 12:00:00 AM","Crawford County","Iowa","Midwest","West North Central","19047","42.043119","-95.38909 ","2735","41","0","0","7/28/2021 12:00:00 AM","2019","16820","NYTIMES-USCENSUS"
"7/29/2021 12:00:00 AM","Kandiyohi County","Minnesota","Midwest","West North Central","27067","45.152714","-95.004981 ","6722","85","5","0","7/28/2021 12:00:00 AM","2019","43199","NYTIMES-USCENSUS"
"7/29/2021 12:00:00 AM","Lawrence County","Tennessee","South","East South Central","47099","35.220476","-87.396546 ","6266","98","29","1","7/28/2021 12:00:00 AM","2019","44142","NYTIMES-USCENSUS"
"7/29/2021 12:00:00 AM","Carbon County","Wyoming","West","Mountain","56007","41.70359","-106.933153 ","1753","24","19","0","7/28/2021 12:00:00 AM","2019","14800","NYTIMES-USCENSUS"
"7/29/2021 12:00:00 AM","Lawrence County","Mississippi","South","East South Central","28077","31.550009","-90.10753 ","1416","26","10","0","7/28/2021 12:00:00 AM","2019","12586","NYTIMES-USCENSUS"
"7/29/2021 12:00:00 AM","Brown County","Ohio","Midwest","East North Central","39015","38.931377","-83.866772 ","4112","62","8","0","7/28/2021 12:00:00 AM","2019","43432","NYTIMES-USCENSUS"
"7/29/2021 12:00:00 AM","Missaukee County","Michigan","Midwest","East North Central","26113","44.325424","-85.085471 ","1523","27","0","0","7/28/2021 12:00:00 AM","2019","15118","NYTIMES-USCENSUS"
"7/29/2021 12:00:00 AM","Ravalli County","Montana","West","Mountain","30081","46.077744","-114.105795 ","3322","51","8","0","7/28/2021 12:00:00 AM","2019","43806","NYTIMES-USCENSUS"
"7/29/2021 12:00:00 AM","Skamania County","Washington","West","Pacific","53059","46.024785","-121.953232 ","404","1","0","0","7/28/2021 12:00:00 AM","2019","12083","NYTIMES-USCENSUS"
"7/29/2021 12:00:00 AM","Plymouth County","Massachusetts","Northeast","New England","25023","41.987196","-70.741942 ","49874","1454","65","1","7/28/2021 12:00:00 AM","2019","521202","NYTIMES-USCENSUS"
"7/29/2021 12:00:00 AM","Bernalillo County","New Mexico","West","Mountain","35001","35.053628","-106.66908 ","60528","980","97","1","7/28/2021 12:00:00 AM","2019","679121","NYTIMES-USCENSUS"
"7/29/2021 12:00:00 AM","Martin County","Texas","South","West South Central","48317","32.30983","-101.961836 ","666","19","5","0","7/28/2021 12:00:00 AM","2019","5771","NYTIMES-USCENSUS"
"7/29/2021 12:00:00 AM","Wayne County","Indiana","Midwest","East North Central","18177","39.863091","-85.006735 ","7627","205","5","0","7/28/2021 12:00:00 AM","2019","65884","NYTIMES-USCENSUS"
"7/29/2021 12:00:00 AM","Barnwell County","South Carolina","South","South Atlantic","45011","33.260552","-81.434228 ","2682","58","6","0","7/28/2021 12:00:00 AM","2019","20866","NYTIMES-USCENSUS"
"7/29/2021 12:00:00 AM","Richland County","Wisconsin","Midwest","East North Central","55103","43.376199","-90.435693 ","1425","17","3","0","7/28/2021 12:00:00 AM","2019","17252","NYTIMES-USCENSUS"
"7/29/2021 12:00:00 AM","Cedar County","Nebraska","Midwest","West North Central","31027","42.60456","-97.25687 ","956","11","0","0","7/28/2021 12:00:00 AM","2019","8402","NYTIMES-USCENSUS"
"7/29/2021 12:00:00 AM","Delaware County","Oklahoma","South","West South Central","40041","36.393437","-94.808189 ","5252","100","0","0","7/28/2021 12:00:00 AM","2019","43009","NYTIMES-USCENSUS"
"7/29/2021 12:00:00 AM","Bryan County","Georgia","South","South Atlantic","13029","32.017969","-81.438543 ","4007","42","11","0","7/28/2021 12:00:00 AM","2019","39627","NYTIMES-USCENSUS"
"7/29/2021 12:00:00 AM","Obion County","Tennessee","South","East South Central","47131","36.361892","-89.148078 ","4677","98","8","0","7/28/2021 12:00:00 AM","2019","30069","NYTIMES-USCENSUS"
"7/29/2021 12:00:00 AM","Clackamas County","Oregon","West","Pacific","41005","45.160493","-122.195127 ","19888","246","70","0","7/28/2021 12:00:00 AM","2019","418187","NYTIMES-USCENSUS"
"7/29/2021 12:00:00 AM","Nassau County","New York","Northeast","Middle Atlantic","36059","40.729612","-73.589414 ","186808","3184","252","0","7/28/2021 12:00:00 AM","2019","1356924","NYTIMES-USCENSUS"
"7/29/2021 12:00:00 AM","Green County","Kentucky","South","East South Central","21087","37.278065","-85.537925 ","1283","18","0","0","7/28/2021 12:00:00 AM","2019","10941","NYTIMES-USCENSUS"
"7/29/2021 12:00:00 AM","Harrisonburg city","Virginia","South","South Atlantic","51660","38.436255","-78.873303 ","6560","94","8","0","7/28/2021 12:00:00 AM","2019","53016","NYTIMES-USCENSUS"
"7/29/2021 12:00:00 AM","Richmond County","North Carolina","South","South Atlantic","37153","35.004636","-79.755695 ","5129","100","23","0","7/28/2021 12:00:00 AM","2019","44829","NYTIMES-USCENSUS"
"7/29/2021 12:00:00 AM","Walker County","Georgia","South","South Atlantic","13295","34.735802","-85.305456 ","8151","91","37","0","7/28/2021 12:00:00 AM","2019","69761","NYTIMES-USCENSUS"
"7/29/2021 12:00:00 AM","Dyer County","Tennessee","South","East South Central","47045","36.054196","-89.398306 ","5643","108","14","0","7/28/2021 12:00:00 AM","2019","37159","NYTIMES-USCENSUS"
"7/29/2021 12:00:00 AM","Antrim County","Michigan","Midwest","East North Central","26009","45.005455","-85.175639 ","1648","30","1","0","7/28/2021 12:00:00 AM","2019","23324","NYTIMES-USCENSUS"
"7/29/2021 12:00:00 AM","Washita County","Oklahoma","South","West South Central","40149","35.289497","-98.991436 ","1119","23","0","0","7/28/2021 12:00:00 AM","2019","10916","NYTIMES-USCENSUS"
"7/29/2021 12:00:00 AM","Bottineau County","North Dakota","Midwest","West North Central","38009","48.794412","-100.831257 ","726","20","1","0","7/28/2021 12:00:00 AM","2019","6282","NYTIMES-USCENSUS"
"7/29/2021 12:00:00 AM","Pinal County","Arizona","West","Mountain","04021","32.918521","-111.36634 ","56169","922","168","0","7/28/2021 12:00:00 AM","2019","462789","NYTIMES-USCENSUS"
"7/29/2021 12:00:00 AM","Clear Creek County","Colorado","West","Mountain","08019","39.689403","-105.670783 ","504","3","2","0","7/28/2021 12:00:00 AM","2019","9700","NYTIMES-USCENSUS"
"7/29/2021 12:00:00 AM","Ashley County","Arkansas","South","West South Central","05003","33.190835","-91.772267 ","2170","37","19","0","7/28/2021 12:00:00 AM","2019","19657","NYTIMES-USCENSUS"
"7/29/2021 12:00:00 AM","Hardeman County","Tennessee","South","East South Central","47069","35.218785","-88.988697 ","3628","64","12","0","7/28/2021 12:00:00 AM","2019","25050","NYTIMES-USCENSUS"
"7/29/2021 12:00:00 AM","Chambers County","Alabama","South","East South Central","01017","32.915504","-85.394032 ","3898","125","0","0","7/28/2021 12:00:00 AM","2019","33254","NYTIMES-USCENSUS"
"7/29/2021 12:00:00 AM","Genesee County","New York","Northeast","Middle Atlantic","36037","43.00091","-78.192778 ","5456","124","3","0","7/28/2021 12:00:00 AM","2019","57280","NYTIMES-USCENSUS"
"7/29/2021 12:00:00 AM","Marquette County","Wisconsin","Midwest","East North Central","55077","43.826053","-89.409095 ","1624","28","0","0","7/28/2021 12:00:00 AM","2019","15574","NYTIMES-USCENSUS"
"7/29/2021 12:00:00 AM","Wapello County","Iowa","Midwest","West North Central","19179","41.031275","-92.409466 ","4402","124","0","0","7/28/2021 12:00:00 AM","2019","34969","NYTIMES-USCENSUS"
"7/29/2021 12:00:00 AM","Itawamba County","Mississippi","South","East South Central","28057","34.281075","-88.363127 ","3141","80","6","0","7/28/2021 12:00:00 AM","2019","23390","NYTIMES-USCENSUS"
"7/29/2021 12:00:00 AM","Guilford County","North Carolina","South","South Atlantic","37081","36.079065","-79.788665 ","49701","731","94","2","7/28/2021 12:00:00 AM","2019","537174","NYTIMES-USCENSUS"
"7/29/2021 12:00:00 AM","Polk County","Iowa","Midwest","West North Central","19153","41.684816","-93.568971 ","59215","646","0","0","7/28/2021 12:00:00 AM","2019","490161","NYTIMES-USCENSUS"
"7/29/2021 12:00:00 AM","Val Verde County","Texas","South","West South Central","48465","29.875285","-101.143324 ","8165","233","0","0","7/28/2021 12:00:00 AM","2019","49025","NYTIMES-USCENSUS"
"7/29/2021 12:00:00 AM","Becker County","Minnesota","Midwest","West North Central","27005","46.937629","-95.741757 ","3899","57","3","0","7/28/2021 12:00:00 AM","2019","34423","NYTIMES-USCENSUS"
"7/29/2021 12:00:00 AM","Lafayette Parish","Louisiana","South","West South Central","22055","30.206507","-92.06417 ","27382","306","206","0","7/28/2021 12:00:00 AM","2019","244390","NYTIMES-USCENSUS"
"7/29/2021 12:00:00 AM","Iron County","Utah","West","Mountain","49021","37.909304","-113.30674 ","6507","37","33","0","7/28/2021 12:00:00 AM","2019","54839","NYTIMES-USCENSUS"
"7/29/2021 12:00:00 AM","Wyoming County","New York","Northeast","Middle Atlantic","36121","42.701363","-78.228567 ","3620","53","0","0","7/28/2021 12:00:00 AM","2019","39859","NYTIMES-USCENSUS"
"7/29/2021 12:00:00 AM","Volusia County","Florida","South","South Atlantic","12127","29.057769","-81.161792 ","49698","846","0","0","7/28/2021 12:00:00 AM","2019","553284","NYTIMES-USCENSUS"
"7/29/2021 12:00:00 AM","Lawrence County","Alabama","South","East South Central","01079","34.529776","-87.321865 ","3225","101","0","0","7/28/2021 12:00:00 AM","2019","32924","NYTIMES-USCENSUS"
"7/29/2021 12:00:00 AM","Muskogee County","Oklahoma","South","West South Central","40101","35.617551","-95.383911 ","9875","179","0","0","7/28/2021 12:00:00 AM","2019","67997","NYTIMES-USCENSUS"
"7/29/2021 12:00:00 AM","Polk County","Tennessee","South","East South Central","47139","35.109437","-84.541112 ","2145","24","7","0","7/28/2021 12:00:00 AM","2019","16832","NYTIMES-USCENSUS"
"7/29/2021 12:00:00 AM","Kingsbury County","South Dakota","Midwest","West North Central","46077","44.362969","-97.499313 ","821","18","0","0","7/28/2021 12:00:00 AM","2019","4939","NYTIMES-USCENSUS"
"7/29/2021 12:00:00 AM","Clay County","Kentucky","South","East South Central","21051","37.164273","-83.715473 ","2978","46","50","0","7/28/2021 12:00:00 AM","2019","19901","NYTIMES-USCENSUS"
"7/29/2021 12:00:00 AM","Maverick County","Texas","South","West South Central","48323","28.729787","-100.316678 ","11139","364","34","0","7/28/2021 12:00:00 AM","2019","58722","NYTIMES-USCENSUS"
"7/29/2021 12:00:00 AM","Wyandotte County","Kansas","Midwest","West North Central","20209","39.115384","-94.763087 ","22164","306","18","0","7/28/2021 12:00:00 AM","2019","165429","NYTIMES-USCENSUS"
"7/29/2021 12:00:00 AM","Clark County","Indiana","Midwest","East North Central","18019","38.476217","-85.711122 ","13616","207","43","0","7/28/2021 12:00:00 AM","2019","118302","NYTIMES-USCENSUS"
"7/29/2021 12:00:00 AM","Miller County","Missouri","Midwest","West North Central","29131","38.21668","-92.429876 ","3134","62","30","0","7/28/2021 12:00:00 AM","2019","25619","NYTIMES-USCENSUS"
"7/29/2021 12:00:00 AM","Hall County","Nebraska","Midwest","West North Central","31079","40.866027","-98.502664 ","7926","120","0","0","7/28/2021 12:00:00 AM","2019","61353","NYTIMES-USCENSUS"
"7/29/2021 12:00:00 AM","Staunton city","Virginia","South","South Atlantic","51790","38.157978","-79.061876 ","2565","70","3","0","7/28/2021 12:00:00 AM","2019","24932","NYTIMES-USCENSUS"
"7/29/2021 12:00:00 AM","Cherokee County","South Carolina","South","South Atlantic","45021","35.049796","-81.607647 ","6365","159","14","0","7/28/2021 12:00:00 AM","2019","57300","NYTIMES-USCENSUS"
"7/29/2021 12:00:00 AM","Custer County","Oklahoma","South","West South Central","40039","35.645601","-98.997386 ","4154","105","0","0","7/28/2021 12:00:00 AM","2019","29003","NYTIMES-USCENSUS"
"7/29/2021 12:00:00 AM","Cooke County","Texas","South","West South Central","48097","33.639196","-97.210343 ","3869","72","18","0","7/28/2021 12:00:00 AM","2019","41257","NYTIMES-USCENSUS"
"7/29/2021 12:00:00 AM","Leon County","Florida","South","South Atlantic","12073","30.45931","-84.2778 ","33980","332","0","0","7/28/2021 12:00:00 AM","2019","293582","NYTIMES-USCENSUS"
"7/29/2021 12:00:00 AM","Augusta County","Virginia","South","South Atlantic","51015","38.17259","-79.140975 ","6026","80","7","0","7/28/2021 12:00:00 AM","2019","75558","NYTIMES-USCENSUS"
"7/29/2021 12:00:00 AM","Daviess County","Missouri","Midwest","West North Central","29061","39.962839","-93.970053 ","803","11","5","0","7/28/2021 12:00:00 AM","2019","8278","NYTIMES-USCENSUS"
"7/29/2021 12:00:00 AM","Monroe County","Kentucky","South","East South Central","21171","36.714077","-85.713508 ","1371","44","5","0","7/28/2021 12:00:00 AM","2019","10650","NYTIMES-USCENSUS"
"7/29/2021 12:00:00 AM","Rockingham County","New Hampshire","Northeast","New England","33015","42.988664","-71.09908 ","24660","270","25","0","7/28/2021 12:00:00 AM","2019","309769","NYTIMES-USCENSUS"
"7/29/2021 12:00:00 AM","Larue County","Kentucky","South","East South Central","21123","37.544462","-85.696841 ","1403","28","2","0","7/28/2021 12:00:00 AM","2019","14398","NYTIMES-USCENSUS"
"7/29/2021 12:00:00 AM","Cannon County","Tennessee","South","East South Central","47015","35.808394","-86.062404 ","1993","32","6","0","7/28/2021 12:00:00 AM","2019","14678","NYTIMES-USCENSUS"
"7/29/2021 12:00:00 AM","Oakland County","Michigan","Midwest","East North Central","26125","42.660452","-83.38421 ","119978","2470","0","0","7/28/2021 12:00:00 AM","2019","1257584","NYTIMES-USCENSUS"
"7/29/2021 12:00:00 AM","Tallahatchie County","Mississippi","South","East South Central","28135","33.954529","-90.172243 ","1837","42","6","0","7/28/2021 12:00:00 AM","2019","13809","NYTIMES-USCENSUS"
"7/29/2021 12:00:00 AM","Stevens County","Kansas","Midwest","West North Central","20189","37.2017","-101.317268 ","587","10","0","0","7/28/2021 12:00:00 AM","2019","5485","NYTIMES-USCENSUS"
"7/29/2021 12:00:00 AM","Dukes County","Massachusetts","Northeast","New England","25007","41.38097","-70.701499 ","1437","0","0","0","7/28/2021 12:00:00 AM","2019","17332","NYTIMES-USCENSUS"
"7/29/2021 12:00:00 AM","Broome County","New York","Northeast","Middle Atlantic","36007","42.161977","-75.830283 ","18776","367","7","0","7/28/2021 12:00:00 AM","2019","190488","NYTIMES-USCENSUS"
"7/29/2021 12:00:00 AM","Juneau County","Wisconsin","Midwest","East North Central","55057","43.932836","-90.113984 ","3374","31","4","0","7/28/2021 12:00:00 AM","2019","26687","NYTIMES-USCENSUS"
"7/29/2021 12:00:00 AM","Manitowoc County","Wisconsin","Midwest","East North Central","55071","44.156137","-87.577352 ","8977","96","5","0","7/28/2021 12:00:00 AM","2019","78981","NYTIMES-USCENSUS"
"7/29/2021 12:00:00 AM","La Plata County","Colorado","West","Mountain","08067","37.287367","-107.839718 ","4294","43","8","1","7/28/2021 12:00:00 AM","2019","56221","NYTIMES-USCENSUS"
"7/29/2021 12:00:00 AM","Chicot County","Arkansas","South","West South Central","05017","33.267139","-91.297158 ","1663","41","7","0","7/28/2021 12:00:00 AM","2019","10118","NYTIMES-USCENSUS"
"7/29/2021 12:00:00 AM","Hyde County","South Dakota","Midwest","West North Central","46069","44.537174","-99.472736 ","140","1","0","0","7/28/2021 12:00:00 AM","2019","1301","NYTIMES-USCENSUS"
"7/29/2021 12:00:00 AM","Adams County","Idaho","West","Mountain","16003","44.877004","-116.461624 ","358","4","1","0","7/28/2021 12:00:00 AM","2019","4294","NYTIMES-USCENSUS"
"7/29/2021 12:00:00 AM","Lanier County","Georgia","South","South Atlantic","13173","31.038197","-83.063164 ","836","14","16","0","7/28/2021 12:00:00 AM","2019","10423","NYTIMES-USCENSUS"
"7/29/2021 12:00:00 AM","Howard County","Maryland","South","South Atlantic","24027","39.252264","-76.924406 ","19584","259","15","0","7/28/2021 12:00:00 AM","2019","325690","NYTIMES-USCENSUS"
"7/29/2021 12:00:00 AM","Shelby County","Kentucky","South","East South Central","21211","38.239011","-85.228247 ","4927","79","20","0","7/28/2021 12:00:00 AM","2019","49024","NYTIMES-USCENSUS"
"7/29/2021 12:00:00 AM","Rowan County","North Carolina","South","South Atlantic","37159","35.641355","-80.521721 ","17744","315","46","0","7/28/2021 12:00:00 AM","2019","142088","NYTIMES-USCENSUS"
"7/29/2021 12:00:00 AM","Amelia County","Virginia","South","South Atlantic","51007","37.331927","-77.977462 ","956","36","2","0","7/28/2021 12:00:00 AM","2019","13145","NYTIMES-USCENSUS"
"7/29/2021 12:00:00 AM","Sherman County","Oregon","West","Pacific","41055","45.399216","-120.678512 ","86","2","5","0","7/28/2021 12:00:00 AM","2019","1780","NYTIMES-USCENSUS"
"7/29/2021 12:00:00 AM","Calhoun County","Michigan","Midwest","East North Central","26025","42.24299","-85.012385 ","14728","320","0","0","7/28/2021 12:00:00 AM","2019","134159","NYTIMES-USCENSUS"
"7/29/2021 12:00:00 AM","Mercer County","Ohio","Midwest","East North Central","39107","40.535333","-84.632059 ","4917","85","0","0","7/28/2021 12:00:00 AM","2019","41172","NYTIMES-USCENSUS"
"7/29/2021 12:00:00 AM","Clay County","West Virginia","South","South Atlantic","54015","38.459826","-81.081866 ","546","11","2","0","7/28/2021 12:00:00 AM","2019","8508","NYTIMES-USCENSUS"
"7/29/2021 12:00:00 AM","Yamhill County","Oregon","West","Pacific","41071","45.247827","-123.316399 ","5062","81","20","0","7/28/2021 12:00:00 AM","2019","107100","NYTIMES-USCENSUS"
"7/29/2021 12:00:00 AM","Marshall County","Oklahoma","South","West South Central","40095","34.027007","-96.770533 ","2141","23","0","0","7/28/2021 12:00:00 AM","2019","16931","NYTIMES-USCENSUS"
"7/29/2021 12:00:00 AM","Keith County","Nebraska","Midwest","West North Central","31101","41.194245","-101.644449 ","713","10","0","0","7/28/2021 12:00:00 AM","2019","8034","NYTIMES-USCENSUS"
"7/29/2021 12:00:00 AM","Dickinson County","Kansas","Midwest","West North Central","20041","38.867735","-97.157943 ","1955","47","0","0","7/28/2021 12:00:00 AM","2019","18466","NYTIMES-USCENSUS"
"7/29/2021 12:00:00 AM","Hamilton County","Illinois","Midwest","East North Central","17065","38.085227","-88.539009 ","906","19","3","0","7/28/2021 12:00:00 AM","2019","8116","NYTIMES-USCENSUS"
"7/29/2021 12:00:00 AM","Woodford County","Illinois","Midwest","East North Central","17203","40.789787","-89.210587 ","4931","96","5","0","7/28/2021 12:00:00 AM","2019","38459","NYTIMES-USCENSUS"
"7/29/2021 12:00:00 AM","Garfield County","Utah","West","Mountain","49017","37.831664","-111.450908 ","482","10","1","0","7/28/2021 12:00:00 AM","2019","5051","NYTIMES-USCENSUS"
"7/29/2021 12:00:00 AM","Fannin County","Georgia","South","South Atlantic","13111","34.866543","-84.317331 ","2574","75","13","0","7/28/2021 12:00:00 AM","2019","26188","NYTIMES-USCENSUS"
"7/29/2021 12:00:00 AM","Anderson County","Tennessee","South","East South Central","47001","36.116731","-84.195418 ","8975","179","16","0","7/28/2021 12:00:00 AM","2019","76978","NYTIMES-USCENSUS"
"7/29/2021 12:00:00 AM","Kent County","Rhode Island","Northeast","New England","44003","41.675118","-71.580282 ","19040","368","0","0","7/28/2021 12:00:00 AM","2019","164292","NYTIMES-USCENSUS"
"7/29/2021 12:00:00 AM","Scott County","Missouri","Midwest","West North Central","29201","37.047793","-89.568098 ","4896","88","13","0","7/28/2021 12:00:00 AM","2019","38280","NYTIMES-USCENSUS"
"7/29/2021 12:00:00 AM","Harrison County","Ohio","Midwest","East North Central","39067","40.292318","-81.091565 ","1154","38","0","0","7/28/2021 12:00:00 AM","2019","15040","NYTIMES-USCENSUS"
"7/29/2021 12:00:00 AM","Bullitt County","Kentucky","South","East South Central","21029","37.969945","-85.702635 ","7727","83","25","0","7/28/2021 12:00:00 AM","2019","81676","NYTIMES-USCENSUS"
"7/29/2021 12:00:00 AM","Webb County","Texas","South","West South Central","48479","27.760799","-99.340752 ","47985","859","0","0","7/28/2021 12:00:00 AM","2019","276652","NYTIMES-USCENSUS"
"7/29/2021 12:00:00 AM","Richmond County","Georgia","South","South Atlantic","13245","33.361486","-82.074998 ","25818","535","74","0","7/28/2021 12:00:00 AM","2019","202518","NYTIMES-USCENSUS"
"7/29/2021 12:00:00 AM","Winchester city","Virginia","South","South Atlantic","51840","39.173869","-78.176356 ","2970","48","3","0","7/28/2021 12:00:00 AM","2019","28078","NYTIMES-USCENSUS"
"7/29/2021 12:00:00 AM","Cecil County","Maryland","South","South Atlantic","24015","39.562354","-75.941585 ","6487","158","9","0","7/28/2021 12:00:00 AM","2019","102855","NYTIMES-USCENSUS"
"7/29/2021 12:00:00 AM","Izard County","Arkansas","South","West South Central","05065","36.094879","-91.913625 ","1938","45","20","0","7/28/2021 12:00:00 AM","2019","13629","NYTIMES-USCENSUS"
"7/29/2021 12:00:00 AM","Loup County","Nebraska","Midwest","West North Central","31115","41.903183","-99.509852 ","34","0","0","0","7/28/2021 12:00:00 AM","2019","664","NYTIMES-USCENSUS"
"7/29/2021 12:00:00 AM","McHenry County","North Dakota","Midwest","West North Central","38049","48.233842","-100.633267 ","669","23","3","0","7/28/2021 12:00:00 AM","2019","5745","NYTIMES-USCENSUS"
"7/29/2021 12:00:00 AM","Fairbanks North Star Borough","Alaska","West","Pacific","02090","64.676044","-146.548159 ","8141","44","0","0","7/28/2021 12:00:00 AM","2019","96849","NYTIMES-USCENSUS"
"7/29/2021 12:00:00 AM","Eagle County","Colorado","West","Mountain","08037","39.626992","-106.695169 ","6512","23","7","0","7/28/2021 12:00:00 AM","2019","55127","NYTIMES-USCENSUS"
"7/29/2021 12:00:00 AM","Mesa County","Colorado","West","Mountain","08077","39.019524","-108.460571 ","18225","267","40","1","7/28/2021 12:00:00 AM","2019","154210","NYTIMES-USCENSUS"
"7/29/2021 12:00:00 AM","Shelby County","Iowa","Midwest","West North Central","19165","41.679014","-95.308917 ","1322","38","0","0","7/28/2021 12:00:00 AM","2019","11454","NYTIMES-USCENSUS"
"7/29/2021 12:00:00 AM","Elk County","Kansas","Midwest","West North Central","20049","37.456026","-96.244642 ","187","5","0","0","7/28/2021 12:00:00 AM","2019","2530","NYTIMES-USCENSUS"
"7/29/2021 12:00:00 AM","Perry County","Tennessee","South","East South Central","47135","35.663752","-87.869326 ","1096","29","3","0","7/28/2021 12:00:00 AM","2019","8076","NYTIMES-USCENSUS"
"7/29/2021 12:00:00 AM","Yuma County","Colorado","West","Mountain","08125","40.00077","-102.421649 ","979","17","0","0","7/28/2021 12:00:00 AM","2019","10019","NYTIMES-USCENSUS"
"7/29/2021 12:00:00 AM","Rio Blanco County","Colorado","West","Mountain","08103","39.972622","-108.200716 ","698","5","4","0","7/28/2021 12:00:00 AM","2019","6324","NYTIMES-USCENSUS"
"7/29/2021 12:00:00 AM","Lafayette County","Missouri","Midwest","West North Central","29107","39.068705","-93.802639 ","3450","58","18","0","7/28/2021 12:00:00 AM","2019","32708","NYTIMES-USCENSUS"
"7/29/2021 12:00:00 AM","Clarke County","Iowa","Midwest","West North Central","19039","41.029726","-93.785259 ","1026","24","0","0","7/28/2021 12:00:00 AM","2019","9395","NYTIMES-USCENSUS"
"7/29/2021 12:00:00 AM","Boulder County","Colorado","West","Mountain","08013","40.094962","-105.397704 ","24775","261","77","0","7/28/2021 12:00:00 AM","2019","326196","NYTIMES-USCENSUS"
"7/29/2021 12:00:00 AM","Macon County","Alabama","South","East South Central","01087","32.387027","-85.692887 ","1687","52","0","0","7/28/2021 12:00:00 AM","2019","18068","NYTIMES-USCENSUS"
"7/29/2021 12:00:00 AM","Monona County","Iowa","Midwest","West North Central","19133","42.049432","-95.956566 ","867","31","0","0","7/28/2021 12:00:00 AM","2019","8615","NYTIMES-USCENSUS"
"7/29/2021 12:00:00 AM","Tattnall County","Georgia","South","South Atlantic","13267","32.043768","-82.059208 ","2536","70","22","1","7/28/2021 12:00:00 AM","2019","25286","NYTIMES-USCENSUS"
"7/29/2021 12:00:00 AM","Sully County","South Dakota","Midwest","West North Central","46119","44.722325","-100.131399 ","146","3","0","0","7/28/2021 12:00:00 AM","2019","1391","NYTIMES-USCENSUS"
"7/29/2021 12:00:00 AM","Waseca County","Minnesota","Midwest","West North Central","27161","44.01846","-93.589844 ","2417","23","5","0","7/28/2021 12:00:00 AM","2019","18612","NYTIMES-USCENSUS"
"7/29/2021 12:00:00 AM","Paulding County","Ohio","Midwest","East North Central","39125","41.118948","-84.582125 ","1802","42","1","0","7/28/2021 12:00:00 AM","2019","18672","NYTIMES-USCENSUS"
"7/29/2021 12:00:00 AM","Clinch County","Georgia","South","South Atlantic","13065","30.917653","-82.702614 ","1017","27","7","0","7/28/2021 12:00:00 AM","2019","6618","NYTIMES-USCENSUS"
"7/29/2021 12:00:00 AM","Brown County","South Dakota","Midwest","West North Central","46013","45.589254","-98.352175 ","5653","95","0","0","7/28/2021 12:00:00 AM","2019","38839","NYTIMES-USCENSUS"
"7/29/2021 12:00:00 AM","Coryell County","Texas","South","West South Central","48099","31.391177","-97.798022 ","7755","89","31","0","7/28/2021 12:00:00 AM","2019","75951","NYTIMES-USCENSUS"
"7/29/2021 12:00:00 AM","Union County","South Dakota","Midwest","West North Central","46127","42.831106","-96.650829 ","2249","43","0","0","7/28/2021 12:00:00 AM","2019","15932","NYTIMES-USCENSUS"
"7/29/2021 12:00:00 AM","Burke County","North Carolina","South","South Atlantic","37023","35.746182","-81.70618 ","10394","164","37","0","7/28/2021 12:00:00 AM","2019","90485","NYTIMES-USCENSUS"
"7/29/2021 12:00:00 AM","Madison County","Montana","West","Mountain","30057","45.32529","-111.913791 ","806","8","0","0","7/28/2021 12:00:00 AM","2019","8600","NYTIMES-USCENSUS"
"7/29/2021 12:00:00 AM","Jackson County","Wisconsin","Midwest","East North Central","55053","44.32459","-90.79951 ","2733","29","1","0","7/28/2021 12:00:00 AM","2019","20643","NYTIMES-USCENSUS"
"7/29/2021 12:00:00 AM","Lehigh County","Pennsylvania","Northeast","Middle Atlantic","42077","40.614241","-75.590627 ","40216","866","31","0","7/28/2021 12:00:00 AM","2019","369318","NYTIMES-USCENSUS"
"7/29/2021 12:00:00 AM","Weld County","Colorado","West","Mountain","08123","40.555961","-104.383666 ","34413","356","68","0","7/28/2021 12:00:00 AM","2019","324492","NYTIMES-USCENSUS"
"7/29/2021 12:00:00 AM","Smith County","Texas","South","West South Central","48423","32.377016","-95.270041 ","21471","492","0","0","7/28/2021 12:00:00 AM","2019","232751","NYTIMES-USCENSUS"
"7/29/2021 12:00:00 AM","Pulaski County","Indiana","Midwest","East North Central","18131","41.045272","-86.692538 ","1240","48","1","0","7/28/2021 12:00:00 AM","2019","12353","NYTIMES-USCENSUS"
"7/29/2021 12:00:00 AM","Choctaw County","Alabama","South","East South Central","01023","31.990954","-88.248889 ","643","25","0","0","7/28/2021 12:00:00 AM","2019","12589","NYTIMES-USCENSUS"
"7/29/2021 12:00:00 AM","Sussex County","Delaware","South","South Atlantic","10005","38.673227","-75.337024 ","26617","504","39","2","7/28/2021 12:00:00 AM","2019","234225","NYTIMES-USCENSUS"
"7/29/2021 12:00:00 AM","San Juan County","Utah","West","Mountain","49037","37.602633","-109.791574 ","1976","37","2","0","7/28/2021 12:00:00 AM","2019","15308","NYTIMES-USCENSUS"
"7/29/2021 12:00:00 AM","White County","Illinois","Midwest","East North Central","17193","38.087326","-88.178623 ","1818","36","12","0","7/28/2021 12:00:00 AM","2019","13537","NYTIMES-USCENSUS"
"7/29/2021 12:00:00 AM","Dewey County","South Dakota","Midwest","West North Central","46041","45.148049","-100.837953 ","1495","29","0","0","7/28/2021 12:00:00 AM","2019","5892","NYTIMES-USCENSUS"
"7/29/2021 12:00:00 AM","Auglaize County","Ohio","Midwest","East North Central","39011","40.561309","-84.224018 ","5083","87","6","0","7/28/2021 12:00:00 AM","2019","45656","NYTIMES-USCENSUS"
"7/29/2021 12:00:00 AM","Randolph County","Arkansas","South","West South Central","05121","36.341298","-91.028441 ","2326","48","10","0","7/28/2021 12:00:00 AM","2019","17958","NYTIMES-USCENSUS"
"7/29/2021 12:00:00 AM","Kodiak Island Borough","Alaska","West","Pacific","02150","57.7044","-153.918372 ","1194","6","0","0","7/28/2021 12:00:00 AM","2019","12998","NYTIMES-USCENSUS"
"7/29/2021 12:00:00 AM","Grafton County","New Hampshire","Northeast","New England","33009","43.926439","-71.842424 ","4136","29","1","0","7/28/2021 12:00:00 AM","2019","89886","NYTIMES-USCENSUS"
"7/29/2021 12:00:00 AM","Adams County","Iowa","Midwest","West North Central","19003","41.021656","-94.696906 ","350","4","0","0","7/28/2021 12:00:00 AM","2019","3602","NYTIMES-USCENSUS"
"7/29/2021 12:00:00 AM","Newport News city","Virginia","South","South Atlantic","51700","37.076136","-76.52198 ","14687","242","41","0","7/28/2021 12:00:00 AM","2019","179225","NYTIMES-USCENSUS"
"7/29/2021 12:00:00 AM","Washburn County","Wisconsin","Midwest","East North Central","55129","45.892489","-91.796422 ","1611","24","3","0","7/28/2021 12:00:00 AM","2019","15720","NYTIMES-USCENSUS"
"7/29/2021 12:00:00 AM","Benton County","Washington","West","Pacific","53005","46.228125","-119.516659 ","19483","236","66","1","7/28/2021 12:00:00 AM","2019","204390","NYTIMES-USCENSUS"
"7/29/2021 12:00:00 AM","Gilchrist County","Florida","South","South Atlantic","12041","29.723456","-82.795801 ","1769","44","0","0","7/28/2021 12:00:00 AM","2019","18582","NYTIMES-USCENSUS"
"7/29/2021 12:00:00 AM","Kalamazoo County","Michigan","Midwest","East North Central","26077","42.246266","-85.532854 ","23406","403","0","0","7/28/2021 12:00:00 AM","2019","265066","NYTIMES-USCENSUS"
"7/29/2021 12:00:00 AM","Custer County","Colorado","West","Mountain","08027","38.101996","-105.373512 ","237","2","0","0","7/28/2021 12:00:00 AM","2019","5068","NYTIMES-USCENSUS"
"7/29/2021 12:00:00 AM","Sedgwick County","Kansas","Midwest","West North Central","20173","37.681045","-97.461054 ","59650","810","0","0","7/28/2021 12:00:00 AM","2019","516042","NYTIMES-USCENSUS"
"7/29/2021 12:00:00 AM","Potter County","Texas","South","West South Central","48375","35.398675","-101.893804 ","18216","466","58","1","7/28/2021 12:00:00 AM","2019","117415","NYTIMES-USCENSUS"
"7/29/2021 12:00:00 AM","Wayne County","Mississippi","South","East South Central","28153","31.642503","-88.678214 ","2761","43","7","0","7/28/2021 12:00:00 AM","2019","20183","NYTIMES-USCENSUS"
"7/29/2021 12:00:00 AM","Cheatham County","Tennessee","South","East South Central","47021","36.255169","-87.100808 ","4764","56","15","0","7/28/2021 12:00:00 AM","2019","40667","NYTIMES-USCENSUS"
"7/29/2021 12:00:00 AM","Delta County","Michigan","Midwest","East North Central","26041","45.805229","-86.901938 ","4085","95","0","0","7/28/2021 12:00:00 AM","2019","35784","NYTIMES-USCENSUS"
"7/29/2021 12:00:00 AM","Coffee County","Alabama","South","East South Central","01031","31.402258","-85.989602 ","6163","132","0","0","7/28/2021 12:00:00 AM","2019","52342","NYTIMES-USCENSUS"
"7/29/2021 12:00:00 AM","Terry County","Texas","South","West South Central","48445","33.171229","-102.339284 ","1711","57","4","0","7/28/2021 12:00:00 AM","2019","12337","NYTIMES-USCENSUS"
"7/29/2021 12:00:00 AM","Lincoln County","Wisconsin","Midwest","East North Central","55069","45.333148","-89.73224 ","3308","97","3","0","7/28/2021 12:00:00 AM","2019","27593","NYTIMES-USCENSUS"
"7/29/2021 12:00:00 AM","Pender County","North Carolina","South","South Atlantic","37141","34.512556","-77.888106 ","5797","69","25","0","7/28/2021 12:00:00 AM","2019","63060","NYTIMES-USCENSUS"
"7/29/2021 12:00:00 AM","Stone County","Arkansas","South","West South Central","05137","35.857001","-92.140482 ","1237","32","21","0","7/28/2021 12:00:00 AM","2019","12506","NYTIMES-USCENSUS"
"7/29/2021 12:00:00 AM","Carbon County","Pennsylvania","Northeast","Middle Atlantic","42025","40.918367","-75.705039 ","6454","176","6","0","7/28/2021 12:00:00 AM","2019","64182","NYTIMES-USCENSUS"
"7/29/2021 12:00:00 AM","Knox County","Nebraska","Midwest","West North Central","31107","42.634404","-97.891349 ","1159","13","0","0","7/28/2021 12:00:00 AM","2019","8332","NYTIMES-USCENSUS"
"7/29/2021 12:00:00 AM","Des Moines County","Iowa","Midwest","West North Central","19057","40.915339","-91.186925 ","4817","76","0","0","7/28/2021 12:00:00 AM","2019","38967","NYTIMES-USCENSUS"
"7/29/2021 12:00:00 AM","Roanoke city","Virginia","South","South Atlantic","51770","37.278458","-79.958174 ","8865","200","19","0","7/28/2021 12:00:00 AM","2019","99143","NYTIMES-USCENSUS"
"7/29/2021 12:00:00 AM","Wahkiakum County","Washington","West","Pacific","53069","46.294638","-123.424458 ","163","3","0","0","7/28/2021 12:00:00 AM","2019","4488","NYTIMES-USCENSUS"
"7/29/2021 12:00:00 AM","Bedford County","Pennsylvania","Northeast","Middle Atlantic","42009","39.998634","-78.494747 ","4752","142","3","0","7/28/2021 12:00:00 AM","2019","47888","NYTIMES-USCENSUS"
"7/29/2021 12:00:00 AM","Bent County","Colorado","West","Mountain","08011","37.931891","-103.077584 ","1550","22","0","0","7/28/2021 12:00:00 AM","2019","5577","NYTIMES-USCENSUS"
"7/29/2021 12:00:00 AM","Adams County","Ohio","Midwest","East North Central","39001","38.834468","-83.478082 ","2516","58","7","0","7/28/2021 12:00:00 AM","2019","27698","NYTIMES-USCENSUS"
"7/29/2021 12:00:00 AM","Whitley County","Kentucky","South","East South Central","21235","36.758024","-84.144648 ","4328","62","24","0","7/28/2021 12:00:00 AM","2019","36264","NYTIMES-USCENSUS"
"7/29/2021 12:00:00 AM","Boone County","Missouri","Midwest","West North Central","29019","38.989861","-92.310202 ","20918","118","130","0","7/28/2021 12:00:00 AM","2019","180463","NYTIMES-USCENSUS"
"7/29/2021 12:00:00 AM","Beaufort County","North Carolina","South","South Atlantic","37013","35.482313","-76.842014 ","4876","103","14","0","7/28/2021 12:00:00 AM","2019","46994","NYTIMES-USCENSUS"
"7/29/2021 12:00:00 AM","Laramie County","Wyoming","West","Mountain","56021","41.29283","-104.660395 ","11470","130","55","0","7/28/2021 12:00:00 AM","2019","99500","NYTIMES-USCENSUS"
"7/29/2021 12:00:00 AM","Polk County","Nebraska","Midwest","West North Central","31143","41.187925","-97.570663 ","593","18","0","0","7/28/2021 12:00:00 AM","2019","5213","NYTIMES-USCENSUS"
"7/29/2021 12:00:00 AM","Iron County","Wisconsin","Midwest","East North Central","55051","46.32655","-90.261298 ","720","42","3","0","7/28/2021 12:00:00 AM","2019","5687","NYTIMES-USCENSUS"
"7/29/2021 12:00:00 AM","Wayne County","Kentucky","South","East South Central","21231","36.800772","-84.82659 ","2267","50","0","0","7/28/2021 12:00:00 AM","2019","20333","NYTIMES-USCENSUS"
"7/29/2021 12:00:00 AM","Lenoir County","North Carolina","South","South Atlantic","37107","35.240066","-77.635514 ","6373","128","22","0","7/28/2021 12:00:00 AM","2019","55949","NYTIMES-USCENSUS"
"7/29/2021 12:00:00 AM","Letcher County","Kentucky","South","East South Central","21133","37.118536","-82.861251 ","2138","46","25","0","7/28/2021 12:00:00 AM","2019","21553","NYTIMES-USCENSUS"
"7/29/2021 12:00:00 AM","Wright County","Minnesota","Midwest","West North Central","27171","45.175091","-93.966396 ","16603","153","14","0","7/28/2021 12:00:00 AM","2019","138377","NYTIMES-USCENSUS"
"7/29/2021 12:00:00 AM","Branch County","Michigan","Midwest","East North Central","26023","41.918455","-85.066885 ","5898","121","0","0","7/28/2021 12:00:00 AM","2019","43517","NYTIMES-USCENSUS"
"7/29/2021 12:00:00 AM","Green County","Wisconsin","Midwest","East North Central","55045","42.675522","-89.605074 ","3686","26","1","0","7/28/2021 12:00:00 AM","2019","36960","NYTIMES-USCENSUS"
"7/29/2021 12:00:00 AM","Atoka County","Oklahoma","South","West South Central","40005","34.392469","-96.036558 ","1935","28","0","0","7/28/2021 12:00:00 AM","2019","13758","NYTIMES-USCENSUS"
"7/29/2021 12:00:00 AM","Brown County","Kansas","Midwest","West North Central","20013","39.825931","-95.569905 ","1281","39","0","0","7/28/2021 12:00:00 AM","2019","9564","NYTIMES-USCENSUS"
"7/29/2021 12:00:00 AM","Highlands County","Florida","South","South Atlantic","12055","27.34108","-81.342353 ","9151","366","0","0","7/28/2021 12:00:00 AM","2019","106221","NYTIMES-USCENSUS"
"7/29/2021 12:00:00 AM","Hill County","Texas","South","West South Central","48217","31.982681","-97.130668 ","4663","111","9","0","7/28/2021 12:00:00 AM","2019","36649","NYTIMES-USCENSUS"
"7/29/2021 12:00:00 AM","Howell County","Missouri","Midwest","West North Central","29091","36.774369","-91.887368 ","4429","50","102","0","7/28/2021 12:00:00 AM","2019","40117","NYTIMES-USCENSUS"
"7/29/2021 12:00:00 AM","Henry County","Alabama","South","East South Central","01067","31.516978","-85.239971 ","2092","45","0","0","7/28/2021 12:00:00 AM","2019","17205","NYTIMES-USCENSUS"
"7/29/2021 12:00:00 AM","Chester County","South Carolina","South","South Atlantic","45023","34.689342","-81.161249 ","4416","79","19","0","7/28/2021 12:00:00 AM","2019","32244","NYTIMES-USCENSUS"
"7/29/2021 12:00:00 AM","Lake County","Michigan","Midwest","East North Central","26085","43.995187","-85.8114 ","641","17","0","0","7/28/2021 12:00:00 AM","2019","11853","NYTIMES-USCENSUS"
"7/29/2021 12:00:00 AM","Nottoway County","Virginia","South","South Atlantic","51135","37.141167","-78.053866 ","1979","51","4","0","7/28/2021 12:00:00 AM","2019","15232","NYTIMES-USCENSUS"
"7/29/2021 12:00:00 AM","Bulloch County","Georgia","South","South Atlantic","13031","32.394481","-81.741618 ","7158","122","23","0","7/28/2021 12:00:00 AM","2019","79608","NYTIMES-USCENSUS"
"7/29/2021 12:00:00 AM","St. Louis County","Minnesota","Midwest","West North Central","27137","47.578635","-92.514593 ","18329","319","17","0","7/28/2021 12:00:00 AM","2019","199070","NYTIMES-USCENSUS"
"7/29/2021 12:00:00 AM","Davidson County","Tennessee","South","East South Central","47037","36.169129","-86.78479 ","101428","962","0","0","7/28/2021 12:00:00 AM","2019","694144","NYTIMES-USCENSUS"
"7/29/2021 12:00:00 AM","Monroe County","Arkansas","South","West South Central","05095","34.679512","-91.20331 ","958","19","6","0","7/28/2021 12:00:00 AM","2019","6701","NYTIMES-USCENSUS"
"7/29/2021 12:00:00 AM","Scott County","Iowa","Midwest","West North Central","19163","41.642079","-90.622289 ","20530","250","0","0","7/28/2021 12:00:00 AM","2019","172943","NYTIMES-USCENSUS"
"7/29/2021 12:00:00 AM","White County","Indiana","Midwest","East North Central","18181","40.75095","-86.864293 ","3408","55","6","0","7/28/2021 12:00:00 AM","2019","24102","NYTIMES-USCENSUS"
"7/29/2021 12:00:00 AM","Lincoln County","Colorado","West","Mountain","08073","38.99374","-103.507555 ","1044","4","1","0","7/28/2021 12:00:00 AM","2019","5701","NYTIMES-USCENSUS"
"7/29/2021 12:00:00 AM","Delaware County","Iowa","Midwest","West North Central","19055","42.472937","-91.366767 ","2133","43","0","0","7/28/2021 12:00:00 AM","2019","17011","NYTIMES-USCENSUS"
"7/29/2021 12:00:00 AM","Riley County","Kansas","Midwest","West North Central","20161","39.291211","-96.727489 ","7038","49","0","0","7/28/2021 12:00:00 AM","2019","74232","NYTIMES-USCENSUS"
"7/29/2021 12:00:00 AM","Henry County","Ohio","Midwest","East North Central","39069","41.331584","-84.0689 ","2776","67","2","0","7/28/2021 12:00:00 AM","2019","27006","NYTIMES-USCENSUS"
"7/29/2021 12:00:00 AM","Tippecanoe County","Indiana","Midwest","East North Central","18157","40.389133","-86.893554 ","23551","234","41","1","7/28/2021 12:00:00 AM","2019","195732","NYTIMES-USCENSUS"
"7/29/2021 12:00:00 AM","Gregg County","Texas","South","West South Central","48183","32.486401","-94.816277 ","11887","364","0","1","7/28/2021 12:00:00 AM","2019","123945","NYTIMES-USCENSUS"
"7/29/2021 12:00:00 AM","Clay County","Florida","South","South Atlantic","12019","29.986584","-81.865036 ","22137","352","0","0","7/28/2021 12:00:00 AM","2019","219252","NYTIMES-USCENSUS"
"7/29/2021 12:00:00 AM","Macon County","North Carolina","South","South Atlantic","37113","35.152959","-83.421901 ","3198","41","0","0","7/28/2021 12:00:00 AM","2019","35858","NYTIMES-USCENSUS"
"7/29/2021 12:00:00 AM","Newton County","Mississippi","South","East South Central","28101","32.40197","-89.118412 ","2615","64","13","0","7/28/2021 12:00:00 AM","2019","21018","NYTIMES-USCENSUS"
"7/29/2021 12:00:00 AM","Grundy County","Tennessee","South","East South Central","47061","35.393386","-85.710379 ","1847","35","6","0","7/28/2021 12:00:00 AM","2019","13427","NYTIMES-USCENSUS"
"7/29/2021 12:00:00 AM","Emmet County","Iowa","Midwest","West North Central","19063","43.377984","-94.66937 ","1373","41","0","0","7/28/2021 12:00:00 AM","2019","9208","NYTIMES-USCENSUS"
"7/29/2021 12:00:00 AM","Greenlee County","Arizona","West","Mountain","04011","33.238872","-109.242323 ","606","10","0","0","7/28/2021 12:00:00 AM","2019","9498","NYTIMES-USCENSUS"
"7/29/2021 12:00:00 AM","Butler County","Alabama","South","East South Central","01013","31.751667","-86.681969 ","2382","72","0","0","7/28/2021 12:00:00 AM","2019","19448","NYTIMES-USCENSUS"
"7/29/2021 12:00:00 AM","Okaloosa County","Florida","South","South Atlantic","12091","30.614325","-86.59108 ","21979","367","0","0","7/28/2021 12:00:00 AM","2019","210738","NYTIMES-USCENSUS"
"7/29/2021 12:00:00 AM","Brevard County","Florida","South","South Atlantic","12009","28.298311","-80.700333 ","48006","914","0","0","7/28/2021 12:00:00 AM","2019","601942","NYTIMES-USCENSUS"
"7/29/2021 12:00:00 AM","La Crosse County","Wisconsin","Midwest","East North Central","55063","43.908222","-91.111758 ","13647","93","12","1","7/28/2021 12:00:00 AM","2019","118016","NYTIMES-USCENSUS"
"7/29/2021 12:00:00 AM","Cass County","Illinois","Midwest","East North Central","17017","39.969202","-90.245704 ","2111","36","4","0","7/28/2021 12:00:00 AM","2019","12147","NYTIMES-USCENSUS"
"7/29/2021 12:00:00 AM","Echols County","Georgia","South","South Atlantic","13101","30.714008","-82.897376 ","529","9","12","0","7/28/2021 12:00:00 AM","2019","4006","NYTIMES-USCENSUS"
"7/29/2021 12:00:00 AM","Jefferson County","Indiana","Midwest","East North Central","18077","38.783604","-85.44009 ","3454","88","19","0","7/28/2021 12:00:00 AM","2019","32308","NYTIMES-USCENSUS"
"7/29/2021 12:00:00 AM","Lander County","Nevada","West","Mountain","32015","39.90021","-117.04724 ","484","9","0","0","7/28/2021 12:00:00 AM","2019","5532","NYTIMES-USCENSUS"
"7/29/2021 12:00:00 AM","Lake County","Illinois","Midwest","East North Central","17097","42.185968","-87.805939 ","69258","1099","52","1","7/28/2021 12:00:00 AM","2019","696535","NYTIMES-USCENSUS"
"7/29/2021 12:00:00 AM","Iberia Parish","Louisiana","South","West South Central","22045","29.606013","-91.842706 ","8391","166","78","0","7/28/2021 12:00:00 AM","2019","69830","NYTIMES-USCENSUS"
"7/29/2021 12:00:00 AM","Pittsylvania County","Virginia","South","South Atlantic","51143","36.821721","-79.398502 ","5755","85","9","0","7/28/2021 12:00:00 AM","2019","60354","NYTIMES-USCENSUS"
"7/29/2021 12:00:00 AM","Garfield County","Nebraska","Midwest","West North Central","31071","41.906868","-98.951231 ","156","1","0","0","7/28/2021 12:00:00 AM","2019","1969","NYTIMES-USCENSUS"
"7/29/2021 12:00:00 AM","York County","Virginia","South","South Atlantic","51199","37.220914","-76.395533 ","3922","59","11","0","7/28/2021 12:00:00 AM","2019","68280","NYTIMES-USCENSUS"
"7/29/2021 12:00:00 AM","Rockdale County","Georgia","South","South Atlantic","13247","33.652081","-84.02637 ","8311","181","49","0","7/28/2021 12:00:00 AM","2019","90896","NYTIMES-USCENSUS"
"7/29/2021 12:00:00 AM","Calhoun County","Alabama","South","East South Central","01015","33.770516","-85.827909 ","15252","332","0","0","7/28/2021 12:00:00 AM","2019","113605","NYTIMES-USCENSUS"
"7/29/2021 12:00:00 AM","St. Clair County","Missouri","Midwest","West North Central","29185","38.04223","-93.77656 ","940","8","11","0","7/28/2021 12:00:00 AM","2019","9397","NYTIMES-USCENSUS"
"7/29/2021 12:00:00 AM","Winnebago County","Wisconsin","Midwest","East North Central","55139","44.085707","-88.668149 ","21694","229","25","0","7/28/2021 12:00:00 AM","2019","171907","NYTIMES-USCENSUS"
"7/29/2021 12:00:00 AM","White County","Arkansas","South","West South Central","05145","35.255118","-91.753034 ","9473","132","85","0","7/28/2021 12:00:00 AM","2019","78753","NYTIMES-USCENSUS"
"7/29/2021 12:00:00 AM","Tuscaloosa County","Alabama","South","East South Central","01125","33.29022","-87.522783 ","26915","465","0","0","7/28/2021 12:00:00 AM","2019","209355","NYTIMES-USCENSUS"
"7/29/2021 12:00:00 AM","Gaines County","Texas","South","West South Central","48165","32.743942","-102.631561 ","1486","46","9","0","7/28/2021 12:00:00 AM","2019","21492","NYTIMES-USCENSUS"
"7/29/2021 12:00:00 AM","Oneida County","Wisconsin","Midwest","East North Central","55085","45.716176","-89.534533 ","3870","80","2","0","7/28/2021 12:00:00 AM","2019","35595","NYTIMES-USCENSUS"
"7/29/2021 12:00:00 AM","Garland County","Arkansas","South","West South Central","05051","34.578852","-93.146932 ","11923","271","131","1","7/28/2021 12:00:00 AM","2019","99386","NYTIMES-USCENSUS"
"7/29/2021 12:00:00 AM","Toole County","Montana","West","Mountain","30101","48.645125","-111.733472 ","756","11","5","0","7/28/2021 12:00:00 AM","2019","4736","NYTIMES-USCENSUS"
"7/29/2021 12:00:00 AM","Bradford County","Pennsylvania","Northeast","Middle Atlantic","42015","41.791504","-76.502123 ","6160","96","1","0","7/28/2021 12:00:00 AM","2019","60323","NYTIMES-USCENSUS"
"7/29/2021 12:00:00 AM","Natchitoches Parish","Louisiana","South","West South Central","22069","31.732509","-93.082546 ","4399","95","42","0","7/28/2021 12:00:00 AM","2019","38158","NYTIMES-USCENSUS"
"7/29/2021 12:00:00 AM","Perry County","Kentucky","South","East South Central","21193","37.241282","-83.217772 ","2929","66","3","0","7/28/2021 12:00:00 AM","2019","25758","NYTIMES-USCENSUS"
"7/29/2021 12:00:00 AM","Daviess County","Indiana","Midwest","East North Central","18027","38.69609","-87.076943 ","3096","102","5","0","7/28/2021 12:00:00 AM","2019","33351","NYTIMES-USCENSUS"
"7/29/2021 12:00:00 AM","Wasatch County","Utah","West","Mountain","49051","40.334884","-111.161568 ","4894","22","11","0","7/28/2021 12:00:00 AM","2019","34091","NYTIMES-USCENSUS"
"7/29/2021 12:00:00 AM","Blount County","Alabama","South","East South Central","01009","33.977358","-86.56644 ","7266","139","0","0","7/28/2021 12:00:00 AM","2019","57826","NYTIMES-USCENSUS"
"7/29/2021 12:00:00 AM","Yancey County","North Carolina","South","South Atlantic","37199","35.889326","-82.303954 ","1696","28","15","0","7/28/2021 12:00:00 AM","2019","18069","NYTIMES-USCENSUS"
"7/29/2021 12:00:00 AM","Rutland County","Vermont","Northeast","New England","50021","43.580858","-73.038202 ","2328","20","1","0","7/28/2021 12:00:00 AM","2019","58191","NYTIMES-USCENSUS"
"7/29/2021 12:00:00 AM","Covington County","Mississippi","South","East South Central","28031","31.633331","-89.548897 ","2918","83","22","0","7/28/2021 12:00:00 AM","2019","18636","NYTIMES-USCENSUS"
"7/29/2021 12:00:00 AM","Durham County","North Carolina","South","South Atlantic","37063","36.033828","-78.878125 ","26546","239","47","0","7/28/2021 12:00:00 AM","2019","321488","NYTIMES-USCENSUS"
"7/29/2021 12:00:00 AM","Hawkins County","Tennessee","South","East South Central","47073","36.452089","-82.931485 ","6493","115","17","0","7/28/2021 12:00:00 AM","2019","56786","NYTIMES-USCENSUS"
"7/29/2021 12:00:00 AM","Antelope County","Nebraska","Midwest","West North Central","31003","42.183225","-98.058037 ","622","8","0","0","7/28/2021 12:00:00 AM","2019","6298","NYTIMES-USCENSUS"
"7/29/2021 12:00:00 AM","Leflore County","Mississippi","South","East South Central","28083","33.54979","-90.294934 ","3619","125","21","0","7/28/2021 12:00:00 AM","2019","28183","NYTIMES-USCENSUS"
"7/29/2021 12:00:00 AM","Rock County","Wisconsin","Midwest","East North Central","55105","42.66988","-89.075284 ","18611","211","26","1","7/28/2021 12:00:00 AM","2019","163354","NYTIMES-USCENSUS"
"7/29/2021 12:00:00 AM","Clinton County","Iowa","Midwest","West North Central","19045","41.898073","-90.534243 ","5658","94","0","0","7/28/2021 12:00:00 AM","2019","46429","NYTIMES-USCENSUS"
"7/29/2021 12:00:00 AM","Genesee County","Michigan","Midwest","East North Central","26049","43.021077","-83.706372 ","42026","977","0","0","7/28/2021 12:00:00 AM","2019","405813","NYTIMES-USCENSUS"
"7/29/2021 12:00:00 AM","Sioux County","Iowa","Midwest","West North Central","19167","43.082646","-96.17801 ","5205","74","0","0","7/28/2021 12:00:00 AM","2019","34855","NYTIMES-USCENSUS"
"7/29/2021 12:00:00 AM","Macon County","Tennessee","South","East South Central","47111","36.537757","-86.00096 ","3717","78","11","0","7/28/2021 12:00:00 AM","2019","24602","NYTIMES-USCENSUS"
"7/29/2021 12:00:00 AM","Sweetwater County","Wyoming","West","Mountain","56037","41.660328","-108.875677 ","4990","44","22","0","7/28/2021 12:00:00 AM","2019","42343","NYTIMES-USCENSUS"
"7/29/2021 12:00:00 AM","Clay County","Kansas","Midwest","West North Central","20027","39.344964","-97.168853 ","859","30","0","0","7/28/2021 12:00:00 AM","2019","8002","NYTIMES-USCENSUS"
"7/29/2021 12:00:00 AM","Charlotte County","Florida","South","South Atlantic","12015","26.906396","-82.003657 ","14060","437","0","0","7/28/2021 12:00:00 AM","2019","188910","NYTIMES-USCENSUS"
"7/29/2021 12:00:00 AM","Sauk County","Wisconsin","Midwest","East North Central","55111","43.428001","-89.943318 ","6353","58","16","0","7/28/2021 12:00:00 AM","2019","64442","NYTIMES-USCENSUS"
"7/29/2021 12:00:00 AM","Riverside County","California","West","Pacific","06065","33.729828","-116.002239 ","315080","4659","594","0","7/28/2021 12:00:00 AM","2019","2470546","NYTIMES-USCENSUS"
"7/29/2021 12:00:00 AM","Newberry County","South Carolina","South","South Atlantic","45071","34.289881","-81.599676 ","5214","108","24","0","7/28/2021 12:00:00 AM","2019","38440","NYTIMES-USCENSUS"
"7/29/2021 12:00:00 AM","Blair County","Pennsylvania","Northeast","Middle Atlantic","42013","40.498683","-78.309597 ","13565","344","8","0","7/28/2021 12:00:00 AM","2019","121829","NYTIMES-USCENSUS"
"7/29/2021 12:00:00 AM","Chesapeake city","Virginia","South","South Atlantic","51550","36.679376","-76.301788 ","21786","311","46","0","7/28/2021 12:00:00 AM","2019","244835","NYTIMES-USCENSUS"
"7/29/2021 12:00:00 AM","Highland County","Ohio","Midwest","East North Central","39071","39.184422","-83.601359 ","3672","68","6","0","7/28/2021 12:00:00 AM","2019","43161","NYTIMES-USCENSUS"
"7/29/2021 12:00:00 AM","Union County","Tennessee","South","East South Central","47173","36.28414","-83.836088 ","1989","34","6","0","7/28/2021 12:00:00 AM","2019","19972","NYTIMES-USCENSUS"
"7/29/2021 12:00:00 AM","Delaware County","Ohio","Midwest","East North Central","39041","40.278941","-83.007462 ","19188","138","19","0","7/28/2021 12:00:00 AM","2019","209177","NYTIMES-USCENSUS"
"7/29/2021 12:00:00 AM","Stark County","North Dakota","Midwest","West North Central","38089","46.817031","-102.662026 ","5018","52","5","0","7/28/2021 12:00:00 AM","2019","31489","NYTIMES-USCENSUS"
"7/29/2021 12:00:00 AM","Wayne County","New York","Northeast","Middle Atlantic","36117","43.218114","-77.049402 ","5845","73","4","0","7/28/2021 12:00:00 AM","2019","89918","NYTIMES-USCENSUS"
"7/29/2021 12:00:00 AM","Colleton County","South Carolina","South","South Atlantic","45029","32.835018","-80.655244 ","3837","134","14","0","7/28/2021 12:00:00 AM","2019","37677","NYTIMES-USCENSUS"
"7/29/2021 12:00:00 AM","Iroquois County","Illinois","Midwest","East North Central","17075","40.748867","-87.833601 ","3303","70","2","0","7/28/2021 12:00:00 AM","2019","27114","NYTIMES-USCENSUS"
"7/29/2021 12:00:00 AM","Madison County","Missouri","Midwest","West North Central","29123","37.474481","-90.343413 ","1733","16","6","0","7/28/2021 12:00:00 AM","2019","12088","NYTIMES-USCENSUS"
"7/29/2021 12:00:00 AM","McDowell County","North Carolina","South","South Atlantic","37111","35.682271","-82.048044 ","5389","63","5","0","7/28/2021 12:00:00 AM","2019","45756","NYTIMES-USCENSUS"
"7/29/2021 12:00:00 AM","Nevada County","California","West","Pacific","06057","39.297508","-120.771343 ","5534","75","22","0","7/28/2021 12:00:00 AM","2019","99755","NYTIMES-USCENSUS"
"7/29/2021 12:00:00 AM","Salem County","New Jersey","Northeast","Middle Atlantic","34033","39.573828","-75.357356 ","6208","189","9","0","7/28/2021 12:00:00 AM","2019","62385","NYTIMES-USCENSUS"
"7/29/2021 12:00:00 AM","Brooke County","West Virginia","South","South Atlantic","54009","40.272645","-80.578691 ","2269","60","0","0","7/28/2021 12:00:00 AM","2019","21939","NYTIMES-USCENSUS"
"7/29/2021 12:00:00 AM","DeKalb County","Missouri","Midwest","West North Central","29063","39.894665","-94.40719 ","1222","33","6","0","7/28/2021 12:00:00 AM","2019","12547","NYTIMES-USCENSUS"
"7/29/2021 12:00:00 AM","Ouray County","Colorado","West","Mountain","08091","38.154731","-107.78848 ","312","4","1","0","7/28/2021 12:00:00 AM","2019","4952","NYTIMES-USCENSUS"
"7/29/2021 12:00:00 AM","Kiowa County","Oklahoma","South","West South Central","40075","34.921489","-98.981617 ","837","27","0","0","7/28/2021 12:00:00 AM","2019","8708","NYTIMES-USCENSUS"
"7/29/2021 12:00:00 AM","Franklin County","Nebraska","Midwest","West North Central","31061","40.183203","-98.96208 ","239","4","0","0","7/28/2021 12:00:00 AM","2019","2979","NYTIMES-USCENSUS"
"7/29/2021 12:00:00 AM","Rice County","Kansas","Midwest","West North Central","20159","38.347178","-98.201415 ","1093","12","0","0","7/28/2021 12:00:00 AM","2019","9537","NYTIMES-USCENSUS"
"7/29/2021 12:00:00 AM","Jackson County","Ohio","Midwest","East North Central","39079","39.013477","-82.614142 ","3225","54","6","0","7/28/2021 12:00:00 AM","2019","32413","NYTIMES-USCENSUS"
"7/29/2021 12:00:00 AM","Craig County","Oklahoma","South","West South Central","40035","36.76389","-95.201553 ","2255","18","0","0","7/28/2021 12:00:00 AM","2019","14142","NYTIMES-USCENSUS"
"7/29/2021 12:00:00 AM","Curry County","Oregon","West","Pacific","41015","42.466439","-124.210929 ","779","12","11","0","7/28/2021 12:00:00 AM","2019","22925","NYTIMES-USCENSUS"
"7/29/2021 12:00:00 AM","Liberty County","Georgia","South","South Atlantic","13179","31.807458","-81.457871 ","4479","68","36","0","7/28/2021 12:00:00 AM","2019","61435","NYTIMES-USCENSUS"
"7/29/2021 12:00:00 AM","Wayne County","Michigan","Midwest","East North Central","26163","42.284664","-83.261953 ","167651","5208","0","0","7/28/2021 12:00:00 AM","2019","1749343","NYTIMES-USCENSUS"
"7/29/2021 12:00:00 AM","Niagara County","New York","Northeast","Middle Atlantic","36063","43.272672","-78.812943 ","20228","375","19","0","7/28/2021 12:00:00 AM","2019","209281","NYTIMES-USCENSUS"
"7/29/2021 12:00:00 AM","Bon Homme County","South Dakota","Midwest","West North Central","46009","42.985799","-97.884199 ","1554","29","0","0","7/28/2021 12:00:00 AM","2019","6901","NYTIMES-USCENSUS"
"7/29/2021 12:00:00 AM","Grady County","Oklahoma","South","West South Central","40051","35.021058","-97.88689 ","6110","130","0","0","7/28/2021 12:00:00 AM","2019","55834","NYTIMES-USCENSUS"
"7/29/2021 12:00:00 AM","St. John the Baptist Parish","Louisiana","South","West South Central","22095","30.144068","-90.49096 ","4454","142","50","1","7/28/2021 12:00:00 AM","2019","42837","NYTIMES-USCENSUS"
"7/29/2021 12:00:00 AM","Washington County","Minnesota","Midwest","West North Central","27163","45.037929","-92.890117 ","27780","296","28","0","7/28/2021 12:00:00 AM","2019","262440","NYTIMES-USCENSUS"
"7/29/2021 12:00:00 AM","Spencer County","Kentucky","South","East South Central","21215","38.025411","-85.317174 ","1703","25","7","0","7/28/2021 12:00:00 AM","2019","19351","NYTIMES-USCENSUS"
"7/29/2021 12:00:00 AM","Duval County","Texas","South","West South Central","48131","27.681123","-98.497393 ","1373","42","6","0","7/28/2021 12:00:00 AM","2019","11157","NYTIMES-USCENSUS"
"7/29/2021 12:00:00 AM","Grand Forks County","North Dakota","Midwest","West North Central","38035","47.926003","-97.450851 ","10750","79","3","0","7/28/2021 12:00:00 AM","2019","69451","NYTIMES-USCENSUS"
"7/29/2021 12:00:00 AM","Madison County","New York","Northeast","Middle Atlantic","36053","42.910026","-75.663575 ","4605","89","1","0","7/28/2021 12:00:00 AM","2019","70941","NYTIMES-USCENSUS"
"7/29/2021 12:00:00 AM","Catawba County","North Carolina","South","South Atlantic","37035","35.661883","-81.214906 ","20300","311","38","0","7/28/2021 12:00:00 AM","2019","159551","NYTIMES-USCENSUS"
"7/29/2021 12:00:00 AM","Baker County","Oregon","West","Pacific","41001","44.703427","-117.691933 ","1093","17","11","0","7/28/2021 12:00:00 AM","2019","16124","NYTIMES-USCENSUS"
"7/29/2021 12:00:00 AM","Pondera County","Montana","West","Mountain","30073","48.228604","-112.220761 ","517","3","4","0","7/28/2021 12:00:00 AM","2019","5911","NYTIMES-USCENSUS"
"7/29/2021 12:00:00 AM","Pike County","Georgia","South","South Atlantic","13231","33.081149","-84.389462 ","2454","44","12","0","7/28/2021 12:00:00 AM","2019","18962","NYTIMES-USCENSUS"
"7/29/2021 12:00:00 AM","Mercer County","Illinois","Midwest","East North Central","17131","41.205605","-90.74177 ","1524","34","0","0","7/28/2021 12:00:00 AM","2019","15437","NYTIMES-USCENSUS"
"7/29/2021 12:00:00 AM","Centre County","Pennsylvania","Northeast","Middle Atlantic","42027","40.909128","-77.847877 ","17045","228","15","0","7/28/2021 12:00:00 AM","2019","162385","NYTIMES-USCENSUS"
"7/29/2021 12:00:00 AM","Dodge County","Georgia","South","South Atlantic","13091","32.164369","-83.167866 ","2240","109","15","0","7/28/2021 12:00:00 AM","2019","20605","NYTIMES-USCENSUS"
"7/29/2021 12:00:00 AM","Wilkin County","Minnesota","Midwest","West North Central","27167","46.362335","-96.476657 ","842","13","2","0","7/28/2021 12:00:00 AM","2019","6207","NYTIMES-USCENSUS"
"7/29/2021 12:00:00 AM","Grayson County","Texas","South","West South Central","48181","33.624524","-96.675693 ","11774","348","0","0","7/28/2021 12:00:00 AM","2019","136212","NYTIMES-USCENSUS"
"7/29/2021 12:00:00 AM","Watonwan County","Minnesota","Midwest","West North Central","27165","43.978109","-94.613798 ","1362","9","0","0","7/28/2021 12:00:00 AM","2019","10897","NYTIMES-USCENSUS"
"7/29/2021 12:00:00 AM","Shenandoah County","Virginia","South","South Atlantic","51171","38.856204","-78.573987 ","4369","134","3","0","7/28/2021 12:00:00 AM","2019","43616","NYTIMES-USCENSUS"
"7/29/2021 12:00:00 AM","Scotland County","North Carolina","South","South Atlantic","37165","34.840023","-79.477337 ","4096","89","19","0","7/28/2021 12:00:00 AM","2019","34823","NYTIMES-USCENSUS"
"7/29/2021 12:00:00 AM","Clay County","Iowa","Midwest","West North Central","19041","43.081224","-95.149875 ","2179","27","0","0","7/28/2021 12:00:00 AM","2019","16016","NYTIMES-USCENSUS"
"7/29/2021 12:00:00 AM","Johnson County","Missouri","Midwest","West North Central","29101","38.741528","-93.811863 ","5284","59","17","0","7/28/2021 12:00:00 AM","2019","54062","NYTIMES-USCENSUS"
"7/29/2021 12:00:00 AM","Pleasants County","West Virginia","South","South Atlantic","54073","39.368133","-81.161172 ","964","12","1","0","7/28/2021 12:00:00 AM","2019","7460","NYTIMES-USCENSUS"
"7/29/2021 12:00:00 AM","Cross County","Arkansas","South","West South Central","05037","35.285692","-90.763984 ","2147","53","15","0","7/28/2021 12:00:00 AM","2019","16419","NYTIMES-USCENSUS"
"7/29/2021 12:00:00 AM","Stanton County","Kansas","Midwest","West North Central","20187","37.565932","-101.789383 ","196","6","0","0","7/28/2021 12:00:00 AM","2019","2006","NYTIMES-USCENSUS"
"7/29/2021 12:00:00 AM","Milwaukee County","Wisconsin","Midwest","East North Central","55079","42.912643","-87.862312 ","120539","1442","323","1","7/28/2021 12:00:00 AM","2019","945726","NYTIMES-USCENSUS"
"7/29/2021 12:00:00 AM","Todd County","Minnesota","Midwest","West North Central","27153","46.066569","-94.900576 ","2892","33","4","0","7/28/2021 12:00:00 AM","2019","24664","NYTIMES-USCENSUS"
"7/29/2021 12:00:00 AM","Lynchburg city","Virginia","South","South Atlantic","51680","37.399016","-79.195458 ","7618","148","14","0","7/28/2021 12:00:00 AM","2019","82168","NYTIMES-USCENSUS"
"7/29/2021 12:00:00 AM","Grant County","West Virginia","South","South Atlantic","54023","39.105988","-79.195064 ","1322","29","2","0","7/28/2021 12:00:00 AM","2019","11568","NYTIMES-USCENSUS"
"7/29/2021 12:00:00 AM","Carbon County","Montana","West","Mountain","30009","45.224468","-109.028554 ","936","17","2","0","7/28/2021 12:00:00 AM","2019","10725","NYTIMES-USCENSUS"
"7/29/2021 12:00:00 AM","Fredericksburg city","Virginia","South","South Atlantic","51630","38.299272","-77.486658 ","2192","25","6","0","7/28/2021 12:00:00 AM","2019","29036","NYTIMES-USCENSUS"
"7/29/2021 12:00:00 AM","Sullivan County","Indiana","Midwest","East North Central","18153","39.089225","-87.415843 ","2225","43","5","0","7/28/2021 12:00:00 AM","2019","20669","NYTIMES-USCENSUS"
"7/29/2021 12:00:00 AM","Jackson County","Illinois","Midwest","East North Central","17077","37.786096","-89.381212 ","5477","76","13","0","7/28/2021 12:00:00 AM","2019","56750","NYTIMES-USCENSUS"
"7/29/2021 12:00:00 AM","Spotsylvania County","Virginia","South","South Atlantic","51177","38.182431","-77.657226 ","10443","125","22","0","7/28/2021 12:00:00 AM","2019","136215","NYTIMES-USCENSUS"
"7/29/2021 12:00:00 AM","Henderson County","Kentucky","South","East South Central","21101","37.792542","-87.572577 ","5240","79","31","0","7/28/2021 12:00:00 AM","2019","45210","NYTIMES-USCENSUS"
"7/29/2021 12:00:00 AM","San Francisco County","California","West","Pacific","06075","37.727239","-123.032229 ","41747","561","296","0","7/28/2021 12:00:00 AM","2019","881549","NYTIMES-USCENSUS"
"7/29/2021 12:00:00 AM","Adams County","Colorado","West","Mountain","08001","39.874325","-104.331872 ","63507","768","154","2","7/28/2021 12:00:00 AM","2019","517421","NYTIMES-USCENSUS"
"7/29/2021 12:00:00 AM","Kemper County","Mississippi","South","East South Central","28069","32.750136","-88.625631 ","1023","29","4","0","7/28/2021 12:00:00 AM","2019","9742","NYTIMES-USCENSUS"
"7/29/2021 12:00:00 AM","Barnstable County","Massachusetts","Northeast","New England","25001","41.706123","-70.164823 ","14473","482","31","2","7/28/2021 12:00:00 AM","2019","212990","NYTIMES-USCENSUS"
"7/29/2021 12:00:00 AM","Panola County","Texas","South","West South Central","48365","32.163978","-94.305156 ","1952","77","17","0","7/28/2021 12:00:00 AM","2019","23194","NYTIMES-USCENSUS"
"7/29/2021 12:00:00 AM","Harford County","Maryland","South","South Atlantic","24025","39.537429","-76.299789 ","16859","304","27","1","7/28/2021 12:00:00 AM","2019","255441","NYTIMES-USCENSUS"
"7/29/2021 12:00:00 AM","Lawrence County","Missouri","Midwest","West North Central","29109","37.10659","-93.830551 ","4304","91","25","0","7/28/2021 12:00:00 AM","2019","38355","NYTIMES-USCENSUS"
"7/29/2021 12:00:00 AM","Sampson County","North Carolina","South","South Atlantic","37163","34.989298","-78.371261 ","8386","114","30","0","7/28/2021 12:00:00 AM","2019","63531","NYTIMES-USCENSUS"
"7/29/2021 12:00:00 AM","Mason County","West Virginia","South","South Atlantic","54053","38.770914","-82.029007 ","2127","37","4","0","7/28/2021 12:00:00 AM","2019","26516","NYTIMES-USCENSUS"
"7/29/2021 12:00:00 AM","Huron County","Ohio","Midwest","East North Central","39077","41.14508","-82.594641 ","5654","122","10","0","7/28/2021 12:00:00 AM","2019","58266","NYTIMES-USCENSUS"
"7/29/2021 12:00:00 AM","Atchison County","Kansas","Midwest","West North Central","20005","39.532544","-95.313397 ","1672","16","0","0","7/28/2021 12:00:00 AM","2019","16073","NYTIMES-USCENSUS"
"7/29/2021 12:00:00 AM","Monroe County","Mississippi","South","East South Central","28095","33.89003","-88.485038 ","4322","137","13","0","7/28/2021 12:00:00 AM","2019","35252","NYTIMES-USCENSUS"
"7/29/2021 12:00:00 AM","LaSalle County","Illinois","Midwest","East North Central","17099","41.343341","-88.885931 ","12975","309","7","0","7/28/2021 12:00:00 AM","2019","108669","NYTIMES-USCENSUS"
"7/29/2021 12:00:00 AM","Henry County","Georgia","South","South Atlantic","13151","33.452947","-84.154021 ","27234","340","101","0","7/28/2021 12:00:00 AM","2019","234561","NYTIMES-USCENSUS"
"7/29/2021 12:00:00 AM","Washington Parish","Louisiana","South","West South Central","22117","30.852144","-90.046253 ","5142","140","56","1","7/28/2021 12:00:00 AM","2019","46194","NYTIMES-USCENSUS"
"7/29/2021 12:00:00 AM","Warrick County","Indiana","Midwest","East North Central","18173","38.097728","-87.272049 ","8097","160","10","0","7/28/2021 12:00:00 AM","2019","62998","NYTIMES-USCENSUS"
"7/29/2021 12:00:00 AM","San Luis Obispo County","California","West","Pacific","06079","35.388189","-120.448897 ","22706","265","81","0","7/28/2021 12:00:00 AM","2019","283111","NYTIMES-USCENSUS"
"7/29/2021 12:00:00 AM","Winston County","Mississippi","South","East South Central","28159","33.078724","-89.037391 ","2365","84","2","0","7/28/2021 12:00:00 AM","2019","17955","NYTIMES-USCENSUS"
"7/29/2021 12:00:00 AM","Gadsden County","Florida","South","South Atlantic","12039","30.578687","-84.612607 ","6152","99","0","0","7/28/2021 12:00:00 AM","2019","45660","NYTIMES-USCENSUS"
"7/29/2021 12:00:00 AM","Atascosa County","Texas","South","West South Central","48013","28.891478","-98.535381 ","6173","152","41","1","7/28/2021 12:00:00 AM","2019","51153","NYTIMES-USCENSUS"
"7/29/2021 12:00:00 AM","Cameron County","Pennsylvania","Northeast","Middle Atlantic","42023","41.438291","-78.198323 ","318","9","1","0","7/28/2021 12:00:00 AM","2019","4447","NYTIMES-USCENSUS"
"7/29/2021 12:00:00 AM","Otsego County","New York","Northeast","Middle Atlantic","36077","42.629776","-75.028841 ","3490","47","6","0","7/28/2021 12:00:00 AM","2019","59493","NYTIMES-USCENSUS"
"7/29/2021 12:00:00 AM","Pima County","Arizona","West","Mountain","04019","32.128038","-111.783657 ","119969","2458","174","-1","7/28/2021 12:00:00 AM","2019","1047279","NYTIMES-USCENSUS"
"7/29/2021 12:00:00 AM","Elk County","Pennsylvania","Northeast","Middle Atlantic","42047","41.427332","-78.653937 ","2891","41","8","0","7/28/2021 12:00:00 AM","2019","29910","NYTIMES-USCENSUS"
"7/29/2021 12:00:00 AM","Anoka County","Minnesota","Midwest","West North Central","27003","45.27411","-93.242723 ","43426","465","45","0","7/28/2021 12:00:00 AM","2019","356921","NYTIMES-USCENSUS"
