"monitor_date","county","state_name","region","subregion","fips","latitude","longitude","case_count_to_date","death_count_to_date","case_count","death_count","previous_monitor_date","population_year","population","source"
"7/26/2022 12:00:00 AM","Bradley County","Tennessee","South","East South Central","47011","35.153914","-84.859414 ","34728","423","34728","423","","2019","108110","NYTIMES-USCENSUS"
"7/26/2022 12:00:00 AM","Bradford County","Pennsylvania","Northeast","Middle Atlantic","42015","41.791504","-76.502123 ","17384","214","17384","214","","2019","60323","NYTIMES-USCENSUS"
"7/26/2022 12:00:00 AM","Boyd County","Kentucky","South","East South Central","21019","38.360003","-82.681406 ","18213","183","18213","183","","2019","46718","NYTIMES-USCENSUS"
"7/26/2022 12:00:00 AM","Bourbon County","Kansas","Midwest","West North Central","20011","37.8561","-94.850928 ","4768","56","4768","56","","2019","14534","NYTIMES-USCENSUS"
"7/26/2022 12:00:00 AM","Anderson County","Kentucky","South","East South Central","21005","38.005396","-84.986417 ","7211","71","7211","71","","2019","22747","NYTIMES-USCENSUS"
"7/26/2022 12:00:00 AM","Anderson County","Tennessee","South","East South Central","47001","36.116731","-84.195418 ","23471","349","23471","349","","2019","76978","NYTIMES-USCENSUS"
"7/26/2022 12:00:00 AM","Anderson County","South Carolina","South","South Atlantic","45007","34.521235","-82.638603 ","61374","1019","61374","1019","","2019","202558","NYTIMES-USCENSUS"
"7/26/2022 12:00:00 AM","Anderson County","Kansas","Midwest","West North Central","20003","38.215114","-95.292046 ","2257","35","2257","35","","2019","7858","NYTIMES-USCENSUS"
"7/26/2022 12:00:00 AM","Ziebach County","South Dakota","Midwest","West North Central","46137","44.989764","-101.660827 ","672","11","672","11","","2019","2756","NYTIMES-USCENSUS"
"7/26/2022 12:00:00 AM","Zavala County","Texas","South","West South Central","48507","28.864652","-99.75983 ","4260","69","4260","69","","2019","11840","NYTIMES-USCENSUS"
"7/26/2022 12:00:00 AM","Zapata County","Texas","South","West South Central","48505","26.996981","-99.182603 ","3963","55","3963","55","","2019","14179","NYTIMES-USCENSUS"
"7/26/2022 12:00:00 AM","Yuma County","Arizona","West","Mountain","04027","32.773942","-113.910905 ","65241","1189","65241","1189","","2019","213787","NYTIMES-USCENSUS"
"7/26/2022 12:00:00 AM","Yukon-Koyukuk Census Area","Alaska","West","Pacific","02290","65.375727","-151.57785 ","1576","11","1576","11","","2019","5230","NYTIMES-USCENSUS"
"7/26/2022 12:00:00 AM","Yuba County","California","West","Pacific","06115","39.27013","-121.344259 ","19449","124","19449","124","","2019","78668","NYTIMES-USCENSUS"
"7/26/2022 12:00:00 AM","Young County","Texas","South","West South Central","48503","33.158778","-98.67839 ","4219","95","4219","95","","2019","18010","NYTIMES-USCENSUS"
"7/26/2022 12:00:00 AM","York County","Pennsylvania","Northeast","Middle Atlantic","42133","39.921751","-76.728889 ","127686","1532","127686","1532","","2019","449058","NYTIMES-USCENSUS"
"7/26/2022 12:00:00 AM","Yolo County","California","West","Pacific","06113","38.679609","-121.90275 ","49497","326","49497","326","","2019","220500","NYTIMES-USCENSUS"
"7/26/2022 12:00:00 AM","Yoakum County","Texas","South","West South Central","48501","33.162339","-102.832241 ","1348","42","1348","42","","2019","8713","NYTIMES-USCENSUS"
"7/26/2022 12:00:00 AM","Yellowstone County","Montana","West","Mountain","30111","45.936987","-108.276656 ","45471","566","45471","566","","2019","161300","NYTIMES-USCENSUS"
"7/26/2022 12:00:00 AM","Yellow Medicine County","Minnesota","Midwest","West North Central","27173","44.715736","-95.862756 ","2712","31","2712","31","","2019","9709","NYTIMES-USCENSUS"
"7/26/2022 12:00:00 AM","Yell County","Arkansas","South","West South Central","05149","34.997713","-93.408303 ","7062","108","7062","108","","2019","21341","NYTIMES-USCENSUS"
"7/26/2022 12:00:00 AM","Yazoo County","Mississippi","South","East South Central","28163","32.765675","-90.387928 ","8678","110","8678","110","","2019","29690","NYTIMES-USCENSUS"
"7/26/2022 12:00:00 AM","Yavapai County","Arizona","West","Mountain","04025","34.631071","-112.577225 ","52348","1245","52348","1245","","2019","235099","NYTIMES-USCENSUS"
"7/26/2022 12:00:00 AM","Yates County","New York","Northeast","Middle Atlantic","36123","42.638237","-77.104324 ","3896","40","3896","40","","2019","24913","NYTIMES-USCENSUS"
"7/26/2022 12:00:00 AM","Yankton County","South Dakota","Midwest","West North Central","46135","43.006603","-97.388361 ","6176","59","6176","59","","2019","22814","NYTIMES-USCENSUS"
"7/26/2022 12:00:00 AM","Yancey County","North Carolina","South","South Atlantic","37199","35.889326","-82.303954 ","5688","59","5688","59","","2019","18069","NYTIMES-USCENSUS"
"7/26/2022 12:00:00 AM","Yamhill County","Oregon","West","Pacific","41071","45.247827","-123.316399 ","20252","231","20252","231","","2019","107100","NYTIMES-USCENSUS"
"7/26/2022 12:00:00 AM","Yalobusha County","Mississippi","South","East South Central","28161","34.030666","-89.703807 ","4423","58","4423","58","","2019","12108","NYTIMES-USCENSUS"
"7/26/2022 12:00:00 AM","Yakima County","Washington","West","Pacific","53077","46.456558","-120.740145 ","78315","806","78315","806","","2019","250873","NYTIMES-USCENSUS"
"7/26/2022 12:00:00 AM","Yadkin County","North Carolina","South","South Atlantic","37197","36.158765","-80.665164 ","12119","121","12119","121","","2019","37667","NYTIMES-USCENSUS"
"7/26/2022 12:00:00 AM","Wythe County","Virginia","South","South Atlantic","51197","36.899867","-81.083001 ","8234","150","8234","150","","2019","28684","NYTIMES-USCENSUS"
"7/26/2022 12:00:00 AM","Warren County","Indiana","Midwest","East North Central","18171","40.352498","-87.375163 ","2179","30","2179","30","","2019","8265","NYTIMES-USCENSUS"
"7/26/2022 12:00:00 AM","Ware County","Georgia","South","South Atlantic","13299","31.050881","-82.421507 ","10445","285","10445","285","","2019","35734","NYTIMES-USCENSUS"
"7/26/2022 12:00:00 AM","Ward County","Texas","South","West South Central","48475","31.513069","-103.105113 ","2966","45","2966","45","","2019","11998","NYTIMES-USCENSUS"
"7/26/2022 12:00:00 AM","Wapello County","Iowa","Midwest","West North Central","19179","41.031275","-92.409466 ","9425","209","9425","209","","2019","34969","NYTIMES-USCENSUS"
"7/26/2022 12:00:00 AM","Walworth County","Wisconsin","Midwest","East North Central","55127","42.66811","-88.541731 ","29138","289","29138","289","","2019","103868","NYTIMES-USCENSUS"
"7/26/2022 12:00:00 AM","Walton County","Florida","South","South Atlantic","12131","30.571247","-86.162798 ","17691","217","17691","217","","2019","74071","NYTIMES-USCENSUS"
"7/26/2022 12:00:00 AM","Walthall County","Mississippi","South","East South Central","28147","31.164492","-90.103431 ","3969","80","3969","80","","2019","14286","NYTIMES-USCENSUS"
"7/26/2022 12:00:00 AM","Walsh County","North Dakota","Midwest","West North Central","38099","48.376979","-97.72223 ","3592","34","3592","34","","2019","10641","NYTIMES-USCENSUS"
"7/26/2022 12:00:00 AM","Wallowa County","Oregon","West","Pacific","41063","45.593753","-117.18558 ","1369","16","1369","16","","2019","7208","NYTIMES-USCENSUS"
"7/26/2022 12:00:00 AM","Waller County","Texas","South","West South Central","48473","30.01359","-95.982149 ","10496","108","10496","108","","2019","55246","NYTIMES-USCENSUS"
"7/26/2022 12:00:00 AM","Walla Walla County","Washington","West","Pacific","53071","46.254606","-118.48037 ","17838","157","17838","157","","2019","60760","NYTIMES-USCENSUS"
"7/26/2022 12:00:00 AM","Walker County","Alabama","South","East South Central","01127","33.791558","-87.301094 ","20156","453","20156","453","","2019","63521","NYTIMES-USCENSUS"
"7/26/2022 12:00:00 AM","Custer County","Idaho","West","Mountain","16037","44.273351","-114.252267 ","639","9","639","9","","2019","4315","NYTIMES-USCENSUS"
"7/26/2022 12:00:00 AM","Custer County","Oklahoma","South","West South Central","40039","35.645601","-98.997386 ","8343","171","8343","171","","2019","29003","NYTIMES-USCENSUS"
"7/26/2022 12:00:00 AM","Custer County","Colorado","West","Mountain","08027","38.101996","-105.373512 ","753","22","753","22","","2019","5068","NYTIMES-USCENSUS"
"7/26/2022 12:00:00 AM","Custer County","Nebraska","Midwest","West North Central","31041","41.393893","-99.726866 ","2122","31","2122","31","","2019","10777","NYTIMES-USCENSUS"
"7/26/2022 12:00:00 AM","Curry County","Oregon","West","Pacific","41015","42.466439","-124.210929 ","4038","62","4038","62","","2019","22925","NYTIMES-USCENSUS"
"7/26/2022 12:00:00 AM","Cumberland County","Maine","Northeast","New England","23005","43.808348","-70.330375 ","57710","392","57710","392","","2019","295003","NYTIMES-USCENSUS"
"7/26/2022 12:00:00 AM","Cumberland County","Tennessee","South","East South Central","47035","35.952398","-84.994761 ","16987","330","16987","330","","2019","60520","NYTIMES-USCENSUS"
"7/26/2022 12:00:00 AM","Cumberland County","New Jersey","Northeast","Middle Atlantic","34011","39.328434","-75.121628 ","44055","621","44055","621","","2019","149527","NYTIMES-USCENSUS"
"7/26/2022 12:00:00 AM","Cumberland County","North Carolina","South","South Atlantic","37051","35.050192","-78.828719 ","97088","669","97088","669","","2019","335509","NYTIMES-USCENSUS"
"7/26/2022 12:00:00 AM","Cumberland County","Illinois","Midwest","East North Central","17035","39.273121","-88.240619 ","3540","49","3540","49","","2019","10766","NYTIMES-USCENSUS"
"7/26/2022 12:00:00 AM","Cumberland County","Virginia","South","South Atlantic","51049","37.520189","-78.252836 ","1525","27","1525","27","","2019","9932","NYTIMES-USCENSUS"
"7/26/2022 12:00:00 AM","Cumberland County","Pennsylvania","Northeast","Middle Atlantic","42041","40.164805","-77.263442 ","55299","914","55299","914","","2019","253370","NYTIMES-USCENSUS"
"7/26/2022 12:00:00 AM","Crook County","Oregon","West","Pacific","41013","44.163054","-120.371585 ","6976","86","6976","86","","2019","24404","NYTIMES-USCENSUS"
"7/26/2022 12:00:00 AM","Crockett County","Tennessee","South","East South Central","47033","35.818795","-89.132494 ","5475","88","5475","88","","2019","14230","NYTIMES-USCENSUS"
"7/26/2022 12:00:00 AM","Crittenden County","Kentucky","South","East South Central","21055","37.358149","-88.10501 ","2489","51","2489","51","","2019","8806","NYTIMES-USCENSUS"
"7/26/2022 12:00:00 AM","Crawford County","Arkansas","South","West South Central","05033","35.583011","-94.236219 ","16885","254","16885","254","","2019","63257","NYTIMES-USCENSUS"
"7/26/2022 12:00:00 AM","Crawford County","Wisconsin","Midwest","East North Central","55023","43.242768","-90.935185 ","4596","29","4596","29","","2019","16131","NYTIMES-USCENSUS"
"7/26/2022 12:00:00 AM","Crawford County","Kansas","Midwest","West North Central","20037","37.505821","-94.853897 ","12820","134","12820","134","","2019","38818","NYTIMES-USCENSUS"
"7/26/2022 12:00:00 AM","Crawford County","Illinois","Midwest","East North Central","17033","39.002787","-87.760619 ","6771","61","6771","61","","2019","18667","NYTIMES-USCENSUS"
"7/26/2022 12:00:00 AM","Crawford County","Pennsylvania","Northeast","Middle Atlantic","42039","41.687876","-80.107795 ","21320","332","21320","332","","2019","84629","NYTIMES-USCENSUS"
"7/26/2022 12:00:00 AM","Crawford County","Indiana","Midwest","East North Central","18025","38.289433","-86.440871 ","2709","41","2709","41","","2019","10577","NYTIMES-USCENSUS"
"7/26/2022 12:00:00 AM","Crawford County","Iowa","Midwest","West North Central","19047","42.043119","-95.38909 ","4611","54","4611","54","","2019","16820","NYTIMES-USCENSUS"
"7/26/2022 12:00:00 AM","Crawford County","Michigan","Midwest","East North Central","26039","44.680175","-84.611343 ","2829","34","2829","34","","2019","14029","NYTIMES-USCENSUS"
"7/26/2022 12:00:00 AM","Crawford County","Ohio","Midwest","East North Central","39033","40.848524","-82.924783 ","12003","217","12003","217","","2019","41494","NYTIMES-USCENSUS"
"7/26/2022 12:00:00 AM","Crawford County","Missouri","Midwest","West North Central","29055","37.966559","-91.313936 ","5734","107","5734","107","","2019","23920","NYTIMES-USCENSUS"
"7/26/2022 12:00:00 AM","Craig County","Virginia","South","South Atlantic","51045","37.473603","-80.231051 ","1182","21","1182","21","","2019","5131","NYTIMES-USCENSUS"
"7/26/2022 12:00:00 AM","Covington County","Mississippi","South","East South Central","28031","31.633331","-89.548897 ","7655","115","7655","115","","2019","18636","NYTIMES-USCENSUS"
"7/26/2022 12:00:00 AM","Chesterfield County","Virginia","South","South Atlantic","51041","37.378434","-77.585847 ","85282","786","85282","786","","2019","352802","NYTIMES-USCENSUS"
"7/26/2022 12:00:00 AM","Chester County","Tennessee","South","East South Central","47023","35.420253","-88.611353 ","6153","99","6153","99","","2019","17297","NYTIMES-USCENSUS"
"7/26/2022 12:00:00 AM","Chester County","South Carolina","South","South Atlantic","45023","34.689342","-81.161249 ","10909","155","10909","155","","2019","32244","NYTIMES-USCENSUS"
"7/26/2022 12:00:00 AM","Cherokee County","Kansas","Midwest","West North Central","20021","37.169392","-94.845698 ","6517","89","6517","89","","2019","19939","NYTIMES-USCENSUS"
"7/26/2022 12:00:00 AM","Cherokee County","Oklahoma","South","West South Central","40021","35.904367","-94.996796 ","15347","155","15347","155","","2019","48657","NYTIMES-USCENSUS"
"7/26/2022 12:00:00 AM","Cherokee County","Iowa","Midwest","West North Central","19035","42.742737","-95.633262 ","3127","66","3127","66","","2019","11235","NYTIMES-USCENSUS"
"7/26/2022 12:00:00 AM","Cherokee County","South Carolina","South","South Atlantic","45021","35.049796","-81.607647 ","15872","324","15872","324","","2019","57300","NYTIMES-USCENSUS"
"7/26/2022 12:00:00 AM","Cherokee County","Texas","South","West South Central","48073","31.843881","-95.156343 ","8447","254","8447","254","","2019","52646","NYTIMES-USCENSUS"
"7/26/2022 12:00:00 AM","Cherokee County","North Carolina","South","South Atlantic","37039","35.13715","-84.061449 ","7548","125","7548","125","","2019","28612","NYTIMES-USCENSUS"
"7/26/2022 12:00:00 AM","Cherokee County","Georgia","South","South Atlantic","13057","34.244317","-84.475057 ","68184","648","68184","648","","2019","258773","NYTIMES-USCENSUS"
"7/26/2022 12:00:00 AM","Chautauqua County","Kansas","Midwest","West North Central","20019","37.154259","-96.245396 ","876","18","876","18","","2019","3250","NYTIMES-USCENSUS"
"7/26/2022 12:00:00 AM","Chatham County","Georgia","South","South Atlantic","13051","31.980404","-81.085184 ","70132","913","70132","913","","2019","289430","NYTIMES-USCENSUS"
"7/26/2022 12:00:00 AM","Chase County","Kansas","Midwest","West North Central","20017","38.299475","-96.594029 ","698","7","698","7","","2019","2648","NYTIMES-USCENSUS"
"7/26/2022 12:00:00 AM","Charlotte County","Virginia","South","South Atlantic","51037","37.009042","-78.658568 ","2778","45","2778","45","","2019","11880","NYTIMES-USCENSUS"
"7/26/2022 12:00:00 AM","Champaign County","Illinois","Midwest","East North Central","17019","40.138985","-88.196975 ","74066","300","74066","300","","2019","209689","NYTIMES-USCENSUS"
"7/26/2022 12:00:00 AM","Chambers County","Texas","South","West South Central","48071","29.696374","-94.669445 ","12867","113","12867","113","","2019","43837","NYTIMES-USCENSUS"
"7/26/2022 12:00:00 AM","Bristol County","Rhode Island","Northeast","New England","44001","41.70684","-71.286687 ","15749","178","15749","178","","2019","48479","NYTIMES-USCENSUS"
"7/26/2022 12:00:00 AM","Sumner County","Kansas","Midwest","West North Central","20191","37.236662","-97.493352 ","5926","76","5926","76","","2019","22836","NYTIMES-USCENSUS"
"7/26/2022 12:00:00 AM","Sheridan County","Kansas","Midwest","West North Central","20179","39.350547","-100.441228 ","801","17","801","17","","2019","2521","NYTIMES-USCENSUS"
"7/26/2022 12:00:00 AM","Sherburne County","Minnesota","Midwest","West North Central","27141","45.453176","-93.76913 ","28839","183","28839","183","","2019","97238","NYTIMES-USCENSUS"
"7/26/2022 12:00:00 AM","Shenandoah County","Virginia","South","South Atlantic","51171","38.856204","-78.573987 ","11695","233","11695","233","","2019","43616","NYTIMES-USCENSUS"
"7/26/2022 12:00:00 AM","Shelby County","Tennessee","South","East South Central","47157","35.184553","-89.894612 ","265145","3394","265145","3394","","2019","937166","NYTIMES-USCENSUS"
"7/26/2022 12:00:00 AM","Sheboygan County","Wisconsin","Midwest","East North Central","55117","43.741232","-87.731516 ","35495","336","35495","336","","2019","115340","NYTIMES-USCENSUS"
"7/26/2022 12:00:00 AM","Shawnee County","Kansas","Midwest","West North Central","20177","39.041805","-95.755664 ","52566","650","52566","650","","2019","176875","NYTIMES-USCENSUS"
"7/26/2022 12:00:00 AM","Shawano County","Wisconsin","Midwest","East North Central","55115","44.789641","-88.755813 ","12576","155","12576","155","","2019","40899","NYTIMES-USCENSUS"
"7/26/2022 12:00:00 AM","Shasta County","California","West","Pacific","06089","40.760514","-122.043556 ","40219","664","40219","664","","2019","180080","NYTIMES-USCENSUS"
"7/26/2022 12:00:00 AM","Sharp County","Arkansas","South","West South Central","05135","36.173399","-91.471069 ","5068","110","5068","110","","2019","17442","NYTIMES-USCENSUS"
"7/26/2022 12:00:00 AM","Sharkey County","Mississippi","South","East South Central","28125","32.892395","-90.827613 ","1056","27","1056","27","","2019","4321","NYTIMES-USCENSUS"
"7/26/2022 12:00:00 AM","Shannon County","Missouri","Midwest","West North Central","29203","37.152498","-91.391328 ","1695","40","1695","40","","2019","8166","NYTIMES-USCENSUS"
"7/26/2022 12:00:00 AM","Shackelford County","Texas","South","West South Central","48417","32.74382","-99.347005 ","722","12","722","12","","2019","3265","NYTIMES-USCENSUS"
"7/26/2022 12:00:00 AM","Seward County","Kansas","Midwest","West North Central","20175","37.18096","-100.855257 ","7199","63","7199","63","","2019","21428","NYTIMES-USCENSUS"
"7/26/2022 12:00:00 AM","Sevier County","Tennessee","South","East South Central","47155","35.787822","-83.5249 ","32030","424","32030","424","","2019","98250","NYTIMES-USCENSUS"
"7/26/2022 12:00:00 AM","Sequoyah County","Oklahoma","South","West South Central","40135","35.502435","-94.750757 ","11344","107","11344","107","","2019","41569","NYTIMES-USCENSUS"
"7/26/2022 12:00:00 AM","Sequatchie County","Tennessee","South","East South Central","47153","35.372336","-85.410082 ","4463","70","4463","70","","2019","15026","NYTIMES-USCENSUS"
"7/26/2022 12:00:00 AM","Seneca County","Ohio","Midwest","East North Central","39147","41.119992","-83.127547 ","13447","234","13447","234","","2019","55178","NYTIMES-USCENSUS"
"7/26/2022 12:00:00 AM","Seminole County","Georgia","South","South Atlantic","13253","30.93396","-84.867685 ","2280","30","2280","30","","2019","8090","NYTIMES-USCENSUS"
"7/26/2022 12:00:00 AM","Sedgwick County","Kansas","Midwest","West North Central","20173","37.681045","-97.461054 ","152962","1478","152962","1478","","2019","516042","NYTIMES-USCENSUS"
"7/26/2022 12:00:00 AM","Sebastian County","Arkansas","South","West South Central","05131","35.196981","-94.274989 ","35386","537","35386","537","","2019","127827","NYTIMES-USCENSUS"
"7/26/2022 12:00:00 AM","Searcy County","Arkansas","South","West South Central","05129","35.896387","-92.695888 ","2266","49","2266","49","","2019","7881","NYTIMES-USCENSUS"
"7/26/2022 12:00:00 AM","Scurry County","Texas","South","West South Central","48415","32.744353","-100.913346 ","5231","104","5231","104","","2019","16703","NYTIMES-USCENSUS"
"7/26/2022 12:00:00 AM","Screven County","Georgia","South","South Atlantic","13251","32.744751","-81.617585 ","2817","70","2817","70","","2019","13966","NYTIMES-USCENSUS"
"7/26/2022 12:00:00 AM","Scotts Bluff County","Nebraska","Midwest","West North Central","31157","41.850331","-103.701549 ","9916","102","9916","102","","2019","35618","NYTIMES-USCENSUS"
"7/26/2022 12:00:00 AM","Scott County","Kentucky","South","East South Central","21209","38.28571","-84.57834 ","19613","116","19613","116","","2019","57004","NYTIMES-USCENSUS"
"7/26/2022 12:00:00 AM","Scotland County","Missouri","Midwest","West North Central","29199","40.447686","-92.142824 ","700","18","700","18","","2019","4902","NYTIMES-USCENSUS"
"7/26/2022 12:00:00 AM","Scioto County","Ohio","Midwest","East North Central","39145","38.814889","-82.998675 ","22748","261","22748","261","","2019","75314","NYTIMES-USCENSUS"
"7/26/2022 12:00:00 AM","Schuylkill County","Pennsylvania","Northeast","Middle Atlantic","42107","40.703682","-76.217788 ","36801","697","36801","697","","2019","141359","NYTIMES-USCENSUS"
"7/26/2022 12:00:00 AM","Schuyler County","Missouri","Midwest","West North Central","29197","40.469361","-92.519016 ","782","26","782","26","","2019","4660","NYTIMES-USCENSUS"
"7/26/2022 12:00:00 AM","Ringgold County","Iowa","Midwest","West North Central","19159","40.735334","-94.244251 ","1164","35","1164","35","","2019","4894","NYTIMES-USCENSUS"
"7/26/2022 12:00:00 AM","Riley County","Kansas","Midwest","West North Central","20161","39.291211","-96.727489 ","14441","90","14441","90","","2019","74232","NYTIMES-USCENSUS"
"7/26/2022 12:00:00 AM","Richmond County","Virginia","South","South Atlantic","51159","37.942894","-76.730561 ","2674","25","2674","25","","2019","9023","NYTIMES-USCENSUS"
"7/26/2022 12:00:00 AM","Richmond city","Virginia","South","South Atlantic","51760","37.531399","-77.476009 ","52424","520","52424","520","","2019","230436","NYTIMES-USCENSUS"
"7/26/2022 12:00:00 AM","Richland Parish","Louisiana","South","West South Central","22083","32.413158","-91.748353 ","7445","100","7445","100","","2019","20122","NYTIMES-USCENSUS"
"7/26/2022 12:00:00 AM","Richland County","Wisconsin","Midwest","East North Central","55103","43.376199","-90.435693 ","4324","51","4324","51","","2019","17252","NYTIMES-USCENSUS"
"7/26/2022 12:00:00 AM","Richardson County","Nebraska","Midwest","West North Central","31147","40.123743","-95.718603 ","1917","24","1917","24","","2019","7865","NYTIMES-USCENSUS"
"7/26/2022 12:00:00 AM","Rice County","Minnesota","Midwest","West North Central","27131","44.350775","-93.298513 ","19121","189","19121","189","","2019","66972","NYTIMES-USCENSUS"
"7/26/2022 12:00:00 AM","Rhea County","Tennessee","South","East South Central","47143","35.60059","-84.949548 ","10455","161","10455","161","","2019","33167","NYTIMES-USCENSUS"
"7/26/2022 12:00:00 AM","Reynolds County","Missouri","Midwest","West North Central","29179","37.366464","-90.972282 ","1223","26","1223","26","","2019","6270","NYTIMES-USCENSUS"
"7/26/2022 12:00:00 AM","Republic County","Kansas","Midwest","West North Central","20157","39.828906","-97.650883 ","1384","19","1384","19","","2019","4636","NYTIMES-USCENSUS"
"7/26/2022 12:00:00 AM","Renville County","Minnesota","Midwest","West North Central","27129","44.723697","-94.955617 ","4007","58","4007","58","","2019","14548","NYTIMES-USCENSUS"
"7/26/2022 12:00:00 AM","Rensselaer County","New York","Northeast","Middle Atlantic","36083","42.710421","-73.513845 ","36811","277","36811","277","","2019","158714","NYTIMES-USCENSUS"
"7/26/2022 12:00:00 AM","Waldo County","Maine","Northeast","New England","23027","44.505822","-69.138961 ","6996","61","6996","61","","2019","39715","NYTIMES-USCENSUS"
"7/26/2022 12:00:00 AM","Wakulla County","Florida","South","South Atlantic","12129","30.091335","-84.359111 ","10688","131","10688","131","","2019","33739","NYTIMES-USCENSUS"
"7/26/2022 12:00:00 AM","Wake County","North Carolina","South","South Atlantic","37183","35.789846","-78.650624 ","342005","1172","342005","1172","","2019","1111761","NYTIMES-USCENSUS"
"7/26/2022 12:00:00 AM","Wagoner County","Oklahoma","South","West South Central","40145","35.963388","-95.514201 ","23329","277","23329","277","","2019","81289","NYTIMES-USCENSUS"
"7/26/2022 12:00:00 AM","Wadena County","Minnesota","Midwest","West North Central","27159","46.586986","-94.988608 ","4512","58","4512","58","","2019","13682","NYTIMES-USCENSUS"
"7/26/2022 12:00:00 AM","Wabaunsee County","Kansas","Midwest","West North Central","20197","38.955154","-96.201262 ","1717","23","1717","23","","2019","6931","NYTIMES-USCENSUS"
"7/26/2022 12:00:00 AM","Wabasha County","Minnesota","Midwest","West North Central","27157","44.289634","-92.233454 ","6101","19","6101","19","","2019","21627","NYTIMES-USCENSUS"
"7/26/2022 12:00:00 AM","Wabash County","Illinois","Midwest","East North Central","17185","38.445821","-87.839167 ","4048","31","4048","31","","2019","11520","NYTIMES-USCENSUS"
"7/26/2022 12:00:00 AM","Volusia County","Florida","South","South Atlantic","12127","29.057769","-81.161792 ","131891","2057","131891","2057","","2019","553284","NYTIMES-USCENSUS"
"7/26/2022 12:00:00 AM","Virginia Beach city","Virginia","South","South Atlantic","51810","36.779525","-76.029142 ","101407","853","101407","853","","2019","449974","NYTIMES-USCENSUS"
"7/26/2022 12:00:00 AM","Vinton County","Ohio","Midwest","East North Central","39163","39.252042","-82.485961 ","3110","56","3110","56","","2019","13085","NYTIMES-USCENSUS"
"7/26/2022 12:00:00 AM","Vilas County","Wisconsin","Midwest","East North Central","55125","46.049848","-89.501254 ","5760","91","5760","91","","2019","22195","NYTIMES-USCENSUS"
"7/26/2022 12:00:00 AM","Vigo County","Indiana","Midwest","East North Central","18167","39.429143","-87.390375 ","30802","416","30802","416","","2019","107038","NYTIMES-USCENSUS"
"7/26/2022 12:00:00 AM","Victoria County","Texas","South","West South Central","48469","28.79637","-96.971198 ","20535","412","20535","412","","2019","92084","NYTIMES-USCENSUS"
"7/26/2022 12:00:00 AM","Vernon Parish","Louisiana","South","West South Central","22115","31.102841","-93.18833 ","10665","191","10665","191","","2019","47429","NYTIMES-USCENSUS"
"7/26/2022 12:00:00 AM","Tehama County","California","West","Pacific","06103","40.126157","-122.232274 ","15942","207","15942","207","","2019","65084","NYTIMES-USCENSUS"
"7/26/2022 12:00:00 AM","Tazewell County","Virginia","South","South Atlantic","51185","37.125395","-81.562924 ","11243","179","11243","179","","2019","40595","NYTIMES-USCENSUS"
"7/26/2022 12:00:00 AM","Taylor County","Wisconsin","Midwest","East North Central","55119","45.211656","-90.504853 ","5125","73","5125","73","","2019","20343","NYTIMES-USCENSUS"
"7/26/2022 12:00:00 AM","Tattnall County","Georgia","South","South Atlantic","13267","32.043768","-82.059208 ","5300","133","5300","133","","2019","25286","NYTIMES-USCENSUS"
"7/26/2022 12:00:00 AM","Tate County","Mississippi","South","East South Central","28137","34.649553","-89.943105 ","7960","147","7960","147","","2019","28321","NYTIMES-USCENSUS"
"7/26/2022 12:00:00 AM","Tarrant County","Texas","South","West South Central","48439","32.772119","-97.291224 ","605713","5983","605713","5983","","2019","2102515","NYTIMES-USCENSUS"
"7/26/2022 12:00:00 AM","Taos County","New Mexico","West","Mountain","35055","36.577183","-105.638878 ","6284","96","6284","96","","2019","32723","NYTIMES-USCENSUS"
"7/26/2022 12:00:00 AM","Tangipahoa Parish","Louisiana","South","West South Central","22105","30.621348","-90.40649 ","38703","615","38703","615","","2019","134758","NYTIMES-USCENSUS"
"7/26/2022 12:00:00 AM","Taney County","Missouri","Midwest","West North Central","29213","36.649827","-93.042819 ","14415","236","14415","236","","2019","55928","NYTIMES-USCENSUS"
"7/26/2022 12:00:00 AM","Tama County","Iowa","Midwest","West North Central","19171","42.074848","-92.529411 ","4144","95","4144","95","","2019","16854","NYTIMES-USCENSUS"
"7/26/2022 12:00:00 AM","Tallapoosa County","Alabama","South","East South Central","01123","32.863308","-85.799618 ","12402","241","12402","241","","2019","40367","NYTIMES-USCENSUS"
"7/26/2022 12:00:00 AM","Tallahatchie County","Mississippi","South","East South Central","28135","33.954529","-90.172243 ","3408","60","3408","60","","2019","13809","NYTIMES-USCENSUS"
"7/26/2022 12:00:00 AM","Talladega County","Alabama","South","East South Central","01121","33.369314","-86.17593 ","24218","380","24218","380","","2019","79978","NYTIMES-USCENSUS"
"7/26/2022 12:00:00 AM","Taliaferro County","Georgia","South","South Atlantic","13265","33.559319","-82.875272 ","293","3","293","3","","2019","1537","NYTIMES-USCENSUS"
"7/26/2022 12:00:00 AM","Talbot County","Georgia","South","South Atlantic","13263","32.704603","-84.530029 ","1228","33","1228","33","","2019","6195","NYTIMES-USCENSUS"
"7/26/2022 12:00:00 AM","Switzerland County","Indiana","Midwest","East North Central","18155","38.825854","-85.029681 ","2359","20","2359","20","","2019","10751","NYTIMES-USCENSUS"
"7/26/2022 12:00:00 AM","Swisher County","Texas","South","West South Central","48437","34.526319","-101.743865 ","2395","34","2395","34","","2019","7397","NYTIMES-USCENSUS"
"7/26/2022 12:00:00 AM","Swift County","Minnesota","Midwest","West North Central","27151","45.27581","-95.690124 ","2415","33","2415","33","","2019","9266","NYTIMES-USCENSUS"
"7/26/2022 12:00:00 AM","Sweetwater County","Wyoming","West","Mountain","56037","41.660328","-108.875677 ","11802","128","11802","128","","2019","42343","NYTIMES-USCENSUS"
"7/26/2022 12:00:00 AM","Swain County","North Carolina","South","South Atlantic","37173","35.568849","-83.465614 ","4042","47","4042","47","","2019","14271","NYTIMES-USCENSUS"
"7/26/2022 12:00:00 AM","Suwannee County","Florida","South","South Atlantic","12121","30.189244","-82.992754 ","13687","321","13687","321","","2019","44417","NYTIMES-USCENSUS"
"7/26/2022 12:00:00 AM","Sutter County","California","West","Pacific","06101","39.03619","-121.70394 ","25227","235","25227","235","","2019","96971","NYTIMES-USCENSUS"
"7/26/2022 12:00:00 AM","Sussex County","New Jersey","Northeast","Middle Atlantic","34037","41.137461","-74.691914 ","38744","505","38744","505","","2019","140488","NYTIMES-USCENSUS"
"7/26/2022 12:00:00 AM","Susquehanna County","Pennsylvania","Northeast","Middle Atlantic","42115","41.819665","-75.800969 ","8680","115","8680","115","","2019","40328","NYTIMES-USCENSUS"
"7/26/2022 12:00:00 AM","Surry County","North Carolina","South","South Atlantic","37171","36.415416","-80.686463 ","23025","362","23025","362","","2019","71783","NYTIMES-USCENSUS"
"7/26/2022 12:00:00 AM","Sunflower County","Mississippi","South","East South Central","28133","33.605529","-90.59509 ","6065","126","6065","126","","2019","25110","NYTIMES-USCENSUS"
"7/26/2022 12:00:00 AM","Sumter County","Florida","South","South Atlantic","12119","28.715444","-82.069952 ","25219","602","25219","602","","2019","132420","NYTIMES-USCENSUS"
"7/26/2022 12:00:00 AM","Shelby County","Alabama","South","East South Central","01117","33.263043","-86.678089 ","66336","461","66336","461","","2019","217702","NYTIMES-USCENSUS"
"7/26/2022 12:00:00 AM","Shelby County","Iowa","Midwest","West North Central","19165","41.679014","-95.308917 ","2849","52","2849","52","","2019","11454","NYTIMES-USCENSUS"
"7/26/2022 12:00:00 AM","Shelby County","Ohio","Midwest","East North Central","39149","40.33668","-84.204142 ","11667","189","11667","189","","2019","48590","NYTIMES-USCENSUS"
"7/26/2022 12:00:00 AM","Shelby County","Illinois","Midwest","East North Central","17173","39.384926","-88.798862 ","6672","80","6672","80","","2019","21634","NYTIMES-USCENSUS"
"7/26/2022 12:00:00 AM","Shelby County","Kentucky","South","East South Central","21211","38.239011","-85.228247 ","14600","167","14600","167","","2019","49024","NYTIMES-USCENSUS"
"7/26/2022 12:00:00 AM","Shelby County","Missouri","Midwest","West North Central","29205","39.797531","-92.088719 ","1786","15","1786","15","","2019","5930","NYTIMES-USCENSUS"
"7/26/2022 12:00:00 AM","Shelby County","Indiana","Midwest","East North Central","18145","39.524135","-85.792174 ","14598","184","14598","184","","2019","44729","NYTIMES-USCENSUS"
"7/26/2022 12:00:00 AM","Shelby County","Texas","South","West South Central","48419","31.790139","-94.142579 ","4694","134","4694","134","","2019","25274","NYTIMES-USCENSUS"
"7/26/2022 12:00:00 AM","Seward County","Nebraska","Midwest","West North Central","31159","40.871944","-97.140383 ","3488","43","3488","43","","2019","17284","NYTIMES-USCENSUS"
"7/26/2022 12:00:00 AM","Sevier County","Utah","West","Mountain","49041","38.746824","-111.81193 ","5627","30","5627","30","","2019","21620","NYTIMES-USCENSUS"
"7/26/2022 12:00:00 AM","Sevier County","Arkansas","South","West South Central","05133","33.994877","-94.243279 ","6318","76","6318","76","","2019","17007","NYTIMES-USCENSUS"
"7/26/2022 12:00:00 AM","Seneca County","New York","Northeast","Middle Atlantic","36099","42.782294","-76.827088 ","6706","94","6706","94","","2019","34016","NYTIMES-USCENSUS"
"7/26/2022 12:00:00 AM","Seminole County","Oklahoma","South","West South Central","40133","35.158366","-96.602857 ","6488","136","6488","136","","2019","24258","NYTIMES-USCENSUS"
"7/26/2022 12:00:00 AM","Seminole County","Florida","South","South Atlantic","12117","28.690065","-81.131975 ","117296","1128","117296","1128","","2019","471826","NYTIMES-USCENSUS"
"7/26/2022 12:00:00 AM","Scott County","Iowa","Midwest","West North Central","19163","41.642079","-90.622289 ","44059","404","44059","404","","2019","172943","NYTIMES-USCENSUS"
"7/26/2022 12:00:00 AM","Scott County","Mississippi","South","East South Central","28123","32.411959","-89.533486 ","7014","121","7014","121","","2019","28124","NYTIMES-USCENSUS"
"7/26/2022 12:00:00 AM","Scott County","Virginia","South","South Atlantic","51169","36.712776","-82.613624 ","6219","114","6219","114","","2019","21566","NYTIMES-USCENSUS"
"7/26/2022 12:00:00 AM","Scott County","Missouri","Midwest","West North Central","29201","37.047793","-89.568098 ","11794","162","11794","162","","2019","38280","NYTIMES-USCENSUS"
"7/26/2022 12:00:00 AM","Scott County","Kansas","Midwest","West North Central","20171","38.481877","-100.90636 ","1358","34","1358","34","","2019","4823","NYTIMES-USCENSUS"
"7/26/2022 12:00:00 AM","Scott County","Indiana","Midwest","East North Central","18143","38.679431","-85.751898 ","8365","109","8365","109","","2019","23873","NYTIMES-USCENSUS"
"7/26/2022 12:00:00 AM","Scott County","Minnesota","Midwest","West North Central","27139","44.651805","-93.533731 ","43789","268","43789","268","","2019","149013","NYTIMES-USCENSUS"
"7/26/2022 12:00:00 AM","Scott County","Tennessee","South","East South Central","47151","36.435234","-84.50352 ","9650","121","9650","121","","2019","22068","NYTIMES-USCENSUS"
"7/26/2022 12:00:00 AM","Scott County","Arkansas","South","West South Central","05127","34.858869","-94.063641 ","2546","44","2546","44","","2019","10281","NYTIMES-USCENSUS"
"7/26/2022 12:00:00 AM","Scotland County","North Carolina","South","South Atlantic","37165","34.840023","-79.477337 ","10987","135","10987","135","","2019","34823","NYTIMES-USCENSUS"
"7/26/2022 12:00:00 AM","Schuyler County","New York","Northeast","Middle Atlantic","36097","42.419776","-76.938603 ","3925","28","3925","28","","2019","17807","NYTIMES-USCENSUS"
"7/26/2022 12:00:00 AM","Schuyler County","Illinois","Midwest","East North Central","17169","40.156905","-90.613464 ","2197","29","2197","29","","2019","6768","NYTIMES-USCENSUS"
"7/26/2022 12:00:00 AM","Richmond County","Georgia","South","South Atlantic","13245","33.361486","-82.074998 ","53959","906","53959","906","","2019","202518","NYTIMES-USCENSUS"
"7/26/2022 12:00:00 AM","Richmond County","North Carolina","South","South Atlantic","37153","35.004636","-79.755695 ","14026","195","14026","195","","2019","44829","NYTIMES-USCENSUS"
"7/26/2022 12:00:00 AM","Richland County","Ohio","Midwest","East North Central","39139","40.774159","-82.542781 ","33704","516","33704","516","","2019","121154","NYTIMES-USCENSUS"
"7/26/2022 12:00:00 AM","Richland County","Illinois","Midwest","East North Central","17159","38.712187","-88.085452 ","5549","83","5549","83","","2019","15513","NYTIMES-USCENSUS"
"7/26/2022 12:00:00 AM","Richland County","Montana","West","Mountain","30083","47.785633","-104.563408 ","2740","36","2740","36","","2019","10803","NYTIMES-USCENSUS"
"7/26/2022 12:00:00 AM","Richland County","North Dakota","Midwest","West North Central","38077","46.265219","-96.93796 ","4272","23","4272","23","","2019","16177","NYTIMES-USCENSUS"
"7/26/2022 12:00:00 AM","Richland County","South Carolina","South","South Atlantic","45079","34.029095","-80.898037 ","138133","967","138133","967","","2019","415759","NYTIMES-USCENSUS"
"7/26/2022 12:00:00 AM","Rice County","Kansas","Midwest","West North Central","20159","38.347178","-98.201415 ","2748","27","2748","27","","2019","9537","NYTIMES-USCENSUS"
"7/26/2022 12:00:00 AM","Renville County","North Dakota","Midwest","West North Central","38075","48.712781","-101.658152 ","576","15","576","15","","2019","2327","NYTIMES-USCENSUS"
"7/26/2022 12:00:00 AM","Pennington County","South Dakota","Midwest","West North Central","46103","44.002349","-102.823801 ","34956","348","34956","348","","2019","113775","NYTIMES-USCENSUS"
"7/26/2022 12:00:00 AM","Pendleton County","Kentucky","South","East South Central","21191","38.696284","-84.351943 ","3678","39","3678","39","","2019","14590","NYTIMES-USCENSUS"
"7/26/2022 12:00:00 AM","Pawnee County","Oklahoma","South","West South Central","40117","36.313704","-96.696669 ","4358","85","4358","85","","2019","16376","NYTIMES-USCENSUS"
"7/26/2022 12:00:00 AM","Paulding County","Ohio","Midwest","East North Central","39125","41.118948","-84.582125 ","4874","74","4874","74","","2019","18672","NYTIMES-USCENSUS"
"7/26/2022 12:00:00 AM","Park County","Wyoming","West","Mountain","56029","44.492387","-109.593597 ","7231","146","7231","146","","2019","29194","NYTIMES-USCENSUS"
"7/26/2022 12:00:00 AM","Wells County","North Dakota","Midwest","West North Central","38103","47.580851","-99.682213 ","1073","12","1073","12","","2019","3834","NYTIMES-USCENSUS"
"7/26/2022 12:00:00 AM","Webster County","Mississippi","South","East South Central","28155","33.612061","-89.283961 ","3580","72","3580","72","","2019","9689","NYTIMES-USCENSUS"
"7/26/2022 12:00:00 AM","Yuma County","Colorado","West","Mountain","08125","40.00077","-102.421649 ","2088","25","2088","25","","2019","10019","NYTIMES-USCENSUS"
"7/26/2022 12:00:00 AM","York County","Maine","Northeast","New England","23031","43.426019","-70.668425 ","45603","303","45603","303","","2019","207641","NYTIMES-USCENSUS"
"7/26/2022 12:00:00 AM","York County","South Carolina","South","South Atlantic","45091","34.970188","-81.183187 ","84396","692","84396","692","","2019","280979","NYTIMES-USCENSUS"
"7/26/2022 12:00:00 AM","York County","Nebraska","Midwest","West North Central","31185","40.873056","-97.596742 ","4170","21","4170","21","","2019","13679","NYTIMES-USCENSUS"
"7/26/2022 12:00:00 AM","York County","Virginia","South","South Atlantic","51199","37.220914","-76.395533 ","11580","113","11580","113","","2019","68280","NYTIMES-USCENSUS"
"7/26/2022 12:00:00 AM","Warren County","Tennessee","South","East South Central","47177","35.67825","-85.777343 ","13642","181","13642","181","","2019","41277","NYTIMES-USCENSUS"
"7/26/2022 12:00:00 AM","Warren County","Mississippi","South","East South Central","28149","32.356095","-90.852384 ","11358","206","11358","206","","2019","45381","NYTIMES-USCENSUS"
"7/26/2022 12:00:00 AM","Warren County","Ohio","Midwest","East North Central","39165","39.425663","-84.16994 ","63072","592","63072","592","","2019","234602","NYTIMES-USCENSUS"
"7/26/2022 12:00:00 AM","Warren County","Pennsylvania","Northeast","Middle Atlantic","42123","41.834298","-79.298182 ","8097","218","8097","218","","2019","39191","NYTIMES-USCENSUS"
"7/26/2022 12:00:00 AM","Warren County","New Jersey","Northeast","Middle Atlantic","34041","40.853491","-75.009498 ","27219","346","27219","346","","2019","105267","NYTIMES-USCENSUS"
"7/26/2022 12:00:00 AM","Warren County","Iowa","Midwest","West North Central","19181","41.332446","-93.568751 ","13217","137","13217","137","","2019","51466","NYTIMES-USCENSUS"
"7/26/2022 12:00:00 AM","Warren County","Georgia","South","South Atlantic","13301","33.419169","-82.688012 ","1137","30","1137","30","","2019","5254","NYTIMES-USCENSUS"
"7/26/2022 12:00:00 AM","Warren County","Illinois","Midwest","East North Central","17187","40.850441","-90.620223 ","4423","89","4423","89","","2019","16844","NYTIMES-USCENSUS"
"7/26/2022 12:00:00 AM","Warren County","Kentucky","South","East South Central","21227","36.995634","-86.423579 ","46302","386","46302","386","","2019","132896","NYTIMES-USCENSUS"
"7/26/2022 12:00:00 AM","Warren County","Missouri","Midwest","West North Central","29219","38.761902","-91.159306 ","8744","104","8744","104","","2019","35649","NYTIMES-USCENSUS"
"7/26/2022 12:00:00 AM","Warren County","North Carolina","South","South Atlantic","37185","36.398105","-78.099899 ","4838","47","4838","47","","2019","19731","NYTIMES-USCENSUS"
"7/26/2022 12:00:00 AM","Warren County","Virginia","South","South Atlantic","51187","38.908221","-78.207594 ","9501","160","9501","160","","2019","40164","NYTIMES-USCENSUS"
"7/26/2022 12:00:00 AM","Warren County","New York","Northeast","Middle Atlantic","36113","43.555105","-73.838139 ","16217","131","16217","131","","2019","63944","NYTIMES-USCENSUS"
"7/26/2022 12:00:00 AM","Ward County","North Dakota","Midwest","West North Central","38101","48.216686","-101.540537 ","21853","251","21853","251","","2019","67641","NYTIMES-USCENSUS"
"7/26/2022 12:00:00 AM","Walworth County","South Dakota","Midwest","West North Central","46129","45.427605","-100.027856 ","1378","26","1378","26","","2019","5435","NYTIMES-USCENSUS"
"7/26/2022 12:00:00 AM","Walton County","Georgia","South","South Atlantic","13297","33.783887","-83.731829 ","23316","435","23316","435","","2019","94593","NYTIMES-USCENSUS"
"7/26/2022 12:00:00 AM","Walker County","Georgia","South","South Atlantic","13295","34.735802","-85.305456 ","18193","254","18193","254","","2019","69761","NYTIMES-USCENSUS"
"7/26/2022 12:00:00 AM","Walker County","Texas","South","West South Central","48471","30.743163","-95.569825 ","20334","214","20334","214","","2019","72971","NYTIMES-USCENSUS"
"7/26/2022 12:00:00 AM","Wabash County","Indiana","Midwest","East North Central","18169","40.843747","-85.795192 ","9157","160","9157","160","","2019","30996","NYTIMES-USCENSUS"
"7/26/2022 12:00:00 AM","Tazewell County","Illinois","Midwest","East North Central","17179","40.508074","-89.51626 ","41197","515","41197","515","","2019","131803","NYTIMES-USCENSUS"
"7/26/2022 12:00:00 AM","Taylor County","Georgia","South","South Atlantic","13269","32.554667","-84.251426 ","2095","54","2095","54","","2019","8020","NYTIMES-USCENSUS"
"7/26/2022 12:00:00 AM","Taylor County","Florida","South","South Atlantic","12123","29.967146","-83.639573 ","7382","102","7382","102","","2019","21569","NYTIMES-USCENSUS"
"7/26/2022 12:00:00 AM","Taylor County","Texas","South","West South Central","48441","32.297126","-99.89043 ","37433","731","37433","731","","2019","138034","NYTIMES-USCENSUS"
"7/26/2022 12:00:00 AM","Taylor County","West Virginia","South","South Atlantic","54091","39.332478","-80.046554 ","5049","73","5049","73","","2019","16695","NYTIMES-USCENSUS"
"7/26/2022 12:00:00 AM","Taylor County","Iowa","Midwest","West North Central","19173","40.737949","-94.697108 ","1359","22","1359","22","","2019","6121","NYTIMES-USCENSUS"
"7/26/2022 12:00:00 AM","Taylor County","Kentucky","South","East South Central","21217","37.36621","-85.328059 ","10210","129","10210","129","","2019","25769","NYTIMES-USCENSUS"
"7/26/2022 12:00:00 AM","Talbot County","Maryland","South","South Atlantic","24041","38.748349","-76.178476 ","6198","92","6198","92","","2019","37181","NYTIMES-USCENSUS"
"7/26/2022 12:00:00 AM","Sussex County","Virginia","South","South Atlantic","51183","36.926645","-77.259732 ","2627","43","2627","43","","2019","11159","NYTIMES-USCENSUS"
"7/26/2022 12:00:00 AM","Sussex County","Delaware","South","South Atlantic","10005","38.673227","-75.337024 ","68413","885","68413","885","","2019","234225","NYTIMES-USCENSUS"
"7/26/2022 12:00:00 AM","Surry County","Virginia","South","South Atlantic","51181","37.119761","-76.880172 ","1206","20","1206","20","","2019","6422","NYTIMES-USCENSUS"
"7/26/2022 12:00:00 AM","Sumter County","Georgia","South","South Atlantic","13261","32.042266","-84.204294 ","7384","171","7384","171","","2019","29524","NYTIMES-USCENSUS"
"7/26/2022 12:00:00 AM","Sumter County","South Carolina","South","South Atlantic","45085","33.91614","-80.382376 ","31124","405","31124","405","","2019","106721","NYTIMES-USCENSUS"
"7/26/2022 12:00:00 AM","Sumter County","Alabama","South","East South Central","01119","32.597481","-88.200057 ","2790","52","2790","52","","2019","12427","NYTIMES-USCENSUS"
"7/26/2022 12:00:00 AM","Sumner County","Tennessee","South","East South Central","47165","36.472423","-86.458405 ","56924","745","56924","745","","2019","191283","NYTIMES-USCENSUS"
"7/26/2022 12:00:00 AM","Sheridan County","Nebraska","Midwest","West North Central","31161","42.512289","-102.36828 ","1011","23","1011","23","","2019","5246","NYTIMES-USCENSUS"
"7/26/2022 12:00:00 AM","Sheridan County","Wyoming","West","Mountain","56033","44.781369","-106.881211 ","8881","81","8881","81","","2019","30485","NYTIMES-USCENSUS"
"7/26/2022 12:00:00 AM","Houston County","Alabama","South","East South Central","01069","31.158183","-85.296411 ","28123","512","28123","512","","2019","105882","NYTIMES-USCENSUS"
"7/26/2022 12:00:00 AM","Houston County","Minnesota","Midwest","West North Central","27055","43.66699","-91.501556 ","4944","20","4944","20","","2019","18600","NYTIMES-USCENSUS"
"7/26/2022 12:00:00 AM","Hopkins County","Kentucky","South","East South Central","21107","37.31107","-87.542196 ","16103","259","16103","259","","2019","44686","NYTIMES-USCENSUS"
"7/26/2022 12:00:00 AM","Holt County","Missouri","Midwest","West North Central","29087","40.095724","-95.219072 ","1137","30","1137","30","","2019","4403","NYTIMES-USCENSUS"
"7/26/2022 12:00:00 AM","Holmes County","Mississippi","South","East South Central","28051","33.125942","-90.091197 ","4720","104","4720","104","","2019","17010","NYTIMES-USCENSUS"
"7/26/2022 12:00:00 AM","Holmes County","Florida","South","South Atlantic","12059","30.862007","-85.815939 ","5746","93","5746","93","","2019","19617","NYTIMES-USCENSUS"
"7/26/2022 12:00:00 AM","Hillsborough County","New Hampshire","Northeast","New England","33011","42.911532","-71.723055 ","108396","942","108396","942","","2019","417025","NYTIMES-USCENSUS"
"7/26/2022 12:00:00 AM","Grant County","Kentucky","South","East South Central","21081","38.649167","-84.625924 ","8456","68","8456","68","","2019","25069","NYTIMES-USCENSUS"
"7/26/2022 12:00:00 AM","Grant County","Indiana","Midwest","East North Central","18053","40.515758","-85.654946 ","18367","362","18367","362","","2019","65769","NYTIMES-USCENSUS"
"7/26/2022 12:00:00 AM","Grant County","Kansas","Midwest","West North Central","20067","37.547537","-101.299362 ","2395","37","2395","37","","2019","7150","NYTIMES-USCENSUS"
"7/26/2022 12:00:00 AM","Grant County","Minnesota","Midwest","West North Central","27051","45.930743","-96.010699 ","1567","12","1567","12","","2019","5972","NYTIMES-USCENSUS"
"7/26/2022 12:00:00 AM","Grant County","West Virginia","South","South Atlantic","54023","39.105988","-79.195064 ","4040","56","4040","56","","2019","11568","NYTIMES-USCENSUS"
"7/26/2022 12:00:00 AM","Grant County","Oregon","West","Pacific","41023","44.496326","-119.014057 ","1970","22","1970","22","","2019","7199","NYTIMES-USCENSUS"
"7/26/2022 12:00:00 AM","Grant County","Oklahoma","South","West South Central","40053","36.788254","-97.788151 ","1074","16","1074","16","","2019","4333","NYTIMES-USCENSUS"
"7/26/2022 12:00:00 AM","Grant County","Arkansas","South","West South Central","05053","34.285568","-92.422979 ","4713","62","4713","62","","2019","18265","NYTIMES-USCENSUS"
"7/26/2022 12:00:00 AM","Grant County","Washington","West","Pacific","53025","47.213633","-119.467788 ","29101","263","29101","263","","2019","97733","NYTIMES-USCENSUS"
"7/26/2022 12:00:00 AM","Grant County","New Mexico","West","Mountain","35017","32.732087","-108.381504 ","8071","103","8071","103","","2019","26998","NYTIMES-USCENSUS"
"7/26/2022 12:00:00 AM","Grant County","South Dakota","Midwest","West North Central","46051","45.172637","-96.772261 ","2123","51","2123","51","","2019","7052","NYTIMES-USCENSUS"
"7/26/2022 12:00:00 AM","Grand County","Utah","West","Mountain","49019","38.974326","-109.57345 ","2572","6","2572","6","","2019","9754","NYTIMES-USCENSUS"
"7/26/2022 12:00:00 AM","Graham County","Arizona","West","Mountain","04009","32.931828","-109.87831 ","12531","180","12531","180","","2019","38837","NYTIMES-USCENSUS"
"7/26/2022 12:00:00 AM","Graham County","North Carolina","South","South Atlantic","37075","35.348364","-83.830915 ","2439","31","2439","31","","2019","8441","NYTIMES-USCENSUS"
"7/26/2022 12:00:00 AM","Grady County","Georgia","South","South Atlantic","13131","30.875908","-84.24508 ","6207","113","6207","113","","2019","24633","NYTIMES-USCENSUS"
"7/26/2022 12:00:00 AM","Golden Valley County","Montana","West","Mountain","30037","46.380624","-109.174586 ","154","5","154","5","","2019","821","NYTIMES-USCENSUS"
"7/26/2022 12:00:00 AM","Gloucester County","New Jersey","Northeast","Middle Atlantic","34015","39.722875","-75.145679 ","78823","989","78823","989","","2019","291636","NYTIMES-USCENSUS"
"7/26/2022 12:00:00 AM","Essex County","New York","Northeast","Middle Atlantic","36031","44.109601","-73.778431 ","6688","65","6688","65","","2019","36885","NYTIMES-USCENSUS"
"7/26/2022 12:00:00 AM","Essex County","New Jersey","Northeast","Middle Atlantic","34013","40.7874","-74.246292 ","247611","3648","247611","3648","","2019","798975","NYTIMES-USCENSUS"
"7/26/2022 12:00:00 AM","Essex County","Massachusetts","Northeast","New England","25009","42.642708","-70.864909 ","228487","2838","228487","2838","","2019","789034","NYTIMES-USCENSUS"
"7/26/2022 12:00:00 AM","Essex County","Vermont","Northeast","New England","50009","44.724021","-71.732736 ","1360","3","1360","3","","2019","6163","NYTIMES-USCENSUS"
"7/26/2022 12:00:00 AM","Escambia County","Florida","South","South Atlantic","12033","30.529998","-87.320322 ","84363","1347","84363","1347","","2019","318316","NYTIMES-USCENSUS"
"7/26/2022 12:00:00 AM","Erie County","New York","Northeast","Middle Atlantic","36029","42.752759","-78.778192 ","241261","2708","241261","2708","","2019","918702","NYTIMES-USCENSUS"
"7/26/2022 12:00:00 AM","Erie County","Ohio","Midwest","East North Central","39043","41.394143","-82.586835 ","21194","268","21194","268","","2019","74266","NYTIMES-USCENSUS"
"7/26/2022 12:00:00 AM","Emmet County","Michigan","Midwest","East North Central","26047","45.590094","-84.986822 ","6966","94","6966","94","","2019","33415","NYTIMES-USCENSUS"
"7/26/2022 12:00:00 AM","Elmore County","Idaho","West","Mountain","16039","43.394698","-115.471205 ","7943","70","7943","70","","2019","27511","NYTIMES-USCENSUS"
"7/26/2022 12:00:00 AM","Ellis County","Texas","South","West South Central","48139","32.346878","-96.79694 ","52239","587","52239","587","","2019","184826","NYTIMES-USCENSUS"
"7/26/2022 12:00:00 AM","Ellis County","Kansas","Midwest","West North Central","20051","38.914597","-99.317313 ","7437","86","7437","86","","2019","28553","NYTIMES-USCENSUS"
"7/26/2022 12:00:00 AM","Elk County","Pennsylvania","Northeast","Middle Atlantic","42047","41.427332","-78.653937 ","7555","104","7555","104","","2019","29910","NYTIMES-USCENSUS"
"7/26/2022 12:00:00 AM","Elbert County","Georgia","South","South Atlantic","13105","34.116413","-82.841909 ","4699","112","4699","112","","2019","19194","NYTIMES-USCENSUS"
"7/26/2022 12:00:00 AM","El Paso County","Texas","South","West South Central","48141","31.76648","-106.241423 ","226529","3764","226529","3764","","2019","839238","NYTIMES-USCENSUS"
"7/26/2022 12:00:00 AM","Effingham County","Georgia","South","South Atlantic","13103","32.361688","-81.343355 ","14352","200","14352","200","","2019","64296","NYTIMES-USCENSUS"
"7/26/2022 12:00:00 AM","Edwards County","Kansas","Midwest","West North Central","20047","37.883595","-99.304746 ","574","13","574","13","","2019","2798","NYTIMES-USCENSUS"
"7/26/2022 12:00:00 AM","Edwards County","Illinois","Midwest","East North Central","17047","38.417095","-88.047941 ","1876","29","1876","29","","2019","6395","NYTIMES-USCENSUS"
"7/26/2022 12:00:00 AM","Eddy County","North Dakota","Midwest","West North Central","38027","47.723436","-98.900474 ","797","6","797","6","","2019","2287","NYTIMES-USCENSUS"
"7/26/2022 12:00:00 AM","Dade County","Georgia","South","South Atlantic","13083","34.852424","-85.506201 ","3606","33","3606","33","","2019","16116","NYTIMES-USCENSUS"
"7/26/2022 12:00:00 AM","Park County","Colorado","West","Mountain","08093","39.118914","-105.717648 ","3222","22","3222","22","","2019","18845","NYTIMES-USCENSUS"
"7/26/2022 12:00:00 AM","Panola County","Mississippi","South","East South Central","28107","34.365205","-89.963065 ","11216","170","11216","170","","2019","34192","NYTIMES-USCENSUS"
"7/26/2022 12:00:00 AM","Nevada County","Arkansas","South","West South Central","05099","33.666699","-93.305072 ","2383","45","2383","45","","2019","8252","NYTIMES-USCENSUS"
"7/26/2022 12:00:00 AM","Nemaha County","Kansas","Midwest","West North Central","20131","39.791043","-96.005381 ","3389","60","3389","60","","2019","10231","NYTIMES-USCENSUS"
"7/26/2022 12:00:00 AM","Nelson County","North Dakota","Midwest","West North Central","38063","47.918667","-98.204428 ","804","18","804","18","","2019","2879","NYTIMES-USCENSUS"
"7/26/2022 12:00:00 AM","Nelson County","Virginia","South","South Atlantic","51125","37.789079","-78.88344 ","2852","36","2852","36","","2019","14930","NYTIMES-USCENSUS"
"7/26/2022 12:00:00 AM","Nassau County","New York","Northeast","Middle Atlantic","36059","40.729612","-73.589414 ","471679","3953","471679","3953","","2019","1356924","NYTIMES-USCENSUS"
"7/26/2022 12:00:00 AM","McLean County","Illinois","Midwest","East North Central","17113","40.494559","-88.844539 ","57521","338","57521","338","","2019","171517","NYTIMES-USCENSUS"
"7/26/2022 12:00:00 AM","McLean County","Kentucky","South","East South Central","21149","37.526707","-87.265597 ","2825","53","2825","53","","2019","9207","NYTIMES-USCENSUS"
"7/26/2022 12:00:00 AM","McIntosh County","Georgia","South","South Atlantic","13191","31.485629","-81.372141 ","2627","37","2627","37","","2019","14378","NYTIMES-USCENSUS"
"7/26/2022 12:00:00 AM","McIntosh County","North Dakota","Midwest","West North Central","38051","46.108682","-99.416487 ","721","9","721","9","","2019","2497","NYTIMES-USCENSUS"
"7/26/2022 12:00:00 AM","McHenry County","North Dakota","Midwest","West North Central","38049","48.233842","-100.633267 ","1405","31","1405","31","","2019","5745","NYTIMES-USCENSUS"
"7/26/2022 12:00:00 AM","McDowell County","West Virginia","South","South Atlantic","54047","37.38276","-81.658204 ","6269","77","6269","77","","2019","17624","NYTIMES-USCENSUS"
"7/26/2022 12:00:00 AM","Lawrence County","Missouri","Midwest","West North Central","29109","37.10659","-93.830551 ","8225","168","8225","168","","2019","38355","NYTIMES-USCENSUS"
"7/26/2022 12:00:00 AM","Lawrence County","Illinois","Midwest","East North Central","17101","38.718954","-87.730221 ","5818","52","5818","52","","2019","15678","NYTIMES-USCENSUS"
"7/26/2022 12:00:00 AM","Lawrence County","Arkansas","South","West South Central","05075","36.041098","-91.101153 ","5707","82","5707","82","","2019","16406","NYTIMES-USCENSUS"
"7/26/2022 12:00:00 AM","Lawrence County","Pennsylvania","Northeast","Middle Atlantic","42073","40.992735","-80.334446 ","20116","427","20116","427","","2019","85512","NYTIMES-USCENSUS"
"7/26/2022 12:00:00 AM","Lawrence County","Mississippi","South","East South Central","28077","31.550009","-90.10753 ","3910","57","3910","57","","2019","12586","NYTIMES-USCENSUS"
"7/26/2022 12:00:00 AM","Lawrence County","Kentucky","South","East South Central","21127","38.074453","-82.73829 ","4813","74","4813","74","","2019","15317","NYTIMES-USCENSUS"
"7/26/2022 12:00:00 AM","Lawrence County","Alabama","South","East South Central","01079","34.529776","-87.321865 ","8161","161","8161","161","","2019","32924","NYTIMES-USCENSUS"
"7/26/2022 12:00:00 AM","Lawrence County","Ohio","Midwest","East North Central","39087","38.603866","-82.517186 ","19744","260","19744","260","","2019","59463","NYTIMES-USCENSUS"
"7/26/2022 12:00:00 AM","Lawrence County","Indiana","Midwest","East North Central","18093","38.839815","-86.48782 ","12954","266","12954","266","","2019","45370","NYTIMES-USCENSUS"
"7/26/2022 12:00:00 AM","Lawrence County","South Dakota","Midwest","West North Central","46081","44.348514","-103.806362 ","7031","84","7031","84","","2019","25844","NYTIMES-USCENSUS"
"7/26/2022 12:00:00 AM","Laurens County","South Carolina","South","South Atlantic","45059","34.483676","-82.005498 ","19703","299","19703","299","","2019","67493","NYTIMES-USCENSUS"
"7/26/2022 12:00:00 AM","Lauderdale County","Mississippi","South","East South Central","28075","32.403998","-88.660449 ","19908","372","19908","372","","2019","74125","NYTIMES-USCENSUS"
"7/26/2022 12:00:00 AM","Lauderdale County","Tennessee","South","East South Central","47097","35.762951","-89.627732 ","8194","108","8194","108","","2019","25633","NYTIMES-USCENSUS"
"7/26/2022 12:00:00 AM","Lane County","Kansas","Midwest","West North Central","20101","38.481286","-100.466185 ","308","12","308","12","","2019","1535","NYTIMES-USCENSUS"
"7/26/2022 12:00:00 AM","Lancaster County","Pennsylvania","Northeast","Middle Atlantic","42071","40.041992","-76.250198 ","130175","1939","130175","1939","","2019","545724","NYTIMES-USCENSUS"
"7/26/2022 12:00:00 AM","Lancaster County","Virginia","South","South Atlantic","51103","37.704843","-76.412663 ","2030","33","2030","33","","2019","10603","NYTIMES-USCENSUS"
"7/26/2022 12:00:00 AM","Lancaster County","South Carolina","South","South Atlantic","45057","34.686818","-80.703688 ","27483","283","27483","283","","2019","98012","NYTIMES-USCENSUS"
"7/26/2022 12:00:00 AM","Kiowa County","Kansas","Midwest","West North Central","20097","37.561231","-99.286539 ","693","7","693","7","","2019","2475","NYTIMES-USCENSUS"
"7/26/2022 12:00:00 AM","Kiowa County","Oklahoma","South","West South Central","40075","34.921489","-98.981617 ","2028","55","2028","55","","2019","8708","NYTIMES-USCENSUS"
"7/26/2022 12:00:00 AM","King County","Washington","West","Pacific","53033","47.490552","-121.833977 ","487951","2977","487951","2977","","2019","2252782","NYTIMES-USCENSUS"
"7/26/2022 12:00:00 AM","Kent County","Maryland","South","South Atlantic","24029","39.241279","-76.125987 ","3449","70","3449","70","","2019","19422","NYTIMES-USCENSUS"
"7/26/2022 12:00:00 AM","Kent County","Delaware","South","South Atlantic","10001","39.097088","-75.502982 ","56722","666","56722","666","","2019","180786","NYTIMES-USCENSUS"
"7/26/2022 12:00:00 AM","Kent County","Rhode Island","Northeast","New England","44003","41.675118","-71.580282 ","55769","519","55769","519","","2019","164292","NYTIMES-USCENSUS"
"7/26/2022 12:00:00 AM","Howard County","Nebraska","Midwest","West North Central","31093","41.216851","-98.513342 ","1228","16","1228","16","","2019","6445","NYTIMES-USCENSUS"
"7/26/2022 12:00:00 AM","Howard County","Texas","South","West South Central","48227","32.30343","-101.438721 ","7188","185","7188","185","","2019","36664","NYTIMES-USCENSUS"
"7/26/2022 12:00:00 AM","Howard County","Indiana","Midwest","East North Central","18067","40.483537","-86.114118 ","26797","454","26797","454","","2019","82544","NYTIMES-USCENSUS"
"7/26/2022 12:00:00 AM","Howard County","Arkansas","South","West South Central","05061","34.083064","-93.990931 ","4083","52","4083","52","","2019","13202","NYTIMES-USCENSUS"
"7/26/2022 12:00:00 AM","Howard County","Maryland","South","South Atlantic","24027","39.252264","-76.924406 ","53957","390","53957","390","","2019","325690","NYTIMES-USCENSUS"
"7/26/2022 12:00:00 AM","Howard County","Iowa","Midwest","West North Central","19089","43.365312","-92.321908 ","2146","36","2146","36","","2019","9158","NYTIMES-USCENSUS"
"7/26/2022 12:00:00 AM","Houston County","Georgia","South","South Atlantic","13153","32.458287","-83.662522 ","43291","506","43291","506","","2019","157863","NYTIMES-USCENSUS"
"7/26/2022 12:00:00 AM","Houston County","Texas","South","West South Central","48225","31.323036","-95.4216 ","4455","113","4455","113","","2019","22968","NYTIMES-USCENSUS"
"7/26/2022 12:00:00 AM","Ellsworth County","Kansas","Midwest","West North Central","20053","38.700845","-98.205355 ","2085","32","2085","32","","2019","6102","NYTIMES-USCENSUS"
"7/26/2022 12:00:00 AM","Elliott County","Kentucky","South","East South Central","21063","38.116883","-83.096116 ","2858","20","2858","20","","2019","7517","NYTIMES-USCENSUS"
"7/26/2022 12:00:00 AM","Elko County","Nevada","West","Mountain","32007","41.141133","-115.351424 ","12210","139","12210","139","","2019","52778","NYTIMES-USCENSUS"
"7/26/2022 12:00:00 AM","Elkhart County","Indiana","Midwest","East North Central","18039","41.600693","-85.863986 ","56159","745","56159","745","","2019","206341","NYTIMES-USCENSUS"
"7/26/2022 12:00:00 AM","Elk County","Kansas","Midwest","West North Central","20049","37.456026","-96.244642 ","590","12","590","12","","2019","2530","NYTIMES-USCENSUS"
"7/26/2022 12:00:00 AM","Elbert County","Colorado","West","Mountain","08039","39.315157","-104.114076 ","5374","42","5374","42","","2019","26729","NYTIMES-USCENSUS"
"7/26/2022 12:00:00 AM","El Paso County","Colorado","West","Mountain","08041","38.827383","-104.527472 ","212995","1761","212995","1761","","2019","720403","NYTIMES-USCENSUS"
"7/26/2022 12:00:00 AM","El Dorado County","California","West","Pacific","06017","38.785612","-120.534225 ","34859","222","34859","222","","2019","192843","NYTIMES-USCENSUS"
"7/26/2022 12:00:00 AM","Effingham County","Illinois","Midwest","East North Central","17049","39.047945","-88.592849 ","11444","150","11444","150","","2019","34008","NYTIMES-USCENSUS"
"7/26/2022 12:00:00 AM","Edmunds County","South Dakota","Midwest","West North Central","46045","45.41168","-99.205362 ","972","16","972","16","","2019","3829","NYTIMES-USCENSUS"
"7/26/2022 12:00:00 AM","Edmonson County","Kentucky","South","East South Central","21061","37.227514","-86.218015 ","2724","50","2724","50","","2019","12150","NYTIMES-USCENSUS"
"7/26/2022 12:00:00 AM","Edgecombe County","North Carolina","South","South Atlantic","37065","35.917077","-77.602742 ","14773","155","14773","155","","2019","51472","NYTIMES-USCENSUS"
"7/26/2022 12:00:00 AM","Edgar County","Illinois","Midwest","East North Central","17045","39.679037","-87.74711 ","5618","80","5618","80","","2019","17161","NYTIMES-USCENSUS"
"7/26/2022 12:00:00 AM","Eddy County","New Mexico","West","Mountain","35015","32.457835","-104.306434 ","17902","302","17902","302","","2019","58460","NYTIMES-USCENSUS"
"7/26/2022 12:00:00 AM","Ector County","Texas","South","West South Central","48135","31.865301","-102.542507 ","39280","710","39280","710","","2019","166223","NYTIMES-USCENSUS"
"7/26/2022 12:00:00 AM","Echols County","Georgia","South","South Atlantic","13101","30.714008","-82.897376 ","974","12","974","12","","2019","4006","NYTIMES-USCENSUS"
"7/26/2022 12:00:00 AM","Cuyahoga County","Ohio","Midwest","East North Central","39035","41.555037","-81.604957 ","297673","3854","297673","3854","","2019","1235072","NYTIMES-USCENSUS"
"7/26/2022 12:00:00 AM","Curry County","New Mexico","West","Mountain","35009","34.572984","-103.346055 ","13768","220","13768","220","","2019","48954","NYTIMES-USCENSUS"
"7/26/2022 12:00:00 AM","Currituck County","North Carolina","South","South Atlantic","37053","36.372174","-75.941224 ","5478","37","5478","37","","2019","27763","NYTIMES-USCENSUS"
"7/26/2022 12:00:00 AM","Cuming County","Nebraska","Midwest","West North Central","31039","41.915865","-96.788517 ","1880","15","1880","15","","2019","8846","NYTIMES-USCENSUS"
"7/26/2022 12:00:00 AM","Cumberland County","Kentucky","South","East South Central","21057","36.782372","-85.388484 ","2354","33","2354","33","","2019","6614","NYTIMES-USCENSUS"
"7/26/2022 12:00:00 AM","Culpeper County","Virginia","South","South Atlantic","51047","38.48593","-77.956476 ","12393","156","12393","156","","2019","52605","NYTIMES-USCENSUS"
"7/26/2022 12:00:00 AM","Cullman County","Alabama","South","East South Central","01043","34.131923","-86.869267 ","26706","371","26706","371","","2019","83768","NYTIMES-USCENSUS"
"7/26/2022 12:00:00 AM","Crowley County","Colorado","West","Mountain","08025","38.30618","-103.772736 ","3427","31","3427","31","","2019","6061","NYTIMES-USCENSUS"
"7/26/2022 12:00:00 AM","Crow Wing County","Minnesota","Midwest","West North Central","27035","46.491653","-94.070718 ","17181","172","17181","172","","2019","65055","NYTIMES-USCENSUS"
"7/26/2022 12:00:00 AM","Cross County","Arkansas","South","West South Central","05037","35.285692","-90.763984 ","5178","87","5178","87","","2019","16419","NYTIMES-USCENSUS"
"7/26/2022 12:00:00 AM","Crosby County","Texas","South","West South Central","48107","33.609144","-101.29871 ","1980","45","1980","45","","2019","5737","NYTIMES-USCENSUS"
"7/26/2022 12:00:00 AM","Crook County","Wyoming","West","Mountain","56011","44.589266","-104.567298 ","1436","29","1436","29","","2019","7584","NYTIMES-USCENSUS"
"7/26/2022 12:00:00 AM","Crittenden County","Arkansas","South","West South Central","05035","35.197559","-90.30512 ","15237","228","15237","228","","2019","47955","NYTIMES-USCENSUS"
"7/26/2022 12:00:00 AM","Crisp County","Georgia","South","South Atlantic","13081","31.920268","-83.75653 ","4993","137","4993","137","","2019","22372","NYTIMES-USCENSUS"
"7/26/2022 12:00:00 AM","Crenshaw County","Alabama","South","East South Central","01041","31.730311","-86.320038 ","4109","102","4109","102","","2019","13772","NYTIMES-USCENSUS"
"7/26/2022 12:00:00 AM","Creek County","Oklahoma","South","West South Central","40037","35.907398","-96.380177 ","19199","339","19199","339","","2019","71522","NYTIMES-USCENSUS"
"7/26/2022 12:00:00 AM","Crawford County","Georgia","South","South Atlantic","13079","32.709428","-83.979187 ","1899","55","1899","55","","2019","12404","NYTIMES-USCENSUS"
"7/26/2022 12:00:00 AM","Craven County","North Carolina","South","South Atlantic","37049","35.116829","-77.08132 ","27318","214","27318","214","","2019","102139","NYTIMES-USCENSUS"
"7/26/2022 12:00:00 AM","Crane County","Texas","South","West South Central","48103","31.422796","-102.487774 ","1357","24","1357","24","","2019","4797","NYTIMES-USCENSUS"
"7/26/2022 12:00:00 AM","Craighead County","Arkansas","South","West South Central","05031","35.827729","-90.631421 ","40676","338","40676","338","","2019","110332","NYTIMES-USCENSUS"
"7/26/2022 12:00:00 AM","Craig County","Oklahoma","South","West South Central","40035","36.76389","-95.201553 ","5058","55","5058","55","","2019","14142","NYTIMES-USCENSUS"
"7/26/2022 12:00:00 AM","Hinsdale County","Colorado","West","Mountain","08053","37.811519","-107.383974 ","146","0","146","0","","2019","820","NYTIMES-USCENSUS"
"7/26/2022 12:00:00 AM","Hinds County","Mississippi","South","East South Central","28049","32.267788","-90.466017 ","59277","804","59277","804","","2019","231840","NYTIMES-USCENSUS"
"7/26/2022 12:00:00 AM","Hillsdale County","Michigan","Midwest","East North Central","26059","41.927461","-84.637479 ","11195","207","11195","207","","2019","45605","NYTIMES-USCENSUS"
"7/26/2022 12:00:00 AM","Hillsborough County","Florida","South","South Atlantic","12057","27.88761","-82.374417 ","422941","3936","422941","3936","","2019","1471968","NYTIMES-USCENSUS"
"7/26/2022 12:00:00 AM","Graves County","Kentucky","South","East South Central","21083","36.723344","-88.649897 ","12147","186","12147","186","","2019","37266","NYTIMES-USCENSUS"
"7/26/2022 12:00:00 AM","Gratiot County","Michigan","Midwest","East North Central","26057","43.292326","-84.60469 ","14499","196","14499","196","","2019","40711","NYTIMES-USCENSUS"
"7/26/2022 12:00:00 AM","Granville County","North Carolina","South","South Atlantic","37077","36.299884","-78.657634 ","16240","118","16240","118","","2019","60443","NYTIMES-USCENSUS"
"7/26/2022 12:00:00 AM","Grant Parish","Louisiana","South","West South Central","22043","31.597787","-92.561716 ","6395","95","6395","95","","2019","22389","NYTIMES-USCENSUS"
"7/26/2022 12:00:00 AM","Grant County","North Dakota","Midwest","West North Central","38037","46.357827","-101.639049 ","482","11","482","11","","2019","2274","NYTIMES-USCENSUS"
"7/26/2022 12:00:00 AM","Grand Traverse County","Michigan","Midwest","East North Central","26055","44.718688","-85.553848 ","19322","247","19322","247","","2019","93088","NYTIMES-USCENSUS"
"7/26/2022 12:00:00 AM","Grand Isle County","Vermont","Northeast","New England","50013","44.795742","-73.295082 ","1188","6","1188","6","","2019","7235","NYTIMES-USCENSUS"
"7/26/2022 12:00:00 AM","Grand Forks County","North Dakota","Midwest","West North Central","38035","47.926003","-97.450851 ","23706","125","23706","125","","2019","69451","NYTIMES-USCENSUS"
"7/26/2022 12:00:00 AM","Grand County","Colorado","West","Mountain","08049","40.113065","-106.110837 ","3808","28","3808","28","","2019","15734","NYTIMES-USCENSUS"
"7/26/2022 12:00:00 AM","Grainger County","Tennessee","South","East South Central","47057","36.277509","-83.509546 ","7082","111","7082","111","","2019","23320","NYTIMES-USCENSUS"
"7/26/2022 12:00:00 AM","Grafton County","New Hampshire","Northeast","New England","33009","43.926439","-71.842424 ","20898","76","20898","76","","2019","89886","NYTIMES-USCENSUS"
"7/26/2022 12:00:00 AM","Grady County","Oklahoma","South","West South Central","40051","35.021058","-97.88689 ","14387","250","14387","250","","2019","55834","NYTIMES-USCENSUS"
"7/26/2022 12:00:00 AM","Gove County","Kansas","Midwest","West North Central","20063","38.917239","-100.48736 ","831","23","831","23","","2019","2636","NYTIMES-USCENSUS"
"7/26/2022 12:00:00 AM","Gosper County","Nebraska","Midwest","West North Central","31073","40.509095","-99.823206 ","406","7","406","7","","2019","1990","NYTIMES-USCENSUS"
"7/26/2022 12:00:00 AM","Goshen County","Wyoming","West","Mountain","56015","42.089455","-104.35354 ","4241","57","4241","57","","2019","13211","NYTIMES-USCENSUS"
"7/26/2022 12:00:00 AM","Gordon County","Georgia","South","South Atlantic","13129","34.509667","-84.873862 ","17748","274","17748","274","","2019","57963","NYTIMES-USCENSUS"
"7/26/2022 12:00:00 AM","Gooding County","Idaho","West","Mountain","16047","42.973185","-114.82142 ","3495","55","3495","55","","2019","15179","NYTIMES-USCENSUS"
"7/26/2022 12:00:00 AM","Goodhue County","Minnesota","Midwest","West North Central","27049","44.406178","-92.716 ","14334","145","14334","145","","2019","46340","NYTIMES-USCENSUS"
"7/26/2022 12:00:00 AM","Goochland County","Virginia","South","South Atlantic","51075","37.718814","-77.917626 ","4664","54","4664","54","","2019","23753","NYTIMES-USCENSUS"
"7/26/2022 12:00:00 AM","Gonzales County","Texas","South","West South Central","48177","29.461912","-97.49192 ","4973","102","4973","102","","2019","20837","NYTIMES-USCENSUS"
"7/26/2022 12:00:00 AM","Goliad County","Texas","South","West South Central","48175","28.6607","-97.430415 ","1340","32","1340","32","","2019","7658","NYTIMES-USCENSUS"
"7/26/2022 12:00:00 AM","Gogebic County","Michigan","Midwest","East North Central","26053","46.488054","-89.788314 ","3682","71","3682","71","","2019","13975","NYTIMES-USCENSUS"
"7/26/2022 12:00:00 AM","Glynn County","Georgia","South","South Atlantic","13127","31.21271","-81.49645 ","24834","412","24834","412","","2019","85292","NYTIMES-USCENSUS"
"7/26/2022 12:00:00 AM","Gloucester County","Virginia","South","South Atlantic","51073","37.403541","-76.523505 ","8078","106","8078","106","","2019","37348","NYTIMES-USCENSUS"
"7/26/2022 12:00:00 AM","Glenn County","California","West","Pacific","06021","39.602546","-122.4017 ","7103","48","7103","48","","2019","28393","NYTIMES-USCENSUS"
"7/26/2022 12:00:00 AM","Glasscock County","Texas","South","West South Central","48173","31.868006","-101.521494 ","216","3","216","3","","2019","1409","NYTIMES-USCENSUS"
"7/26/2022 12:00:00 AM","Glascock County","Georgia","South","South Atlantic","13125","33.227491","-82.606913 ","637","25","637","25","","2019","2971","NYTIMES-USCENSUS"
"7/26/2022 12:00:00 AM","Essex County","Virginia","South","South Atlantic","51057","37.936389","-76.933747 ","2426","35","2426","35","","2019","10953","NYTIMES-USCENSUS"
"7/26/2022 12:00:00 AM","Escambia County","Alabama","South","East South Central","01053","31.122287","-87.16841 ","10901","174","10901","174","","2019","36633","NYTIMES-USCENSUS"
"7/26/2022 12:00:00 AM","Erie County","Pennsylvania","Northeast","Middle Atlantic","42049","42.117952","-80.096386 ","62453","795","62453","795","","2019","269728","NYTIMES-USCENSUS"
"7/26/2022 12:00:00 AM","Erath County","Texas","South","West South Central","48143","32.236661","-98.220507 ","9096","124","9096","124","","2019","42698","NYTIMES-USCENSUS"
"7/26/2022 12:00:00 AM","Emporia city","Virginia","South","South Atlantic","51595","36.696182","-77.535975 ","1280","55","1280","55","","2019","5346","NYTIMES-USCENSUS"
"7/26/2022 12:00:00 AM","Emmons County","North Dakota","Midwest","West North Central","38029","46.284255","-100.237842 ","754","18","754","18","","2019","3241","NYTIMES-USCENSUS"
"7/26/2022 12:00:00 AM","Emmet County","Iowa","Midwest","West North Central","19063","43.377984","-94.66937 ","2437","54","2437","54","","2019","9208","NYTIMES-USCENSUS"
"7/26/2022 12:00:00 AM","Emery County","Utah","West","Mountain","49015","39.009025","-110.7211 ","2638","28","2638","28","","2019","10012","NYTIMES-USCENSUS"
"7/26/2022 12:00:00 AM","Emanuel County","Georgia","South","South Atlantic","13107","32.5911","-82.299763 ","6179","162","6179","162","","2019","22646","NYTIMES-USCENSUS"
"7/26/2022 12:00:00 AM","Elmore County","Alabama","South","East South Central","01051","32.597229","-86.142735 ","25773","352","25773","352","","2019","81209","NYTIMES-USCENSUS"
"7/26/2022 12:00:00 AM","Braxton County","West Virginia","South","South Atlantic","54007","38.69933","-80.73166 ","4396","45","4396","45","","2019","13957","NYTIMES-USCENSUS"
"7/26/2022 12:00:00 AM","Brantley County","Georgia","South","South Atlantic","13025","31.197334","-81.982978 ","4319","111","4319","111","","2019","19109","NYTIMES-USCENSUS"
"7/26/2022 12:00:00 AM","Branch County","Michigan","Midwest","East North Central","26023","41.918455","-85.066885 ","12854","213","12854","213","","2019","43517","NYTIMES-USCENSUS"
"7/26/2022 12:00:00 AM","Bradley County","Arkansas","South","West South Central","05011","33.466549","-92.169156 ","3208","53","3208","53","","2019","10763","NYTIMES-USCENSUS"
"7/26/2022 12:00:00 AM","Bradford County","Florida","South","South Atlantic","12007","29.952386","-82.166698 ","8042","154","8042","154","","2019","28201","NYTIMES-USCENSUS"
"7/26/2022 12:00:00 AM","Bracken County","Kentucky","South","East South Central","21023","38.680365","-84.115235 ","2390","27","2390","27","","2019","8303","NYTIMES-USCENSUS"
"7/26/2022 12:00:00 AM","Boyle County","Kentucky","South","East South Central","21021","37.618104","-84.868352 ","9607","140","9607","140","","2019","30060","NYTIMES-USCENSUS"
"7/26/2022 12:00:00 AM","Boyd County","Nebraska","Midwest","West North Central","31015","42.894448","-98.773022 ","423","7","423","7","","2019","1919","NYTIMES-USCENSUS"
"7/26/2022 12:00:00 AM","Box Elder County","Utah","West","Mountain","49003","41.622623","-113.060252 ","14865","125","14865","125","","2019","56046","NYTIMES-USCENSUS"
"7/26/2022 12:00:00 AM","Box Butte County","Nebraska","Midwest","West North Central","31013","42.21038","-103.081779 ","2320","17","2320","17","","2019","10783","NYTIMES-USCENSUS"
"7/26/2022 12:00:00 AM","Bowman County","North Dakota","Midwest","West North Central","38011","46.110144","-103.505943 ","871","9","871","9","","2019","3024","NYTIMES-USCENSUS"
"7/26/2022 12:00:00 AM","Bowie County","Texas","South","West South Central","48037","33.446065","-94.422393 ","21547","438","21547","438","","2019","93245","NYTIMES-USCENSUS"
"7/26/2022 12:00:00 AM","Bourbon County","Kentucky","South","East South Central","21017","38.202562","-84.20986 ","6618","62","6618","62","","2019","19788","NYTIMES-USCENSUS"
"7/26/2022 12:00:00 AM","Boundary County","Idaho","West","Mountain","16021","48.773131","-116.524668 ","2217","63","2217","63","","2019","12245","NYTIMES-USCENSUS"
"7/26/2022 12:00:00 AM","Boulder County","Colorado","West","Mountain","08013","40.094962","-105.397704 ","80682","385","80682","385","","2019","326196","NYTIMES-USCENSUS"
"7/26/2022 12:00:00 AM","Bottineau County","North Dakota","Midwest","West North Central","38009","48.794412","-100.831257 ","1695","26","1695","26","","2019","6282","NYTIMES-USCENSUS"
"7/26/2022 12:00:00 AM","Botetourt County","Virginia","South","South Atlantic","51023","37.565482","-79.797546 ","8265","105","8265","105","","2019","33419","NYTIMES-USCENSUS"
"7/26/2022 12:00:00 AM","Arenac County","Michigan","Midwest","East North Central","26011","44.036833","-83.740675 ","3465","72","3465","72","","2019","14883","NYTIMES-USCENSUS"
"7/26/2022 12:00:00 AM","Archuleta County","Colorado","West","Mountain","08007","37.202395","-107.050863 ","3148","16","3148","16","","2019","14029","NYTIMES-USCENSUS"
"7/26/2022 12:00:00 AM","Archer County","Texas","South","West South Central","48009","33.616305","-98.687267 ","2370","28","2370","28","","2019","8553","NYTIMES-USCENSUS"
"7/26/2022 12:00:00 AM","Arapahoe County","Colorado","West","Mountain","08005","39.644554","-104.331706 ","181812","1337","181812","1337","","2019","656590","NYTIMES-USCENSUS"
"7/26/2022 12:00:00 AM","Aransas County","Texas","South","West South Central","48007","28.122621","-96.967501 ","4764","88","4764","88","","2019","23510","NYTIMES-USCENSUS"
"7/26/2022 12:00:00 AM","Appomattox County","Virginia","South","South Atlantic","51011","37.370725","-78.81094 ","4227","54","4227","54","","2019","15911","NYTIMES-USCENSUS"
"7/26/2022 12:00:00 AM","Appling County","Georgia","South","South Atlantic","13001","31.739712","-82.290103 ","4919","132","4919","132","","2019","18386","NYTIMES-USCENSUS"
"7/26/2022 12:00:00 AM","Appanoose County","Iowa","Midwest","West North Central","19007","40.744249","-92.873065 ","3028","70","3028","70","","2019","12426","NYTIMES-USCENSUS"
"7/26/2022 12:00:00 AM","Apache County","Arizona","West","Mountain","04001","35.385084","-109.490172 ","28502","619","28502","619","","2019","71887","NYTIMES-USCENSUS"
"7/26/2022 12:00:00 AM","Antrim County","Michigan","Midwest","East North Central","26009","45.005455","-85.175639 ","4775","70","4775","70","","2019","23324","NYTIMES-USCENSUS"
"7/26/2022 12:00:00 AM","Antelope County","Nebraska","Midwest","West North Central","31003","42.183225","-98.058037 ","1144","14","1144","14","","2019","6298","NYTIMES-USCENSUS"
"7/26/2022 12:00:00 AM","Anson County","North Carolina","South","South Atlantic","37007","34.974972","-80.109763 ","7087","101","7087","101","","2019","24446","NYTIMES-USCENSUS"
"7/26/2022 12:00:00 AM","Anoka County","Minnesota","Midwest","West North Central","27003","45.27411","-93.242723 ","106864","813","106864","813","","2019","356921","NYTIMES-USCENSUS"
"7/26/2022 12:00:00 AM","Anne Arundel County","Maryland","South","South Atlantic","24003","38.991617","-76.560894 ","103793","1133","103793","1133","","2019","579234","NYTIMES-USCENSUS"
"7/26/2022 12:00:00 AM","Angelina County","Texas","South","West South Central","48005","31.251896","-94.611134 ","16038","485","16038","485","","2019","86715","NYTIMES-USCENSUS"
"7/26/2022 12:00:00 AM","Androscoggin County","Maine","Northeast","New England","23001","44.167681","-70.207435 ","24700","294","24700","294","","2019","108277","NYTIMES-USCENSUS"
"7/26/2022 12:00:00 AM","Andrews County","Texas","South","West South Central","48003","32.312258","-102.640206 ","4135","72","4135","72","","2019","18705","NYTIMES-USCENSUS"
"7/26/2022 12:00:00 AM","Andrew County","Missouri","Midwest","West North Central","29003","39.988863","-94.803551 ","5068","59","5068","59","","2019","17712","NYTIMES-USCENSUS"
"7/26/2022 12:00:00 AM","Anderson County","Texas","South","West South Central","48001","31.841261","-95.661727 ","10059","240","10059","240","","2019","57735","NYTIMES-USCENSUS"
"7/26/2022 12:00:00 AM","Amite County","Mississippi","South","East South Central","28005","31.203933","-90.795542 ","3497","69","3497","69","","2019","12297","NYTIMES-USCENSUS"
"7/26/2022 12:00:00 AM","Amherst County","Virginia","South","South Atlantic","51009","37.629304","-79.154667 ","8098","94","8098","94","","2019","31605","NYTIMES-USCENSUS"
"7/26/2022 12:00:00 AM","Amelia County","Virginia","South","South Atlantic","51007","37.331927","-77.977462 ","2940","59","2940","59","","2019","13145","NYTIMES-USCENSUS"
"7/26/2022 12:00:00 AM","Amador County","California","West","Pacific","06005","38.443549","-120.653858 ","10399","87","10399","87","","2019","39752","NYTIMES-USCENSUS"
"7/26/2022 12:00:00 AM","Alpine County","California","West","Pacific","06003","38.621783","-119.798352 ","131","0","131","0","","2019","1129","NYTIMES-USCENSUS"
"7/26/2022 12:00:00 AM","Alpena County","Michigan","Midwest","East North Central","26007","44.894954","-83.426574 ","5963","143","5963","143","","2019","28405","NYTIMES-USCENSUS"
"7/26/2022 12:00:00 AM","Allendale County","South Carolina","South","South Atlantic","45005","32.979757","-81.363265 ","2194","24","2194","24","","2019","8688","NYTIMES-USCENSUS"
"7/26/2022 12:00:00 AM","Allen Parish","Louisiana","South","West South Central","22003","30.652744","-92.819605 ","8356","143","8356","143","","2019","25627","NYTIMES-USCENSUS"
"7/26/2022 12:00:00 AM","Cowlitz County","Washington","West","Pacific","53015","46.196785","-122.67846 ","25120","367","25120","367","","2019","110593","NYTIMES-USCENSUS"
"7/26/2022 12:00:00 AM","Cowley County","Kansas","Midwest","West North Central","20035","37.234507","-96.837247 ","10714","163","10714","163","","2019","34908","NYTIMES-USCENSUS"
"7/26/2022 12:00:00 AM","Coweta County","Georgia","South","South Atlantic","13077","33.352897","-84.762138 ","36104","500","36104","500","","2019","148509","NYTIMES-USCENSUS"
"7/26/2022 12:00:00 AM","Covington County","Alabama","South","East South Central","01039","31.243987","-86.448721 ","10166","237","10166","237","","2019","37049","NYTIMES-USCENSUS"
"7/26/2022 12:00:00 AM","Covington city","Virginia","South","South Atlantic","51580","37.78106","-79.985434 ","1534","28","1534","28","","2019","5538","NYTIMES-USCENSUS"
"7/26/2022 12:00:00 AM","Chesterfield County","South Carolina","South","South Atlantic","45025","34.637018","-80.159227 ","12999","196","12999","196","","2019","45650","NYTIMES-USCENSUS"
"7/26/2022 12:00:00 AM","Chester County","Pennsylvania","Northeast","Middle Atlantic","42029","39.974029","-75.749751 ","103243","1194","103243","1194","","2019","524989","NYTIMES-USCENSUS"
"7/26/2022 12:00:00 AM","Cheshire County","New Hampshire","Northeast","New England","33005","42.92546","-72.248183 ","16912","118","16912","118","","2019","76085","NYTIMES-USCENSUS"
"7/26/2022 12:00:00 AM","Chesapeake city","Virginia","South","South Atlantic","51550","36.679376","-76.301788 ","56187","516","56187","516","","2019","244835","NYTIMES-USCENSUS"
"7/26/2022 12:00:00 AM","Cherry County","Nebraska","Midwest","West North Central","31031","42.571323","-101.047653 ","573","12","573","12","","2019","5689","NYTIMES-USCENSUS"
"7/26/2022 12:00:00 AM","Cherokee County","Alabama","South","East South Central","01019","34.069515","-85.654242 ","5493","87","5493","87","","2019","26196","NYTIMES-USCENSUS"
"7/26/2022 12:00:00 AM","Chenango County","New York","Northeast","Middle Atlantic","36017","42.478024","-75.602241 ","10393","124","10393","124","","2019","47207","NYTIMES-USCENSUS"
"7/26/2022 12:00:00 AM","Chemung County","New York","Northeast","Middle Atlantic","36015","42.148697","-76.752471 ","23682","240","23682","240","","2019","83456","NYTIMES-USCENSUS"
"7/26/2022 12:00:00 AM","Chelan County","Washington","West","Pacific","53007","47.860974","-120.619041 ","22057","171","22057","171","","2019","77200","NYTIMES-USCENSUS"
"7/26/2022 12:00:00 AM","Cheboygan County","Michigan","Midwest","East North Central","26031","45.476022","-84.495431 ","5184","109","5184","109","","2019","25276","NYTIMES-USCENSUS"
"7/26/2022 12:00:00 AM","Cheatham County","Tennessee","South","East South Central","47021","36.255169","-87.100808 ","11530","127","11530","127","","2019","40667","NYTIMES-USCENSUS"
"7/26/2022 12:00:00 AM","Chaves County","New Mexico","West","Mountain","35005","33.361604","-104.469837 ","22952","348","22952","348","","2019","64615","NYTIMES-USCENSUS"
"7/26/2022 12:00:00 AM","Chautauqua County","New York","Northeast","Middle Atlantic","36013","42.304216","-79.407595 ","26249","308","26249","308","","2019","126903","NYTIMES-USCENSUS"
"7/26/2022 12:00:00 AM","Chattooga County","Georgia","South","South Atlantic","13055","34.474178","-85.345289 ","6993","136","6993","136","","2019","24789","NYTIMES-USCENSUS"
"7/26/2022 12:00:00 AM","Chattahoochee County","Georgia","South","South Atlantic","13053","32.347445","-84.788021 ","7572","22","7572","22","","2019","10907","NYTIMES-USCENSUS"
"7/26/2022 12:00:00 AM","Chatham County","North Carolina","South","South Atlantic","37037","35.704994","-79.251454 ","14897","121","14897","121","","2019","74470","NYTIMES-USCENSUS"
"7/26/2022 12:00:00 AM","Chase County","Nebraska","Midwest","West North Central","31029","40.53039","-101.694192 ","831","7","831","7","","2019","3924","NYTIMES-USCENSUS"
"7/26/2022 12:00:00 AM","Charlton County","Georgia","South","South Atlantic","13049","30.779904","-82.139644 ","3169","63","3169","63","","2019","13392","NYTIMES-USCENSUS"
"7/26/2022 12:00:00 AM","Charlottesville city","Virginia","South","South Atlantic","51540","38.037658","-78.485381 ","10924","79","10924","79","","2019","47266","NYTIMES-USCENSUS"
"7/26/2022 12:00:00 AM","Charlotte County","Florida","South","South Atlantic","12015","26.906396","-82.003657 ","41069","843","41069","843","","2019","188910","NYTIMES-USCENSUS"
"7/26/2022 12:00:00 AM","Charlevoix County","Michigan","Midwest","East North Central","26029","45.618554","-85.543684 ","5323","60","5323","60","","2019","26143","NYTIMES-USCENSUS"
"7/26/2022 12:00:00 AM","Charleston County","South Carolina","South","South Atlantic","45019","32.800458","-79.94248 ","124127","973","124127","973","","2019","411406","NYTIMES-USCENSUS"
"7/26/2022 12:00:00 AM","Charles Mix County","South Dakota","Midwest","West North Central","46023","43.206185","-98.595143 ","3034","35","3034","35","","2019","9292","NYTIMES-USCENSUS"
"7/26/2022 12:00:00 AM","Charles County","Maryland","South","South Atlantic","24017","38.472853","-77.015427 ","32791","359","32791","359","","2019","163257","NYTIMES-USCENSUS"
"7/26/2022 12:00:00 AM","Charles City County","Virginia","South","South Atlantic","51036","37.361054","-77.05417 ","1292","29","1292","29","","2019","6963","NYTIMES-USCENSUS"
"7/26/2022 12:00:00 AM","Chariton County","Missouri","Midwest","West North Central","29041","39.517968","-92.96162 ","1798","38","1798","38","","2019","7426","NYTIMES-USCENSUS"
"7/26/2022 12:00:00 AM","Champaign County","Ohio","Midwest","East North Central","39021","40.132775","-83.767604 ","9336","149","9336","149","","2019","38885","NYTIMES-USCENSUS"
"7/26/2022 12:00:00 AM","Chambers County","Alabama","South","East South Central","01017","32.915504","-85.394032 ","9328","165","9328","165","","2019","33254","NYTIMES-USCENSUS"
"7/26/2022 12:00:00 AM","Chaffee County","Colorado","West","Mountain","08015","38.734599","-106.300025 ","5222","51","5222","51","","2019","20356","NYTIMES-USCENSUS"
"7/26/2022 12:00:00 AM","Broadwater County","Montana","West","Mountain","30007","46.329849","-111.497873 ","1363","21","1363","21","","2019","6237","NYTIMES-USCENSUS"
"7/26/2022 12:00:00 AM","Bristol County","Massachusetts","Northeast","New England","25005","41.748588","-71.088894 ","163556","2219","163556","2219","","2019","565217","NYTIMES-USCENSUS"
"7/26/2022 12:00:00 AM","Bristol city","Virginia","South","South Atlantic","51520","36.616954","-82.157564 ","4860","83","4860","83","","2019","16762","NYTIMES-USCENSUS"
"7/26/2022 12:00:00 AM","Brevard County","Florida","South","South Atlantic","12009","28.298311","-80.700333 ","153217","2204","153217","2204","","2019","601942","NYTIMES-USCENSUS"
"7/26/2022 12:00:00 AM","Bremer County","Iowa","Midwest","West North Central","19017","42.780895","-92.327356 ","5829","84","5829","84","","2019","25062","NYTIMES-USCENSUS"
"7/26/2022 12:00:00 AM","Breckinridge County","Kentucky","South","East South Central","21027","37.777988","-86.432919 ","5502","81","5502","81","","2019","20477","NYTIMES-USCENSUS"
"7/26/2022 12:00:00 AM","Breathitt County","Kentucky","South","East South Central","21025","37.517807","-83.317158 ","4247","56","4247","56","","2019","12630","NYTIMES-USCENSUS"
"7/26/2022 12:00:00 AM","Brazoria County","Texas","South","West South Central","48039","29.167817","-95.434647 ","105186","992","105186","992","","2019","374264","NYTIMES-USCENSUS"
"7/26/2022 12:00:00 AM","Newberry County","South Carolina","South","South Atlantic","45071","34.289881","-81.599676 ","14279","202","14279","202","","2019","38440","NYTIMES-USCENSUS"
"7/26/2022 12:00:00 AM","Newaygo County","Michigan","Midwest","East North Central","26123","43.562712","-85.791372 ","12265","161","12265","161","","2019","48980","NYTIMES-USCENSUS"
"7/26/2022 12:00:00 AM","New Madrid County","Missouri","Midwest","West North Central","29143","36.594261","-89.655948 ","5279","86","5279","86","","2019","17076","NYTIMES-USCENSUS"
"7/26/2022 12:00:00 AM","New London County","Connecticut","Northeast","New England","09011","41.472652","-72.108634 ","63737","688","63737","688","","2019","265206","NYTIMES-USCENSUS"
"7/26/2022 12:00:00 AM","New Kent County","Virginia","South","South Atlantic","51127","37.51016","-76.999331 ","5209","34","5209","34","","2019","23091","NYTIMES-USCENSUS"
"7/26/2022 12:00:00 AM","New Haven County","Connecticut","Northeast","New England","09009","41.349718","-72.900203 ","223205","2887","223205","2887","","2019","854757","NYTIMES-USCENSUS"
"7/26/2022 12:00:00 AM","New Hanover County","North Carolina","South","South Atlantic","37129","34.183445","-77.864204 ","56114","406","56114","406","","2019","234473","NYTIMES-USCENSUS"
"7/26/2022 12:00:00 AM","New Castle County","Delaware","South","South Atlantic","10003","39.575915","-75.644132 ","166709","1473","166709","1473","","2019","558753","NYTIMES-USCENSUS"
"7/26/2022 12:00:00 AM","Nevada County","California","West","Pacific","06057","39.297508","-120.771343 ","19735","132","19735","132","","2019","99755","NYTIMES-USCENSUS"
"7/26/2022 12:00:00 AM","Ness County","Kansas","Midwest","West North Central","20135","38.480437","-99.908745 ","797","19","797","19","","2019","2750","NYTIMES-USCENSUS"
"7/26/2022 12:00:00 AM","Neshoba County","Mississippi","South","East South Central","28099","32.752518","-89.119274 ","11290","241","11290","241","","2019","29118","NYTIMES-USCENSUS"
"7/26/2022 12:00:00 AM","Neosho County","Kansas","Midwest","West North Central","20133","37.564283","-95.315682 ","5457","69","5457","69","","2019","16007","NYTIMES-USCENSUS"
"7/26/2022 12:00:00 AM","Nemaha County","Nebraska","Midwest","West North Central","31127","40.387389","-95.852721 ","1413","20","1413","20","","2019","6972","NYTIMES-USCENSUS"
"7/26/2022 12:00:00 AM","Nelson County","Kentucky","South","East South Central","21179","37.80312","-85.465931 ","15810","157","15810","157","","2019","46233","NYTIMES-USCENSUS"
"7/26/2022 12:00:00 AM","Navarro County","Texas","South","West South Central","48349","32.048448","-96.476909 ","13072","223","13072","223","","2019","50113","NYTIMES-USCENSUS"
"7/26/2022 12:00:00 AM","Navajo County","Arizona","West","Mountain","04017","35.390785","-110.321025 ","41686","917","41686","917","","2019","110924","NYTIMES-USCENSUS"
"7/26/2022 12:00:00 AM","Natrona County","Wyoming","West","Mountain","56025","42.977645","-106.768219 ","23760","280","23760","280","","2019","79858","NYTIMES-USCENSUS"
"7/26/2022 12:00:00 AM","Natchitoches Parish","Louisiana","South","West South Central","22069","31.732509","-93.082546 ","11357","171","11357","171","","2019","38158","NYTIMES-USCENSUS"
"7/26/2022 12:00:00 AM","Nassau County","Florida","South","South Atlantic","12089","30.605963","-81.765087 ","24222","306","24222","306","","2019","88625","NYTIMES-USCENSUS"
"7/26/2022 12:00:00 AM","Nash County","North Carolina","South","South Atlantic","37127","35.965945","-77.987555 ","28368","324","28368","324","","2019","94298","NYTIMES-USCENSUS"
"7/26/2022 12:00:00 AM","Napa County","California","West","Pacific","06055","38.5071","-122.325904 ","31991","150","31991","150","","2019","137744","NYTIMES-USCENSUS"
"7/26/2022 12:00:00 AM","Nantucket County","Massachusetts","Northeast","New England","25019","41.293392","-70.102164 ","3639","0","3639","0","","2019","11399","NYTIMES-USCENSUS"
"7/26/2022 12:00:00 AM","McMinn County","Tennessee","South","East South Central","47107","35.424472","-84.619949 ","17463","269","17463","269","","2019","53794","NYTIMES-USCENSUS"
"7/26/2022 12:00:00 AM","McLeod County","Minnesota","Midwest","West North Central","27085","44.821657","-94.272323 ","11445","110","11445","110","","2019","35893","NYTIMES-USCENSUS"
"7/26/2022 12:00:00 AM","McLennan County","Texas","South","West South Central","48309","31.549596","-97.201511 ","65452","915","65452","915","","2019","256623","NYTIMES-USCENSUS"
"7/26/2022 12:00:00 AM","McLean County","North Dakota","Midwest","West North Central","38055","47.653206","-101.421914 ","2861","49","2861","49","","2019","9450","NYTIMES-USCENSUS"
"7/26/2022 12:00:00 AM","McKinley County","New Mexico","West","Mountain","35031","35.584062","-108.253294 ","28572","610","28572","610","","2019","71367","NYTIMES-USCENSUS"
"7/26/2022 12:00:00 AM","McKenzie County","North Dakota","Midwest","West North Central","38053","47.742475","-103.403215 ","3390","25","3390","25","","2019","15024","NYTIMES-USCENSUS"
"7/26/2022 12:00:00 AM","McKean County","Pennsylvania","Northeast","Middle Atlantic","42083","41.81459","-78.572463 ","8678","151","8678","151","","2019","40625","NYTIMES-USCENSUS"
"7/26/2022 12:00:00 AM","McIntosh County","Oklahoma","South","West South Central","40091","35.369108","-95.671787 ","5106","125","5106","125","","2019","19596","NYTIMES-USCENSUS"
"7/26/2022 12:00:00 AM","McHenry County","Illinois","Midwest","East North Central","17111","42.324298","-88.452245 ","86304","517","86304","517","","2019","307774","NYTIMES-USCENSUS"
"7/26/2022 12:00:00 AM","McDuffie County","Georgia","South","South Atlantic","13189","33.480613","-82.479533 ","5420","105","5420","105","","2019","21312","NYTIMES-USCENSUS"
"7/26/2022 12:00:00 AM","McDowell County","North Carolina","South","South Atlantic","37111","35.682271","-82.048044 ","14914","176","14914","176","","2019","45756","NYTIMES-USCENSUS"
"7/26/2022 12:00:00 AM","McDonough County","Illinois","Midwest","East North Central","17109","40.455808","-90.678954 ","7949","110","7949","110","","2019","29682","NYTIMES-USCENSUS"
"7/26/2022 12:00:00 AM","McDonald County","Missouri","Midwest","West North Central","29119","36.627955","-94.343716 ","6085","81","6085","81","","2019","22837","NYTIMES-USCENSUS"
"7/26/2022 12:00:00 AM","McCurtain County","Oklahoma","South","West South Central","40089","34.117073","-94.766086 ","8368","166","8368","166","","2019","32832","NYTIMES-USCENSUS"
"7/26/2022 12:00:00 AM","McCulloch County","Texas","South","West South Central","48307","31.205477","-99.359856 ","1410","47","1410","47","","2019","7984","NYTIMES-USCENSUS"
"7/26/2022 12:00:00 AM","McCreary County","Kentucky","South","East South Central","21147","36.731136","-84.491052 ","5992","84","5992","84","","2019","17231","NYTIMES-USCENSUS"
"7/26/2022 12:00:00 AM","McCracken County","Kentucky","South","East South Central","21145","37.054111","-88.712454 ","21278","282","21278","282","","2019","65418","NYTIMES-USCENSUS"
"7/26/2022 12:00:00 AM","McCormick County","South Carolina","South","South Atlantic","45065","33.897599","-82.316196 ","2362","40","2362","40","","2019","9463","NYTIMES-USCENSUS"
"7/26/2022 12:00:00 AM","McCook County","South Dakota","Midwest","West North Central","46087","43.680416","-97.358048 ","1369","31","1369","31","","2019","5586","NYTIMES-USCENSUS"
"7/26/2022 12:00:00 AM","McClain County","Oklahoma","South","West South Central","40087","35.016436","-97.449803 ","12340","139","12340","139","","2019","40474","NYTIMES-USCENSUS"
"7/26/2022 12:00:00 AM","Reno County","Kansas","Midwest","West North Central","20155","37.948185","-98.078346 ","19761","245","19761","245","","2019","61998","NYTIMES-USCENSUS"
"7/26/2022 12:00:00 AM","Refugio County","Texas","South","West South Central","48391","28.322116","-97.162472 ","1948","38","1948","38","","2019","6948","NYTIMES-USCENSUS"
"7/26/2022 12:00:00 AM","Reeves County","Texas","South","West South Central","48389","31.308366","-103.712706 ","4935","74","4935","74","","2019","15976","NYTIMES-USCENSUS"
"7/26/2022 12:00:00 AM","Redwood County","Minnesota","Midwest","West North Central","27127","44.403536","-95.254241 ","4172","54","4172","54","","2019","15170","NYTIMES-USCENSUS"
"7/26/2022 12:00:00 AM","Red Willow County","Nebraska","Midwest","West North Central","31145","40.16942","-100.468576 ","2434","20","2434","20","","2019","10724","NYTIMES-USCENSUS"
"7/26/2022 12:00:00 AM","Red River Parish","Louisiana","South","West South Central","22081","32.101213","-93.34905 ","2273","54","2273","54","","2019","8442","NYTIMES-USCENSUS"
"7/26/2022 12:00:00 AM","Red River County","Texas","South","West South Central","48387","33.619625","-95.048429 ","2437","68","2437","68","","2019","12023","NYTIMES-USCENSUS"
"7/26/2022 12:00:00 AM","Red Lake County","Minnesota","Midwest","West North Central","27125","47.865487","-96.08718 ","974","13","974","13","","2019","4055","NYTIMES-USCENSUS"
"7/26/2022 12:00:00 AM","Reagan County","Texas","South","West South Central","48383","31.375191","-101.514395 ","913","14","913","14","","2019","3849","NYTIMES-USCENSUS"
"7/26/2022 12:00:00 AM","Ray County","Missouri","Midwest","West North Central","29177","39.308401","-93.995746 ","5499","95","5499","95","","2019","23018","NYTIMES-USCENSUS"
"7/26/2022 12:00:00 AM","Ravalli County","Montana","West","Mountain","30081","46.077744","-114.105795 ","7536","165","7536","165","","2019","43806","NYTIMES-USCENSUS"
"7/26/2022 12:00:00 AM","Rappahannock County","Virginia","South","South Atlantic","51157","38.684522","-78.168824 ","1130","10","1130","10","","2019","7370","NYTIMES-USCENSUS"
"7/26/2022 12:00:00 AM","Rapides Parish","Louisiana","South","West South Central","22079","31.193204","-92.535953 ","35929","582","35929","582","","2019","129648","NYTIMES-USCENSUS"
"7/26/2022 12:00:00 AM","Peoria County","Illinois","Midwest","East North Central","17143","40.785972","-89.766993 ","53235","547","53235","547","","2019","179179","NYTIMES-USCENSUS"
