"monitor_date","county","state_name","region","subregion","fips","latitude","longitude","case_count_to_date","death_count_to_date","case_count","death_count","previous_monitor_date","population_year","population","source"
"9/19/2021 12:00:00 AM","Scott County","Kansas","Midwest","West North Central","20171","38.481877","-100.90636 ","679","27","679","27","","2019","4823","NYTIMES-USCENSUS"
"9/19/2021 12:00:00 AM","Calcasieu Parish","Louisiana","South","West South Central","22019","30.229559","-93.358015 ","32730","556","32730","556","","2019","203436","NYTIMES-USCENSUS"
"9/19/2021 12:00:00 AM","Delta County","Colorado","West","Mountain","08029","38.861595","-107.864892 ","3356","79","3356","79","","2019","31162","NYTIMES-USCENSUS"
"9/19/2021 12:00:00 AM","Madison County","Mississippi","South","East South Central","28089","32.63437","-90.03416 ","14043","265","14043","265","","2019","106272","NYTIMES-USCENSUS"
"9/19/2021 12:00:00 AM","Cecil County","Maryland","South","South Atlantic","24015","39.562354","-75.941585 ","7592","164","7592","164","","2019","102855","NYTIMES-USCENSUS"
"9/19/2021 12:00:00 AM","Scotland County","North Carolina","South","South Atlantic","37165","34.840023","-79.477337 ","5208","99","5208","99","","2019","34823","NYTIMES-USCENSUS"
"9/19/2021 12:00:00 AM","Wood County","Ohio","Midwest","East North Central","39173","41.360183","-83.622682 ","15478","208","15478","208","","2019","130817","NYTIMES-USCENSUS"
"9/19/2021 12:00:00 AM","Wilson County","Tennessee","South","East South Central","47189","36.149527","-86.291242 ","25274","302","25274","302","","2019","144657","NYTIMES-USCENSUS"
"9/19/2021 12:00:00 AM","Hunterdon County","New Jersey","Northeast","Middle Atlantic","34019","40.565283","-74.911969 ","11159","185","11159","185","","2019","124371","NYTIMES-USCENSUS"
"9/19/2021 12:00:00 AM","Dunklin County","Missouri","Midwest","West North Central","29069","36.153025","-90.062254 ","4066","57","4066","57","","2019","29131","NYTIMES-USCENSUS"
"9/19/2021 12:00:00 AM","Sabine Parish","Louisiana","South","West South Central","22085","31.560402","-93.559579 ","4240","75","4240","75","","2019","23884","NYTIMES-USCENSUS"
"9/19/2021 12:00:00 AM","Lewis County","Missouri","Midwest","West North Central","29111","40.084559","-91.728803 ","1568","21","1568","21","","2019","9776","NYTIMES-USCENSUS"
"9/19/2021 12:00:00 AM","Steele County","North Dakota","Midwest","West North Central","38091","47.451062","-97.71892 ","211","2","211","2","","2019","1890","NYTIMES-USCENSUS"
"9/19/2021 12:00:00 AM","Trego County","Kansas","Midwest","West North Central","20195","38.921302","-99.865423 ","453","8","453","8","","2019","2803","NYTIMES-USCENSUS"
"9/19/2021 12:00:00 AM","Highland County","Virginia","South","South Atlantic","51091","38.366243","-79.564472 ","151","1","151","1","","2019","2190","NYTIMES-USCENSUS"
"9/19/2021 12:00:00 AM","DeWitt County","Texas","South","West South Central","48123","29.082346","-97.361654 ","2711","69","2711","69","","2019","20160","NYTIMES-USCENSUS"
"9/19/2021 12:00:00 AM","Van Buren County","Iowa","Midwest","West North Central","19177","40.754117","-91.952943 ","711","19","711","19","","2019","7044","NYTIMES-USCENSUS"
"9/19/2021 12:00:00 AM","San Juan County","Utah","West","Mountain","49037","37.602633","-109.791574 ","2163","39","2163","39","","2019","15308","NYTIMES-USCENSUS"
"9/19/2021 12:00:00 AM","Twin Falls County","Idaho","West","Mountain","16083","42.352309","-114.665639 ","13544","167","13544","167","","2019","86878","NYTIMES-USCENSUS"
"9/19/2021 12:00:00 AM","Richland County","South Carolina","South","South Atlantic","45079","34.029095","-80.898037 ","64133","693","64133","693","","2019","415759","NYTIMES-USCENSUS"
"9/19/2021 12:00:00 AM","Seminole County","Oklahoma","South","West South Central","40133","35.158366","-96.602857 ","3472","86","3472","86","","2019","24258","NYTIMES-USCENSUS"
"9/19/2021 12:00:00 AM","Washington County","North Carolina","South","South Atlantic","37187","35.844713","-76.572291 ","1406","34","1406","34","","2019","11580","NYTIMES-USCENSUS"
"9/19/2021 12:00:00 AM","Lincoln County","Tennessee","South","East South Central","47103","35.142784","-86.593403 ","6116","78","6116","78","","2019","34366","NYTIMES-USCENSUS"
"9/19/2021 12:00:00 AM","McDonough County","Illinois","Midwest","East North Central","17109","40.455808","-90.678954 ","3521","67","3521","67","","2019","29682","NYTIMES-USCENSUS"
"9/19/2021 12:00:00 AM","Cumberland County","Tennessee","South","East South Central","47035","35.952398","-84.994761 ","10014","177","10014","177","","2019","60520","NYTIMES-USCENSUS"
"9/19/2021 12:00:00 AM","Richland County","Illinois","Midwest","East North Central","17159","38.712187","-88.085452 ","2568","61","2568","61","","2019","15513","NYTIMES-USCENSUS"
"9/19/2021 12:00:00 AM","Johnson County","Tennessee","South","East South Central","47091","36.453203","-81.861247 ","3159","43","3159","43","","2019","17788","NYTIMES-USCENSUS"
"9/19/2021 12:00:00 AM","McLean County","Illinois","Midwest","East North Central","17113","40.494559","-88.844539 ","21611","241","21611","241","","2019","171517","NYTIMES-USCENSUS"
"9/19/2021 12:00:00 AM","Whitman County","Washington","West","Pacific","53075","46.905944","-117.53539 ","5215","55","5215","55","","2019","50104","NYTIMES-USCENSUS"
"9/19/2021 12:00:00 AM","Fayette County","Alabama","South","East South Central","01057","33.716157","-87.764292 ","2728","71","2728","71","","2019","16302","NYTIMES-USCENSUS"
"9/19/2021 12:00:00 AM","Talladega County","Alabama","South","East South Central","01121","33.369314","-86.17593 ","12456","215","12456","215","","2019","79978","NYTIMES-USCENSUS"
"9/19/2021 12:00:00 AM","Garfield County","Oklahoma","South","West South Central","40047","36.378132","-97.788741 ","9055","146","9055","146","","2019","61056","NYTIMES-USCENSUS"
"9/19/2021 12:00:00 AM","Blaine County","Idaho","West","Mountain","16013","43.394192","-113.955371 ","2695","20","2695","20","","2019","23021","NYTIMES-USCENSUS"
"9/19/2021 12:00:00 AM","Walworth County","South Dakota","Midwest","West North Central","46129","45.427605","-100.027856 ","812","15","812","15","","2019","5435","NYTIMES-USCENSUS"
"9/19/2021 12:00:00 AM","Lincoln County","Nevada","West","Mountain","32017","37.634605","-114.863037 ","479","4","479","4","","2019","5183","NYTIMES-USCENSUS"
"9/19/2021 12:00:00 AM","Alamosa County","Colorado","West","Mountain","08003","37.568442","-105.788041 ","2020","42","2020","42","","2019","16233","NYTIMES-USCENSUS"
"9/19/2021 12:00:00 AM","Pottawatomie County","Kansas","Midwest","West North Central","20149","39.382187","-96.337113 ","2622","39","2622","39","","2019","24383","NYTIMES-USCENSUS"
"9/19/2021 12:00:00 AM","Texas County","Oklahoma","South","West South Central","40139","36.746317","-101.483855 ","3810","36","3810","36","","2019","19983","NYTIMES-USCENSUS"
"9/19/2021 12:00:00 AM","Hale County","Texas","South","West South Central","48189","34.068436","-101.822888 ","7377","175","7377","175","","2019","33406","NYTIMES-USCENSUS"
"9/19/2021 12:00:00 AM","Stone County","Arkansas","South","West South Central","05137","35.857001","-92.140482 ","1554","38","1554","38","","2019","12506","NYTIMES-USCENSUS"
"9/19/2021 12:00:00 AM","Morton County","North Dakota","Midwest","West North Central","38059","46.710819","-101.298265 ","6103","104","6103","104","","2019","31364","NYTIMES-USCENSUS"
"9/19/2021 12:00:00 AM","Shawnee County","Kansas","Midwest","West North Central","20177","39.041805","-95.755664 ","23815","424","23815","424","","2019","176875","NYTIMES-USCENSUS"
"9/19/2021 12:00:00 AM","Monroe County","Ohio","Midwest","East North Central","39111","39.726253","-81.090983 ","1856","49","1856","49","","2019","13654","NYTIMES-USCENSUS"
"9/19/2021 12:00:00 AM","Belknap County","New Hampshire","Northeast","New England","33001","43.519109","-71.425366 ","5120","111","5120","111","","2019","61303","NYTIMES-USCENSUS"
"9/19/2021 12:00:00 AM","Yalobusha County","Mississippi","South","East South Central","28161","34.030666","-89.703807 ","2167","47","2167","47","","2019","12108","NYTIMES-USCENSUS"
"9/19/2021 12:00:00 AM","Clinton County","New York","Northeast","Middle Atlantic","36019","44.752712","-73.705643 ","5585","34","5585","34","","2019","80485","NYTIMES-USCENSUS"
"9/19/2021 12:00:00 AM","Sedgwick County","Kansas","Midwest","West North Central","20173","37.681045","-97.461054 ","73234","897","73234","897","","2019","516042","NYTIMES-USCENSUS"
"9/19/2021 12:00:00 AM","Conway County","Arkansas","South","West South Central","05029","35.265702","-92.689248 ","3014","41","3014","41","","2019","20846","NYTIMES-USCENSUS"
"9/19/2021 12:00:00 AM","De Baca County","New Mexico","West","Mountain","35011","34.359273","-104.368696 ","217","3","217","3","","2019","1748","NYTIMES-USCENSUS"
"9/19/2021 12:00:00 AM","Perry County","Missouri","Midwest","West North Central","29157","37.71113","-89.802125 ","2843","32","2843","32","","2019","19136","NYTIMES-USCENSUS"
"9/19/2021 12:00:00 AM","Flagler County","Florida","South","South Atlantic","12035","29.474891","-81.286253 ","13710","171","13710","171","","2019","115081","NYTIMES-USCENSUS"
"9/19/2021 12:00:00 AM","Wells County","Indiana","Midwest","East North Central","18179","40.735273","-85.212974 ","3820","85","3820","85","","2019","28296","NYTIMES-USCENSUS"
"9/19/2021 12:00:00 AM","Monroe County","West Virginia","South","South Atlantic","54063","37.554062","-80.550329 ","1840","20","1840","20","","2019","13275","NYTIMES-USCENSUS"
"9/19/2021 12:00:00 AM","Clark County","Kansas","Midwest","West North Central","20025","37.233831","-99.813869 ","306","7","306","7","","2019","1994","NYTIMES-USCENSUS"
"9/19/2021 12:00:00 AM","Morgan County","Colorado","West","Mountain","08087","40.263159","-103.81221 ","3060","98","3060","98","","2019","29068","NYTIMES-USCENSUS"
"9/19/2021 12:00:00 AM","Tipton County","Indiana","Midwest","East North Central","18159","40.310229","-86.056207 ","2072","56","2072","56","","2019","15148","NYTIMES-USCENSUS"
"9/19/2021 12:00:00 AM","Madison County","Virginia","South","South Atlantic","51113","38.412059","-78.276961 ","825","17","825","17","","2019","13261","NYTIMES-USCENSUS"
"9/19/2021 12:00:00 AM","Fisher County","Texas","South","West South Central","48151","32.740473","-100.40312 ","388","16","388","16","","2019","3830","NYTIMES-USCENSUS"
"9/19/2021 12:00:00 AM","Houston County","Georgia","South","South Atlantic","13153","32.458287","-83.662522 ","23410","312","23410","312","","2019","157863","NYTIMES-USCENSUS"
"9/19/2021 12:00:00 AM","Marion County","South Carolina","South","South Atlantic","45067","34.08362","-79.354001 ","4866","122","4866","122","","2019","30657","NYTIMES-USCENSUS"
"9/19/2021 12:00:00 AM","Chesapeake city","Virginia","South","South Atlantic","51550","36.679376","-76.301788 ","26200","323","26200","323","","2019","244835","NYTIMES-USCENSUS"
"9/19/2021 12:00:00 AM","Stark County","North Dakota","Midwest","West North Central","38089","46.817031","-102.662026 ","6070","52","6070","52","","2019","31489","NYTIMES-USCENSUS"
"9/19/2021 12:00:00 AM","Kearny County","Kansas","Midwest","West North Central","20093","37.994461","-101.308136 ","667","10","667","10","","2019","3838","NYTIMES-USCENSUS"
"9/19/2021 12:00:00 AM","Jackson County","Mississippi","South","East South Central","28059","30.456005","-88.625101 ","23263","336","23263","336","","2019","143617","NYTIMES-USCENSUS"
"9/19/2021 12:00:00 AM","Wayne County","Georgia","South","South Atlantic","13305","31.547845","-81.912376 ","5620","130","5620","130","","2019","29927","NYTIMES-USCENSUS"
"9/19/2021 12:00:00 AM","Currituck County","North Carolina","South","South Atlantic","37053","36.372174","-75.941224 ","2300","21","2300","21","","2019","27763","NYTIMES-USCENSUS"
"9/19/2021 12:00:00 AM","Carroll County","New Hampshire","Northeast","New England","33003","43.867774","-71.20156 ","3071","17","3071","17","","2019","48910","NYTIMES-USCENSUS"
"9/19/2021 12:00:00 AM","Dutchess County","New York","Northeast","Middle Atlantic","36027","41.75477","-73.740041 ","33589","483","33589","483","","2019","294218","NYTIMES-USCENSUS"
"9/19/2021 12:00:00 AM","Jasper County","Illinois","Midwest","East North Central","17079","39.004886","-88.150725 ","1495","20","1495","20","","2019","9610","NYTIMES-USCENSUS"
"9/19/2021 12:00:00 AM","Jennings County","Indiana","Midwest","East North Central","18079","38.996229","-85.628103 ","3467","58","3467","58","","2019","27735","NYTIMES-USCENSUS"
"9/19/2021 12:00:00 AM","Lancaster County","Virginia","South","South Atlantic","51103","37.704843","-76.412663 ","961","19","961","19","","2019","10603","NYTIMES-USCENSUS"
"9/19/2021 12:00:00 AM","Union County","Arkansas","South","West South Central","05139","33.168219","-92.598145 ","5297","126","5297","126","","2019","38682","NYTIMES-USCENSUS"
"9/19/2021 12:00:00 AM","Jackson County","Illinois","Midwest","East North Central","17077","37.786096","-89.381212 ","7566","94","7566","94","","2019","56750","NYTIMES-USCENSUS"
"9/19/2021 12:00:00 AM","Colfax County","Nebraska","Midwest","West North Central","31037","41.57496","-97.088945 ","1594","21","1594","21","","2019","10709","NYTIMES-USCENSUS"
"9/19/2021 12:00:00 AM","Hancock County","Illinois","Midwest","East North Central","17067","40.401318","-91.168801 ","2534","44","2534","44","","2019","17708","NYTIMES-USCENSUS"
"9/19/2021 12:00:00 AM","Warren County","New York","Northeast","Middle Atlantic","36113","43.555105","-73.838139 ","4646","76","4646","76","","2019","63944","NYTIMES-USCENSUS"
"9/19/2021 12:00:00 AM","Greenwood County","Kansas","Midwest","West North Central","20073","37.879347","-96.241732 ","919","11","919","11","","2019","5982","NYTIMES-USCENSUS"
"9/19/2021 12:00:00 AM","Somerset County","Maryland","South","South Atlantic","24039","38.07445","-75.853323 ","3012","46","3012","46","","2019","25616","NYTIMES-USCENSUS"
"9/19/2021 12:00:00 AM","Ness County","Kansas","Midwest","West North Central","20135","38.480437","-99.908745 ","462","16","462","16","","2019","2750","NYTIMES-USCENSUS"
"9/19/2021 12:00:00 AM","Jeff Davis County","Georgia","South","South Atlantic","13161","31.811615","-82.636825 ","2811","47","2811","47","","2019","15115","NYTIMES-USCENSUS"
"9/19/2021 12:00:00 AM","Merrick County","Nebraska","Midwest","West North Central","31121","41.16979","-98.031057 ","786","15","786","15","","2019","7755","NYTIMES-USCENSUS"
"9/19/2021 12:00:00 AM","Mahoning County","Ohio","Midwest","East North Central","39099","41.01088","-80.770396 ","26558","637","26558","637","","2019","228683","NYTIMES-USCENSUS"
"9/19/2021 12:00:00 AM","Poquoson city","Virginia","South","South Atlantic","51735","37.12836","-76.303534 ","1129","18","1129","18","","2019","12271","NYTIMES-USCENSUS"
"9/19/2021 12:00:00 AM","Woods County","Oklahoma","South","West South Central","40151","36.726984","-98.863649 ","1507","20","1507","20","","2019","8793","NYTIMES-USCENSUS"
"9/19/2021 12:00:00 AM","Linn County","Kansas","Midwest","West North Central","20107","38.216549","-94.844932 ","1318","14","1318","14","","2019","9703","NYTIMES-USCENSUS"
"9/19/2021 12:00:00 AM","Cabell County","West Virginia","South","South Atlantic","54011","38.419578","-82.243397 ","12688","207","12688","207","","2019","91945","NYTIMES-USCENSUS"
"9/19/2021 12:00:00 AM","Turner County","South Dakota","Midwest","West North Central","46125","43.30867","-97.150185 ","1272","60","1272","60","","2019","8384","NYTIMES-USCENSUS"
"9/19/2021 12:00:00 AM","Clayton County","Iowa","Midwest","West North Central","19043","42.840985","-91.323576 ","1946","58","1946","58","","2019","17549","NYTIMES-USCENSUS"
"9/19/2021 12:00:00 AM","Hardin County","Illinois","Midwest","East North Central","17069","37.517852","-88.266148 ","557","13","557","13","","2019","3821","NYTIMES-USCENSUS"
"9/19/2021 12:00:00 AM","Benson County","North Dakota","Midwest","West North Central","38005","48.071743","-99.351152 ","1198","20","1198","20","","2019","6832","NYTIMES-USCENSUS"
"9/19/2021 12:00:00 AM","McDonald County","Missouri","Midwest","West North Central","29119","36.627955","-94.343716 ","3766","53","3766","53","","2019","22837","NYTIMES-USCENSUS"
"9/19/2021 12:00:00 AM","Pitkin County","Colorado","West","Mountain","08097","39.217541","-106.916162 ","2938","4","2938","4","","2019","17767","NYTIMES-USCENSUS"
"9/19/2021 12:00:00 AM","Lafayette Parish","Louisiana","South","West South Central","22055","30.206507","-92.06417 ","37245","378","37245","378","","2019","244390","NYTIMES-USCENSUS"
"9/19/2021 12:00:00 AM","Williamsburg city","Virginia","South","South Atlantic","51830","37.269481","-76.708193 ","1026","14","1026","14","","2019","14954","NYTIMES-USCENSUS"
"9/19/2021 12:00:00 AM","Morgan County","Missouri","Midwest","West North Central","29141","38.420806","-92.874835 ","2474","57","2474","57","","2019","20627","NYTIMES-USCENSUS"
"9/19/2021 12:00:00 AM","Russell County","Alabama","South","East South Central","01113","32.289811","-85.18698 ","5932","54","5932","54","","2019","57961","NYTIMES-USCENSUS"
"9/19/2021 12:00:00 AM","Jones County","North Carolina","South","South Atlantic","37103","35.032268","-77.356195 ","1171","29","1171","29","","2019","9419","NYTIMES-USCENSUS"
"9/19/2021 12:00:00 AM","Eaton County","Michigan","Midwest","East North Central","26045","42.58953","-84.84645 ","11425","220","11425","220","","2019","110268","NYTIMES-USCENSUS"
"9/19/2021 12:00:00 AM","Umatilla County","Oregon","West","Pacific","41059","45.5912","-118.73388 ","12552","125","12552","125","","2019","77950","NYTIMES-USCENSUS"
"9/19/2021 12:00:00 AM","Jackson County","Minnesota","Midwest","West North Central","27063","43.671111","-95.149731 ","1347","12","1347","12","","2019","9846","NYTIMES-USCENSUS"
"9/19/2021 12:00:00 AM","Bee County","Texas","South","West South Central","48025","28.416077","-97.742586 ","5122","103","5122","103","","2019","32565","NYTIMES-USCENSUS"
"9/19/2021 12:00:00 AM","Presidio County","Texas","South","West South Central","48377","30.005891","-104.261619 ","888","26","888","26","","2019","6704","NYTIMES-USCENSUS"
"9/19/2021 12:00:00 AM","Noble County","Ohio","Midwest","East North Central","39121","39.767232","-81.452493 ","1652","40","1652","40","","2019","14424","NYTIMES-USCENSUS"
"9/19/2021 12:00:00 AM","Surry County","North Carolina","South","South Atlantic","37171","36.415416","-80.686463 ","10859","203","10859","203","","2019","71783","NYTIMES-USCENSUS"
"9/19/2021 12:00:00 AM","Snohomish County","Washington","West","Pacific","53061","48.054913","-121.765038 ","55869","677","55869","677","","2019","822083","NYTIMES-USCENSUS"
"9/19/2021 12:00:00 AM","Calvert County","Maryland","South","South Atlantic","24009","38.522719","-76.529762 ","4950","91","4950","91","","2019","92525","NYTIMES-USCENSUS"
"9/19/2021 12:00:00 AM","Burlington County","New Jersey","Northeast","Middle Atlantic","34005","39.875786","-74.663006 ","50796","912","50796","912","","2019","445349","NYTIMES-USCENSUS"
"9/19/2021 12:00:00 AM","Johnson County","Texas","South","West South Central","48251","32.379821","-97.364959 ","25298","445","25298","445","","2019","175817","NYTIMES-USCENSUS"
"9/19/2021 12:00:00 AM","Mitchell County","Iowa","Midwest","West North Central","19131","43.348564","-92.784466 ","1419","43","1419","43","","2019","10586","NYTIMES-USCENSUS"
"9/19/2021 12:00:00 AM","Hancock County","Indiana","Midwest","East North Central","18059","39.822529","-85.77315 ","10662","165","10662","165","","2019","78168","NYTIMES-USCENSUS"
"9/19/2021 12:00:00 AM","Spink County","South Dakota","Midwest","West North Central","46115","44.923772","-98.339615 ","946","26","946","26","","2019","6376","NYTIMES-USCENSUS"
"9/19/2021 12:00:00 AM","Barren County","Kentucky","South","East South Central","21009","36.962805","-85.932108 ","6961","116","6961","116","","2019","44249","NYTIMES-USCENSUS"
"9/19/2021 12:00:00 AM","Warren County","North Carolina","South","South Atlantic","37185","36.398105","-78.099899 ","2121","20","2121","20","","2019","19731","NYTIMES-USCENSUS"
"9/19/2021 12:00:00 AM","Walton County","Florida","South","South Atlantic","12131","30.571247","-86.162798 ","11359","141","11359","141","","2019","74071","NYTIMES-USCENSUS"
"9/19/2021 12:00:00 AM","Elk County","Kansas","Midwest","West North Central","20049","37.456026","-96.244642 ","244","5","244","5","","2019","2530","NYTIMES-USCENSUS"
"9/19/2021 12:00:00 AM","Adams County","Wisconsin","Midwest","East North Central","55001","43.973757","-89.767228 ","2328","28","2328","28","","2019","20220","NYTIMES-USCENSUS"
"9/19/2021 12:00:00 AM","Berkeley County","West Virginia","South","South Atlantic","54003","39.447938","-78.037754 ","15827","153","15827","153","","2019","119171","NYTIMES-USCENSUS"
"9/19/2021 12:00:00 AM","Nemaha County","Nebraska","Midwest","West North Central","31127","40.387389","-95.852721 ","804","13","804","13","","2019","6972","NYTIMES-USCENSUS"
"9/19/2021 12:00:00 AM","Mercer County","Illinois","Midwest","East North Central","17131","41.205605","-90.74177 ","1870","35","1870","35","","2019","15437","NYTIMES-USCENSUS"
"9/19/2021 12:00:00 AM","Boone County","West Virginia","South","South Atlantic","54005","38.022814","-81.713538 ","2911","38","2911","38","","2019","21457","NYTIMES-USCENSUS"
"9/19/2021 12:00:00 AM","Sierra County","New Mexico","West","Mountain","35051","33.119468","-107.188161 ","930","53","930","53","","2019","10791","NYTIMES-USCENSUS"
"9/19/2021 12:00:00 AM","Buffalo County","Nebraska","Midwest","West North Central","31019","40.855265","-99.074984 ","6004","57","6004","57","","2019","49659","NYTIMES-USCENSUS"
"9/19/2021 12:00:00 AM","Cochise County","Arizona","West","Mountain","04003","31.840129","-109.775163 ","13851","313","13851","313","","2019","125922","NYTIMES-USCENSUS"
"9/19/2021 12:00:00 AM","Lincoln County","Wisconsin","Midwest","East North Central","55069","45.333148","-89.73224 ","3677","106","3677","106","","2019","27593","NYTIMES-USCENSUS"
"9/19/2021 12:00:00 AM","Oktibbeha County","Mississippi","South","East South Central","28105","33.422313","-88.876151 ","6820","118","6820","118","","2019","49587","NYTIMES-USCENSUS"
"9/19/2021 12:00:00 AM","Gates County","North Carolina","South","South Atlantic","37073","36.442135","-76.702355 ","930","14","930","14","","2019","11562","NYTIMES-USCENSUS"
"9/19/2021 12:00:00 AM","Clatsop County","Oregon","West","Pacific","41007","46.024509","-123.705037 ","2102","25","2102","25","","2019","40224","NYTIMES-USCENSUS"
"9/19/2021 12:00:00 AM","Union County","Pennsylvania","Northeast","Middle Atlantic","42119","40.962179","-77.055475 ","6655","92","6655","92","","2019","44923","NYTIMES-USCENSUS"
"9/19/2021 12:00:00 AM","Darlington County","South Carolina","South","South Atlantic","45031","34.332185","-79.962115 ","10901","205","10901","205","","2019","66618","NYTIMES-USCENSUS"
"9/19/2021 12:00:00 AM","Wood County","Wisconsin","Midwest","East North Central","55141","44.461413","-90.038825 ","9064","119","9064","119","","2019","72999","NYTIMES-USCENSUS"
"9/19/2021 12:00:00 AM","Hemphill County","Texas","South","West South Central","48211","35.815956","-100.27921 ","656","3","656","3","","2019","3819","NYTIMES-USCENSUS"
"9/19/2021 12:00:00 AM","Hot Spring County","Arkansas","South","West South Central","05059","34.315177","-92.944147 ","7298","103","7298","103","","2019","33771","NYTIMES-USCENSUS"
"9/19/2021 12:00:00 AM","Maui County","Hawaii","West","Pacific","15009","20.855931","-156.60155 ","9052","82","9052","82","","2019","167417","NYTIMES-USCENSUS"
"9/19/2021 12:00:00 AM","Knox County","Illinois","Midwest","East North Central","17095","40.930945","-90.213792 ","6528","194","6528","194","","2019","49699","NYTIMES-USCENSUS"
"9/19/2021 12:00:00 AM","Modoc County","California","West","Pacific","06049","41.592918","-120.71837 ","668","8","668","8","","2019","8841","NYTIMES-USCENSUS"
"9/19/2021 12:00:00 AM","Woodward County","Oklahoma","South","West South Central","40153","36.425619","-99.273661 ","3442","40","3442","40","","2019","20211","NYTIMES-USCENSUS"
"9/19/2021 12:00:00 AM","Muscatine County","Iowa","Midwest","West North Central","19139","41.483776","-91.118699 ","5789","108","5789","108","","2019","42664","NYTIMES-USCENSUS"
"9/19/2021 12:00:00 AM","Ada County","Idaho","West","Mountain","16001","43.451477","-116.244376 ","66275","581","66275","581","","2019","481587","NYTIMES-USCENSUS"
"9/19/2021 12:00:00 AM","Clay County","Arkansas","South","West South Central","05021","36.367302","-90.418704 ","2511","54","2511","54","","2019","14551","NYTIMES-USCENSUS"
"9/19/2021 12:00:00 AM","Rock County","Minnesota","Midwest","West North Central","27133","43.669587","-96.263238 ","1385","19","1385","19","","2019","9315","NYTIMES-USCENSUS"
"9/19/2021 12:00:00 AM","Pushmataha County","Oklahoma","South","West South Central","40127","34.377899","-95.408082 ","1597","31","1597","31","","2019","11096","NYTIMES-USCENSUS"
"9/19/2021 12:00:00 AM","Bannock County","Idaho","West","Mountain","16005","42.692921","-112.228982 ","10962","132","10962","132","","2019","87808","NYTIMES-USCENSUS"
"9/19/2021 12:00:00 AM","Grimes County","Texas","South","West South Central","48185","30.543231","-95.988082 ","4926","91","4926","91","","2019","28880","NYTIMES-USCENSUS"
"9/19/2021 12:00:00 AM","Mineral County","West Virginia","South","South Atlantic","54057","39.404781","-78.95669 ","3865","97","3865","97","","2019","26868","NYTIMES-USCENSUS"
"9/19/2021 12:00:00 AM","Queen Anne's County","Maryland","South","South Atlantic","24035","39.040693","-76.082405 ","3455","60","3455","60","","2019","50381","NYTIMES-USCENSUS"
"9/19/2021 12:00:00 AM","Leon County","Florida","South","South Atlantic","12073","30.45931","-84.2778 ","48084","443","48084","443","","2019","293582","NYTIMES-USCENSUS"
"9/19/2021 12:00:00 AM","Jasper County","Georgia","South","South Atlantic","13159","33.316981","-83.689151 ","2020","47","2020","47","","2019","14219","NYTIMES-USCENSUS"
"9/19/2021 12:00:00 AM","Box Elder County","Utah","West","Mountain","49003","41.622623","-113.060252 ","7171","67","7171","67","","2019","56046","NYTIMES-USCENSUS"
"9/19/2021 12:00:00 AM","Alamance County","North Carolina","South","South Atlantic","37001","36.043954","-79.400573 ","23669","307","23669","307","","2019","169509","NYTIMES-USCENSUS"
"9/19/2021 12:00:00 AM","Greenwood County","South Carolina","South","South Atlantic","45047","34.155796","-82.127876 ","10592","184","10592","184","","2019","70811","NYTIMES-USCENSUS"
"9/19/2021 12:00:00 AM","St. Lucie County","Florida","South","South Atlantic","12111","27.379814","-80.443536 ","45511","891","45511","891","","2019","328297","NYTIMES-USCENSUS"
"9/19/2021 12:00:00 AM","Sherman County","Kansas","Midwest","West North Central","20181","39.351352","-101.719859 ","751","13","751","13","","2019","5917","NYTIMES-USCENSUS"
"9/19/2021 12:00:00 AM","Sequatchie County","Tennessee","South","East South Central","47153","35.372336","-85.410082 ","2740","30","2740","30","","2019","15026","NYTIMES-USCENSUS"
"9/19/2021 12:00:00 AM","Nantucket County","Massachusetts","Northeast","New England","25019","41.293392","-70.102164 ","1879","0","1879","0","","2019","11399","NYTIMES-USCENSUS"
"9/19/2021 12:00:00 AM","Toombs County","Georgia","South","South Atlantic","13279","32.117753","-82.330597 ","5154","142","5154","142","","2019","26830","NYTIMES-USCENSUS"
"9/19/2021 12:00:00 AM","Oldham County","Texas","South","West South Central","48359","35.401921","-102.59762 ","324","4","324","4","","2019","2112","NYTIMES-USCENSUS"
"9/19/2021 12:00:00 AM","Bowie County","Texas","South","West South Central","48037","33.446065","-94.422393 ","11702","272","11702","272","","2019","93245","NYTIMES-USCENSUS"
"9/19/2021 12:00:00 AM","Baxter County","Arkansas","South","West South Central","05005","36.280268","-92.329949 ","5584","164","5584","164","","2019","41932","NYTIMES-USCENSUS"
"9/19/2021 12:00:00 AM","Chicot County","Arkansas","South","West South Central","05017","33.267139","-91.297158 ","1942","44","1942","44","","2019","10118","NYTIMES-USCENSUS"
"9/19/2021 12:00:00 AM","Conecuh County","Alabama","South","East South Central","01035","31.430926","-86.988722 ","1774","39","1774","39","","2019","12067","NYTIMES-USCENSUS"
"9/19/2021 12:00:00 AM","Sumter County","South Carolina","South","South Atlantic","45085","33.91614","-80.382376 ","14500","253","14500","253","","2019","106721","NYTIMES-USCENSUS"
"9/19/2021 12:00:00 AM","Tillman County","Oklahoma","South","West South Central","40141","34.371085","-98.931701 ","910","18","910","18","","2019","7250","NYTIMES-USCENSUS"
"9/19/2021 12:00:00 AM","Dunn County","Wisconsin","Midwest","East North Central","55033","44.947751","-91.897645 ","6018","40","6018","40","","2019","45368","NYTIMES-USCENSUS"
"9/19/2021 12:00:00 AM","Wichita County","Kansas","Midwest","West North Central","20203","38.481922","-101.347434 ","253","6","253","6","","2019","2119","NYTIMES-USCENSUS"
"9/19/2021 12:00:00 AM","Outagamie County","Wisconsin","Midwest","East North Central","55087","44.418226","-88.464988 ","26822","256","26822","256","","2019","187885","NYTIMES-USCENSUS"
"9/19/2021 12:00:00 AM","Jefferson Davis Parish","Louisiana","South","West South Central","22053","30.269529","-92.816221 ","4501","114","4501","114","","2019","31368","NYTIMES-USCENSUS"
"9/19/2021 12:00:00 AM","Pike County","Georgia","South","South Atlantic","13231","33.081149","-84.389462 ","3556","54","3556","54","","2019","18962","NYTIMES-USCENSUS"
"9/19/2021 12:00:00 AM","Lampasas County","Texas","South","West South Central","48281","31.196731","-98.240889 ","3313","52","3313","52","","2019","21428","NYTIMES-USCENSUS"
"9/19/2021 12:00:00 AM","Mackinac County","Michigan","Midwest","East North Central","26097","46.167868","-85.303762 ","902","4","902","4","","2019","10799","NYTIMES-USCENSUS"
"9/19/2021 12:00:00 AM","Logan County","Oklahoma","South","West South Central","40083","35.914277","-97.450952 ","5509","77","5509","77","","2019","48011","NYTIMES-USCENSUS"
"9/19/2021 12:00:00 AM","Greenville County","South Carolina","South","South Atlantic","45045","34.892645","-82.372077 ","95691","1176","95691","1176","","2019","523542","NYTIMES-USCENSUS"
"9/19/2021 12:00:00 AM","Peoria County","Illinois","Midwest","East North Central","17143","40.785972","-89.766993 ","25855","391","25855","391","","2019","179179","NYTIMES-USCENSUS"
"9/19/2021 12:00:00 AM","Caddo County","Oklahoma","South","West South Central","40015","35.16792","-98.381045 ","4760","101","4760","101","","2019","28762","NYTIMES-USCENSUS"
"9/19/2021 12:00:00 AM","Oconee County","Georgia","South","South Atlantic","13219","33.834125","-83.437728 ","5249","75","5249","75","","2019","40280","NYTIMES-USCENSUS"
"9/19/2021 12:00:00 AM","DeKalb County","Alabama","South","East South Central","01049","34.460915","-85.804021 ","11921","229","11921","229","","2019","71513","NYTIMES-USCENSUS"
"9/19/2021 12:00:00 AM","Susquehanna County","Pennsylvania","Northeast","Middle Atlantic","42115","41.819665","-75.800969 ","3064","62","3064","62","","2019","40328","NYTIMES-USCENSUS"
"9/19/2021 12:00:00 AM","Cherokee County","Alabama","South","East South Central","01019","34.069515","-85.654242 ","2812","50","2812","50","","2019","26196","NYTIMES-USCENSUS"
"9/19/2021 12:00:00 AM","Chase County","Nebraska","Midwest","West North Central","31029","40.53039","-101.694192 ","477","5","477","5","","2019","3924","NYTIMES-USCENSUS"
"9/19/2021 12:00:00 AM","St. Tammany Parish","Louisiana","South","West South Central","22103","30.410022","-89.951962 ","41787","661","41787","661","","2019","260419","NYTIMES-USCENSUS"
"9/19/2021 12:00:00 AM","Chaves County","New Mexico","West","Mountain","35005","33.361604","-104.469837 ","11733","186","11733","186","","2019","64615","NYTIMES-USCENSUS"
"9/19/2021 12:00:00 AM","Lincoln County","Mississippi","South","East South Central","28085","31.535216","-90.453566 ","5232","130","5232","130","","2019","34153","NYTIMES-USCENSUS"
"9/19/2021 12:00:00 AM","Irwin County","Georgia","South","South Atlantic","13155","31.604306","-83.277037 ","1401","31","1401","31","","2019","9416","NYTIMES-USCENSUS"
"9/19/2021 12:00:00 AM","Rockingham County","Virginia","South","South Atlantic","51165","38.507585","-78.885321 ","8254","122","8254","122","","2019","81948","NYTIMES-USCENSUS"
"9/19/2021 12:00:00 AM","Porter County","Indiana","Midwest","East North Central","18127","41.509914","-87.071313 ","21494","353","21494","353","","2019","170389","NYTIMES-USCENSUS"
"9/19/2021 12:00:00 AM","Russell County","Kentucky","South","East South Central","21207","36.990587","-85.05495 ","3293","53","3293","53","","2019","17923","NYTIMES-USCENSUS"
"9/19/2021 12:00:00 AM","Lafayette County","Florida","South","South Atlantic","12067","29.990066","-83.17851 ","2145","28","2145","28","","2019","8422","NYTIMES-USCENSUS"
"9/19/2021 12:00:00 AM","James City County","Virginia","South","South Atlantic","51095","37.324837","-76.777888 ","6124","85","6124","85","","2019","76523","NYTIMES-USCENSUS"
"9/19/2021 12:00:00 AM","Deschutes County","Oregon","West","Pacific","41017","43.915118","-121.225575 ","16401","100","16401","100","","2019","197692","NYTIMES-USCENSUS"
"9/19/2021 12:00:00 AM","Clinton County","Pennsylvania","Northeast","Middle Atlantic","42035","41.239508","-77.629009 ","4146","69","4146","69","","2019","38632","NYTIMES-USCENSUS"
"9/19/2021 12:00:00 AM","Surry County","Virginia","South","South Atlantic","51181","37.119761","-76.880172 ","542","9","542","9","","2019","6422","NYTIMES-USCENSUS"
"9/19/2021 12:00:00 AM","Quay County","New Mexico","West","Mountain","35037","35.107018","-103.548071 ","837","13","837","13","","2019","8253","NYTIMES-USCENSUS"
"9/19/2021 12:00:00 AM","Beaufort County","South Carolina","South","South Atlantic","45013","32.358112","-80.689422 ","25485","267","25485","267","","2019","192122","NYTIMES-USCENSUS"
"9/19/2021 12:00:00 AM","Saline County","Arkansas","South","West South Central","05125","34.648525","-92.674463 ","17721","227","17721","227","","2019","122437","NYTIMES-USCENSUS"
"9/19/2021 12:00:00 AM","San Juan County","New Mexico","West","Mountain","35045","36.511624","-108.324578 ","17792","527","17792","527","","2019","123958","NYTIMES-USCENSUS"
"9/19/2021 12:00:00 AM","Addison County","Vermont","Northeast","New England","50001","44.031248","-73.141581 ","1315","8","1315","8","","2019","36777","NYTIMES-USCENSUS"
"9/19/2021 12:00:00 AM","Cherokee County","Texas","South","West South Central","48073","31.843881","-95.156343 ","6331","172","6331","172","","2019","52646","NYTIMES-USCENSUS"
"9/19/2021 12:00:00 AM","Monroe County","Tennessee","South","East South Central","47123","35.447818","-84.249705 ","8936","109","8936","109","","2019","46545","NYTIMES-USCENSUS"
"9/19/2021 12:00:00 AM","Neshoba County","Mississippi","South","East South Central","28099","32.752518","-89.119274 ","6404","201","6404","201","","2019","29118","NYTIMES-USCENSUS"
"9/19/2021 12:00:00 AM","McPherson County","Nebraska","Midwest","West North Central","31117","41.648414","-101.120851 ","28","1","28","1","","2019","494","NYTIMES-USCENSUS"
"9/19/2021 12:00:00 AM","Freestone County","Texas","South","West South Central","48161","31.701749","-96.144957 ","2596","59","2596","59","","2019","19717","NYTIMES-USCENSUS"
"9/19/2021 12:00:00 AM","Lamar County","Georgia","South","South Atlantic","13171","33.07444","-84.146689 ","3204","75","3204","75","","2019","19077","NYTIMES-USCENSUS"
"9/19/2021 12:00:00 AM","Randolph County","Alabama","South","East South Central","01111","33.296461","-85.464064 ","2959","55","2959","55","","2019","22722","NYTIMES-USCENSUS"
"9/19/2021 12:00:00 AM","Camden County","Missouri","Midwest","West North Central","29029","38.026527","-92.765327 ","5999","115","5999","115","","2019","46305","NYTIMES-USCENSUS"
"9/19/2021 12:00:00 AM","Bingham County","Idaho","West","Mountain","16011","43.216357","-112.399206 ","5679","87","5679","87","","2019","46811","NYTIMES-USCENSUS"
"9/19/2021 12:00:00 AM","Greene County","Ohio","Midwest","East North Central","39057","39.687479","-83.894894 ","20035","268","20035","268","","2019","168937","NYTIMES-USCENSUS"
"9/19/2021 12:00:00 AM","Henderson County","Illinois","Midwest","East North Central","17071","40.814471","-90.941246 ","631","23","631","23","","2019","6646","NYTIMES-USCENSUS"
"9/19/2021 12:00:00 AM","Madison County","Texas","South","West South Central","48313","30.966878","-95.930372 ","2364","40","2364","40","","2019","14284","NYTIMES-USCENSUS"
"9/19/2021 12:00:00 AM","Montgomery County","Ohio","Midwest","East North Central","39113","39.753736","-84.290591 ","66195","1136","66195","1136","","2019","531687","NYTIMES-USCENSUS"
"9/19/2021 12:00:00 AM","Musselshell County","Montana","West","Mountain","30065","46.505281","-108.439763 ","452","14","452","14","","2019","4633","NYTIMES-USCENSUS"
"9/19/2021 12:00:00 AM","Juniata County","Pennsylvania","Northeast","Middle Atlantic","42067","40.530673","-77.400438 ","2478","101","2478","101","","2019","24763","NYTIMES-USCENSUS"
"9/19/2021 12:00:00 AM","Izard County","Arkansas","South","West South Central","05065","36.094879","-91.913625 ","2303","53","2303","53","","2019","13629","NYTIMES-USCENSUS"
"9/19/2021 12:00:00 AM","Rockingham County","North Carolina","South","South Atlantic","37157","36.381806","-79.782754 ","10459","192","10459","192","","2019","91010","NYTIMES-USCENSUS"
"9/19/2021 12:00:00 AM","Paulding County","Georgia","South","South Atlantic","13223","33.92103","-84.867169 ","23588","278","23588","278","","2019","168667","NYTIMES-USCENSUS"
"9/19/2021 12:00:00 AM","Durham County","North Carolina","South","South Atlantic","37063","36.033828","-78.878125 ","32579","246","32579","246","","2019","321488","NYTIMES-USCENSUS"
"9/19/2021 12:00:00 AM","Allamakee County","Iowa","Midwest","West North Central","19005","43.274964","-91.382751 ","1762","52","1762","52","","2019","13687","NYTIMES-USCENSUS"
"9/19/2021 12:00:00 AM","Gaines County","Texas","South","West South Central","48165","32.743942","-102.631561 ","1966","50","1966","50","","2019","21492","NYTIMES-USCENSUS"
"9/19/2021 12:00:00 AM","Sacramento County","California","West","Pacific","06067","38.450136","-121.344329 ","149865","2070","149865","2070","","2019","1552058","NYTIMES-USCENSUS"
"9/19/2021 12:00:00 AM","Martin County","Texas","South","West South Central","48317","32.30983","-101.961836 ","800","21","800","21","","2019","5771","NYTIMES-USCENSUS"
"9/19/2021 12:00:00 AM","Toole County","Montana","West","Mountain","30101","48.645125","-111.733472 ","844","11","844","11","","2019","4736","NYTIMES-USCENSUS"
"9/19/2021 12:00:00 AM","Mahnomen County","Minnesota","Midwest","West North Central","27087","47.328387","-95.811089 ","681","9","681","9","","2019","5527","NYTIMES-USCENSUS"
"9/19/2021 12:00:00 AM","Dunn County","North Dakota","Midwest","West North Central","38025","47.354557","-102.612322 ","520","7","520","7","","2019","4424","NYTIMES-USCENSUS"
"9/19/2021 12:00:00 AM","Harrison County","Indiana","Midwest","East North Central","18061","38.186454","-86.103766 ","5959","88","5959","88","","2019","40515","NYTIMES-USCENSUS"
"9/19/2021 12:00:00 AM","Knox County","Texas","South","West South Central","48275","33.61189","-99.730356 ","290","20","290","20","","2019","3664","NYTIMES-USCENSUS"
"9/19/2021 12:00:00 AM","Bayfield County","Wisconsin","Midwest","East North Central","55007","46.634199","-91.177282 ","1452","22","1452","22","","2019","15036","NYTIMES-USCENSUS"
"9/19/2021 12:00:00 AM","Wood County","West Virginia","South","South Atlantic","54107","39.211602","-81.516234 ","10847","195","10847","195","","2019","83518","NYTIMES-USCENSUS"
"9/19/2021 12:00:00 AM","Dallas County","Texas","South","West South Central","48113","32.766987","-96.778424 ","375608","4671","375608","4671","","2019","2635516","NYTIMES-USCENSUS"
"9/19/2021 12:00:00 AM","Gratiot County","Michigan","Midwest","East North Central","26057","43.292326","-84.60469 ","7435","127","7435","127","","2019","40711","NYTIMES-USCENSUS"
"9/19/2021 12:00:00 AM","Kershaw County","South Carolina","South","South Atlantic","45055","34.338356","-80.590885 ","10858","173","10858","173","","2019","66551","NYTIMES-USCENSUS"
"9/19/2021 12:00:00 AM","Caldwell County","Texas","South","West South Central","48055","29.832399","-97.628141 ","7937","128","7937","128","","2019","43664","NYTIMES-USCENSUS"
"9/19/2021 12:00:00 AM","Cumberland County","New Jersey","Northeast","Middle Atlantic","34011","39.328434","-75.121628 ","19306","455","19306","455","","2019","149527","NYTIMES-USCENSUS"
"9/19/2021 12:00:00 AM","McCook County","South Dakota","Midwest","West North Central","46087","43.680416","-97.358048 ","851","25","851","25","","2019","5586","NYTIMES-USCENSUS"
"9/19/2021 12:00:00 AM","Tuscarawas County","Ohio","Midwest","East North Central","39157","40.44749","-81.471105 ","10723","265","10723","265","","2019","91987","NYTIMES-USCENSUS"
"9/19/2021 12:00:00 AM","Cass County","Nebraska","Midwest","West North Central","31025","40.909878","-96.140609 ","3122","17","3122","17","","2019","26248","NYTIMES-USCENSUS"
"9/19/2021 12:00:00 AM","Drew County","Arkansas","South","West South Central","05043","33.587242","-91.722778 ","2707","53","2707","53","","2019","18219","NYTIMES-USCENSUS"
"9/19/2021 12:00:00 AM","McCreary County","Kentucky","South","East South Central","21147","36.731136","-84.491052 ","2971","41","2971","41","","2019","17231","NYTIMES-USCENSUS"
"9/19/2021 12:00:00 AM","Pender County","North Carolina","South","South Atlantic","37141","34.512556","-77.888106 ","8049","87","8049","87","","2019","63060","NYTIMES-USCENSUS"
"9/19/2021 12:00:00 AM","Crowley County","Colorado","West","Mountain","08025","38.30618","-103.772736 ","2247","18","2247","18","","2019","6061","NYTIMES-USCENSUS"
"9/19/2021 12:00:00 AM","Mason County","Washington","West","Pacific","53045","47.350832","-123.173103 ","4506","52","4506","52","","2019","66768","NYTIMES-USCENSUS"
"9/19/2021 12:00:00 AM","Halifax County","Virginia","South","South Atlantic","51083","36.766461","-78.939614 ","3369","90","3369","90","","2019","33911","NYTIMES-USCENSUS"
"9/19/2021 12:00:00 AM","Chautauqua County","Kansas","Midwest","West North Central","20019","37.154259","-96.245396 ","408","8","408","8","","2019","3250","NYTIMES-USCENSUS"
"9/19/2021 12:00:00 AM","East Carroll Parish","Louisiana","South","West South Central","22035","32.73017","-91.234141 ","1478","30","1478","30","","2019","6861","NYTIMES-USCENSUS"
"9/19/2021 12:00:00 AM","Hunt County","Texas","South","West South Central","48231","33.123308","-96.08423 ","9817","235","9817","235","","2019","98594","NYTIMES-USCENSUS"
"9/19/2021 12:00:00 AM","Cass County","Minnesota","Midwest","West North Central","27021","46.951745","-94.333705 ","3430","35","3430","35","","2019","29779","NYTIMES-USCENSUS"
"9/19/2021 12:00:00 AM","Hendry County","Florida","South","South Atlantic","12051","26.539967","-81.152114 ","7696","98","7696","98","","2019","42022","NYTIMES-USCENSUS"
"9/19/2021 12:00:00 AM","Garza County","Texas","South","West South Central","48169","33.183792","-101.301134 ","648","22","648","22","","2019","6229","NYTIMES-USCENSUS"
"9/19/2021 12:00:00 AM","Haralson County","Georgia","South","South Atlantic","13143","33.795165","-85.220063 ","3570","100","3570","100","","2019","29792","NYTIMES-USCENSUS"
"9/19/2021 12:00:00 AM","Niagara County","New York","Northeast","Middle Atlantic","36063","43.272672","-78.812943 ","22005","382","22005","382","","2019","209281","NYTIMES-USCENSUS"
"9/19/2021 12:00:00 AM","Fayette County","Iowa","Midwest","West North Central","19065","42.864122","-91.840376 ","2208","45","2208","45","","2019","19650","NYTIMES-USCENSUS"
"9/19/2021 12:00:00 AM","Klickitat County","Washington","West","Pacific","53039","45.870446","-120.779305 ","1475","14","1475","14","","2019","22425","NYTIMES-USCENSUS"
"9/19/2021 12:00:00 AM","Catawba County","North Carolina","South","South Atlantic","37035","35.661883","-81.214906 ","25744","359","25744","359","","2019","159551","NYTIMES-USCENSUS"
"9/19/2021 12:00:00 AM","Lawrence County","South Dakota","Midwest","West North Central","46081","44.348514","-103.806362 ","3869","52","3869","52","","2019","25844","NYTIMES-USCENSUS"
"9/19/2021 12:00:00 AM","Muskingum County","Ohio","Midwest","East North Central","39119","39.966046","-81.943506 ","12324","149","12324","149","","2019","86215","NYTIMES-USCENSUS"
"9/19/2021 12:00:00 AM","Liberty County","Texas","South","West South Central","48291","30.158508","-94.844061 ","11929","287","11929","287","","2019","88219","NYTIMES-USCENSUS"
"9/19/2021 12:00:00 AM","Cedar County","Iowa","Midwest","West North Central","19031","41.77236","-91.132611 ","2211","25","2211","25","","2019","18627","NYTIMES-USCENSUS"
"9/19/2021 12:00:00 AM","Grenada County","Mississippi","South","East South Central","28043","33.770031","-89.80274 ","3517","101","3517","101","","2019","20758","NYTIMES-USCENSUS"
"9/19/2021 12:00:00 AM","Kosciusko County","Indiana","Midwest","East North Central","18085","41.244293","-85.861575 ","11252","139","11252","139","","2019","79456","NYTIMES-USCENSUS"
"9/19/2021 12:00:00 AM","Island County","Washington","West","Pacific","53029","48.158554","-122.670649 ","3119","38","3119","38","","2019","85141","NYTIMES-USCENSUS"
"9/19/2021 12:00:00 AM","Adams County","Pennsylvania","Northeast","Middle Atlantic","42001","39.869471","-77.21773 ","11500","194","11500","194","","2019","103009","NYTIMES-USCENSUS"
"9/19/2021 12:00:00 AM","Weston County","Wyoming","West","Mountain","56045","43.846213","-104.57002 ","854","7","854","7","","2019","6927","NYTIMES-USCENSUS"
"9/19/2021 12:00:00 AM","Herkimer County","New York","Northeast","Middle Atlantic","36043","43.571009","-74.841097 ","5937","116","5937","116","","2019","61319","NYTIMES-USCENSUS"
"9/19/2021 12:00:00 AM","Reynolds County","Missouri","Midwest","West North Central","29179","37.366464","-90.972282 ","736","6","736","6","","2019","6270","NYTIMES-USCENSUS"
"9/19/2021 12:00:00 AM","Lawrence County","Illinois","Midwest","East North Central","17101","38.718954","-87.730221 ","2946","40","2946","40","","2019","15678","NYTIMES-USCENSUS"
"9/19/2021 12:00:00 AM","Emmet County","Michigan","Midwest","East North Central","26047","45.590094","-84.986822 ","2762","45","2762","45","","2019","33415","NYTIMES-USCENSUS"
"9/19/2021 12:00:00 AM","Ellis County","Texas","South","West South Central","48139","32.346878","-96.79694 ","30145","388","30145","388","","2019","184826","NYTIMES-USCENSUS"
"9/19/2021 12:00:00 AM","Comal County","Texas","South","West South Central","48091","29.812377","-98.258129 ","17738","405","17738","405","","2019","156209","NYTIMES-USCENSUS"
"9/19/2021 12:00:00 AM","Shenandoah County","Virginia","South","South Atlantic","51171","38.856204","-78.573987 ","5303","139","5303","139","","2019","43616","NYTIMES-USCENSUS"
"9/19/2021 12:00:00 AM","Hartley County","Texas","South","West South Central","48205","35.840244","-102.610047 ","795","2","795","2","","2019","5576","NYTIMES-USCENSUS"
"9/19/2021 12:00:00 AM","Montrose County","Colorado","West","Mountain","08085","38.407507","-108.266282 ","4479","75","4479","75","","2019","42758","NYTIMES-USCENSUS"
"9/19/2021 12:00:00 AM","Hardy County","West Virginia","South","South Atlantic","54031","39.011361","-78.841729 ","2090","25","2090","25","","2019","13776","NYTIMES-USCENSUS"
"9/19/2021 12:00:00 AM","Rio Blanco County","Colorado","West","Mountain","08103","39.972622","-108.200716 ","812","7","812","7","","2019","6324","NYTIMES-USCENSUS"
"9/19/2021 12:00:00 AM","Rice County","Kansas","Midwest","West North Central","20159","38.347178","-98.201415 ","1304","13","1304","13","","2019","9537","NYTIMES-USCENSUS"
"9/19/2021 12:00:00 AM","Marion County","Indiana","Midwest","East North Central","18097","39.782976","-86.135794 ","126428","2030","126428","2030","","2019","964582","NYTIMES-USCENSUS"
"9/19/2021 12:00:00 AM","Cumberland County","Virginia","South","South Atlantic","51049","37.520189","-78.252836 ","639","11","639","11","","2019","9932","NYTIMES-USCENSUS"
"9/19/2021 12:00:00 AM","Jefferson County","Montana","West","Mountain","30043","46.124232","-112.059428 ","1328","9","1328","9","","2019","12221","NYTIMES-USCENSUS"
"9/19/2021 12:00:00 AM","Cache County","Utah","West","Mountain","49005","41.734117","-111.745399 ","19289","58","19289","58","","2019","128289","NYTIMES-USCENSUS"
"9/19/2021 12:00:00 AM","Grand County","Colorado","West","Mountain","08049","40.113065","-106.110837 ","1823","8","1823","8","","2019","15734","NYTIMES-USCENSUS"
"9/19/2021 12:00:00 AM","Walker County","Alabama","South","East South Central","01127","33.791558","-87.301094 ","10260","312","10260","312","","2019","63521","NYTIMES-USCENSUS"
"9/19/2021 12:00:00 AM","Buena Vista County","Iowa","Midwest","West North Central","19021","42.741522","-95.141432 ","4731","42","4731","42","","2019","19620","NYTIMES-USCENSUS"
"9/19/2021 12:00:00 AM","Harrison County","Iowa","Midwest","West North Central","19085","41.688584","-95.827149 ","1988","75","1988","75","","2019","14049","NYTIMES-USCENSUS"
"9/19/2021 12:00:00 AM","Stephenson County","Illinois","Midwest","East North Central","17177","42.349726","-89.665994 ","5400","108","5400","108","","2019","44498","NYTIMES-USCENSUS"
"9/19/2021 12:00:00 AM","Ripley County","Missouri","Midwest","West North Central","29181","36.65017","-90.874834 ","1682","19","1682","19","","2019","13288","NYTIMES-USCENSUS"
"9/19/2021 12:00:00 AM","Monterey County","California","West","Pacific","06053","36.240104","-121.315578 ","49445","568","49445","568","","2019","434061","NYTIMES-USCENSUS"
"9/19/2021 12:00:00 AM","Washington County","Pennsylvania","Northeast","Middle Atlantic","42125","40.200005","-80.252132 ","21438","336","21438","336","","2019","206865","NYTIMES-USCENSUS"
"9/19/2021 12:00:00 AM","Doniphan County","Kansas","Midwest","West North Central","20043","39.788502","-95.147225 ","1314","27","1314","27","","2019","7600","NYTIMES-USCENSUS"
"9/19/2021 12:00:00 AM","Fluvanna County","Virginia","South","South Atlantic","51065","37.830584","-78.283494 ","2321","22","2321","22","","2019","27270","NYTIMES-USCENSUS"
"9/19/2021 12:00:00 AM","Brevard County","Florida","South","South Atlantic","12009","28.298311","-80.700333 ","77272","1535","77272","1535","","2019","601942","NYTIMES-USCENSUS"
"9/19/2021 12:00:00 AM","Mississippi County","Missouri","Midwest","West North Central","29133","36.826264","-89.295929 ","2034","33","2034","33","","2019","13180","NYTIMES-USCENSUS"
"9/19/2021 12:00:00 AM","Northumberland County","Pennsylvania","Northeast","Middle Atlantic","42097","40.851524","-76.709877 ","10989","377","10989","377","","2019","90843","NYTIMES-USCENSUS"
"9/19/2021 12:00:00 AM","Otsego County","Michigan","Midwest","East North Central","26137","45.021787","-84.576603 ","2657","43","2657","43","","2019","24668","NYTIMES-USCENSUS"
"9/19/2021 12:00:00 AM","Johnston County","North Carolina","South","South Atlantic","37101","35.513419","-78.367348 ","29695","286","29695","286","","2019","209339","NYTIMES-USCENSUS"
"9/19/2021 12:00:00 AM","Dickinson County","Michigan","Midwest","East North Central","26043","46.012833","-87.866139 ","3273","75","3273","75","","2019","25239","NYTIMES-USCENSUS"
"9/19/2021 12:00:00 AM","Custer County","Idaho","West","Mountain","16037","44.273351","-114.252267 ","303","3","303","3","","2019","4315","NYTIMES-USCENSUS"
"9/19/2021 12:00:00 AM","Lee County","South Carolina","South","South Atlantic","45061","34.15864","-80.251209 ","2330","68","2330","68","","2019","16828","NYTIMES-USCENSUS"
"9/19/2021 12:00:00 AM","Grayson County","Texas","South","West South Central","48181","33.624524","-96.675693 ","14132","411","14132","411","","2019","136212","NYTIMES-USCENSUS"
"9/19/2021 12:00:00 AM","Clarion County","Pennsylvania","Northeast","Middle Atlantic","42031","41.198159","-79.420369 ","3726","100","3726","100","","2019","38438","NYTIMES-USCENSUS"
"9/19/2021 12:00:00 AM","Wexford County","Michigan","Midwest","East North Central","26165","44.331375","-85.570046 ","3071","50","3071","50","","2019","33631","NYTIMES-USCENSUS"
"9/19/2021 12:00:00 AM","Evans County","Georgia","South","South Atlantic","13109","32.153083","-81.890153 ","1534","41","1534","41","","2019","10654","NYTIMES-USCENSUS"
"9/19/2021 12:00:00 AM","Estill County","Kentucky","South","East South Central","21065","37.692449","-83.963983 ","1831","12","1831","12","","2019","14106","NYTIMES-USCENSUS"
"9/19/2021 12:00:00 AM","Grand Traverse County","Michigan","Midwest","East North Central","26055","44.718688","-85.553848 ","7502","107","7502","107","","2019","93088","NYTIMES-USCENSUS"
"9/19/2021 12:00:00 AM","Benton County","Arkansas","South","West South Central","05007","36.337819","-94.256298 ","39876","561","39876","561","","2019","279141","NYTIMES-USCENSUS"
"9/19/2021 12:00:00 AM","Accomack County","Virginia","South","South Atlantic","51001","37.765944","-75.757807 ","3568","63","3568","63","","2019","32316","NYTIMES-USCENSUS"
"9/19/2021 12:00:00 AM","Wilson County","Kansas","Midwest","West North Central","20205","37.558515","-95.745175 ","1356","28","1356","28","","2019","8525","NYTIMES-USCENSUS"
"9/19/2021 12:00:00 AM","Nacogdoches County","Texas","South","West South Central","48347","31.62056","-94.62025 ","7086","193","7086","193","","2019","65204","NYTIMES-USCENSUS"
"9/19/2021 12:00:00 AM","Karnes County","Texas","South","West South Central","48255","28.908996","-97.852205 ","3580","44","3580","44","","2019","15601","NYTIMES-USCENSUS"
"9/19/2021 12:00:00 AM","Fulton County","Illinois","Midwest","East North Central","17057","40.46524","-90.202269 ","4790","77","4790","77","","2019","34340","NYTIMES-USCENSUS"
"9/19/2021 12:00:00 AM","Wise County","Virginia","South","South Atlantic","51195","36.974561","-82.62156 ","4313","115","4313","115","","2019","37383","NYTIMES-USCENSUS"
"9/19/2021 12:00:00 AM","Washington County","Maryland","South","South Atlantic","24043","39.603621","-77.814671 ","16982","356","16982","356","","2019","151049","NYTIMES-USCENSUS"
"9/19/2021 12:00:00 AM","Milwaukee County","Wisconsin","Midwest","East North Central","55079","42.912643","-87.862312 ","137223","1516","137223","1516","","2019","945726","NYTIMES-USCENSUS"
"9/19/2021 12:00:00 AM","Russell County","Virginia","South","South Atlantic","51167","36.93342","-82.095934 ","3086","44","3086","44","","2019","26586","NYTIMES-USCENSUS"
"9/19/2021 12:00:00 AM","Baldwin County","Georgia","South","South Atlantic","13009","33.05949","-83.255457 ","6369","160","6369","160","","2019","44890","NYTIMES-USCENSUS"
"9/19/2021 12:00:00 AM","Richland County","Montana","West","Mountain","30083","47.785633","-104.563408 ","1438","18","1438","18","","2019","10803","NYTIMES-USCENSUS"
"9/19/2021 12:00:00 AM","Washington County","Texas","South","West South Central","48477","30.215075","-96.410272 ","5356","115","5356","115","","2019","35882","NYTIMES-USCENSUS"
"9/19/2021 12:00:00 AM","Berkshire County","Massachusetts","Northeast","New England","25003","42.371493","-73.217928 ","7825","309","7825","309","","2019","124944","NYTIMES-USCENSUS"
"9/19/2021 12:00:00 AM","Huron County","Ohio","Midwest","East North Central","39077","41.14508","-82.594641 ","7279","127","7279","127","","2019","58266","NYTIMES-USCENSUS"
"9/19/2021 12:00:00 AM","Perry County","Alabama","South","East South Central","01105","32.639005","-87.293827 ","1348","35","1348","35","","2019","8923","NYTIMES-USCENSUS"
"9/19/2021 12:00:00 AM","Sioux County","Iowa","Midwest","West North Central","19167","43.082646","-96.17801 ","5428","75","5428","75","","2019","34855","NYTIMES-USCENSUS"
"9/19/2021 12:00:00 AM","East Feliciana Parish","Louisiana","South","West South Central","22037","30.839784","-91.043434 ","4388","138","4388","138","","2019","19135","NYTIMES-USCENSUS"
"9/19/2021 12:00:00 AM","Crawford County","Michigan","Midwest","East North Central","26039","44.680175","-84.611343 ","1098","15","1098","15","","2019","14029","NYTIMES-USCENSUS"
"9/19/2021 12:00:00 AM","Schuyler County","New York","Northeast","Middle Atlantic","36097","42.419776","-76.938603 ","1264","16","1264","16","","2019","17807","NYTIMES-USCENSUS"
"9/19/2021 12:00:00 AM","Uinta County","Wyoming","West","Mountain","56041","41.284726","-110.558947 ","3326","21","3326","21","","2019","20226","NYTIMES-USCENSUS"
"9/19/2021 12:00:00 AM","Palm Beach County","Florida","South","South Atlantic","12099","26.649126","-80.448354 ","214792","3708","214792","3708","","2019","1496770","NYTIMES-USCENSUS"
"9/19/2021 12:00:00 AM","Pendleton County","Kentucky","South","East South Central","21191","38.696284","-84.351943 ","1630","12","1630","12","","2019","14590","NYTIMES-USCENSUS"
"9/19/2021 12:00:00 AM","Bates County","Missouri","Midwest","West North Central","29013","38.257217","-94.339246 ","2064","38","2064","38","","2019","16172","NYTIMES-USCENSUS"
"9/19/2021 12:00:00 AM","Fergus County","Montana","West","Mountain","30027","47.221816","-109.232956 ","1378","32","1378","32","","2019","11050","NYTIMES-USCENSUS"
"9/19/2021 12:00:00 AM","New Kent County","Virginia","South","South Atlantic","51127","37.51016","-76.999331 ","1967","20","1967","20","","2019","23091","NYTIMES-USCENSUS"
"9/19/2021 12:00:00 AM","Warren County","Kentucky","South","East South Central","21227","36.995634","-86.423579 ","23118","217","23118","217","","2019","132896","NYTIMES-USCENSUS"
"9/19/2021 12:00:00 AM","Osage County","Kansas","Midwest","West North Central","20139","38.650215","-95.708255 ","1795","30","1795","30","","2019","15949","NYTIMES-USCENSUS"
"9/19/2021 12:00:00 AM","Brantley County","Georgia","South","South Atlantic","13025","31.197334","-81.982978 ","2964","63","2964","63","","2019","19109","NYTIMES-USCENSUS"
"9/19/2021 12:00:00 AM","Morgan County","Tennessee","South","East South Central","47129","36.138697","-84.639262 ","3380","41","3380","41","","2019","21403","NYTIMES-USCENSUS"
"9/19/2021 12:00:00 AM","El Dorado County","California","West","Pacific","06017","38.785612","-120.534225 ","15964","127","15964","127","","2019","192843","NYTIMES-USCENSUS"
"9/19/2021 12:00:00 AM","Alpena County","Michigan","Midwest","East North Central","26007","44.894954","-83.426574 ","2622","68","2622","68","","2019","28405","NYTIMES-USCENSUS"
"9/19/2021 12:00:00 AM","Jasper County","Texas","South","West South Central","48241","30.752932","-94.022294 ","3811","124","3811","124","","2019","35529","NYTIMES-USCENSUS"
"9/19/2021 12:00:00 AM","Carroll County","Kentucky","South","East South Central","21041","38.668394","-85.124024 ","1617","21","1617","21","","2019","10631","NYTIMES-USCENSUS"
"9/19/2021 12:00:00 AM","Matanuska-Susitna Borough","Alaska","West","Pacific","02170","62.265626","-149.503993 ","15502","66","15502","66","","2019","108317","NYTIMES-USCENSUS"
"9/19/2021 12:00:00 AM","Hutchinson County","Texas","South","West South Central","48233","35.837047","-101.362746 ","3166","80","3166","80","","2019","20938","NYTIMES-USCENSUS"
"9/19/2021 12:00:00 AM","Fulton County","Georgia","South","South Atlantic","13121","33.790034","-84.468182 ","124368","1584","124368","1584","","2019","1063937","NYTIMES-USCENSUS"
"9/19/2021 12:00:00 AM","Sharkey County","Mississippi","South","East South Central","28125","32.892395","-90.827613 ","621","20","621","20","","2019","4321","NYTIMES-USCENSUS"
"9/19/2021 12:00:00 AM","Dallas County","Arkansas","South","West South Central","05039","33.967823","-92.653999 ","1107","18","1107","18","","2019","7009","NYTIMES-USCENSUS"
"9/19/2021 12:00:00 AM","Rogers County","Oklahoma","South","West South Central","40131","36.377794","-95.601383 ","14491","231","14491","231","","2019","92459","NYTIMES-USCENSUS"
"9/19/2021 12:00:00 AM","Steele County","Minnesota","Midwest","West North Central","27147","44.015261","-93.220453 ","5009","21","5009","21","","2019","36649","NYTIMES-USCENSUS"
"9/19/2021 12:00:00 AM","Glasscock County","Texas","South","West South Central","48173","31.868006","-101.521494 ","139","3","139","3","","2019","1409","NYTIMES-USCENSUS"
"9/19/2021 12:00:00 AM","Custer County","Nebraska","Midwest","West North Central","31041","41.393893","-99.726866 ","907","19","907","19","","2019","10777","NYTIMES-USCENSUS"
"9/19/2021 12:00:00 AM","Fannin County","Texas","South","West South Central","48147","33.591161","-96.104988 ","4349","128","4349","128","","2019","35514","NYTIMES-USCENSUS"
"9/19/2021 12:00:00 AM","Gonzales County","Texas","South","West South Central","48177","29.461912","-97.49192 ","3374","73","3374","73","","2019","20837","NYTIMES-USCENSUS"
"9/19/2021 12:00:00 AM","Rowan County","Kentucky","South","East South Central","21205","38.204266","-83.428079 ","2961","25","2961","25","","2019","24460","NYTIMES-USCENSUS"
"9/19/2021 12:00:00 AM","Pawnee County","Oklahoma","South","West South Central","40117","36.313704","-96.696669 ","2467","58","2467","58","","2019","16376","NYTIMES-USCENSUS"
"9/19/2021 12:00:00 AM","Wallowa County","Oregon","West","Pacific","41063","45.593753","-117.18558 ","501","11","501","11","","2019","7208","NYTIMES-USCENSUS"
"9/19/2021 12:00:00 AM","Lancaster County","Pennsylvania","Northeast","Middle Atlantic","42071","40.041992","-76.250198 ","63280","1217","63280","1217","","2019","545724","NYTIMES-USCENSUS"
"9/19/2021 12:00:00 AM","Montgomery County","Tennessee","South","East South Central","47125","36.500354","-87.380887 ","29895","288","29895","288","","2019","208993","NYTIMES-USCENSUS"
"9/19/2021 12:00:00 AM","Vilas County","Wisconsin","Midwest","East North Central","55125","46.049848","-89.501254 ","2642","48","2642","48","","2019","22195","NYTIMES-USCENSUS"
"9/19/2021 12:00:00 AM","Jackson County","Georgia","South","South Atlantic","13157","34.130905","-83.562557 ","13710","176","13710","176","","2019","72977","NYTIMES-USCENSUS"
"9/19/2021 12:00:00 AM","Baker County","Oregon","West","Pacific","41001","44.703427","-117.691933 ","1719","20","1719","20","","2019","16124","NYTIMES-USCENSUS"
"9/19/2021 12:00:00 AM","Monroe County","Alabama","South","East South Central","01099","31.580332","-87.383266 ","3124","47","3124","47","","2019","20733","NYTIMES-USCENSUS"
"9/19/2021 12:00:00 AM","Pointe Coupee Parish","Louisiana","South","West South Central","22077","30.708319","-91.604621 ","3709","81","3709","81","","2019","21730","NYTIMES-USCENSUS"
"9/19/2021 12:00:00 AM","McKinley County","New Mexico","West","Mountain","35031","35.584062","-108.253294 ","13541","493","13541","493","","2019","71367","NYTIMES-USCENSUS"
"9/19/2021 12:00:00 AM","Lake County","Montana","West","Mountain","30047","47.642901","-114.083687 ","2756","46","2756","46","","2019","30458","NYTIMES-USCENSUS"
"9/19/2021 12:00:00 AM","Deaf Smith County","Texas","South","West South Central","48117","34.940766","-102.607564 ","3251","69","3251","69","","2019","18546","NYTIMES-USCENSUS"
"9/19/2021 12:00:00 AM","Dakota County","Nebraska","Midwest","West North Central","31043","42.391624","-96.561327 ","4278","82","4278","82","","2019","20026","NYTIMES-USCENSUS"
"9/19/2021 12:00:00 AM","Kandiyohi County","Minnesota","Midwest","West North Central","27067","45.152714","-95.004981 ","7441","88","7441","88","","2019","43199","NYTIMES-USCENSUS"
"9/19/2021 12:00:00 AM","Millard County","Utah","West","Mountain","49027","38.956744","-113.133092 ","1908","20","1908","20","","2019","13188","NYTIMES-USCENSUS"
"9/19/2021 12:00:00 AM","Gloucester County","New Jersey","Northeast","Middle Atlantic","34015","39.722875","-75.145679 ","35271","682","35271","682","","2019","291636","NYTIMES-USCENSUS"
"9/19/2021 12:00:00 AM","Bacon County","Georgia","South","South Atlantic","13005","31.55021","-82.451433 ","2336","50","2336","50","","2019","11164","NYTIMES-USCENSUS"
"9/19/2021 12:00:00 AM","Morrow County","Ohio","Midwest","East North Central","39117","40.525266","-82.797729 ","3706","50","3706","50","","2019","35328","NYTIMES-USCENSUS"
"9/19/2021 12:00:00 AM","Calloway County","Kentucky","South","East South Central","21035","36.620978","-88.274086 ","4754","56","4754","56","","2019","39001","NYTIMES-USCENSUS"
"9/19/2021 12:00:00 AM","Lynchburg city","Virginia","South","South Atlantic","51680","37.399016","-79.195458 ","10619","162","10619","162","","2019","82168","NYTIMES-USCENSUS"
"9/19/2021 12:00:00 AM","Osborne County","Kansas","Midwest","West North Central","20141","39.348261","-98.767942 ","355","13","355","13","","2019","3421","NYTIMES-USCENSUS"
"9/19/2021 12:00:00 AM","Nueces County","Texas","South","West South Central","48355","27.740032","-97.516214 ","59173","1128","59173","1128","","2019","362294","NYTIMES-USCENSUS"
"9/19/2021 12:00:00 AM","Lowndes County","Georgia","South","South Atlantic","13185","30.833145","-83.268995 ","20293","266","20293","266","","2019","117406","NYTIMES-USCENSUS"
"9/19/2021 12:00:00 AM","Lexington County","South Carolina","South","South Atlantic","45063","33.899246","-81.266118 ","50160","622","50160","622","","2019","298750","NYTIMES-USCENSUS"
"9/19/2021 12:00:00 AM","Delaware County","New York","Northeast","Middle Atlantic","36025","42.193986","-74.966728 ","3017","40","3017","40","","2019","44135","NYTIMES-USCENSUS"
"9/19/2021 12:00:00 AM","Burleigh County","North Dakota","Midwest","West North Central","38015","46.978829","-100.469533 ","18710","210","18710","210","","2019","95626","NYTIMES-USCENSUS"
"9/19/2021 12:00:00 AM","Pope County","Minnesota","Midwest","West North Central","27121","45.589623","-95.446705 ","1305","8","1305","8","","2019","11249","NYTIMES-USCENSUS"
"9/19/2021 12:00:00 AM","Jackson County","Oklahoma","South","West South Central","40065","34.594006","-99.412235 ","3544","59","3544","59","","2019","24530","NYTIMES-USCENSUS"
"9/19/2021 12:00:00 AM","Weld County","Colorado","West","Mountain","08123","40.555961","-104.383666 ","40259","386","40259","386","","2019","324492","NYTIMES-USCENSUS"
"9/19/2021 12:00:00 AM","Keokuk County","Iowa","Midwest","West North Central","19107","41.331182","-92.167721 ","1166","32","1166","32","","2019","10246","NYTIMES-USCENSUS"
"9/19/2021 12:00:00 AM","Montmorency County","Michigan","Midwest","East North Central","26119","45.024134","-84.130107 ","713","21","713","21","","2019","9328","NYTIMES-USCENSUS"
"9/19/2021 12:00:00 AM","Kitsap County","Washington","West","Pacific","53035","47.639595","-122.649634 ","13865","162","13865","162","","2019","271473","NYTIMES-USCENSUS"
"9/19/2021 12:00:00 AM","Barry County","Michigan","Midwest","East North Central","26015","42.582811","-85.31455 ","6764","75","6764","75","","2019","61550","NYTIMES-USCENSUS"
"9/19/2021 12:00:00 AM","Upshur County","Texas","South","West South Central","48459","32.735349","-94.941184 ","5350","98","5350","98","","2019","41753","NYTIMES-USCENSUS"
"9/19/2021 12:00:00 AM","Sierra County","California","West","Pacific","06091","39.576925","-120.521993 ","140","0","140","0","","2019","3005","NYTIMES-USCENSUS"
"9/19/2021 12:00:00 AM","Duplin County","North Carolina","South","South Atlantic","37061","34.934403","-77.933543 ","9010","161","9010","161","","2019","58741","NYTIMES-USCENSUS"
"9/19/2021 12:00:00 AM","Polk County","Georgia","South","South Atlantic","13233","33.996015","-85.188338 ","7976","121","7976","121","","2019","42613","NYTIMES-USCENSUS"
"9/19/2021 12:00:00 AM","Crawford County","Missouri","Midwest","West North Central","29055","37.966559","-91.313936 ","3382","49","3382","49","","2019","23920","NYTIMES-USCENSUS"
"9/19/2021 12:00:00 AM","Haskell County","Kansas","Midwest","West North Central","20081","37.554979","-100.879952 ","505","8","505","8","","2019","3968","NYTIMES-USCENSUS"
"9/19/2021 12:00:00 AM","Steuben County","Indiana","Midwest","East North Central","18151","41.643467","-85.002405 ","4870","69","4870","69","","2019","34594","NYTIMES-USCENSUS"
"9/19/2021 12:00:00 AM","Edmonson County","Kentucky","South","East South Central","21061","37.227514","-86.218015 ","1352","26","1352","26","","2019","12150","NYTIMES-USCENSUS"
"9/19/2021 12:00:00 AM","Clinton County","Michigan","Midwest","East North Central","26037","42.950455","-84.591695 ","8482","99","8482","99","","2019","79595","NYTIMES-USCENSUS"
"9/19/2021 12:00:00 AM","Attala County","Mississippi","South","East South Central","28007","33.090468","-89.588622 ","3211","85","3211","85","","2019","18174","NYTIMES-USCENSUS"
"9/19/2021 12:00:00 AM","Wright County","Missouri","Midwest","West North Central","29229","37.267633","-92.479989 ","2445","44","2445","44","","2019","18289","NYTIMES-USCENSUS"
"9/19/2021 12:00:00 AM","Orleans County","New York","Northeast","Middle Atlantic","36073","43.339906","-78.207028 ","3589","83","3589","83","","2019","40352","NYTIMES-USCENSUS"
"9/19/2021 12:00:00 AM","Sac County","Iowa","Midwest","West North Central","19161","42.387526","-95.105224 ","1449","22","1449","22","","2019","9721","NYTIMES-USCENSUS"
"9/19/2021 12:00:00 AM","Union County","South Carolina","South","South Atlantic","45087","34.690397","-81.615896 ","3879","88","3879","88","","2019","27316","NYTIMES-USCENSUS"
"9/19/2021 12:00:00 AM","Sheridan County","Kansas","Midwest","West North Central","20179","39.350547","-100.441228 ","462","14","462","14","","2019","2521","NYTIMES-USCENSUS"
"9/19/2021 12:00:00 AM","San Francisco County","California","West","Pacific","06075","37.727239","-123.032229 ","51811","605","51811","605","","2019","881549","NYTIMES-USCENSUS"
"9/19/2021 12:00:00 AM","Martin County","North Carolina","South","South Atlantic","37117","35.847301","-77.119602 ","3250","57","3250","57","","2019","22440","NYTIMES-USCENSUS"
"9/19/2021 12:00:00 AM","Gloucester County","Virginia","South","South Atlantic","51073","37.403541","-76.523505 ","3351","55","3351","55","","2019","37348","NYTIMES-USCENSUS"
"9/19/2021 12:00:00 AM","Irion County","Texas","South","West South Central","48235","31.303424","-100.981304 ","174","2","174","2","","2019","1536","NYTIMES-USCENSUS"
"9/19/2021 12:00:00 AM","Hardin County","Iowa","Midwest","West North Central","19083","42.390208","-93.241669 ","2311","47","2311","47","","2019","16846","NYTIMES-USCENSUS"
"9/19/2021 12:00:00 AM","Collin County","Texas","South","West South Central","48085","33.194494","-96.579428 ","120808","970","120808","970","","2019","1034730","NYTIMES-USCENSUS"
"9/19/2021 12:00:00 AM","Gibson County","Tennessee","South","East South Central","47053","35.991632","-88.933812 ","9879","171","9879","171","","2019","49133","NYTIMES-USCENSUS"
"9/19/2021 12:00:00 AM","St. Joseph County","Indiana","Midwest","East North Central","18141","41.617723","-86.288048 ","41512","602","41512","602","","2019","271826","NYTIMES-USCENSUS"
"9/19/2021 12:00:00 AM","Hinsdale County","Colorado","West","Mountain","08053","37.811519","-107.383974 ","51","0","51","0","","2019","820","NYTIMES-USCENSUS"
"9/19/2021 12:00:00 AM","Franklin County","Texas","South","West South Central","48159","33.175846","-95.219066 ","1188","28","1188","28","","2019","10725","NYTIMES-USCENSUS"
"9/19/2021 12:00:00 AM","Warren County","Tennessee","South","East South Central","47177","35.67825","-85.777343 ","7813","96","7813","96","","2019","41277","NYTIMES-USCENSUS"
"9/19/2021 12:00:00 AM","Meade County","South Dakota","Midwest","West North Central","46093","44.605282","-102.714169 ","3920","36","3920","36","","2019","28332","NYTIMES-USCENSUS"
"9/19/2021 12:00:00 AM","Bradford County","Florida","South","South Atlantic","12007","29.952386","-82.166698 ","5156","69","5156","69","","2019","28201","NYTIMES-USCENSUS"
"9/19/2021 12:00:00 AM","Madison County","Illinois","Midwest","East North Central","17119","38.82712","-89.900227 ","37731","642","37731","642","","2019","262966","NYTIMES-USCENSUS"
"9/19/2021 12:00:00 AM","Burnet County","Texas","South","West South Central","48053","30.78963","-98.201187 ","6905","100","6905","100","","2019","48155","NYTIMES-USCENSUS"
"9/19/2021 12:00:00 AM","Sevier County","Arkansas","South","West South Central","05133","33.994877","-94.243279 ","3586","31","3586","31","","2019","17007","NYTIMES-USCENSUS"
"9/19/2021 12:00:00 AM","St. Clair County","Missouri","Midwest","West North Central","29185","38.04223","-93.77656 ","1174","9","1174","9","","2019","9397","NYTIMES-USCENSUS"
"9/19/2021 12:00:00 AM","Nobles County","Minnesota","Midwest","West North Central","27105","43.677686","-95.763132 ","4486","50","4486","50","","2019","21629","NYTIMES-USCENSUS"
"9/19/2021 12:00:00 AM","Holt County","Missouri","Midwest","West North Central","29087","40.095724","-95.219072 ","591","16","591","16","","2019","4403","NYTIMES-USCENSUS"
"9/19/2021 12:00:00 AM","Clare County","Michigan","Midwest","East North Central","26035","43.991137","-84.838325 ","2846","89","2846","89","","2019","30950","NYTIMES-USCENSUS"
"9/19/2021 12:00:00 AM","Redwood County","Minnesota","Midwest","West North Central","27127","44.403536","-95.254241 ","1982","42","1982","42","","2019","15170","NYTIMES-USCENSUS"
"9/19/2021 12:00:00 AM","Grant County","Oklahoma","South","West South Central","40053","36.788254","-97.788151 ","659","7","659","7","","2019","4333","NYTIMES-USCENSUS"
"9/19/2021 12:00:00 AM","New Hanover County","North Carolina","South","South Atlantic","37129","34.183445","-77.864204 ","26505","241","26505","241","","2019","234473","NYTIMES-USCENSUS"
"9/19/2021 12:00:00 AM","Chippewa County","Wisconsin","Midwest","East North Central","55017","45.069092","-91.283505 ","9145","105","9145","105","","2019","64658","NYTIMES-USCENSUS"
"9/19/2021 12:00:00 AM","Crawford County","Pennsylvania","Northeast","Middle Atlantic","42039","41.687876","-80.107795 ","8959","168","8959","168","","2019","84629","NYTIMES-USCENSUS"
"9/19/2021 12:00:00 AM","Fulton County","New York","Northeast","Middle Atlantic","36035","43.115609","-74.423678 ","5232","97","5232","97","","2019","53383","NYTIMES-USCENSUS"
"9/19/2021 12:00:00 AM","Galax city","Virginia","South","South Atlantic","51640","36.66564","-80.914308 ","1375","53","1375","53","","2019","6347","NYTIMES-USCENSUS"
"9/19/2021 12:00:00 AM","Genesee County","Michigan","Midwest","East North Central","26049","43.021077","-83.706372 ","46092","1018","46092","1018","","2019","405813","NYTIMES-USCENSUS"
"9/19/2021 12:00:00 AM","Lonoke County","Arkansas","South","West South Central","05085","34.755114","-91.894132 ","11348","168","11348","168","","2019","73309","NYTIMES-USCENSUS"
"9/19/2021 12:00:00 AM","Hernando County","Florida","South","South Atlantic","12053","28.555995","-82.525969 ","27041","750","27041","750","","2019","193920","NYTIMES-USCENSUS"
"9/19/2021 12:00:00 AM","Jefferson County","Kentucky","South","East South Central","21111","38.189532","-85.657624 ","106392","1458","106392","1458","","2019","766757","NYTIMES-USCENSUS"
"9/19/2021 12:00:00 AM","Carroll County","Virginia","South","South Atlantic","51035","36.731963","-80.727831 ","3322","83","3322","83","","2019","29791","NYTIMES-USCENSUS"
"9/19/2021 12:00:00 AM","Middlesex County","New Jersey","Northeast","Middle Atlantic","34023","40.439621","-74.40743 ","101751","2403","101751","2403","","2019","825062","NYTIMES-USCENSUS"
"9/19/2021 12:00:00 AM","Richardson County","Nebraska","Midwest","West North Central","31147","40.123743","-95.718603 ","816","24","816","24","","2019","7865","NYTIMES-USCENSUS"
"9/19/2021 12:00:00 AM","Sonoma County","California","West","Pacific","06097","38.525182","-122.92611 ","39376","376","39376","376","","2019","494336","NYTIMES-USCENSUS"
"9/19/2021 12:00:00 AM","Covington County","Alabama","South","East South Central","01039","31.243987","-86.448721 ","6333","157","6333","157","","2019","37049","NYTIMES-USCENSUS"
"9/19/2021 12:00:00 AM","Madison County","Alabama","South","East South Central","01089","34.764238","-86.55108 ","48595","589","48595","589","","2019","372909","NYTIMES-USCENSUS"
"9/19/2021 12:00:00 AM","Boone County","Nebraska","Midwest","West North Central","31011","41.703934","-98.070476 ","585","4","585","4","","2019","5192","NYTIMES-USCENSUS"
"9/19/2021 12:00:00 AM","Sevier County","Utah","West","Mountain","49041","38.746824","-111.81193 ","3084","16","3084","16","","2019","21620","NYTIMES-USCENSUS"
"9/19/2021 12:00:00 AM","Mecklenburg County","Virginia","South","South Atlantic","51117","36.687256","-78.368959 ","2985","73","2985","73","","2019","30587","NYTIMES-USCENSUS"
"9/19/2021 12:00:00 AM","Dauphin County","Pennsylvania","Northeast","Middle Atlantic","42043","40.412565","-76.792634 ","30276","584","30276","584","","2019","278299","NYTIMES-USCENSUS"
"9/19/2021 12:00:00 AM","Midland County","Michigan","Midwest","East North Central","26111","43.648203","-84.379414 ","8549","106","8549","106","","2019","83156","NYTIMES-USCENSUS"
"9/19/2021 12:00:00 AM","Norfolk County","Massachusetts","Northeast","New England","25021","42.171738","-71.18111 ","60682","1834","60682","1834","","2019","706775","NYTIMES-USCENSUS"
"9/19/2021 12:00:00 AM","Madera County","California","West","Pacific","06039","37.209821","-119.749802 ","21672","258","21672","258","","2019","157327","NYTIMES-USCENSUS"
"9/19/2021 12:00:00 AM","Wayne County","Missouri","Midwest","West North Central","29223","37.111074","-90.453931 ","1408","18","1408","18","","2019","12873","NYTIMES-USCENSUS"
"9/19/2021 12:00:00 AM","Atoka County","Oklahoma","South","West South Central","40005","34.392469","-96.036558 ","2491","29","2491","29","","2019","13758","NYTIMES-USCENSUS"
"9/19/2021 12:00:00 AM","Gilmer County","Georgia","South","South Atlantic","13123","34.690506","-84.454624 ","4223","108","4223","108","","2019","31369","NYTIMES-USCENSUS"
"9/19/2021 12:00:00 AM","Madison County","Indiana","Midwest","East North Central","18095","40.166203","-85.722454 ","17095","399","17095","399","","2019","129569","NYTIMES-USCENSUS"
"9/19/2021 12:00:00 AM","Mingo County","West Virginia","South","South Atlantic","54059","37.721161","-82.158989 ","3848","52","3848","52","","2019","23424","NYTIMES-USCENSUS"
"9/19/2021 12:00:00 AM","Woodbury County","Iowa","Midwest","West North Central","19193","42.39322","-96.053296 ","16958","233","16958","233","","2019","103107","NYTIMES-USCENSUS"
"9/19/2021 12:00:00 AM","Little River County","Arkansas","South","West South Central","05081","33.701941","-94.236287 ","1869","44","1869","44","","2019","12259","NYTIMES-USCENSUS"
"9/19/2021 12:00:00 AM","Clay County","Indiana","Midwest","East North Central","18021","39.393928","-87.115858 ","3823","56","3823","56","","2019","26225","NYTIMES-USCENSUS"
"9/19/2021 12:00:00 AM","Rankin County","Mississippi","South","East South Central","28121","32.267123","-89.946063 ","21111","358","21111","358","","2019","155271","NYTIMES-USCENSUS"
"9/19/2021 12:00:00 AM","Ottawa County","Ohio","Midwest","East North Central","39123","41.545495","-83.012613 ","4316","84","4316","84","","2019","40525","NYTIMES-USCENSUS"
"9/19/2021 12:00:00 AM","Alameda County","California","West","Pacific","06001","37.647139","-121.912488 ","116089","1330","116089","1330","","2019","1671329","NYTIMES-USCENSUS"
"9/19/2021 12:00:00 AM","Sebastian County","Arkansas","South","West South Central","05131","35.196981","-94.274989 ","21015","326","21015","326","","2019","127827","NYTIMES-USCENSUS"
"9/19/2021 12:00:00 AM","Greene County","Arkansas","South","West South Central","05055","36.120607","-90.566346 ","9272","103","9272","103","","2019","45325","NYTIMES-USCENSUS"
"9/19/2021 12:00:00 AM","Todd County","Kentucky","South","East South Central","21219","36.840338","-87.183642 ","1520","29","1520","29","","2019","12294","NYTIMES-USCENSUS"
"9/19/2021 12:00:00 AM","Lauderdale County","Alabama","South","East South Central","01077","34.904122","-87.650997 ","13176","272","13176","272","","2019","92729","NYTIMES-USCENSUS"
"9/19/2021 12:00:00 AM","Iberville Parish","Louisiana","South","West South Central","22047","30.270653","-91.365872 ","5655","121","5655","121","","2019","32511","NYTIMES-USCENSUS"
"9/19/2021 12:00:00 AM","Sussex County","New Jersey","Northeast","Middle Atlantic","34037","41.137461","-74.691914 ","15665","319","15665","319","","2019","140488","NYTIMES-USCENSUS"
"9/19/2021 12:00:00 AM","Sabine County","Texas","South","West South Central","48403","31.3433","-93.851913 ","862","61","862","61","","2019","10542","NYTIMES-USCENSUS"
"9/19/2021 12:00:00 AM","Sherman County","Texas","South","West South Central","48421","36.278593","-101.899265 ","289","13","289","13","","2019","3022","NYTIMES-USCENSUS"
"9/19/2021 12:00:00 AM","Chaffee County","Colorado","West","Mountain","08015","38.734599","-106.300025 ","2027","27","2027","27","","2019","20356","NYTIMES-USCENSUS"
"9/19/2021 12:00:00 AM","Thomas County","Georgia","South","South Atlantic","13275","30.864619","-83.919815 ","7325","152","7325","152","","2019","44451","NYTIMES-USCENSUS"
"9/19/2021 12:00:00 AM","Anderson County","South Carolina","South","South Atlantic","45007","34.521235","-82.638603 ","32556","601","32556","601","","2019","202558","NYTIMES-USCENSUS"
"9/19/2021 12:00:00 AM","Palo Alto County","Iowa","Midwest","West North Central","19147","43.075337","-94.669055 ","1314","24","1314","24","","2019","8886","NYTIMES-USCENSUS"
"9/19/2021 12:00:00 AM","Waupaca County","Wisconsin","Midwest","East North Central","55135","44.478004","-88.967005 ","6918","178","6918","178","","2019","50990","NYTIMES-USCENSUS"
"9/19/2021 12:00:00 AM","Butler County","Kansas","Midwest","West North Central","20015","37.773649","-96.83884 ","9887","112","9887","112","","2019","66911","NYTIMES-USCENSUS"
"9/19/2021 12:00:00 AM","Newberry County","South Carolina","South","South Atlantic","45071","34.289881","-81.599676 ","6864","126","6864","126","","2019","38440","NYTIMES-USCENSUS"
"9/19/2021 12:00:00 AM","DeSoto County","Florida","South","South Atlantic","12027","27.190581","-81.806253 ","6575","110","6575","110","","2019","38001","NYTIMES-USCENSUS"
"9/19/2021 12:00:00 AM","Humboldt County","Iowa","Midwest","West North Central","19091","42.782221","-94.202775 ","1472","26","1472","26","","2019","9558","NYTIMES-USCENSUS"
"9/19/2021 12:00:00 AM","Orange County","Texas","South","West South Central","48361","30.122323","-93.8941 ","12892","215","12892","215","","2019","83396","NYTIMES-USCENSUS"
"9/19/2021 12:00:00 AM","Laurens County","South Carolina","South","South Atlantic","45059","34.483676","-82.005498 ","9985","182","9985","182","","2019","67493","NYTIMES-USCENSUS"
"9/19/2021 12:00:00 AM","Carroll County","Indiana","Midwest","East North Central","18015","40.58498","-86.565141 ","2413","29","2413","29","","2019","20257","NYTIMES-USCENSUS"
"9/19/2021 12:00:00 AM","Pennington County","Minnesota","Midwest","West North Central","27113","48.069247","-96.037725 ","1902","21","1902","21","","2019","14119","NYTIMES-USCENSUS"
"9/19/2021 12:00:00 AM","Lake County","Michigan","Midwest","East North Central","26085","43.995187","-85.8114 ","778","17","778","17","","2019","11853","NYTIMES-USCENSUS"
"9/19/2021 12:00:00 AM","Acadia Parish","Louisiana","South","West South Central","22001","30.291497","-92.411037 ","10056","234","10056","234","","2019","62045","NYTIMES-USCENSUS"
"9/19/2021 12:00:00 AM","Dade County","Georgia","South","South Atlantic","13083","34.852424","-85.506201 ","1994","16","1994","16","","2019","16116","NYTIMES-USCENSUS"
"9/19/2021 12:00:00 AM","Nez Perce County","Idaho","West","Mountain","16069","46.333791","-116.760909 ","5330","76","5330","76","","2019","40408","NYTIMES-USCENSUS"
"9/19/2021 12:00:00 AM","Rockland County","New York","Northeast","Middle Atlantic","36087","41.154628","-74.024662 ","50600","768","50600","768","","2019","325789","NYTIMES-USCENSUS"
"9/19/2021 12:00:00 AM","Wheeler County","Texas","South","West South Central","48483","35.392593","-100.253107 ","699","12","699","12","","2019","5056","NYTIMES-USCENSUS"
"9/19/2021 12:00:00 AM","Long County","Georgia","South","South Atlantic","13183","31.749563","-81.74287 ","1578","16","1578","16","","2019","19559","NYTIMES-USCENSUS"
"9/19/2021 12:00:00 AM","Dickens County","Texas","South","West South Central","48125","33.615363","-100.787617 ","233","10","233","10","","2019","2211","NYTIMES-USCENSUS"
"9/19/2021 12:00:00 AM","Victoria County","Texas","South","West South Central","48469","28.79637","-96.971198 ","12556","291","12556","291","","2019","92084","NYTIMES-USCENSUS"
"9/19/2021 12:00:00 AM","Box Butte County","Nebraska","Midwest","West North Central","31013","42.21038","-103.081779 ","982","11","982","11","","2019","10783","NYTIMES-USCENSUS"
"9/19/2021 12:00:00 AM","Clay County","South Dakota","Midwest","West North Central","46027","42.91615","-96.980468 ","2064","15","2064","15","","2019","14070","NYTIMES-USCENSUS"
"9/19/2021 12:00:00 AM","Philadelphia County","Pennsylvania","Northeast","Middle Atlantic","42101","40.009376","-75.133346 ","171356","3877","171356","3877","","2019","1584064","NYTIMES-USCENSUS"
"9/19/2021 12:00:00 AM","McLeod County","Minnesota","Midwest","West North Central","27085","44.821657","-94.272323 ","5014","63","5014","63","","2019","35893","NYTIMES-USCENSUS"
"9/19/2021 12:00:00 AM","Vanderburgh County","Indiana","Midwest","East North Central","18163","38.02007","-87.586166 ","29940","447","29940","447","","2019","181451","NYTIMES-USCENSUS"
"9/19/2021 12:00:00 AM","Transylvania County","North Carolina","South","South Atlantic","37175","35.210103","-82.816666 ","3432","37","3432","37","","2019","34385","NYTIMES-USCENSUS"
"9/19/2021 12:00:00 AM","Obion County","Tennessee","South","East South Central","47131","36.361892","-89.148078 ","6062","102","6062","102","","2019","30069","NYTIMES-USCENSUS"
"9/19/2021 12:00:00 AM","Clay County","Illinois","Midwest","East North Central","17025","38.746819","-88.482325 ","2333","52","2333","52","","2019","13184","NYTIMES-USCENSUS"
"9/19/2021 12:00:00 AM","Alleghany County","Virginia","South","South Atlantic","51005","37.787905","-80.008669 ","1788","59","1788","59","","2019","14860","NYTIMES-USCENSUS"
"9/19/2021 12:00:00 AM","Stanly County","North Carolina","South","South Atlantic","37167","35.310449","-80.254374 ","10437","152","10437","152","","2019","62806","NYTIMES-USCENSUS"
"9/19/2021 12:00:00 AM","Brooks County","Texas","South","West South Central","48047","27.034994","-98.215276 ","1093","43","1093","43","","2019","7093","NYTIMES-USCENSUS"
"9/19/2021 12:00:00 AM","Clarke County","Georgia","South","South Atlantic","13059","33.952185","-83.367152 ","19019","160","19019","160","","2019","128331","NYTIMES-USCENSUS"
"9/19/2021 12:00:00 AM","Fairfield County","Connecticut","Northeast","New England","09001","41.227413","-73.367061 ","109004","2239","109004","2239","","2019","943332","NYTIMES-USCENSUS"
"9/19/2021 12:00:00 AM","Ravalli County","Montana","West","Mountain","30081","46.077744","-114.105795 ","4026","55","4026","55","","2019","43806","NYTIMES-USCENSUS"
"9/19/2021 12:00:00 AM","Sangamon County","Illinois","Midwest","East North Central","17167","39.756886","-89.662435 ","24263","307","24263","307","","2019","194672","NYTIMES-USCENSUS"
"9/19/2021 12:00:00 AM","Oglala Lakota County","South Dakota","Midwest","West North Central","46102","43.333393","-102.561486 ","2227","51","2227","51","","2019","14177","NYTIMES-USCENSUS"
"9/19/2021 12:00:00 AM","Woodson County","Kansas","Midwest","West North Central","20207","37.888193","-95.758469 ","341","8","341","8","","2019","3138","NYTIMES-USCENSUS"
"9/19/2021 12:00:00 AM","Pocahontas County","West Virginia","South","South Atlantic","54075","38.332606","-80.010121 ","940","15","940","15","","2019","8247","NYTIMES-USCENSUS"
"9/19/2021 12:00:00 AM","Dawson County","Nebraska","Midwest","West North Central","31047","40.86784","-99.815583 ","2989","31","2989","31","","2019","23595","NYTIMES-USCENSUS"
"9/19/2021 12:00:00 AM","Texas County","Missouri","Midwest","West North Central","29215","37.314257","-91.964478 ","2850","37","2850","37","","2019","25398","NYTIMES-USCENSUS"
"9/19/2021 12:00:00 AM","Crow Wing County","Minnesota","Midwest","West North Central","27035","46.491653","-94.070718 ","7797","102","7797","102","","2019","65055","NYTIMES-USCENSUS"
"9/19/2021 12:00:00 AM","Parmer County","Texas","South","West South Central","48369","34.532163","-102.784853 ","1488","35","1488","35","","2019","9605","NYTIMES-USCENSUS"
"9/19/2021 12:00:00 AM","Langlade County","Wisconsin","Midwest","East North Central","55067","45.254863","-89.06707 ","2557","52","2557","52","","2019","19189","NYTIMES-USCENSUS"
"9/19/2021 12:00:00 AM","Eau Claire County","Wisconsin","Midwest","East North Central","55035","44.726355","-91.286414 ","14031","129","14031","129","","2019","104646","NYTIMES-USCENSUS"
"9/19/2021 12:00:00 AM","Mille Lacs County","Minnesota","Midwest","West North Central","27095","45.929043","-93.632996 ","3543","60","3543","60","","2019","26277","NYTIMES-USCENSUS"
"9/19/2021 12:00:00 AM","Jackson County","Indiana","Midwest","East North Central","18071","38.911957","-86.042516 ","6443","82","6443","82","","2019","44231","NYTIMES-USCENSUS"
"9/19/2021 12:00:00 AM","Carroll County","Missouri","Midwest","West North Central","29033","39.427375","-93.500227 ","1310","25","1310","25","","2019","8679","NYTIMES-USCENSUS"
"9/19/2021 12:00:00 AM","Armstrong County","Texas","South","West South Central","48011","34.964179","-101.356636 ","250","7","250","7","","2019","1887","NYTIMES-USCENSUS"
"9/19/2021 12:00:00 AM","Marquette County","Michigan","Midwest","East North Central","26103","46.656596","-87.584028 ","6607","69","6607","69","","2019","66699","NYTIMES-USCENSUS"
"9/19/2021 12:00:00 AM","Virginia Beach city","Virginia","South","South Atlantic","51810","36.779525","-76.029142 ","45618","468","45618","468","","2019","449974","NYTIMES-USCENSUS"
"9/19/2021 12:00:00 AM","Crawford County","Indiana","Midwest","East North Central","18025","38.289433","-86.440871 ","1430","19","1430","19","","2019","10577","NYTIMES-USCENSUS"
"9/19/2021 12:00:00 AM","Simpson County","Mississippi","South","East South Central","28127","31.902505","-89.917709 ","4268","111","4268","111","","2019","26658","NYTIMES-USCENSUS"
"9/19/2021 12:00:00 AM","Lee County","Illinois","Midwest","East North Central","17103","41.747447","-89.299362 ","4549","95","4549","95","","2019","34096","NYTIMES-USCENSUS"
"9/19/2021 12:00:00 AM","Fulton County","Pennsylvania","Northeast","Middle Atlantic","42057","39.91075","-78.122617 ","1764","21","1764","21","","2019","14530","NYTIMES-USCENSUS"
"9/19/2021 12:00:00 AM","Scotts Bluff County","Nebraska","Midwest","West North Central","31157","41.850331","-103.701549 ","5328","96","5328","96","","2019","35618","NYTIMES-USCENSUS"
"9/19/2021 12:00:00 AM","Bulloch County","Georgia","South","South Atlantic","13031","32.394481","-81.741618 ","10788","155","10788","155","","2019","79608","NYTIMES-USCENSUS"
"9/19/2021 12:00:00 AM","Gage County","Nebraska","Midwest","West North Central","31067","40.255234","-96.683453 ","2155","20","2155","20","","2019","21513","NYTIMES-USCENSUS"
"9/19/2021 12:00:00 AM","Kit Carson County","Colorado","West","Mountain","08063","39.30534","-102.603023 ","819","14","819","14","","2019","7097","NYTIMES-USCENSUS"
"9/19/2021 12:00:00 AM","Gladwin County","Michigan","Midwest","East North Central","26051","43.98975","-84.389816 ","2630","62","2630","62","","2019","25449","NYTIMES-USCENSUS"
"9/19/2021 12:00:00 AM","Schley County","Georgia","South","South Atlantic","13249","32.263444","-84.322708 ","576","6","576","6","","2019","5257","NYTIMES-USCENSUS"
"9/19/2021 12:00:00 AM","Torrance County","New Mexico","West","Mountain","35057","34.554978","-105.890557 ","1517","16","1517","16","","2019","15461","NYTIMES-USCENSUS"
"9/19/2021 12:00:00 AM","Jackson County","West Virginia","South","South Atlantic","54035","38.834234","-81.677717 ","3068","65","3068","65","","2019","28576","NYTIMES-USCENSUS"
"9/19/2021 12:00:00 AM","Putnam County","Illinois","Midwest","East North Central","17155","41.198961","-89.298347 ","541","5","541","5","","2019","5739","NYTIMES-USCENSUS"
"9/19/2021 12:00:00 AM","Lipscomb County","Texas","South","West South Central","48295","36.2802","-100.272683 ","370","12","370","12","","2019","3233","NYTIMES-USCENSUS"
"9/19/2021 12:00:00 AM","Westmoreland County","Virginia","South","South Atlantic","51193","38.109311","-76.803933 ","1582","29","1582","29","","2019","18015","NYTIMES-USCENSUS"
"9/19/2021 12:00:00 AM","Warren County","Georgia","South","South Atlantic","13301","33.419169","-82.688012 ","707","22","707","22","","2019","5254","NYTIMES-USCENSUS"
"9/19/2021 12:00:00 AM","Osceola County","Florida","South","South Atlantic","12097","28.059027","-81.139312 ","68321","749","68321","749","","2019","375751","NYTIMES-USCENSUS"
"9/19/2021 12:00:00 AM","Iberia Parish","Louisiana","South","West South Central","22045","29.606013","-91.842706 ","12060","213","12060","213","","2019","69830","NYTIMES-USCENSUS"
"9/19/2021 12:00:00 AM","Limestone County","Alabama","South","East South Central","01083","34.810239","-86.981399 ","14175","180","14175","180","","2019","98915","NYTIMES-USCENSUS"
"9/19/2021 12:00:00 AM","Upshur County","West Virginia","South","South Atlantic","54097","38.90253","-80.231606 ","3296","46","3296","46","","2019","24176","NYTIMES-USCENSUS"
"9/19/2021 12:00:00 AM","Jefferson Davis County","Mississippi","South","East South Central","28065","31.564808","-89.827086 ","1655","41","1655","41","","2019","11128","NYTIMES-USCENSUS"
"9/19/2021 12:00:00 AM","Okeechobee County","Florida","South","South Atlantic","12093","27.385592","-80.887388 ","7078","98","7078","98","","2019","42168","NYTIMES-USCENSUS"
"9/19/2021 12:00:00 AM","Graham County","Arizona","West","Mountain","04009","32.931828","-109.87831 ","6810","97","6810","97","","2019","38837","NYTIMES-USCENSUS"
"9/19/2021 12:00:00 AM","Franklin County","Nebraska","Midwest","West North Central","31061","40.183203","-98.96208 ","266","4","266","4","","2019","2979","NYTIMES-USCENSUS"
"9/19/2021 12:00:00 AM","Van Wert County","Ohio","Midwest","East North Central","39161","40.85552","-84.585775 ","3085","70","3085","70","","2019","28275","NYTIMES-USCENSUS"
"9/19/2021 12:00:00 AM","Park County","Wyoming","West","Mountain","56029","44.492387","-109.593597 ","3927","42","3927","42","","2019","29194","NYTIMES-USCENSUS"
"9/19/2021 12:00:00 AM","Grayson County","Kentucky","South","East South Central","21085","37.458577","-86.344011 ","3855","69","3855","69","","2019","26427","NYTIMES-USCENSUS"
"9/19/2021 12:00:00 AM","King George County","Virginia","South","South Atlantic","51099","38.27718","-77.162636 ","2188","21","2188","21","","2019","26836","NYTIMES-USCENSUS"
"9/19/2021 12:00:00 AM","Lyon County","Minnesota","Midwest","West North Central","27083","44.409195","-95.847268 ","3942","54","3942","54","","2019","25474","NYTIMES-USCENSUS"
"9/19/2021 12:00:00 AM","Howard County","Texas","South","West South Central","48227","32.30343","-101.438721 ","5524","111","5524","111","","2019","36664","NYTIMES-USCENSUS"
"9/19/2021 12:00:00 AM","Flathead County","Montana","West","Mountain","30029","48.295422","-114.052059 ","16046","136","16046","136","","2019","103806","NYTIMES-USCENSUS"
"9/19/2021 12:00:00 AM","Forest County","Pennsylvania","Northeast","Middle Atlantic","42053","41.513304","-79.249705 ","1497","22","1497","22","","2019","7247","NYTIMES-USCENSUS"
"9/19/2021 12:00:00 AM","Davie County","North Carolina","South","South Atlantic","37059","35.929355","-80.542552 ","5595","56","5595","56","","2019","42846","NYTIMES-USCENSUS"
"9/19/2021 12:00:00 AM","Whiteside County","Illinois","Midwest","East North Central","17195","41.750673","-89.911005 ","7928","218","7928","218","","2019","55175","NYTIMES-USCENSUS"
"9/19/2021 12:00:00 AM","Clay County","North Carolina","South","South Atlantic","37043","35.052997","-83.752264 ","1403","22","1403","22","","2019","11231","NYTIMES-USCENSUS"
"9/19/2021 12:00:00 AM","St. Francois County","Missouri","Midwest","West North Central","29187","37.810707","-90.473868 ","11343","137","11343","137","","2019","67215","NYTIMES-USCENSUS"
"9/19/2021 12:00:00 AM","Hooker County","Nebraska","Midwest","West North Central","31091","41.920317","-101.117324 ","47","3","47","3","","2019","682","NYTIMES-USCENSUS"
"9/19/2021 12:00:00 AM","Monongalia County","West Virginia","South","South Atlantic","54061","39.633645","-80.059074 ","11183","106","11183","106","","2019","105612","NYTIMES-USCENSUS"
"9/19/2021 12:00:00 AM","Franklin County","Mississippi","South","East South Central","28037","31.477773","-90.895457 ","1152","27","1152","27","","2019","7713","NYTIMES-USCENSUS"
"9/19/2021 12:00:00 AM","Price County","Wisconsin","Midwest","East North Central","55099","45.679072","-90.35965 ","1523","8","1523","8","","2019","13351","NYTIMES-USCENSUS"
"9/19/2021 12:00:00 AM","Lee County","Virginia","South","South Atlantic","51105","36.701721","-83.130112 ","3107","51","3107","51","","2019","23423","NYTIMES-USCENSUS"
"9/19/2021 12:00:00 AM","Mitchell County","Kansas","Midwest","West North Central","20123","39.393026","-98.207362 ","680","18","680","18","","2019","5979","NYTIMES-USCENSUS"
"9/19/2021 12:00:00 AM","Cassia County","Idaho","West","Mountain","16031","42.282313","-113.626328 ","3435","29","3435","29","","2019","24030","NYTIMES-USCENSUS"
"9/19/2021 12:00:00 AM","Whitley County","Kentucky","South","East South Central","21235","36.758024","-84.144648 ","7123","67","7123","67","","2019","36264","NYTIMES-USCENSUS"
"9/19/2021 12:00:00 AM","Monroe County","Wisconsin","Midwest","East North Central","55081","43.945175","-90.619969 ","5564","54","5564","54","","2019","46253","NYTIMES-USCENSUS"
"9/19/2021 12:00:00 AM","Chickasaw County","Iowa","Midwest","West North Central","19037","43.059741","-92.31721 ","1375","18","1375","18","","2019","11933","NYTIMES-USCENSUS"
"9/19/2021 12:00:00 AM","Columbia County","Wisconsin","Midwest","East North Central","55021","43.471882","-89.330472 ","6798","75","6798","75","","2019","57532","NYTIMES-USCENSUS"
"9/19/2021 12:00:00 AM","Ashtabula County","Ohio","Midwest","East North Central","39007","41.906637","-80.745592 ","8208","185","8208","185","","2019","97241","NYTIMES-USCENSUS"
"9/19/2021 12:00:00 AM","Hamilton County","Indiana","Midwest","East North Central","18057","40.053513","-86.021709 ","43331","466","43331","466","","2019","338011","NYTIMES-USCENSUS"
"9/19/2021 12:00:00 AM","Dougherty County","Georgia","South","South Atlantic","13095","31.532588","-84.20904 ","11455","360","11455","360","","2019","87956","NYTIMES-USCENSUS"
"9/19/2021 12:00:00 AM","Golden Valley County","Montana","West","Mountain","30037","46.380624","-109.174586 ","64","2","64","2","","2019","821","NYTIMES-USCENSUS"
"9/19/2021 12:00:00 AM","Rapides Parish","Louisiana","South","West South Central","22079","31.193204","-92.535953 ","20292","430","20292","430","","2019","129648","NYTIMES-USCENSUS"
"9/19/2021 12:00:00 AM","Screven County","Georgia","South","South Atlantic","13251","32.744751","-81.617585 ","1733","45","1733","45","","2019","13966","NYTIMES-USCENSUS"
"9/19/2021 12:00:00 AM","Sibley County","Minnesota","Midwest","West North Central","27143","44.575734","-94.230123 ","1758","10","1758","10","","2019","14865","NYTIMES-USCENSUS"
"9/19/2021 12:00:00 AM","Jackson County","Kentucky","South","East South Central","21109","37.403458","-84.020576 ","2247","43","2247","43","","2019","13329","NYTIMES-USCENSUS"
"9/19/2021 12:00:00 AM","Lincoln County","West Virginia","South","South Atlantic","54043","38.17177","-82.077623 ","2251","32","2251","32","","2019","20409","NYTIMES-USCENSUS"
