"monitor_date","county","state_name","region","subregion","fips","latitude","longitude","case_count_to_date","death_count_to_date","case_count","death_count","previous_monitor_date","population_year","population","source"
"1/22/2022 12:00:00 AM","Prince George County","Virginia","South","South Atlantic","51149","37.187325","-77.220993 ","7045","54","0","0","1/21/2022 12:00:00 AM","2019","38353","NYTIMES-USCENSUS"
"1/22/2022 12:00:00 AM","Cattaraugus County","New York","Northeast","Middle Atlantic","36009","42.239099","-78.662332 ","13794","201","108","1","1/21/2022 12:00:00 AM","2019","76117","NYTIMES-USCENSUS"
"1/22/2022 12:00:00 AM","Dubuque County","Iowa","Midwest","West North Central","19061","42.463481","-90.878771 ","23138","272","0","0","1/21/2022 12:00:00 AM","2019","97311","NYTIMES-USCENSUS"
"1/22/2022 12:00:00 AM","Choctaw County","Oklahoma","South","West South Central","40023","34.027699","-95.554079 ","3275","52","0","0","1/21/2022 12:00:00 AM","2019","14672","NYTIMES-USCENSUS"
"1/22/2022 12:00:00 AM","Pulaski County","Georgia","South","South Atlantic","13235","32.238803","-83.481845 ","1958","68","0","0","1/21/2022 12:00:00 AM","2019","11137","NYTIMES-USCENSUS"
"1/22/2022 12:00:00 AM","Adair County","Iowa","Midwest","West North Central","19001","41.328528","-94.478164 ","1440","46","0","0","1/21/2022 12:00:00 AM","2019","7152","NYTIMES-USCENSUS"
"1/22/2022 12:00:00 AM","Lincoln County","Montana","West","Mountain","30053","48.552385","-115.463185 ","4029","75","0","0","1/21/2022 12:00:00 AM","2019","19980","NYTIMES-USCENSUS"
"1/22/2022 12:00:00 AM","Montgomery County","Alabama","South","East South Central","01101","32.202881","-86.204461 ","48337","808","339","0","1/21/2022 12:00:00 AM","2019","226486","NYTIMES-USCENSUS"
"1/22/2022 12:00:00 AM","Alpine County","California","West","Pacific","06003","38.621783","-119.798352 ","119","0","0","0","1/21/2022 12:00:00 AM","2019","1129","NYTIMES-USCENSUS"
"1/22/2022 12:00:00 AM","Sharp County","Arkansas","South","West South Central","05135","36.173399","-91.471069 ","3993","83","26","1","1/21/2022 12:00:00 AM","2019","17442","NYTIMES-USCENSUS"
"1/22/2022 12:00:00 AM","Emmet County","Iowa","Midwest","West North Central","19063","43.377984","-94.66937 ","2143","49","0","0","1/21/2022 12:00:00 AM","2019","9208","NYTIMES-USCENSUS"
"1/22/2022 12:00:00 AM","Franklin County","Maine","Northeast","New England","23007","44.976724","-70.414935 ","4231","46","14","0","1/21/2022 12:00:00 AM","2019","30199","NYTIMES-USCENSUS"
"1/22/2022 12:00:00 AM","Mason County","Washington","West","Pacific","53045","47.350832","-123.173103 ","9322","106","0","0","1/21/2022 12:00:00 AM","2019","66768","NYTIMES-USCENSUS"
"1/22/2022 12:00:00 AM","Iowa County","Wisconsin","Midwest","East North Central","55049","43.001021","-90.133691 ","4461","24","0","0","1/21/2022 12:00:00 AM","2019","23678","NYTIMES-USCENSUS"
"1/22/2022 12:00:00 AM","Rice County","Kansas","Midwest","West North Central","20159","38.347178","-98.201415 ","2303","17","0","0","1/21/2022 12:00:00 AM","2019","9537","NYTIMES-USCENSUS"
"1/22/2022 12:00:00 AM","Wells County","Indiana","Midwest","East North Central","18179","40.735273","-85.212974 ","6030","125","0","0","1/21/2022 12:00:00 AM","2019","28296","NYTIMES-USCENSUS"
"1/22/2022 12:00:00 AM","Quitman County","Mississippi","South","East South Central","28119","34.252833","-90.290171 ","1399","28","0","0","1/21/2022 12:00:00 AM","2019","6792","NYTIMES-USCENSUS"
"1/22/2022 12:00:00 AM","Greene County","Alabama","South","East South Central","01063","32.844497","-87.9642 ","1652","47","22","0","1/21/2022 12:00:00 AM","2019","8111","NYTIMES-USCENSUS"
"1/22/2022 12:00:00 AM","Harrisonburg city","Virginia","South","South Atlantic","51660","38.436255","-78.873303 ","11412","118","0","0","1/21/2022 12:00:00 AM","2019","53016","NYTIMES-USCENSUS"
"1/22/2022 12:00:00 AM","Wright County","Missouri","Midwest","West North Central","29229","37.267633","-92.479989 ","3378","71","39","1","1/21/2022 12:00:00 AM","2019","18289","NYTIMES-USCENSUS"
"1/22/2022 12:00:00 AM","Leon County","Texas","South","West South Central","48289","31.300493","-95.995622 ","3360","76","39","1","1/21/2022 12:00:00 AM","2019","17404","NYTIMES-USCENSUS"
"1/22/2022 12:00:00 AM","Montgomery County","Mississippi","South","East South Central","28097","33.500714","-89.639625 ","2621","61","0","0","1/21/2022 12:00:00 AM","2019","9775","NYTIMES-USCENSUS"
"1/22/2022 12:00:00 AM","Cleburne County","Alabama","South","East South Central","01029","33.671964","-85.516126 ","3085","62","43","0","1/21/2022 12:00:00 AM","2019","14910","NYTIMES-USCENSUS"
"1/22/2022 12:00:00 AM","Duplin County","North Carolina","South","South Atlantic","37061","34.934403","-77.933543 ","13541","203","0","0","1/21/2022 12:00:00 AM","2019","58741","NYTIMES-USCENSUS"
"1/22/2022 12:00:00 AM","Sabine Parish","Louisiana","South","West South Central","22085","31.560402","-93.559579 ","5535","100","0","0","1/21/2022 12:00:00 AM","2019","23884","NYTIMES-USCENSUS"
"1/22/2022 12:00:00 AM","Rusk County","Texas","South","West South Central","48401","32.109423","-94.756382 ","9729","194","84","0","1/21/2022 12:00:00 AM","2019","54406","NYTIMES-USCENSUS"
"1/22/2022 12:00:00 AM","Evangeline Parish","Louisiana","South","West South Central","22039","30.720693","-92.404086 ","7244","145","0","0","1/21/2022 12:00:00 AM","2019","33395","NYTIMES-USCENSUS"
"1/22/2022 12:00:00 AM","Rutland County","Vermont","Northeast","New England","50021","43.580858","-73.038202 ","9929","47","152","0","1/21/2022 12:00:00 AM","2019","58191","NYTIMES-USCENSUS"
"1/22/2022 12:00:00 AM","Scott County","Iowa","Midwest","West North Central","19163","41.642079","-90.622289 ","36329","335","0","0","1/21/2022 12:00:00 AM","2019","172943","NYTIMES-USCENSUS"
"1/22/2022 12:00:00 AM","Ouachita Parish","Louisiana","South","West South Central","22073","32.480932","-92.151581 ","42323","628","0","0","1/21/2022 12:00:00 AM","2019","153279","NYTIMES-USCENSUS"
"1/22/2022 12:00:00 AM","Jefferson County","Alabama","South","East South Central","01073","33.553444","-86.896536 ","164161","2041","2161","0","1/21/2022 12:00:00 AM","2019","658573","NYTIMES-USCENSUS"
"1/22/2022 12:00:00 AM","Holmes County","Ohio","Midwest","East North Central","39075","40.565597","-81.930001 ","4857","167","21","0","1/21/2022 12:00:00 AM","2019","43960","NYTIMES-USCENSUS"
"1/22/2022 12:00:00 AM","Radford city","Virginia","South","South Atlantic","51750","37.120119","-80.559147 ","4029","39","0","0","1/21/2022 12:00:00 AM","2019","18249","NYTIMES-USCENSUS"
"1/22/2022 12:00:00 AM","Ripley County","Indiana","Midwest","East North Central","18137","39.100226","-85.260494 ","7283","119","0","0","1/21/2022 12:00:00 AM","2019","28324","NYTIMES-USCENSUS"
"1/22/2022 12:00:00 AM","Elmore County","Alabama","South","East South Central","01051","32.597229","-86.142735 ","20228","302","243","0","1/21/2022 12:00:00 AM","2019","81209","NYTIMES-USCENSUS"
"1/22/2022 12:00:00 AM","McDowell County","West Virginia","South","South Atlantic","54047","37.38276","-81.658204 ","4109","57","62","0","1/21/2022 12:00:00 AM","2019","17624","NYTIMES-USCENSUS"
"1/22/2022 12:00:00 AM","Dallas County","Arkansas","South","West South Central","05039","33.967823","-92.653999 ","1563","21","10","0","1/21/2022 12:00:00 AM","2019","7009","NYTIMES-USCENSUS"
"1/22/2022 12:00:00 AM","Rockbridge County","Virginia","South","South Atlantic","51163","37.814517","-79.447754 ","2775","72","0","0","1/21/2022 12:00:00 AM","2019","22573","NYTIMES-USCENSUS"
"1/22/2022 12:00:00 AM","Chester County","South Carolina","South","South Atlantic","45023","34.689342","-81.161249 ","8635","128","0","0","1/21/2022 12:00:00 AM","2019","32244","NYTIMES-USCENSUS"
"1/22/2022 12:00:00 AM","Red Lake County","Minnesota","Midwest","West North Central","27125","47.865487","-96.08718 ","804","11","0","0","1/21/2022 12:00:00 AM","2019","4055","NYTIMES-USCENSUS"
"1/22/2022 12:00:00 AM","King William County","Virginia","South","South Atlantic","51101","37.70826","-77.091054 ","3220","27","0","0","1/21/2022 12:00:00 AM","2019","17148","NYTIMES-USCENSUS"
"1/22/2022 12:00:00 AM","Yell County","Arkansas","South","West South Central","05149","34.997713","-93.408303 ","6093","93","90","0","1/21/2022 12:00:00 AM","2019","21341","NYTIMES-USCENSUS"
"1/22/2022 12:00:00 AM","San Saba County","Texas","South","West South Central","48411","31.155138","-98.819292 ","1121","29","15","0","1/21/2022 12:00:00 AM","2019","6055","NYTIMES-USCENSUS"
"1/22/2022 12:00:00 AM","Audubon County","Iowa","Midwest","West North Central","19009","41.679178","-94.904312 ","960","18","0","0","1/21/2022 12:00:00 AM","2019","5496","NYTIMES-USCENSUS"
"1/22/2022 12:00:00 AM","Jackson County","Tennessee","South","East South Central","47087","36.35425","-85.674128 ","2445","51","0","0","1/21/2022 12:00:00 AM","2019","11786","NYTIMES-USCENSUS"
"1/22/2022 12:00:00 AM","Carroll County","Mississippi","South","East South Central","28015","33.440795","-89.918887 ","2297","42","0","0","1/21/2022 12:00:00 AM","2019","9947","NYTIMES-USCENSUS"
"1/22/2022 12:00:00 AM","Swift County","Minnesota","Midwest","West North Central","27151","45.27581","-95.690124 ","1932","31","0","0","1/21/2022 12:00:00 AM","2019","9266","NYTIMES-USCENSUS"
"1/22/2022 12:00:00 AM","Lincoln County","South Dakota","Midwest","West North Central","46083","43.27942","-96.722286 ","14734","87","0","0","1/21/2022 12:00:00 AM","2019","61128","NYTIMES-USCENSUS"
"1/22/2022 12:00:00 AM","Stanley County","South Dakota","Midwest","West North Central","46117","44.413984","-100.747822 ","593","6","0","0","1/21/2022 12:00:00 AM","2019","3098","NYTIMES-USCENSUS"
"1/22/2022 12:00:00 AM","Forrest County","Mississippi","South","East South Central","28035","31.18858","-89.259447 ","18343","268","0","0","1/21/2022 12:00:00 AM","2019","74897","NYTIMES-USCENSUS"
"1/22/2022 12:00:00 AM","Howard County","Texas","South","West South Central","48227","32.30343","-101.438721 ","6037","157","79","1","1/21/2022 12:00:00 AM","2019","36664","NYTIMES-USCENSUS"
"1/22/2022 12:00:00 AM","Kemper County","Mississippi","South","East South Central","28069","32.750136","-88.625631 ","1893","42","0","0","1/21/2022 12:00:00 AM","2019","9742","NYTIMES-USCENSUS"
"1/22/2022 12:00:00 AM","Ashland County","Ohio","Midwest","East North Central","39005","40.843273","-82.270127 ","11157","184","74","0","1/21/2022 12:00:00 AM","2019","53484","NYTIMES-USCENSUS"
"1/22/2022 12:00:00 AM","Henderson County","Texas","South","West South Central","48213","32.211633","-95.853418 ","11841","365","168","0","1/21/2022 12:00:00 AM","2019","82737","NYTIMES-USCENSUS"
"1/22/2022 12:00:00 AM","Jasper County","Illinois","Midwest","East North Central","17079","39.004886","-88.150725 ","2387","26","0","0","1/21/2022 12:00:00 AM","2019","9610","NYTIMES-USCENSUS"
"1/22/2022 12:00:00 AM","Jones County","North Carolina","South","South Atlantic","37103","35.032268","-77.356195 ","1823","38","0","0","1/21/2022 12:00:00 AM","2019","9419","NYTIMES-USCENSUS"
"1/22/2022 12:00:00 AM","Menominee County","Wisconsin","Midwest","East North Central","55078","44.991304","-88.669251 ","1696","12","0","0","1/21/2022 12:00:00 AM","2019","4556","NYTIMES-USCENSUS"
"1/22/2022 12:00:00 AM","Madison County","Idaho","West","Mountain","16065","43.788614","-111.656993 ","10915","43","134","0","1/21/2022 12:00:00 AM","2019","39907","NYTIMES-USCENSUS"
"1/22/2022 12:00:00 AM","Harlan County","Kentucky","South","East South Central","21095","36.859223","-83.221497 ","7094","168","0","0","1/21/2022 12:00:00 AM","2019","26010","NYTIMES-USCENSUS"
"1/22/2022 12:00:00 AM","Cedar County","Missouri","Midwest","West North Central","29039","37.733655","-93.850014 ","2527","43","19","0","1/21/2022 12:00:00 AM","2019","14349","NYTIMES-USCENSUS"
"1/22/2022 12:00:00 AM","Wilson County","Texas","South","West South Central","48493","29.173883","-98.086734 ","9543","149","98","1","1/21/2022 12:00:00 AM","2019","51070","NYTIMES-USCENSUS"
"1/22/2022 12:00:00 AM","Delta County","Colorado","West","Mountain","08029","38.861595","-107.864892 ","5217","124","0","0","1/21/2022 12:00:00 AM","2019","31162","NYTIMES-USCENSUS"
"1/22/2022 12:00:00 AM","Casey County","Kentucky","South","East South Central","21045","37.321962","-84.92822 ","3253","65","0","0","1/21/2022 12:00:00 AM","2019","16159","NYTIMES-USCENSUS"
"1/22/2022 12:00:00 AM","Clearwater County","Minnesota","Midwest","West North Central","27029","47.575873","-95.371117 ","1810","27","0","0","1/21/2022 12:00:00 AM","2019","8818","NYTIMES-USCENSUS"
"1/22/2022 12:00:00 AM","Gaines County","Texas","South","West South Central","48165","32.743942","-102.631561 ","1616","73","9","0","1/21/2022 12:00:00 AM","2019","21492","NYTIMES-USCENSUS"
"1/22/2022 12:00:00 AM","Coal County","Oklahoma","South","West South Central","40029","34.582861","-96.288039 ","1249","20","0","0","1/21/2022 12:00:00 AM","2019","5495","NYTIMES-USCENSUS"
"1/22/2022 12:00:00 AM","Lander County","Nevada","West","Mountain","32015","39.90021","-117.04724 ","948","16","0","0","1/21/2022 12:00:00 AM","2019","5532","NYTIMES-USCENSUS"
"1/22/2022 12:00:00 AM","Geauga County","Ohio","Midwest","East North Central","39055","41.499322","-81.173505 ","15456","229","42","0","1/21/2022 12:00:00 AM","2019","93649","NYTIMES-USCENSUS"
"1/22/2022 12:00:00 AM","Greene County","Iowa","Midwest","West North Central","19073","42.042513","-94.388727 ","1539","19","0","0","1/21/2022 12:00:00 AM","2019","8888","NYTIMES-USCENSUS"
"1/22/2022 12:00:00 AM","Johnson County","Kentucky","South","East South Central","21115","37.847756","-82.830121 ","4708","82","0","0","1/21/2022 12:00:00 AM","2019","22188","NYTIMES-USCENSUS"
"1/22/2022 12:00:00 AM","Greer County","Oklahoma","South","West South Central","40055","34.933853","-99.552968 ","1012","29","0","0","1/21/2022 12:00:00 AM","2019","5712","NYTIMES-USCENSUS"
"1/22/2022 12:00:00 AM","Miner County","South Dakota","Midwest","West North Central","46097","44.021541","-97.608122 ","438","12","0","0","1/21/2022 12:00:00 AM","2019","2216","NYTIMES-USCENSUS"
"1/22/2022 12:00:00 AM","Kent County","Michigan","Midwest","East North Central","26081","43.032497","-85.547446 ","149858","1358","0","0","1/21/2022 12:00:00 AM","2019","656955","NYTIMES-USCENSUS"
"1/22/2022 12:00:00 AM","Pointe Coupee Parish","Louisiana","South","West South Central","22077","30.708319","-91.604621 ","5127","85","0","0","1/21/2022 12:00:00 AM","2019","21730","NYTIMES-USCENSUS"
"1/22/2022 12:00:00 AM","Johnson County","Arkansas","South","West South Central","05071","35.573359","-93.466322 ","5936","65","105","0","1/21/2022 12:00:00 AM","2019","26578","NYTIMES-USCENSUS"
"1/22/2022 12:00:00 AM","Montgomery County","Illinois","Midwest","East North Central","17135","39.228068","-89.478141 ","8437","96","0","0","1/21/2022 12:00:00 AM","2019","28414","NYTIMES-USCENSUS"
"1/22/2022 12:00:00 AM","Richmond County","Virginia","South","South Atlantic","51159","37.942894","-76.730561 ","2308","17","0","0","1/21/2022 12:00:00 AM","2019","9023","NYTIMES-USCENSUS"
"1/22/2022 12:00:00 AM","Putnam County","Georgia","South","South Atlantic","13237","33.32106","-83.37179 ","4108","92","0","0","1/21/2022 12:00:00 AM","2019","22119","NYTIMES-USCENSUS"
"1/22/2022 12:00:00 AM","Fisher County","Texas","South","West South Central","48151","32.740473","-100.40312 ","537","20","1","0","1/21/2022 12:00:00 AM","2019","3830","NYTIMES-USCENSUS"
"1/22/2022 12:00:00 AM","Ashe County","North Carolina","South","South Atlantic","37009","36.443469","-81.499334 ","4941","62","0","0","1/21/2022 12:00:00 AM","2019","27203","NYTIMES-USCENSUS"
"1/22/2022 12:00:00 AM","Idaho County","Idaho","West","Mountain","16049","45.849644","-115.467337 ","2652","43","0","0","1/21/2022 12:00:00 AM","2019","16667","NYTIMES-USCENSUS"
"1/22/2022 12:00:00 AM","Hardeman County","Tennessee","South","East South Central","47069","35.218785","-88.988697 ","6293","98","0","0","1/21/2022 12:00:00 AM","2019","25050","NYTIMES-USCENSUS"
"1/22/2022 12:00:00 AM","Bartholomew County","Indiana","Midwest","East North Central","18005","39.205843","-85.897999 ","18460","223","0","0","1/21/2022 12:00:00 AM","2019","83779","NYTIMES-USCENSUS"
"1/22/2022 12:00:00 AM","Atkinson County","Georgia","South","South Atlantic","13003","31.296806","-82.878151 ","1866","39","0","0","1/21/2022 12:00:00 AM","2019","8165","NYTIMES-USCENSUS"
"1/22/2022 12:00:00 AM","Benton County","Oregon","West","Pacific","41003","44.493882","-123.424664 ","11286","46","0","0","1/21/2022 12:00:00 AM","2019","93053","NYTIMES-USCENSUS"
"1/22/2022 12:00:00 AM","Hart County","Kentucky","South","East South Central","21099","37.305827","-85.878443 ","4500","85","0","0","1/21/2022 12:00:00 AM","2019","19035","NYTIMES-USCENSUS"
"1/22/2022 12:00:00 AM","Iosco County","Michigan","Midwest","East North Central","26069","44.386912","-83.380141 ","4300","123","0","0","1/21/2022 12:00:00 AM","2019","25127","NYTIMES-USCENSUS"
"1/22/2022 12:00:00 AM","Kittson County","Minnesota","Midwest","West North Central","27069","48.77604","-96.780349 ","909","25","0","0","1/21/2022 12:00:00 AM","2019","4298","NYTIMES-USCENSUS"
"1/22/2022 12:00:00 AM","Benton County","Tennessee","South","East South Central","47005","36.070948","-88.071232 ","3526","83","0","0","1/21/2022 12:00:00 AM","2019","16160","NYTIMES-USCENSUS"
"1/22/2022 12:00:00 AM","Floyd County","Kentucky","South","East South Central","21071","37.552456","-82.739724 ","9176","150","0","0","1/21/2022 12:00:00 AM","2019","35589","NYTIMES-USCENSUS"
"1/22/2022 12:00:00 AM","Calhoun County","Alabama","South","East South Central","01015","33.770516","-85.827909 ","28140","544","376","0","1/21/2022 12:00:00 AM","2019","113605","NYTIMES-USCENSUS"
"1/22/2022 12:00:00 AM","Ocean County","New Jersey","Northeast","Middle Atlantic","34029","39.865669","-74.258864 ","151477","2647","795","10","1/21/2022 12:00:00 AM","2019","607186","NYTIMES-USCENSUS"
"1/22/2022 12:00:00 AM","Wilson County","Tennessee","South","East South Central","47189","36.149527","-86.291242 ","34861","423","0","0","1/21/2022 12:00:00 AM","2019","144657","NYTIMES-USCENSUS"
"1/22/2022 12:00:00 AM","Clay County","South Dakota","Midwest","West North Central","46027","42.91615","-96.980468 ","3135","18","0","0","1/21/2022 12:00:00 AM","2019","14070","NYTIMES-USCENSUS"
"1/22/2022 12:00:00 AM","Nome Census Area","Alaska","West","Pacific","02180","64.783686","-164.188912 ","3128","3","0","0","1/21/2022 12:00:00 AM","2019","10004","NYTIMES-USCENSUS"
"1/22/2022 12:00:00 AM","Baca County","Colorado","West","Mountain","08009","37.30978","-102.543741 ","658","8","0","0","1/21/2022 12:00:00 AM","2019","3581","NYTIMES-USCENSUS"
"1/22/2022 12:00:00 AM","Stoddard County","Missouri","Midwest","West North Central","29207","36.851557","-89.947481 ","5458","112","45","0","1/21/2022 12:00:00 AM","2019","29025","NYTIMES-USCENSUS"
"1/22/2022 12:00:00 AM","Calhoun County","Georgia","South","South Atlantic","13037","31.521279","-84.62629 ","1046","22","0","0","1/21/2022 12:00:00 AM","2019","6189","NYTIMES-USCENSUS"
"1/22/2022 12:00:00 AM","Marathon County","Wisconsin","Midwest","East North Central","55073","44.898036","-89.757823 ","35391","438","0","0","1/21/2022 12:00:00 AM","2019","135692","NYTIMES-USCENSUS"
"1/22/2022 12:00:00 AM","Choctaw County","Alabama","South","East South Central","01023","31.990954","-88.248889 ","1594","31","104","0","1/21/2022 12:00:00 AM","2019","12589","NYTIMES-USCENSUS"
"1/22/2022 12:00:00 AM","Dimmit County","Texas","South","West South Central","48127","28.423587","-99.765871 ","4947","48","81","0","1/21/2022 12:00:00 AM","2019","10124","NYTIMES-USCENSUS"
"1/22/2022 12:00:00 AM","Washita County","Oklahoma","South","West South Central","40149","35.289497","-98.991436 ","2126","37","0","0","1/21/2022 12:00:00 AM","2019","10916","NYTIMES-USCENSUS"
"1/22/2022 12:00:00 AM","Union County","Tennessee","South","East South Central","47173","36.28414","-83.836088 ","4102","67","0","0","1/21/2022 12:00:00 AM","2019","19972","NYTIMES-USCENSUS"
"1/22/2022 12:00:00 AM","Marion County","Missouri","Midwest","West North Central","29127","39.807538","-91.635379 ","7167","110","36","0","1/21/2022 12:00:00 AM","2019","28530","NYTIMES-USCENSUS"
"1/22/2022 12:00:00 AM","Henry County","Georgia","South","South Atlantic","13151","33.452947","-84.154021 ","53496","563","0","0","1/21/2022 12:00:00 AM","2019","234561","NYTIMES-USCENSUS"
"1/22/2022 12:00:00 AM","Leavenworth County","Kansas","Midwest","West North Central","20103","39.189511","-95.038977 ","16478","157","0","0","1/21/2022 12:00:00 AM","2019","81758","NYTIMES-USCENSUS"
"1/22/2022 12:00:00 AM","Mobile County","Alabama","South","East South Central","01097","30.684572","-88.196568 ","101773","1428","982","2","1/21/2022 12:00:00 AM","2019","413210","NYTIMES-USCENSUS"
"1/22/2022 12:00:00 AM","Hempstead County","Arkansas","South","West South Central","05057","33.735953","-93.664355 ","4072","51","41","0","1/21/2022 12:00:00 AM","2019","21532","NYTIMES-USCENSUS"
"1/22/2022 12:00:00 AM","Woodruff County","Arkansas","South","West South Central","05147","35.192777","-91.244535 ","1510","24","8","0","1/21/2022 12:00:00 AM","2019","6320","NYTIMES-USCENSUS"
"1/22/2022 12:00:00 AM","Westmoreland County","Virginia","South","South Atlantic","51193","38.109311","-76.803933 ","2879","39","0","0","1/21/2022 12:00:00 AM","2019","18015","NYTIMES-USCENSUS"
"1/22/2022 12:00:00 AM","Hamlin County","South Dakota","Midwest","West North Central","46057","44.680619","-97.178598 ","1380","40","0","0","1/21/2022 12:00:00 AM","2019","6164","NYTIMES-USCENSUS"
"1/22/2022 12:00:00 AM","Cheyenne County","Nebraska","Midwest","West North Central","31033","41.214236","-103.011929 ","1743","21","0","0","1/21/2022 12:00:00 AM","2019","8910","NYTIMES-USCENSUS"
"1/22/2022 12:00:00 AM","Allen County","Ohio","Midwest","East North Central","39003","40.771627","-84.106103 ","25702","403","196","0","1/21/2022 12:00:00 AM","2019","102351","NYTIMES-USCENSUS"
"1/22/2022 12:00:00 AM","Brown County","Illinois","Midwest","East North Central","17009","39.962069","-90.750309 ","2068","19","0","0","1/21/2022 12:00:00 AM","2019","6578","NYTIMES-USCENSUS"
"1/22/2022 12:00:00 AM","Okaloosa County","Florida","South","South Atlantic","12091","30.614325","-86.59108 ","44791","586","0","0","1/21/2022 12:00:00 AM","2019","210738","NYTIMES-USCENSUS"
"1/22/2022 12:00:00 AM","Taylor County","Wisconsin","Midwest","East North Central","55119","45.211656","-90.504853 ","4488","63","0","0","1/21/2022 12:00:00 AM","2019","20343","NYTIMES-USCENSUS"
"1/22/2022 12:00:00 AM","Pearl River County","Mississippi","South","East South Central","28109","30.774793","-89.586904 ","12602","248","0","0","1/21/2022 12:00:00 AM","2019","55535","NYTIMES-USCENSUS"
"1/22/2022 12:00:00 AM","Van Buren County","Arkansas","South","West South Central","05141","35.582953","-92.515976 ","3090","46","23","0","1/21/2022 12:00:00 AM","2019","16545","NYTIMES-USCENSUS"
"1/22/2022 12:00:00 AM","Grundy County","Tennessee","South","East South Central","47061","35.393386","-85.710379 ","3288","64","0","0","1/21/2022 12:00:00 AM","2019","13427","NYTIMES-USCENSUS"
"1/22/2022 12:00:00 AM","Gem County","Idaho","West","Mountain","16045","44.061473","-116.398784 ","3151","73","7","0","1/21/2022 12:00:00 AM","2019","18112","NYTIMES-USCENSUS"
"1/22/2022 12:00:00 AM","Cheboygan County","Michigan","Midwest","East North Central","26031","45.476022","-84.495431 ","4178","87","0","0","1/21/2022 12:00:00 AM","2019","25276","NYTIMES-USCENSUS"
"1/22/2022 12:00:00 AM","Dixie County","Florida","South","South Atlantic","12029","29.552675","-83.236232 ","3456","52","0","0","1/21/2022 12:00:00 AM","2019","16826","NYTIMES-USCENSUS"
"1/22/2022 12:00:00 AM","Monroe County","Ohio","Midwest","East North Central","39111","39.726253","-81.090983 ","3138","68","22","0","1/21/2022 12:00:00 AM","2019","13654","NYTIMES-USCENSUS"
"1/22/2022 12:00:00 AM","Whiteside County","Illinois","Midwest","East North Central","17195","41.750673","-89.911005 ","13591","249","0","0","1/21/2022 12:00:00 AM","2019","55175","NYTIMES-USCENSUS"
"1/22/2022 12:00:00 AM","Knox County","Texas","South","West South Central","48275","33.61189","-99.730356 ","458","22","12","0","1/21/2022 12:00:00 AM","2019","3664","NYTIMES-USCENSUS"
"1/22/2022 12:00:00 AM","Caddo County","Oklahoma","South","West South Central","40015","35.16792","-98.381045 ","6831","139","0","0","1/21/2022 12:00:00 AM","2019","28762","NYTIMES-USCENSUS"
"1/22/2022 12:00:00 AM","Grundy County","Missouri","Midwest","West North Central","29079","40.112541","-93.565054 ","2083","61","16","0","1/21/2022 12:00:00 AM","2019","9850","NYTIMES-USCENSUS"
"1/22/2022 12:00:00 AM","Chesterfield County","South Carolina","South","South Atlantic","45025","34.637018","-80.159227 ","9904","164","0","0","1/21/2022 12:00:00 AM","2019","45650","NYTIMES-USCENSUS"
"1/22/2022 12:00:00 AM","La Paz County","Arizona","West","Mountain","04012","33.72761","-114.038806 ","4457","114","74","0","1/21/2022 12:00:00 AM","2019","21108","NYTIMES-USCENSUS"
"1/22/2022 12:00:00 AM","Pike County","Kentucky","South","East South Central","21195","37.486031","-82.410912 ","13938","234","0","0","1/21/2022 12:00:00 AM","2019","57876","NYTIMES-USCENSUS"
"1/22/2022 12:00:00 AM","Falls Church city","Virginia","South","South Atlantic","51610","38.884722","-77.175603 ","1638","14","0","0","1/21/2022 12:00:00 AM","2019","14617","NYTIMES-USCENSUS"
"1/22/2022 12:00:00 AM","Pratt County","Kansas","Midwest","West North Central","20151","37.647594","-98.74012 ","1733","30","0","0","1/21/2022 12:00:00 AM","2019","9164","NYTIMES-USCENSUS"
"1/22/2022 12:00:00 AM","Iberville Parish","Louisiana","South","West South Central","22047","30.270653","-91.365872 ","7863","130","0","0","1/21/2022 12:00:00 AM","2019","32511","NYTIMES-USCENSUS"
"1/22/2022 12:00:00 AM","Kiowa County","Oklahoma","South","West South Central","40075","34.921489","-98.981617 ","1492","48","0","0","1/21/2022 12:00:00 AM","2019","8708","NYTIMES-USCENSUS"
"1/22/2022 12:00:00 AM","Bourbon County","Kentucky","South","East South Central","21017","38.202562","-84.20986 ","4668","45","0","0","1/21/2022 12:00:00 AM","2019","19788","NYTIMES-USCENSUS"
"1/22/2022 12:00:00 AM","Ballard County","Kentucky","South","East South Central","21007","37.051323","-89.010367 ","1039","26","0","0","1/21/2022 12:00:00 AM","2019","7888","NYTIMES-USCENSUS"
"1/22/2022 12:00:00 AM","Carroll County","Iowa","Midwest","West North Central","19027","42.039502","-94.86765 ","4421","58","0","0","1/21/2022 12:00:00 AM","2019","20165","NYTIMES-USCENSUS"
"1/22/2022 12:00:00 AM","Crawford County","Ohio","Midwest","East North Central","39033","40.848524","-82.924783 ","10333","178","86","0","1/21/2022 12:00:00 AM","2019","41494","NYTIMES-USCENSUS"
"1/22/2022 12:00:00 AM","Monroe County","Mississippi","South","East South Central","28095","33.89003","-88.485038 ","9302","187","0","0","1/21/2022 12:00:00 AM","2019","35252","NYTIMES-USCENSUS"
"1/22/2022 12:00:00 AM","Lamoille County","Vermont","Northeast","New England","50015","44.611192","-72.632659 ","2885","12","23","0","1/21/2022 12:00:00 AM","2019","25362","NYTIMES-USCENSUS"
"1/22/2022 12:00:00 AM","Yuba County","California","West","Pacific","06115","39.27013","-121.344259 ","14510","103","0","0","1/21/2022 12:00:00 AM","2019","78668","NYTIMES-USCENSUS"
"1/22/2022 12:00:00 AM","Chester County","Pennsylvania","Northeast","Middle Atlantic","42029","39.974029","-75.749751 ","84628","1035","445","3","1/21/2022 12:00:00 AM","2019","524989","NYTIMES-USCENSUS"
"1/22/2022 12:00:00 AM","Phelps County","Missouri","Midwest","West North Central","29161","37.866326","-91.790349 ","8980","212","42","0","1/21/2022 12:00:00 AM","2019","44573","NYTIMES-USCENSUS"
"1/22/2022 12:00:00 AM","Charles Mix County","South Dakota","Midwest","West North Central","46023","43.206185","-98.595143 ","2624","33","0","0","1/21/2022 12:00:00 AM","2019","9292","NYTIMES-USCENSUS"
"1/22/2022 12:00:00 AM","Traverse County","Minnesota","Midwest","West North Central","27155","45.769935","-96.474832 ","682","8","0","0","1/21/2022 12:00:00 AM","2019","3259","NYTIMES-USCENSUS"
"1/22/2022 12:00:00 AM","Emmet County","Michigan","Midwest","East North Central","26047","45.590094","-84.986822 ","5715","65","0","0","1/21/2022 12:00:00 AM","2019","33415","NYTIMES-USCENSUS"
"1/22/2022 12:00:00 AM","Charles City County","Virginia","South","South Atlantic","51036","37.361054","-77.05417 ","1015","22","0","0","1/21/2022 12:00:00 AM","2019","6963","NYTIMES-USCENSUS"
"1/22/2022 12:00:00 AM","Cherokee County","South Carolina","South","South Atlantic","45021","35.049796","-81.607647 ","12891","278","0","0","1/21/2022 12:00:00 AM","2019","57300","NYTIMES-USCENSUS"
"1/22/2022 12:00:00 AM","Hamilton County","Texas","South","West South Central","48193","31.707342","-98.111756 ","1812","29","16","0","1/21/2022 12:00:00 AM","2019","8461","NYTIMES-USCENSUS"
"1/22/2022 12:00:00 AM","Lackawanna County","Pennsylvania","Northeast","Middle Atlantic","42069","41.440284","-75.609666 ","38617","641","528","1","1/21/2022 12:00:00 AM","2019","209674","NYTIMES-USCENSUS"
"1/22/2022 12:00:00 AM","Attala County","Mississippi","South","East South Central","28007","33.090468","-89.588622 ","4122","91","0","0","1/21/2022 12:00:00 AM","2019","18174","NYTIMES-USCENSUS"
"1/22/2022 12:00:00 AM","Jenkins County","Georgia","South","South Atlantic","13165","32.794563","-81.971524 ","1376","64","0","0","1/21/2022 12:00:00 AM","2019","8676","NYTIMES-USCENSUS"
"1/22/2022 12:00:00 AM","Caldwell County","Texas","South","West South Central","48055","29.832399","-97.628141 ","12251","163","152","2","1/21/2022 12:00:00 AM","2019","43664","NYTIMES-USCENSUS"
"1/22/2022 12:00:00 AM","Bonner County","Idaho","West","Mountain","16017","48.316796","-116.612362 ","7322","158","51","0","1/21/2022 12:00:00 AM","2019","45739","NYTIMES-USCENSUS"
"1/22/2022 12:00:00 AM","Lee County","Virginia","South","South Atlantic","51105","36.701721","-83.130112 ","4741","72","0","0","1/21/2022 12:00:00 AM","2019","23423","NYTIMES-USCENSUS"
"1/22/2022 12:00:00 AM","Tazewell County","Virginia","South","South Atlantic","51185","37.125395","-81.562924 ","7938","126","0","0","1/21/2022 12:00:00 AM","2019","40595","NYTIMES-USCENSUS"
"1/22/2022 12:00:00 AM","Hamilton County","Iowa","Midwest","West North Central","19079","42.390789","-93.70913 ","3139","65","0","0","1/21/2022 12:00:00 AM","2019","14773","NYTIMES-USCENSUS"
"1/22/2022 12:00:00 AM","Churchill County","Nevada","West","Mountain","32001","39.53771","-118.264166 ","5138","92","0","0","1/21/2022 12:00:00 AM","2019","24909","NYTIMES-USCENSUS"
"1/22/2022 12:00:00 AM","Worcester County","Maryland","South","South Atlantic","24047","38.222133","-75.309931 ","7826","141","72","2","1/21/2022 12:00:00 AM","2019","52276","NYTIMES-USCENSUS"
"1/22/2022 12:00:00 AM","Garfield County","Nebraska","Midwest","West North Central","31071","41.906868","-98.951231 ","356","2","0","0","1/21/2022 12:00:00 AM","2019","1969","NYTIMES-USCENSUS"
"1/22/2022 12:00:00 AM","Wilcox County","Georgia","South","South Atlantic","13315","31.96272","-83.438259 ","1650","61","0","0","1/21/2022 12:00:00 AM","2019","8635","NYTIMES-USCENSUS"
"1/22/2022 12:00:00 AM","Orleans Parish","Louisiana","South","West South Central","22071","30.05342","-89.934502 ","76754","1032","0","0","1/21/2022 12:00:00 AM","2019","390144","NYTIMES-USCENSUS"
"1/22/2022 12:00:00 AM","Lawrence County","Ohio","Midwest","East North Central","39087","38.603866","-82.517186 ","14746","186","162","0","1/21/2022 12:00:00 AM","2019","59463","NYTIMES-USCENSUS"
"1/22/2022 12:00:00 AM","Ventura County","California","West","Pacific","06111","34.358748","-119.133145 ","155655","1256","0","0","1/21/2022 12:00:00 AM","2019","846006","NYTIMES-USCENSUS"
"1/22/2022 12:00:00 AM","Ulster County","New York","Northeast","Middle Atlantic","36111","41.947212","-74.265458 ","28662","329","195","0","1/21/2022 12:00:00 AM","2019","177573","NYTIMES-USCENSUS"
"1/22/2022 12:00:00 AM","Galax city","Virginia","South","South Atlantic","51640","36.66564","-80.914308 ","2136","71","0","0","1/21/2022 12:00:00 AM","2019","6347","NYTIMES-USCENSUS"
"1/22/2022 12:00:00 AM","Clark County","Illinois","Midwest","East North Central","17023","39.332334","-87.791683 ","4135","55","0","0","1/21/2022 12:00:00 AM","2019","15441","NYTIMES-USCENSUS"
"1/22/2022 12:00:00 AM","Marshall County","Iowa","Midwest","West North Central","19127","42.0417","-92.981403 ","8306","96","0","0","1/21/2022 12:00:00 AM","2019","39369","NYTIMES-USCENSUS"
"1/22/2022 12:00:00 AM","Fulton County","Indiana","Midwest","East North Central","18049","41.050384","-86.265006 ","4406","95","0","0","1/21/2022 12:00:00 AM","2019","19974","NYTIMES-USCENSUS"
"1/22/2022 12:00:00 AM","Hampton city","Virginia","South","South Atlantic","51650","37.047961","-76.297293 ","24737","258","0","0","1/21/2022 12:00:00 AM","2019","134510","NYTIMES-USCENSUS"
"1/22/2022 12:00:00 AM","Hall County","Texas","South","West South Central","48191","34.453189","-100.576343 ","884","19","2","1","1/21/2022 12:00:00 AM","2019","2964","NYTIMES-USCENSUS"
"1/22/2022 12:00:00 AM","Parke County","Indiana","Midwest","East North Central","18121","39.77425","-87.19695 ","3289","40","0","0","1/21/2022 12:00:00 AM","2019","16937","NYTIMES-USCENSUS"
"1/22/2022 12:00:00 AM","Knox County","Maine","Northeast","New England","23013","44.042045","-69.038514 ","3937","21","64","0","1/21/2022 12:00:00 AM","2019","39772","NYTIMES-USCENSUS"
"1/22/2022 12:00:00 AM","Childress County","Texas","South","West South Central","48075","34.524624","-100.208166 ","2205","26","5","0","1/21/2022 12:00:00 AM","2019","7306","NYTIMES-USCENSUS"
"1/22/2022 12:00:00 AM","Ohio County","Kentucky","South","East South Central","21183","37.477859","-86.844871 ","6027","91","0","0","1/21/2022 12:00:00 AM","2019","23994","NYTIMES-USCENSUS"
"1/22/2022 12:00:00 AM","Huron County","Ohio","Midwest","East North Central","39077","41.14508","-82.594641 ","13838","184","70","0","1/21/2022 12:00:00 AM","2019","58266","NYTIMES-USCENSUS"
"1/22/2022 12:00:00 AM","Lampasas County","Texas","South","West South Central","48281","31.196731","-98.240889 ","4760","73","23","1","1/21/2022 12:00:00 AM","2019","21428","NYTIMES-USCENSUS"
"1/22/2022 12:00:00 AM","Horry County","South Carolina","South","South Atlantic","45051","33.909269","-78.976675 ","82606","971","0","0","1/21/2022 12:00:00 AM","2019","354081","NYTIMES-USCENSUS"
"1/22/2022 12:00:00 AM","St. Joseph County","Indiana","Midwest","East North Central","18141","41.617723","-86.288048 ","65406","786","0","0","1/21/2022 12:00:00 AM","2019","271826","NYTIMES-USCENSUS"
"1/22/2022 12:00:00 AM","Washburn County","Wisconsin","Midwest","East North Central","55129","45.892489","-91.796422 ","3564","39","0","0","1/21/2022 12:00:00 AM","2019","15720","NYTIMES-USCENSUS"
"1/22/2022 12:00:00 AM","Lewis County","Washington","West","Pacific","53041","46.580071","-122.377444 ","14244","203","0","0","1/21/2022 12:00:00 AM","2019","80707","NYTIMES-USCENSUS"
"1/22/2022 12:00:00 AM","Adams County","Mississippi","South","East South Central","28001","31.486224","-91.351797 ","5922","125","0","0","1/21/2022 12:00:00 AM","2019","30693","NYTIMES-USCENSUS"
"1/22/2022 12:00:00 AM","Chicot County","Arkansas","South","West South Central","05017","33.267139","-91.297158 ","2558","50","25","1","1/21/2022 12:00:00 AM","2019","10118","NYTIMES-USCENSUS"
"1/22/2022 12:00:00 AM","Pitkin County","Colorado","West","Mountain","08097","39.217541","-106.916162 ","5789","6","0","0","1/21/2022 12:00:00 AM","2019","17767","NYTIMES-USCENSUS"
"1/22/2022 12:00:00 AM","Harris County","Georgia","South","South Atlantic","13145","32.731549","-84.912432 ","5422","97","0","0","1/21/2022 12:00:00 AM","2019","35236","NYTIMES-USCENSUS"
"1/22/2022 12:00:00 AM","Alfalfa County","Oklahoma","South","West South Central","40003","36.729703","-98.323445 ","1532","10","0","0","1/21/2022 12:00:00 AM","2019","5702","NYTIMES-USCENSUS"
"1/22/2022 12:00:00 AM","Buncombe County","North Carolina","South","South Atlantic","37021","35.609371","-82.530423 ","41764","482","0","0","1/21/2022 12:00:00 AM","2019","261191","NYTIMES-USCENSUS"
"1/22/2022 12:00:00 AM","Winneshiek County","Iowa","Midwest","West North Central","19191","43.292989","-91.850788 ","3384","46","0","0","1/21/2022 12:00:00 AM","2019","19991","NYTIMES-USCENSUS"
"1/22/2022 12:00:00 AM","Umatilla County","Oregon","West","Pacific","41059","45.5912","-118.73388 ","19500","190","0","0","1/21/2022 12:00:00 AM","2019","77950","NYTIMES-USCENSUS"
"1/22/2022 12:00:00 AM","Crawford County","Iowa","Midwest","West North Central","19047","42.043119","-95.38909 ","4140","49","0","0","1/21/2022 12:00:00 AM","2019","16820","NYTIMES-USCENSUS"
"1/22/2022 12:00:00 AM","Lincoln County","West Virginia","South","South Atlantic","54043","38.17177","-82.077623 ","4317","58","74","0","1/21/2022 12:00:00 AM","2019","20409","NYTIMES-USCENSUS"
"1/22/2022 12:00:00 AM","Warren County","Missouri","Midwest","West North Central","29219","38.761902","-91.159306 ","7479","89","36","0","1/21/2022 12:00:00 AM","2019","35649","NYTIMES-USCENSUS"
"1/22/2022 12:00:00 AM","Logan County","Oklahoma","South","West South Central","40083","35.914277","-97.450952 ","8779","137","0","0","1/21/2022 12:00:00 AM","2019","48011","NYTIMES-USCENSUS"
"1/22/2022 12:00:00 AM","Sumner County","Tennessee","South","East South Central","47165","36.472423","-86.458405 ","44490","605","0","0","1/21/2022 12:00:00 AM","2019","191283","NYTIMES-USCENSUS"
"1/22/2022 12:00:00 AM","Monroe County","Wisconsin","Midwest","East North Central","55081","43.945175","-90.619969 ","10611","73","0","0","1/21/2022 12:00:00 AM","2019","46253","NYTIMES-USCENSUS"
"1/22/2022 12:00:00 AM","Fayette County","West Virginia","South","South Atlantic","54019","38.030933","-81.086051 ","9949","153","254","0","1/21/2022 12:00:00 AM","2019","42406","NYTIMES-USCENSUS"
"1/22/2022 12:00:00 AM","Dent County","Missouri","Midwest","West North Central","29065","37.603072","-91.489717 ","2874","66","20","0","1/21/2022 12:00:00 AM","2019","15573","NYTIMES-USCENSUS"
"1/22/2022 12:00:00 AM","Franklin County","Kentucky","South","East South Central","21073","38.234919","-84.868786 ","10730","121","0","0","1/21/2022 12:00:00 AM","2019","50991","NYTIMES-USCENSUS"
"1/22/2022 12:00:00 AM","Green County","Kentucky","South","East South Central","21087","37.278065","-85.537925 ","2919","40","0","0","1/21/2022 12:00:00 AM","2019","10941","NYTIMES-USCENSUS"
"1/22/2022 12:00:00 AM","Sanborn County","South Dakota","Midwest","West North Central","46111","44.018942","-98.091709 ","525","5","0","0","1/21/2022 12:00:00 AM","2019","2344","NYTIMES-USCENSUS"
"1/22/2022 12:00:00 AM","Oswego County","New York","Northeast","Middle Atlantic","36075","43.461443","-76.209262 ","22169","159","206","1","1/21/2022 12:00:00 AM","2019","117124","NYTIMES-USCENSUS"
"1/22/2022 12:00:00 AM","Clay County","Nebraska","Midwest","West North Central","31035","40.523669","-98.050858 ","1285","17","0","0","1/21/2022 12:00:00 AM","2019","6203","NYTIMES-USCENSUS"
"1/22/2022 12:00:00 AM","Posey County","Indiana","Midwest","East North Central","18129","38.027614","-87.868653 ","5616","48","0","0","1/21/2022 12:00:00 AM","2019","25427","NYTIMES-USCENSUS"
"1/22/2022 12:00:00 AM","Roane County","West Virginia","South","South Atlantic","54087","38.74295","-81.354494 ","2613","30","53","0","1/21/2022 12:00:00 AM","2019","13688","NYTIMES-USCENSUS"
"1/22/2022 12:00:00 AM","Barry County","Missouri","Midwest","West North Central","29009","36.699376","-93.834334 ","5944","101","85","0","1/21/2022 12:00:00 AM","2019","35789","NYTIMES-USCENSUS"
"1/22/2022 12:00:00 AM","Monongalia County","West Virginia","South","South Atlantic","54061","39.633645","-80.059074 ","20832","167","351","0","1/21/2022 12:00:00 AM","2019","105612","NYTIMES-USCENSUS"
"1/22/2022 12:00:00 AM","Union County","Oregon","West","Pacific","41061","45.304081","-117.999149 ","4156","65","0","0","1/21/2022 12:00:00 AM","2019","26835","NYTIMES-USCENSUS"
"1/22/2022 12:00:00 AM","Perry County","Missouri","Midwest","West North Central","29157","37.71113","-89.802125 ","4334","44","53","0","1/21/2022 12:00:00 AM","2019","19136","NYTIMES-USCENSUS"
"1/22/2022 12:00:00 AM","Poinsett County","Arkansas","South","West South Central","05111","35.56887","-90.681104 ","7024","108","65","1","1/21/2022 12:00:00 AM","2019","23528","NYTIMES-USCENSUS"
"1/22/2022 12:00:00 AM","Greenup County","Kentucky","South","East South Central","21089","38.563562","-82.93382 ","9529","111","0","0","1/21/2022 12:00:00 AM","2019","35098","NYTIMES-USCENSUS"
"1/22/2022 12:00:00 AM","Platte County","Nebraska","Midwest","West North Central","31141","41.576866","-97.513467 ","7586","69","0","0","1/21/2022 12:00:00 AM","2019","33470","NYTIMES-USCENSUS"
"1/22/2022 12:00:00 AM","Madison County","Missouri","Midwest","West North Central","29123","37.474481","-90.343413 ","3116","46","25","0","1/21/2022 12:00:00 AM","2019","12088","NYTIMES-USCENSUS"
"1/22/2022 12:00:00 AM","Madison County","Nebraska","Midwest","West North Central","31119","41.909929","-97.606856 ","8419","58","0","0","1/21/2022 12:00:00 AM","2019","35099","NYTIMES-USCENSUS"
"1/22/2022 12:00:00 AM","Colleton County","South Carolina","South","South Atlantic","45029","32.835018","-80.655244 ","7589","197","0","0","1/21/2022 12:00:00 AM","2019","37677","NYTIMES-USCENSUS"
"1/22/2022 12:00:00 AM","Wexford County","Michigan","Midwest","East North Central","26165","44.331375","-85.570046 ","5845","93","0","0","1/21/2022 12:00:00 AM","2019","33631","NYTIMES-USCENSUS"
"1/22/2022 12:00:00 AM","Pike County","Pennsylvania","Northeast","Middle Atlantic","42103","41.325949","-75.031514 ","9042","82","58","1","1/21/2022 12:00:00 AM","2019","55809","NYTIMES-USCENSUS"
"1/22/2022 12:00:00 AM","Martin County","Florida","South","South Atlantic","12085","27.083604","-80.398201 ","28457","532","0","0","1/21/2022 12:00:00 AM","2019","161000","NYTIMES-USCENSUS"
"1/22/2022 12:00:00 AM","Harrison County","Mississippi","South","East South Central","28047","30.416536","-89.083376 ","44093","578","0","0","1/21/2022 12:00:00 AM","2019","208080","NYTIMES-USCENSUS"
"1/22/2022 12:00:00 AM","Benzie County","Michigan","Midwest","East North Central","26019","44.636844","-86.231999 ","3015","58","0","0","1/21/2022 12:00:00 AM","2019","17766","NYTIMES-USCENSUS"
"1/22/2022 12:00:00 AM","Morris County","Texas","South","West South Central","48343","33.116466","-94.731265 ","2256","61","6","2","1/21/2022 12:00:00 AM","2019","12388","NYTIMES-USCENSUS"
"1/22/2022 12:00:00 AM","Nassau County","Florida","South","South Atlantic","12089","30.605963","-81.765087 ","19206","251","0","0","1/21/2022 12:00:00 AM","2019","88625","NYTIMES-USCENSUS"
"1/22/2022 12:00:00 AM","Butler County","Nebraska","Midwest","West North Central","31023","41.226072","-97.132039 ","1648","12","0","0","1/21/2022 12:00:00 AM","2019","8016","NYTIMES-USCENSUS"
"1/22/2022 12:00:00 AM","Craig County","Oklahoma","South","West South Central","40035","36.76389","-95.201553 ","3738","40","0","0","1/21/2022 12:00:00 AM","2019","14142","NYTIMES-USCENSUS"
"1/22/2022 12:00:00 AM","Taos County","New Mexico","West","Mountain","35055","36.577183","-105.638878 ","4305","76","0","0","1/21/2022 12:00:00 AM","2019","32723","NYTIMES-USCENSUS"
"1/22/2022 12:00:00 AM","Mississippi County","Arkansas","South","West South Central","05093","35.766944","-90.052207 ","11777","166","108","0","1/21/2022 12:00:00 AM","2019","40651","NYTIMES-USCENSUS"
"1/22/2022 12:00:00 AM","Morrison County","Minnesota","Midwest","West North Central","27097","46.020484","-94.266619 ","7747","92","0","0","1/21/2022 12:00:00 AM","2019","33386","NYTIMES-USCENSUS"
"1/22/2022 12:00:00 AM","Wood County","West Virginia","South","South Atlantic","54107","39.211602","-81.516234 ","19060","291","238","0","1/21/2022 12:00:00 AM","2019","83518","NYTIMES-USCENSUS"
"1/22/2022 12:00:00 AM","Mayes County","Oklahoma","South","West South Central","40097","36.303804","-95.235638 ","8009","134","0","0","1/21/2022 12:00:00 AM","2019","41100","NYTIMES-USCENSUS"
"1/22/2022 12:00:00 AM","Monroe County","Kentucky","South","East South Central","21171","36.714077","-85.713508 ","3081","69","0","0","1/21/2022 12:00:00 AM","2019","10650","NYTIMES-USCENSUS"
"1/22/2022 12:00:00 AM","Winnebago County","Iowa","Midwest","West North Central","19189","43.378124","-93.743488 ","2661","41","0","0","1/21/2022 12:00:00 AM","2019","10354","NYTIMES-USCENSUS"
"1/22/2022 12:00:00 AM","Shiawassee County","Michigan","Midwest","East North Central","26155","42.951545","-84.146352 ","15698","204","0","0","1/21/2022 12:00:00 AM","2019","68122","NYTIMES-USCENSUS"
"1/22/2022 12:00:00 AM","Lancaster County","Nebraska","Midwest","West North Central","31109","40.783547","-96.688658 ","65467","382","0","0","1/21/2022 12:00:00 AM","2019","319090","NYTIMES-USCENSUS"
"1/22/2022 12:00:00 AM","Allen County","Kentucky","South","East South Central","21003","36.75077","-86.192458 ","5294","86","0","0","1/21/2022 12:00:00 AM","2019","21315","NYTIMES-USCENSUS"
"1/22/2022 12:00:00 AM","York County","Nebraska","Midwest","West North Central","31185","40.873056","-97.596742 ","3185","19","0","0","1/21/2022 12:00:00 AM","2019","13679","NYTIMES-USCENSUS"
"1/22/2022 12:00:00 AM","Prince Edward County","Virginia","South","South Atlantic","51147","37.224881","-78.432957 ","3924","54","0","0","1/21/2022 12:00:00 AM","2019","22802","NYTIMES-USCENSUS"
"1/22/2022 12:00:00 AM","Lamar County","Georgia","South","South Atlantic","13171","33.07444","-84.146689 ","4471","104","0","0","1/21/2022 12:00:00 AM","2019","19077","NYTIMES-USCENSUS"
"1/22/2022 12:00:00 AM","Jerauld County","South Dakota","Midwest","West North Central","46073","44.06341","-98.62317 ","376","19","0","0","1/21/2022 12:00:00 AM","2019","2013","NYTIMES-USCENSUS"
"1/22/2022 12:00:00 AM","Washington County","Vermont","Northeast","New England","50023","44.274969","-72.609444 ","7268","40","83","0","1/21/2022 12:00:00 AM","2019","58409","NYTIMES-USCENSUS"
"1/22/2022 12:00:00 AM","Obion County","Tennessee","South","East South Central","47131","36.361892","-89.148078 ","8793","150","0","0","1/21/2022 12:00:00 AM","2019","30069","NYTIMES-USCENSUS"
"1/22/2022 12:00:00 AM","St. Bernard Parish","Louisiana","South","West South Central","22087","29.91811","-89.263494 ","9974","104","0","0","1/21/2022 12:00:00 AM","2019","47244","NYTIMES-USCENSUS"
"1/22/2022 12:00:00 AM","Dade County","Georgia","South","South Atlantic","13083","34.852424","-85.506201 ","2762","25","0","0","1/21/2022 12:00:00 AM","2019","16116","NYTIMES-USCENSUS"
"1/22/2022 12:00:00 AM","Washington County","Alabama","South","East South Central","01129","31.408503","-88.212404 ","3280","52","109","0","1/21/2022 12:00:00 AM","2019","16326","NYTIMES-USCENSUS"
"1/22/2022 12:00:00 AM","Evans County","Georgia","South","South Atlantic","13109","32.153083","-81.890153 ","2041","58","0","0","1/21/2022 12:00:00 AM","2019","10654","NYTIMES-USCENSUS"
"1/22/2022 12:00:00 AM","Berrien County","Georgia","South","South Atlantic","13019","31.288652","-83.22787 ","4406","72","0","0","1/21/2022 12:00:00 AM","2019","19397","NYTIMES-USCENSUS"
"1/22/2022 12:00:00 AM","Clark County","Kansas","Midwest","West North Central","20025","37.233831","-99.813869 ","464","7","0","0","1/21/2022 12:00:00 AM","2019","1994","NYTIMES-USCENSUS"
"1/22/2022 12:00:00 AM","Hopkins County","Texas","South","West South Central","48223","33.148967","-95.565434 ","6544","158","57","0","1/21/2022 12:00:00 AM","2019","37084","NYTIMES-USCENSUS"
"1/22/2022 12:00:00 AM","Power County","Idaho","West","Mountain","16077","42.694126","-112.844407 ","1292","17","0","0","1/21/2022 12:00:00 AM","2019","7681","NYTIMES-USCENSUS"
"1/22/2022 12:00:00 AM","New London County","Connecticut","Northeast","New England","09011","41.472652","-72.108634 ","48476","567","0","0","1/21/2022 12:00:00 AM","2019","265206","NYTIMES-USCENSUS"
"1/22/2022 12:00:00 AM","Grant County","Oregon","West","Pacific","41023","44.496326","-119.014057 ","1374","18","0","0","1/21/2022 12:00:00 AM","2019","7199","NYTIMES-USCENSUS"
"1/22/2022 12:00:00 AM","Jefferson County","Ohio","Midwest","East North Central","39081","40.399384","-80.763527 ","13519","261","85","0","1/21/2022 12:00:00 AM","2019","65325","NYTIMES-USCENSUS"
"1/22/2022 12:00:00 AM","Yellowstone County","Montana","West","Mountain","30111","45.936987","-108.276656 ","35406","485","0","0","1/21/2022 12:00:00 AM","2019","161300","NYTIMES-USCENSUS"
"1/22/2022 12:00:00 AM","Windham County","Connecticut","Northeast","New England","09015","41.824999","-71.990702 ","23067","265","0","0","1/21/2022 12:00:00 AM","2019","116782","NYTIMES-USCENSUS"
"1/22/2022 12:00:00 AM","Lee County","North Carolina","South","South Atlantic","37105","35.476336","-79.172117 ","13645","128","0","0","1/21/2022 12:00:00 AM","2019","61779","NYTIMES-USCENSUS"
"1/22/2022 12:00:00 AM","Arthur County","Nebraska","Midwest","West North Central","31005","41.57193","-101.695917 ","30","1","0","0","1/21/2022 12:00:00 AM","2019","463","NYTIMES-USCENSUS"
"1/22/2022 12:00:00 AM","Beauregard Parish","Louisiana","South","West South Central","22011","30.645018","-93.340253 ","7653","131","0","0","1/21/2022 12:00:00 AM","2019","37497","NYTIMES-USCENSUS"
"1/22/2022 12:00:00 AM","Lyon County","Minnesota","Midwest","West North Central","27083","44.409195","-95.847268 ","6268","69","0","0","1/21/2022 12:00:00 AM","2019","25474","NYTIMES-USCENSUS"
"1/22/2022 12:00:00 AM","Hughes County","Oklahoma","South","West South Central","40063","35.052934","-96.251183 ","2019","49","0","0","1/21/2022 12:00:00 AM","2019","13279","NYTIMES-USCENSUS"
"1/22/2022 12:00:00 AM","Lake County","Minnesota","Midwest","West North Central","27075","47.517111","-91.411704 ","1674","26","0","0","1/21/2022 12:00:00 AM","2019","10641","NYTIMES-USCENSUS"
"1/22/2022 12:00:00 AM","Butler County","Kentucky","South","East South Central","21031","37.207013","-86.682471 ","2951","46","0","0","1/21/2022 12:00:00 AM","2019","12879","NYTIMES-USCENSUS"
"1/22/2022 12:00:00 AM","Ouray County","Colorado","West","Mountain","08091","38.154731","-107.78848 ","769","6","0","0","1/21/2022 12:00:00 AM","2019","4952","NYTIMES-USCENSUS"
"1/22/2022 12:00:00 AM","Citrus County","Florida","South","South Atlantic","12017","28.850292","-82.595552 ","25333","849","0","0","1/21/2022 12:00:00 AM","2019","149657","NYTIMES-USCENSUS"
"1/22/2022 12:00:00 AM","Hamilton County","Tennessee","South","East South Central","47065","35.163472","-85.201843 ","82495","957","0","0","1/21/2022 12:00:00 AM","2019","367804","NYTIMES-USCENSUS"
"1/22/2022 12:00:00 AM","Hood County","Texas","South","West South Central","48221","32.430149","-97.831677 ","11778","225","68","0","1/21/2022 12:00:00 AM","2019","61643","NYTIMES-USCENSUS"
"1/22/2022 12:00:00 AM","Chippewa County","Michigan","Midwest","East North Central","26033","46.321819","-84.52063 ","10164","95","0","0","1/21/2022 12:00:00 AM","2019","37349","NYTIMES-USCENSUS"
"1/22/2022 12:00:00 AM","Bradley County","Tennessee","South","East South Central","47011","35.153914","-84.859414 ","27083","333","0","0","1/21/2022 12:00:00 AM","2019","108110","NYTIMES-USCENSUS"
"1/22/2022 12:00:00 AM","Phillips County","Arkansas","South","West South Central","05107","34.423687","-90.855593 ","4416","84","51","0","1/21/2022 12:00:00 AM","2019","17782","NYTIMES-USCENSUS"
"1/22/2022 12:00:00 AM","Richland County","Wisconsin","Midwest","East North Central","55103","43.376199","-90.435693 ","3361","38","0","0","1/21/2022 12:00:00 AM","2019","17252","NYTIMES-USCENSUS"
"1/22/2022 12:00:00 AM","Richmond city","Virginia","South","South Atlantic","51760","37.531399","-77.476009 ","38325","393","0","0","1/21/2022 12:00:00 AM","2019","230436","NYTIMES-USCENSUS"
"1/22/2022 12:00:00 AM","Tipton County","Tennessee","South","East South Central","47167","35.498763","-89.747145 ","15144","186","0","0","1/21/2022 12:00:00 AM","2019","61599","NYTIMES-USCENSUS"
"1/22/2022 12:00:00 AM","Aiken County","South Carolina","South","South Atlantic","45003","33.550013","-81.632983 ","35642","378","0","0","1/21/2022 12:00:00 AM","2019","170872","NYTIMES-USCENSUS"
"1/22/2022 12:00:00 AM","Seminole County","Georgia","South","South Atlantic","13253","30.93396","-84.867685 ","1947","27","0","0","1/21/2022 12:00:00 AM","2019","8090","NYTIMES-USCENSUS"
"1/22/2022 12:00:00 AM","Bell County","Texas","South","West South Central","48027","31.04275","-97.481268 ","56277","767","1708","1","1/21/2022 12:00:00 AM","2019","362924","NYTIMES-USCENSUS"
"1/22/2022 12:00:00 AM","Lee County","South Carolina","South","South Atlantic","45061","34.15864","-80.251209 ","3698","85","0","0","1/21/2022 12:00:00 AM","2019","16828","NYTIMES-USCENSUS"
"1/22/2022 12:00:00 AM","Wilkinson County","Georgia","South","South Atlantic","13319","32.804266","-83.175512 ","1979","49","0","0","1/21/2022 12:00:00 AM","2019","8954","NYTIMES-USCENSUS"
"1/22/2022 12:00:00 AM","Simpson County","Mississippi","South","East South Central","28127","31.902505","-89.917709 ","5976","122","0","0","1/21/2022 12:00:00 AM","2019","26658","NYTIMES-USCENSUS"
"1/22/2022 12:00:00 AM","Andrews County","Texas","South","West South Central","48003","32.312258","-102.640206 ","3534","68","59","0","1/21/2022 12:00:00 AM","2019","18705","NYTIMES-USCENSUS"
"1/22/2022 12:00:00 AM","Warren County","Kentucky","South","East South Central","21227","36.995634","-86.423579 ","36371","314","0","0","1/21/2022 12:00:00 AM","2019","132896","NYTIMES-USCENSUS"
"1/22/2022 12:00:00 AM","Fayette County","Texas","South","West South Central","48149","29.877886","-96.921231 ","4352","94","34","0","1/21/2022 12:00:00 AM","2019","25346","NYTIMES-USCENSUS"
"1/22/2022 12:00:00 AM","Allegany County","Maryland","South","South Atlantic","24001","39.612313","-78.703104 ","14794","312","88","2","1/21/2022 12:00:00 AM","2019","70416","NYTIMES-USCENSUS"
"1/22/2022 12:00:00 AM","Grant County","Indiana","Midwest","East North Central","18053","40.515758","-85.654946 ","15976","309","0","0","1/21/2022 12:00:00 AM","2019","65769","NYTIMES-USCENSUS"
"1/22/2022 12:00:00 AM","Union County","Ohio","Midwest","East North Central","39159","40.295901","-83.367042 ","14033","84","102","0","1/21/2022 12:00:00 AM","2019","58988","NYTIMES-USCENSUS"
"1/22/2022 12:00:00 AM","Clinton County","Iowa","Midwest","West North Central","19045","41.898073","-90.534243 ","10261","126","0","0","1/21/2022 12:00:00 AM","2019","46429","NYTIMES-USCENSUS"
"1/22/2022 12:00:00 AM","Lawrence County","South Dakota","Midwest","West North Central","46081","44.348514","-103.806362 ","5863","77","0","0","1/21/2022 12:00:00 AM","2019","25844","NYTIMES-USCENSUS"
"1/22/2022 12:00:00 AM","Berrien County","Michigan","Midwest","East North Central","26021","41.791382","-86.742543 ","31021","447","0","0","1/21/2022 12:00:00 AM","2019","153401","NYTIMES-USCENSUS"
"1/22/2022 12:00:00 AM","Quitman County","Georgia","South","South Atlantic","13239","31.862938","-85.004798 ","368","4","0","0","1/21/2022 12:00:00 AM","2019","2299","NYTIMES-USCENSUS"
"1/22/2022 12:00:00 AM","Madison County","Montana","West","Mountain","30057","45.32529","-111.913791 ","1628","20","0","0","1/21/2022 12:00:00 AM","2019","8600","NYTIMES-USCENSUS"
"1/22/2022 12:00:00 AM","Steele County","Minnesota","Midwest","West North Central","27147","44.015261","-93.220453 ","8672","49","0","0","1/21/2022 12:00:00 AM","2019","36649","NYTIMES-USCENSUS"
"1/22/2022 12:00:00 AM","Mono County","California","West","Pacific","06051","37.915836","-118.875167 ","2826","4","0","0","1/21/2022 12:00:00 AM","2019","14444","NYTIMES-USCENSUS"
"1/22/2022 12:00:00 AM","Miami County","Ohio","Midwest","East North Central","39109","40.053326","-84.228413 ","23931","408","146","0","1/21/2022 12:00:00 AM","2019","106987","NYTIMES-USCENSUS"
"1/22/2022 12:00:00 AM","McPherson County","South Dakota","Midwest","West North Central","46089","45.784249","-99.211421 ","400","9","0","0","1/21/2022 12:00:00 AM","2019","2379","NYTIMES-USCENSUS"
"1/22/2022 12:00:00 AM","Huron County","Michigan","Midwest","East North Central","26063","43.907616","-82.857045 ","7163","133","0","0","1/21/2022 12:00:00 AM","2019","30981","NYTIMES-USCENSUS"
"1/22/2022 12:00:00 AM","Highland County","Virginia","South","South Atlantic","51091","38.366243","-79.564472 ","290","4","0","0","1/21/2022 12:00:00 AM","2019","2190","NYTIMES-USCENSUS"
"1/22/2022 12:00:00 AM","Caswell County","North Carolina","South","South Atlantic","37033","36.394298","-79.339609 ","4462","39","0","0","1/21/2022 12:00:00 AM","2019","22604","NYTIMES-USCENSUS"
"1/22/2022 12:00:00 AM","Winston County","Mississippi","South","East South Central","28159","33.078724","-89.037391 ","4280","96","0","0","1/21/2022 12:00:00 AM","2019","17955","NYTIMES-USCENSUS"
"1/22/2022 12:00:00 AM","Cross County","Arkansas","South","West South Central","05037","35.285692","-90.763984 ","4231","73","37","0","1/21/2022 12:00:00 AM","2019","16419","NYTIMES-USCENSUS"
"1/22/2022 12:00:00 AM","Lee County","Mississippi","South","East South Central","28081","34.29237","-88.682439 ","23198","255","0","0","1/21/2022 12:00:00 AM","2019","85436","NYTIMES-USCENSUS"
"1/22/2022 12:00:00 AM","Daviess County","Kentucky","South","East South Central","21059","37.731671","-87.087139 ","25368","332","0","0","1/21/2022 12:00:00 AM","2019","101511","NYTIMES-USCENSUS"
"1/22/2022 12:00:00 AM","McLean County","Illinois","Midwest","East North Central","17113","40.494559","-88.844539 ","43291","297","0","0","1/21/2022 12:00:00 AM","2019","171517","NYTIMES-USCENSUS"
"1/22/2022 12:00:00 AM","Hamilton County","New York","Northeast","Middle Atlantic","36041","43.657879","-74.502456 ","769","4","3","0","1/21/2022 12:00:00 AM","2019","4416","NYTIMES-USCENSUS"
"1/22/2022 12:00:00 AM","Yuma County","Colorado","West","Mountain","08125","40.00077","-102.421649 ","1644","22","0","0","1/21/2022 12:00:00 AM","2019","10019","NYTIMES-USCENSUS"
"1/22/2022 12:00:00 AM","Northumberland County","Virginia","South","South Atlantic","51133","37.856974","-76.379687 ","1888","39","0","0","1/21/2022 12:00:00 AM","2019","12095","NYTIMES-USCENSUS"
"1/22/2022 12:00:00 AM","Twin Falls County","Idaho","West","Mountain","16083","42.352309","-114.665639 ","18269","255","74","0","1/21/2022 12:00:00 AM","2019","86878","NYTIMES-USCENSUS"
"1/22/2022 12:00:00 AM","Noble County","Indiana","Midwest","East North Central","18113","41.404679","-85.417271 ","11988","146","0","0","1/21/2022 12:00:00 AM","2019","47744","NYTIMES-USCENSUS"
"1/22/2022 12:00:00 AM","Newaygo County","Michigan","Midwest","East North Central","26123","43.562712","-85.791372 ","9932","137","0","0","1/21/2022 12:00:00 AM","2019","48980","NYTIMES-USCENSUS"
"1/22/2022 12:00:00 AM","Yukon-Koyukuk Census Area","Alaska","West","Pacific","02290","65.375727","-151.57785 ","986","8","0","0","1/21/2022 12:00:00 AM","2019","5230","NYTIMES-USCENSUS"
"1/22/2022 12:00:00 AM","Owsley County","Kentucky","South","East South Central","21189","37.423622","-83.691637 ","1167","23","0","0","1/21/2022 12:00:00 AM","2019","4415","NYTIMES-USCENSUS"
"1/22/2022 12:00:00 AM","Union County","New Jersey","Northeast","Middle Atlantic","34039","40.659871","-74.308696 ","135061","2188","425","6","1/21/2022 12:00:00 AM","2019","556341","NYTIMES-USCENSUS"
"1/22/2022 12:00:00 AM","Seward County","Kansas","Midwest","West North Central","20175","37.18096","-100.855257 ","6655","58","0","0","1/21/2022 12:00:00 AM","2019","21428","NYTIMES-USCENSUS"
"1/22/2022 12:00:00 AM","Blackford County","Indiana","Midwest","East North Central","18009","40.472672","-85.32373 ","2774","59","0","0","1/21/2022 12:00:00 AM","2019","11758","NYTIMES-USCENSUS"
"1/22/2022 12:00:00 AM","Hardin County","Texas","South","West South Central","48199","30.329648","-94.393178 ","11190","222","47","0","1/21/2022 12:00:00 AM","2019","57602","NYTIMES-USCENSUS"
"1/22/2022 12:00:00 AM","Garfield County","Utah","West","Mountain","49017","37.831664","-111.450908 ","831","12","0","0","1/21/2022 12:00:00 AM","2019","5051","NYTIMES-USCENSUS"
"1/22/2022 12:00:00 AM","Madison County","Florida","South","South Atlantic","12079","30.447233","-83.470416 ","4855","69","0","0","1/21/2022 12:00:00 AM","2019","18493","NYTIMES-USCENSUS"
"1/22/2022 12:00:00 AM","Washington County","Oregon","West","Pacific","41067","45.553542","-123.097615 ","68918","461","0","0","1/21/2022 12:00:00 AM","2019","601592","NYTIMES-USCENSUS"
"1/22/2022 12:00:00 AM","Guilford County","North Carolina","South","South Atlantic","37081","36.079065","-79.788665 ","99325","983","0","0","1/21/2022 12:00:00 AM","2019","537174","NYTIMES-USCENSUS"
"1/22/2022 12:00:00 AM","Gilmer County","Georgia","South","South Atlantic","13123","34.690506","-84.454624 ","5952","150","0","0","1/21/2022 12:00:00 AM","2019","31369","NYTIMES-USCENSUS"
"1/22/2022 12:00:00 AM","Conway County","Arkansas","South","West South Central","05029","35.265702","-92.689248 ","4806","50","51","0","1/21/2022 12:00:00 AM","2019","20846","NYTIMES-USCENSUS"
"1/22/2022 12:00:00 AM","Webster County","Kentucky","South","East South Central","21233","37.51946","-87.68479 ","3230","46","0","0","1/21/2022 12:00:00 AM","2019","12942","NYTIMES-USCENSUS"
"1/22/2022 12:00:00 AM","Malheur County","Oregon","West","Pacific","41045","43.188625","-117.603191 ","6970","96","0","0","1/21/2022 12:00:00 AM","2019","30571","NYTIMES-USCENSUS"
"1/22/2022 12:00:00 AM","Bartow County","Georgia","South","South Atlantic","13015","34.240917","-84.838188 ","26609","395","0","0","1/21/2022 12:00:00 AM","2019","107738","NYTIMES-USCENSUS"
"1/22/2022 12:00:00 AM","Thomas County","Georgia","South","South Atlantic","13275","30.864619","-83.919815 ","10171","186","0","0","1/21/2022 12:00:00 AM","2019","44451","NYTIMES-USCENSUS"
"1/22/2022 12:00:00 AM","Copiah County","Mississippi","South","East South Central","28029","31.866915","-90.448758 ","6076","96","0","0","1/21/2022 12:00:00 AM","2019","28065","NYTIMES-USCENSUS"
"1/22/2022 12:00:00 AM","Wise County","Texas","South","West South Central","48497","33.219095","-97.653997 ","15321","224","164","0","1/21/2022 12:00:00 AM","2019","69984","NYTIMES-USCENSUS"
"1/22/2022 12:00:00 AM","Howard County","Arkansas","South","West South Central","05061","34.083064","-93.990931 ","3460","40","25","0","1/21/2022 12:00:00 AM","2019","13202","NYTIMES-USCENSUS"
"1/22/2022 12:00:00 AM","Harper County","Kansas","Midwest","West North Central","20077","37.188184","-98.06659 ","1552","25","0","0","1/21/2022 12:00:00 AM","2019","5436","NYTIMES-USCENSUS"
"1/22/2022 12:00:00 AM","Jersey County","Illinois","Midwest","East North Central","17083","39.080195","-90.361385 ","5669","78","0","0","1/21/2022 12:00:00 AM","2019","21773","NYTIMES-USCENSUS"
"1/22/2022 12:00:00 AM","Spokane County","Washington","West","Pacific","53063","47.620375","-117.403371 ","98265","1187","0","0","1/21/2022 12:00:00 AM","2019","522798","NYTIMES-USCENSUS"
"1/22/2022 12:00:00 AM","Linn County","Iowa","Midwest","West North Central","19113","42.077951","-91.597674 ","45513","501","0","0","1/21/2022 12:00:00 AM","2019","226706","NYTIMES-USCENSUS"
"1/22/2022 12:00:00 AM","Harrison County","Kentucky","South","East South Central","21097","38.444578","-84.334131 ","4974","57","0","0","1/21/2022 12:00:00 AM","2019","18886","NYTIMES-USCENSUS"
"1/22/2022 12:00:00 AM","Bradford County","Florida","South","South Atlantic","12007","29.952386","-82.166698 ","6504","130","0","0","1/21/2022 12:00:00 AM","2019","28201","NYTIMES-USCENSUS"
"1/22/2022 12:00:00 AM","Ziebach County","South Dakota","Midwest","West North Central","46137","44.989764","-101.660827 ","512","11","0","0","1/21/2022 12:00:00 AM","2019","2756","NYTIMES-USCENSUS"
"1/22/2022 12:00:00 AM","Oconto County","Wisconsin","Midwest","East North Central","55083","44.996575","-88.206516 ","10584","90","0","0","1/21/2022 12:00:00 AM","2019","37930","NYTIMES-USCENSUS"
"1/22/2022 12:00:00 AM","Hardee County","Florida","South","South Atlantic","12049","27.492846","-81.82158 ","7705","104","0","0","1/21/2022 12:00:00 AM","2019","26937","NYTIMES-USCENSUS"
"1/22/2022 12:00:00 AM","Washington County","Virginia","South","South Atlantic","51191","36.747814","-81.950322 ","11010","190","0","0","1/21/2022 12:00:00 AM","2019","53740","NYTIMES-USCENSUS"
"1/22/2022 12:00:00 AM","Kent County","Rhode Island","Northeast","New England","44003","41.675118","-71.580282 ","40856","450","0","0","1/21/2022 12:00:00 AM","2019","164292","NYTIMES-USCENSUS"
"1/22/2022 12:00:00 AM","Essex County","New York","Northeast","Middle Atlantic","36031","44.109601","-73.778431 ","4829","52","64","0","1/21/2022 12:00:00 AM","2019","36885","NYTIMES-USCENSUS"
"1/22/2022 12:00:00 AM","Anderson County","Texas","South","West South Central","48001","31.841261","-95.661727 ","9038","217","51","0","1/21/2022 12:00:00 AM","2019","57735","NYTIMES-USCENSUS"
"1/22/2022 12:00:00 AM","Florence County","South Carolina","South","South Atlantic","45041","34.028535","-79.710233 ","36007","564","0","0","1/21/2022 12:00:00 AM","2019","138293","NYTIMES-USCENSUS"
"1/22/2022 12:00:00 AM","Gove County","Kansas","Midwest","West North Central","20063","38.917239","-100.48736 ","717","23","0","0","1/21/2022 12:00:00 AM","2019","2636","NYTIMES-USCENSUS"
"1/22/2022 12:00:00 AM","McKenzie County","North Dakota","Midwest","West North Central","38053","47.742475","-103.403215 ","2985","23","19","0","1/21/2022 12:00:00 AM","2019","15024","NYTIMES-USCENSUS"
"1/22/2022 12:00:00 AM","Coosa County","Alabama","South","East South Central","01037","32.931445","-86.243482 ","2580","49","43","0","1/21/2022 12:00:00 AM","2019","10663","NYTIMES-USCENSUS"
"1/22/2022 12:00:00 AM","Haywood County","Tennessee","South","East South Central","47075","35.586678","-89.282691 ","5041","82","0","0","1/21/2022 12:00:00 AM","2019","17304","NYTIMES-USCENSUS"
"1/22/2022 12:00:00 AM","Franklin County","Iowa","Midwest","West North Central","19069","42.736545","-93.271415 ","2261","36","0","0","1/21/2022 12:00:00 AM","2019","10070","NYTIMES-USCENSUS"
"1/22/2022 12:00:00 AM","Charles County","Maryland","South","South Atlantic","24017","38.472853","-77.015427 ","25546","309","201","2","1/21/2022 12:00:00 AM","2019","163257","NYTIMES-USCENSUS"
"1/22/2022 12:00:00 AM","Gates County","North Carolina","South","South Atlantic","37073","36.442135","-76.702355 ","1587","19","0","0","1/21/2022 12:00:00 AM","2019","11562","NYTIMES-USCENSUS"
"1/22/2022 12:00:00 AM","Hand County","South Dakota","Midwest","West North Central","46059","44.546713","-99.004575 ","506","8","0","0","1/21/2022 12:00:00 AM","2019","3191","NYTIMES-USCENSUS"
"1/22/2022 12:00:00 AM","Nicholas County","Kentucky","South","East South Central","21181","38.338031","-84.026223 ","1561","29","0","0","1/21/2022 12:00:00 AM","2019","7269","NYTIMES-USCENSUS"
"1/22/2022 12:00:00 AM","Morgan County","Utah","West","Mountain","49029","41.091027","-111.577885 ","2551","13","0","0","1/21/2022 12:00:00 AM","2019","12124","NYTIMES-USCENSUS"
"1/22/2022 12:00:00 AM","Franklin County","Mississippi","South","East South Central","28037","31.477773","-90.895457 ","1666","34","0","0","1/21/2022 12:00:00 AM","2019","7713","NYTIMES-USCENSUS"
"1/22/2022 12:00:00 AM","Greene County","Illinois","Midwest","East North Central","17061","39.355439","-90.387682 ","3340","54","0","0","1/21/2022 12:00:00 AM","2019","12969","NYTIMES-USCENSUS"
"1/22/2022 12:00:00 AM","Madison County","North Carolina","South","South Atlantic","37115","35.864206","-82.712631 ","3942","73","0","0","1/21/2022 12:00:00 AM","2019","21755","NYTIMES-USCENSUS"
"1/22/2022 12:00:00 AM","Orange County","Virginia","South","South Atlantic","51137","38.249326","-78.011092 ","5972","69","0","0","1/21/2022 12:00:00 AM","2019","37051","NYTIMES-USCENSUS"
"1/22/2022 12:00:00 AM","Moniteau County","Missouri","Midwest","West North Central","29135","38.633037","-92.583642 ","3486","48","25","0","1/21/2022 12:00:00 AM","2019","16132","NYTIMES-USCENSUS"
"1/22/2022 12:00:00 AM","Catawba County","North Carolina","South","South Atlantic","37035","35.661883","-81.214906 ","39619","490","0","0","1/21/2022 12:00:00 AM","2019","159551","NYTIMES-USCENSUS"
"1/22/2022 12:00:00 AM","Hoke County","North Carolina","South","South Atlantic","37093","35.017233","-79.241964 ","12043","94","0","0","1/21/2022 12:00:00 AM","2019","55234","NYTIMES-USCENSUS"
"1/22/2022 12:00:00 AM","Virginia Beach city","Virginia","South","South Atlantic","51810","36.779525","-76.029142 ","80392","623","0","0","1/21/2022 12:00:00 AM","2019","449974","NYTIMES-USCENSUS"
"1/22/2022 12:00:00 AM","Switzerland County","Indiana","Midwest","East North Central","18155","38.825854","-85.029681 ","2015","14","0","0","1/21/2022 12:00:00 AM","2019","10751","NYTIMES-USCENSUS"
"1/22/2022 12:00:00 AM","Martin County","Kentucky","South","East South Central","21159","37.796774","-82.506623 ","2511","43","0","0","1/21/2022 12:00:00 AM","2019","11195","NYTIMES-USCENSUS"
"1/22/2022 12:00:00 AM","Calhoun County","Iowa","Midwest","West North Central","19025","42.38617","-94.643683 ","2350","20","0","0","1/21/2022 12:00:00 AM","2019","9668","NYTIMES-USCENSUS"
"1/22/2022 12:00:00 AM","Juab County","Utah","West","Mountain","49023","39.71412","-112.790471 ","2529","21","0","0","1/21/2022 12:00:00 AM","2019","12017","NYTIMES-USCENSUS"
"1/22/2022 12:00:00 AM","Kane County","Illinois","Midwest","East North Central","17089","41.939594","-88.42804 ","111479","1052","0","0","1/21/2022 12:00:00 AM","2019","532403","NYTIMES-USCENSUS"
"1/22/2022 12:00:00 AM","Lac qui Parle County","Minnesota","Midwest","West North Central","27073","44.999856","-96.176836 ","1488","28","0","0","1/21/2022 12:00:00 AM","2019","6623","NYTIMES-USCENSUS"
"1/22/2022 12:00:00 AM","Mercer County","North Dakota","Midwest","West North Central","38057","47.307147","-101.833328 ","2272","22","21","0","1/21/2022 12:00:00 AM","2019","8187","NYTIMES-USCENSUS"
"1/22/2022 12:00:00 AM","Clinton County","Kentucky","South","East South Central","21053","36.727258","-85.136098 ","2797","41","0","0","1/21/2022 12:00:00 AM","2019","10218","NYTIMES-USCENSUS"
"1/22/2022 12:00:00 AM","Nodaway County","Missouri","Midwest","West North Central","29147","40.361136","-94.883146 ","5282","41","0","0","1/21/2022 12:00:00 AM","2019","22092","NYTIMES-USCENSUS"
"1/22/2022 12:00:00 AM","Armstrong County","Texas","South","West South Central","48011","34.964179","-101.356636 ","456","8","3","0","1/21/2022 12:00:00 AM","2019","1887","NYTIMES-USCENSUS"
"1/22/2022 12:00:00 AM","Putnam County","West Virginia","South","South Atlantic","54079","38.510518","-81.906109 ","13722","150","295","0","1/21/2022 12:00:00 AM","2019","56450","NYTIMES-USCENSUS"
"1/22/2022 12:00:00 AM","Apache County","Arizona","West","Mountain","04001","35.385084","-109.490172 ","18897","560","207","0","1/21/2022 12:00:00 AM","2019","71887","NYTIMES-USCENSUS"
"1/22/2022 12:00:00 AM","Clark County","Wisconsin","Midwest","East North Central","55019","44.739346","-90.609953 ","6996","111","0","0","1/21/2022 12:00:00 AM","2019","34774","NYTIMES-USCENSUS"
"1/22/2022 12:00:00 AM","Polk County","Arkansas","South","West South Central","05113","34.490915","-94.230884 ","3629","130","39","0","1/21/2022 12:00:00 AM","2019","19964","NYTIMES-USCENSUS"
"1/22/2022 12:00:00 AM","Tooele County","Utah","West","Mountain","49045","40.467753","-113.123979 ","18519","88","0","0","1/21/2022 12:00:00 AM","2019","72259","NYTIMES-USCENSUS"
"1/22/2022 12:00:00 AM","Ottawa County","Kansas","Midwest","West North Central","20143","39.137963","-97.654802 ","1070","16","0","0","1/21/2022 12:00:00 AM","2019","5704","NYTIMES-USCENSUS"
"1/22/2022 12:00:00 AM","Nash County","North Carolina","South","South Atlantic","37127","35.965945","-77.987555 ","23612","264","0","0","1/21/2022 12:00:00 AM","2019","94298","NYTIMES-USCENSUS"
"1/22/2022 12:00:00 AM","Pushmataha County","Oklahoma","South","West South Central","40127","34.377899","-95.408082 ","2072","42","0","0","1/21/2022 12:00:00 AM","2019","11096","NYTIMES-USCENSUS"
"1/22/2022 12:00:00 AM","Henderson County","Tennessee","South","East South Central","47077","35.653994","-88.387674 ","6899","121","0","0","1/21/2022 12:00:00 AM","2019","28117","NYTIMES-USCENSUS"
"1/22/2022 12:00:00 AM","Macon County","North Carolina","South","South Atlantic","37113","35.152959","-83.421901 ","6341","88","0","0","1/21/2022 12:00:00 AM","2019","35858","NYTIMES-USCENSUS"
"1/22/2022 12:00:00 AM","Gratiot County","Michigan","Midwest","East North Central","26057","43.292326","-84.60469 ","11936","173","0","0","1/21/2022 12:00:00 AM","2019","40711","NYTIMES-USCENSUS"
"1/22/2022 12:00:00 AM","Madison County","Kentucky","South","East South Central","21151","37.725511","-84.278362 ","22466","222","0","0","1/21/2022 12:00:00 AM","2019","92987","NYTIMES-USCENSUS"
"1/22/2022 12:00:00 AM","Erie County","New York","Northeast","Middle Atlantic","36029","42.752759","-78.778192 ","193127","2394","1177","10","1/21/2022 12:00:00 AM","2019","918702","NYTIMES-USCENSUS"
"1/22/2022 12:00:00 AM","Stanislaus County","California","West","Pacific","06099","37.562316","-121.002831 ","115652","1517","0","0","1/21/2022 12:00:00 AM","2019","550660","NYTIMES-USCENSUS"
"1/22/2022 12:00:00 AM","Franklin County","Ohio","Midwest","East North Central","39049","39.969875","-83.009086 ","269677","2100","1700","0","1/21/2022 12:00:00 AM","2019","1316756","NYTIMES-USCENSUS"
"1/22/2022 12:00:00 AM","Dodge County","Minnesota","Midwest","West North Central","27039","44.020706","-92.869353 ","4667","14","0","0","1/21/2022 12:00:00 AM","2019","20934","NYTIMES-USCENSUS"
"1/22/2022 12:00:00 AM","Curry County","New Mexico","West","Mountain","35009","34.572984","-103.346055 ","10902","151","0","0","1/21/2022 12:00:00 AM","2019","48954","NYTIMES-USCENSUS"
"1/22/2022 12:00:00 AM","Columbiana County","Ohio","Midwest","East North Central","39029","40.770073","-80.778455 ","22903","409","146","0","1/21/2022 12:00:00 AM","2019","101883","NYTIMES-USCENSUS"
"1/22/2022 12:00:00 AM","Mississippi County","Missouri","Midwest","West North Central","29133","36.826264","-89.295929 ","2822","51","26","0","1/21/2022 12:00:00 AM","2019","13180","NYTIMES-USCENSUS"
"1/22/2022 12:00:00 AM","Bosque County","Texas","South","West South Central","48035","31.900819","-97.637641 ","3491","60","37","0","1/21/2022 12:00:00 AM","2019","18685","NYTIMES-USCENSUS"
"1/22/2022 12:00:00 AM","Garfield County","Colorado","West","Mountain","08045","39.599352","-107.90978 ","12815","80","0","0","1/21/2022 12:00:00 AM","2019","60061","NYTIMES-USCENSUS"
"1/22/2022 12:00:00 AM","Wicomico County","Maryland","South","South Atlantic","24045","38.36737","-75.632083 ","17593","278","211","5","1/21/2022 12:00:00 AM","2019","103609","NYTIMES-USCENSUS"
"1/22/2022 12:00:00 AM","Northumberland County","Pennsylvania","Northeast","Middle Atlantic","42097","40.851524","-76.709877 ","20570","489","183","0","1/21/2022 12:00:00 AM","2019","90843","NYTIMES-USCENSUS"
"1/22/2022 12:00:00 AM","Lorain County","Ohio","Midwest","East North Central","39093","41.438805","-82.179722 ","63976","809","211","0","1/21/2022 12:00:00 AM","2019","309833","NYTIMES-USCENSUS"
"1/22/2022 12:00:00 AM","Anderson County","South Carolina","South","South Atlantic","45007","34.521235","-82.638603 ","50597","855","0","0","1/21/2022 12:00:00 AM","2019","202558","NYTIMES-USCENSUS"
"1/22/2022 12:00:00 AM","New Hanover County","North Carolina","South","South Atlantic","37129","34.183445","-77.864204 ","40543","320","0","0","1/21/2022 12:00:00 AM","2019","234473","NYTIMES-USCENSUS"
"1/22/2022 12:00:00 AM","Kinney County","Texas","South","West South Central","48271","29.347086","-100.4177 ","663","10","5","0","1/21/2022 12:00:00 AM","2019","3667","NYTIMES-USCENSUS"
"1/22/2022 12:00:00 AM","Gallatin County","Illinois","Midwest","East North Central","17059","37.768677","-88.227964 ","1129","12","0","0","1/21/2022 12:00:00 AM","2019","4828","NYTIMES-USCENSUS"
"1/22/2022 12:00:00 AM","Davie County","North Carolina","South","South Atlantic","37059","35.929355","-80.542552 ","9391","82","0","0","1/21/2022 12:00:00 AM","2019","42846","NYTIMES-USCENSUS"
"1/22/2022 12:00:00 AM","Blue Earth County","Minnesota","Midwest","West North Central","27013","44.03371","-94.064012 ","14627","85","0","0","1/21/2022 12:00:00 AM","2019","67653","NYTIMES-USCENSUS"
"1/22/2022 12:00:00 AM","St. Joseph County","Michigan","Midwest","East North Central","26149","41.911488","-85.52287 ","12324","179","0","0","1/21/2022 12:00:00 AM","2019","60964","NYTIMES-USCENSUS"
"1/22/2022 12:00:00 AM","Osage County","Missouri","Midwest","West North Central","29151","38.464253","-91.859504 ","2875","39","34","0","1/21/2022 12:00:00 AM","2019","13615","NYTIMES-USCENSUS"
"1/22/2022 12:00:00 AM","Dickinson County","Kansas","Midwest","West North Central","20041","38.867735","-97.157943 ","4232","64","0","0","1/21/2022 12:00:00 AM","2019","18466","NYTIMES-USCENSUS"
"1/22/2022 12:00:00 AM","Giles County","Virginia","South","South Atlantic","51071","37.318072","-80.698321 ","3114","38","0","0","1/21/2022 12:00:00 AM","2019","16720","NYTIMES-USCENSUS"
"1/22/2022 12:00:00 AM","Leake County","Mississippi","South","East South Central","28079","32.76063","-89.52225 ","5339","92","0","0","1/21/2022 12:00:00 AM","2019","22786","NYTIMES-USCENSUS"
"1/22/2022 12:00:00 AM","Gillespie County","Texas","South","West South Central","48171","30.325093","-98.94185 ","4701","89","41","1","1/21/2022 12:00:00 AM","2019","26988","NYTIMES-USCENSUS"
"1/22/2022 12:00:00 AM","Ward County","North Dakota","Midwest","West North Central","38101","48.216686","-101.540537 ","18140","238","208","1","1/21/2022 12:00:00 AM","2019","67641","NYTIMES-USCENSUS"
"1/22/2022 12:00:00 AM","Humphreys County","Tennessee","South","East South Central","47085","36.040822","-87.790453 ","3813","61","0","0","1/21/2022 12:00:00 AM","2019","18582","NYTIMES-USCENSUS"
"1/22/2022 12:00:00 AM","Jefferson County","Florida","South","South Atlantic","12065","30.396898","-83.921761 ","3396","36","0","0","1/21/2022 12:00:00 AM","2019","14246","NYTIMES-USCENSUS"
"1/22/2022 12:00:00 AM","Hertford County","North Carolina","South","South Atlantic","37091","36.363517","-76.981616 ","4256","77","0","0","1/21/2022 12:00:00 AM","2019","23677","NYTIMES-USCENSUS"
"1/22/2022 12:00:00 AM","Silver Bow County","Montana","West","Mountain","30093","45.896232","-112.660071 ","6975","118","0","0","1/21/2022 12:00:00 AM","2019","34915","NYTIMES-USCENSUS"
"1/22/2022 12:00:00 AM","Louisa County","Iowa","Midwest","West North Central","19115","41.218211","-91.256994 ","2246","56","0","0","1/21/2022 12:00:00 AM","2019","11035","NYTIMES-USCENSUS"
"1/22/2022 12:00:00 AM","Ontario County","New York","Northeast","Middle Atlantic","36069","42.856357","-77.303497 ","17784","162","147","1","1/21/2022 12:00:00 AM","2019","109777","NYTIMES-USCENSUS"
"1/22/2022 12:00:00 AM","Archuleta County","Colorado","West","Mountain","08007","37.202395","-107.050863 ","2581","9","0","0","1/21/2022 12:00:00 AM","2019","14029","NYTIMES-USCENSUS"
"1/22/2022 12:00:00 AM","Tulare County","California","West","Pacific","06107","36.228834","-118.781055 ","107113","1211","0","0","1/21/2022 12:00:00 AM","2019","466195","NYTIMES-USCENSUS"
"1/22/2022 12:00:00 AM","Vermilion Parish","Louisiana","South","West South Central","22113","29.789722","-92.291568 ","13079","199","0","0","1/21/2022 12:00:00 AM","2019","59511","NYTIMES-USCENSUS"
"1/22/2022 12:00:00 AM","Marion County","Iowa","Midwest","West North Central","19125","41.331433","-93.093868 ","6780","110","0","0","1/21/2022 12:00:00 AM","2019","33253","NYTIMES-USCENSUS"
"1/22/2022 12:00:00 AM","Montmorency County","Michigan","Midwest","East North Central","26119","45.024134","-84.130107 ","1538","44","0","0","1/21/2022 12:00:00 AM","2019","9328","NYTIMES-USCENSUS"
"1/22/2022 12:00:00 AM","Lee County","Illinois","Midwest","East North Central","17103","41.747447","-89.299362 ","7731","111","0","0","1/21/2022 12:00:00 AM","2019","34096","NYTIMES-USCENSUS"
"1/22/2022 12:00:00 AM","Limestone County","Texas","South","West South Central","48293","31.547543","-96.593623 ","4616","116","50","0","1/21/2022 12:00:00 AM","2019","23437","NYTIMES-USCENSUS"
"1/22/2022 12:00:00 AM","Smith County","Texas","South","West South Central","48423","32.377016","-95.270041 ","39902","855","314","1","1/21/2022 12:00:00 AM","2019","232751","NYTIMES-USCENSUS"
"1/22/2022 12:00:00 AM","Hancock County","Ohio","Midwest","East North Central","39063","41.000217","-83.665947 ","16004","232","108","0","1/21/2022 12:00:00 AM","2019","75783","NYTIMES-USCENSUS"
"1/22/2022 12:00:00 AM","Pierce County","Washington","West","Pacific","53053","47.051413","-122.15324 ","153896","1094","0","0","1/21/2022 12:00:00 AM","2019","904980","NYTIMES-USCENSUS"
"1/22/2022 12:00:00 AM","St. Clair County","Michigan","Midwest","East North Central","26147","42.928803","-82.668913 ","36821","741","0","0","1/21/2022 12:00:00 AM","2019","159128","NYTIMES-USCENSUS"
"1/22/2022 12:00:00 AM","Murray County","Minnesota","Midwest","West North Central","27101","44.015594","-95.761581 ","1813","15","0","0","1/21/2022 12:00:00 AM","2019","8194","NYTIMES-USCENSUS"
"1/22/2022 12:00:00 AM","Cabarrus County","North Carolina","South","South Atlantic","37025","35.388346","-80.552728 ","47883","409","0","0","1/21/2022 12:00:00 AM","2019","216453","NYTIMES-USCENSUS"
"1/22/2022 12:00:00 AM","Wallowa County","Oregon","West","Pacific","41063","45.593753","-117.18558 ","992","13","0","0","1/21/2022 12:00:00 AM","2019","7208","NYTIMES-USCENSUS"
"1/22/2022 12:00:00 AM","Loup County","Nebraska","Midwest","West North Central","31115","41.903183","-99.509852 ","83","0","0","0","1/21/2022 12:00:00 AM","2019","664","NYTIMES-USCENSUS"
"1/22/2022 12:00:00 AM","Caledonia County","Vermont","Northeast","New England","50005","44.468791","-72.112168 ","3964","22","28","0","1/21/2022 12:00:00 AM","2019","29993","NYTIMES-USCENSUS"
"1/22/2022 12:00:00 AM","Richland County","Illinois","Midwest","East North Central","17159","38.712187","-88.085452 ","4476","78","0","0","1/21/2022 12:00:00 AM","2019","15513","NYTIMES-USCENSUS"
"1/22/2022 12:00:00 AM","Lowndes County","Mississippi","South","East South Central","28087","33.471424","-88.439723 ","14797","203","0","0","1/21/2022 12:00:00 AM","2019","58595","NYTIMES-USCENSUS"
"1/22/2022 12:00:00 AM","Houghton County","Michigan","Midwest","East North Central","26061","46.998427","-88.651903 ","6922","82","0","0","1/21/2022 12:00:00 AM","2019","35684","NYTIMES-USCENSUS"
"1/22/2022 12:00:00 AM","Lehigh County","Pennsylvania","Northeast","Middle Atlantic","42077","40.614241","-75.590627 ","84612","1137","499","4","1/21/2022 12:00:00 AM","2019","369318","NYTIMES-USCENSUS"
"1/22/2022 12:00:00 AM","Shawnee County","Kansas","Midwest","West North Central","20177","39.041805","-95.755664 ","42041","506","0","0","1/21/2022 12:00:00 AM","2019","176875","NYTIMES-USCENSUS"
"1/22/2022 12:00:00 AM","Meigs County","Ohio","Midwest","East North Central","39105","39.089807","-82.028397 ","3977","74","53","0","1/21/2022 12:00:00 AM","2019","22907","NYTIMES-USCENSUS"
"1/22/2022 12:00:00 AM","Columbia County","Georgia","South","South Atlantic","13073","33.552075","-82.249608 ","31625","333","0","0","1/21/2022 12:00:00 AM","2019","156714","NYTIMES-USCENSUS"
"1/22/2022 12:00:00 AM","Pershing County","Nevada","West","Mountain","32027","40.439639","-118.409477 ","1268","29","0","0","1/21/2022 12:00:00 AM","2019","6725","NYTIMES-USCENSUS"
"1/22/2022 12:00:00 AM","Carroll County","Virginia","South","South Atlantic","51035","36.731963","-80.727831 ","5504","114","0","0","1/21/2022 12:00:00 AM","2019","29791","NYTIMES-USCENSUS"
"1/22/2022 12:00:00 AM","Boone County","Indiana","Midwest","East North Central","18011","40.050892","-86.469014 ","13645","146","0","0","1/21/2022 12:00:00 AM","2019","67843","NYTIMES-USCENSUS"
"1/22/2022 12:00:00 AM","Belmont County","Ohio","Midwest","East North Central","39013","40.017682","-80.967727 ","14033","248","97","0","1/21/2022 12:00:00 AM","2019","67006","NYTIMES-USCENSUS"
"1/22/2022 12:00:00 AM","Elliott County","Kentucky","South","East South Central","21063","38.116883","-83.096116 ","1577","14","0","0","1/21/2022 12:00:00 AM","2019","7517","NYTIMES-USCENSUS"
"1/22/2022 12:00:00 AM","Weston County","Wyoming","West","Mountain","56045","43.846213","-104.57002 ","1349","16","0","0","1/21/2022 12:00:00 AM","2019","6927","NYTIMES-USCENSUS"
"1/22/2022 12:00:00 AM","Hancock County","Iowa","Midwest","West North Central","19081","43.075411","-93.743697 ","2573","45","0","0","1/21/2022 12:00:00 AM","2019","10630","NYTIMES-USCENSUS"
"1/22/2022 12:00:00 AM","Whitfield County","Georgia","South","South Atlantic","13313","34.801726","-84.968541 ","30019","368","0","0","1/21/2022 12:00:00 AM","2019","104628","NYTIMES-USCENSUS"
"1/22/2022 12:00:00 AM","Marion County","Ohio","Midwest","East North Central","39101","40.588034","-83.168803 ","18456","235","152","0","1/21/2022 12:00:00 AM","2019","65093","NYTIMES-USCENSUS"
"1/22/2022 12:00:00 AM","Storey County","Nevada","West","Mountain","32029","39.438385","-119.524646 ","321","9","0","0","1/21/2022 12:00:00 AM","2019","4123","NYTIMES-USCENSUS"
"1/22/2022 12:00:00 AM","Sherman County","Oregon","West","Pacific","41055","45.399216","-120.678512 ","233","3","0","0","1/21/2022 12:00:00 AM","2019","1780","NYTIMES-USCENSUS"
"1/22/2022 12:00:00 AM","Brewster County","Texas","South","West South Central","48043","29.808997","-103.252458 ","978","25","3","0","1/21/2022 12:00:00 AM","2019","9203","NYTIMES-USCENSUS"
"1/22/2022 12:00:00 AM","Talbot County","Maryland","South","South Atlantic","24041","38.748349","-76.178476 ","4944","72","57","0","1/21/2022 12:00:00 AM","2019","37181","NYTIMES-USCENSUS"
"1/22/2022 12:00:00 AM","Duchesne County","Utah","West","Mountain","49013","40.289393","-110.429584 ","3764","21","0","0","1/21/2022 12:00:00 AM","2019","19938","NYTIMES-USCENSUS"
"1/22/2022 12:00:00 AM","Coffee County","Alabama","South","East South Central","01031","31.402258","-85.989602 ","11944","201","164","0","1/21/2022 12:00:00 AM","2019","52342","NYTIMES-USCENSUS"
"1/22/2022 12:00:00 AM","Dakota County","Nebraska","Midwest","West North Central","31043","42.391624","-96.561327 ","6114","82","0","0","1/21/2022 12:00:00 AM","2019","20026","NYTIMES-USCENSUS"
"1/22/2022 12:00:00 AM","Huntington County","Indiana","Midwest","East North Central","18069","40.826394","-85.478597 ","10284","144","0","0","1/21/2022 12:00:00 AM","2019","36520","NYTIMES-USCENSUS"
"1/22/2022 12:00:00 AM","Refugio County","Texas","South","West South Central","48391","28.322116","-97.162472 ","1541","31","11","0","1/21/2022 12:00:00 AM","2019","6948","NYTIMES-USCENSUS"
"1/22/2022 12:00:00 AM","Nueces County","Texas","South","West South Central","48355","27.740032","-97.516214 ","81391","1339","0","0","1/21/2022 12:00:00 AM","2019","362294","NYTIMES-USCENSUS"
"1/22/2022 12:00:00 AM","Wadena County","Minnesota","Midwest","West North Central","27159","46.586986","-94.988608 ","3564","47","0","0","1/21/2022 12:00:00 AM","2019","13682","NYTIMES-USCENSUS"
"1/22/2022 12:00:00 AM","Trinity County","Texas","South","West South Central","48455","31.096675","-95.151687 ","2269","65","18","0","1/21/2022 12:00:00 AM","2019","14651","NYTIMES-USCENSUS"
"1/22/2022 12:00:00 AM","Franklin County","Indiana","Midwest","East North Central","18047","39.409762","-85.066964 ","3852","56","0","0","1/21/2022 12:00:00 AM","2019","22758","NYTIMES-USCENSUS"
"1/22/2022 12:00:00 AM","Socorro County","New Mexico","West","Mountain","35053","33.991658","-106.939136 ","3167","74","0","0","1/21/2022 12:00:00 AM","2019","16637","NYTIMES-USCENSUS"
"1/22/2022 12:00:00 AM","Greenville County","South Carolina","South","South Atlantic","45045","34.892645","-82.372077 ","149844","1621","0","0","1/21/2022 12:00:00 AM","2019","523542","NYTIMES-USCENSUS"
"1/22/2022 12:00:00 AM","Burleson County","Texas","South","West South Central","48051","30.493487","-96.622091 ","4530","62","46","0","1/21/2022 12:00:00 AM","2019","18443","NYTIMES-USCENSUS"
"1/22/2022 12:00:00 AM","Warren County","Georgia","South","South Atlantic","13301","33.419169","-82.688012 ","973","26","0","0","1/21/2022 12:00:00 AM","2019","5254","NYTIMES-USCENSUS"
"1/22/2022 12:00:00 AM","Broomfield County","Colorado","West","Mountain","08014","39.953593","-105.050787 ","11612","102","0","0","1/21/2022 12:00:00 AM","2019","70465","NYTIMES-USCENSUS"
"1/22/2022 12:00:00 AM","Jackson County","Florida","South","South Atlantic","12063","30.789249","-85.208814 ","12719","244","0","0","1/21/2022 12:00:00 AM","2019","46414","NYTIMES-USCENSUS"
"1/22/2022 12:00:00 AM","Kiowa County","Kansas","Midwest","West North Central","20097","37.561231","-99.286539 ","587","7","0","0","1/21/2022 12:00:00 AM","2019","2475","NYTIMES-USCENSUS"
"1/22/2022 12:00:00 AM","Carteret County","North Carolina","South","South Atlantic","37031","34.858343","-76.53586 ","11278","83","0","0","1/21/2022 12:00:00 AM","2019","69473","NYTIMES-USCENSUS"
"1/22/2022 12:00:00 AM","Tripp County","South Dakota","Midwest","West North Central","46123","43.349729","-99.876219 ","1229","21","0","0","1/21/2022 12:00:00 AM","2019","5441","NYTIMES-USCENSUS"
"1/22/2022 12:00:00 AM","Tyler County","West Virginia","South","South Atlantic","54095","39.465634","-80.877219 ","1830","27","25","0","1/21/2022 12:00:00 AM","2019","8591","NYTIMES-USCENSUS"
"1/22/2022 12:00:00 AM","Murray County","Georgia","South","South Atlantic","13213","34.797097","-84.73799 ","9973","153","0","0","1/21/2022 12:00:00 AM","2019","40096","NYTIMES-USCENSUS"
"1/22/2022 12:00:00 AM","Greeley County","Nebraska","Midwest","West North Central","31077","41.567571","-98.530565 ","359","2","0","0","1/21/2022 12:00:00 AM","2019","2356","NYTIMES-USCENSUS"
"1/22/2022 12:00:00 AM","Burke County","Georgia","South","South Atlantic","13033","33.060181","-82.000164 ","4798","88","0","0","1/21/2022 12:00:00 AM","2019","22383","NYTIMES-USCENSUS"
"1/22/2022 12:00:00 AM","Woodbury County","Iowa","Midwest","West North Central","19193","42.39322","-96.053296 ","25766","294","0","0","1/21/2022 12:00:00 AM","2019","103107","NYTIMES-USCENSUS"
"1/22/2022 12:00:00 AM","Bingham County","Idaho","West","Mountain","16011","43.216357","-112.399206 ","8672","140","0","0","1/21/2022 12:00:00 AM","2019","46811","NYTIMES-USCENSUS"
"1/22/2022 12:00:00 AM","Montgomery County","New York","Northeast","Middle Atlantic","36057","42.900891","-74.435357 ","10595","183","109","1","1/21/2022 12:00:00 AM","2019","49221","NYTIMES-USCENSUS"
"1/22/2022 12:00:00 AM","Fannin County","Texas","South","West South Central","48147","33.591161","-96.104988 ","6089","159","26","2","1/21/2022 12:00:00 AM","2019","35514","NYTIMES-USCENSUS"
"1/22/2022 12:00:00 AM","Ransom County","North Dakota","Midwest","West North Central","38073","46.449276","-97.647554 ","1281","23","18","0","1/21/2022 12:00:00 AM","2019","5218","NYTIMES-USCENSUS"
"1/22/2022 12:00:00 AM","Montgomery County","Missouri","Midwest","West North Central","29139","38.935184","-91.465427 ","2143","38","19","0","1/21/2022 12:00:00 AM","2019","11551","NYTIMES-USCENSUS"
"1/22/2022 12:00:00 AM","Ripley County","Missouri","Midwest","West North Central","29181","36.65017","-90.874834 ","2414","53","20","0","1/21/2022 12:00:00 AM","2019","13288","NYTIMES-USCENSUS"
"1/22/2022 12:00:00 AM","Crenshaw County","Alabama","South","East South Central","01041","31.730311","-86.320038 ","3350","81","24","0","1/21/2022 12:00:00 AM","2019","13772","NYTIMES-USCENSUS"
"1/22/2022 12:00:00 AM","Catahoula Parish","Louisiana","South","West South Central","22025","31.666517","-91.846703 ","2278","49","0","0","1/21/2022 12:00:00 AM","2019","9494","NYTIMES-USCENSUS"
"1/22/2022 12:00:00 AM","Jackson County","Ohio","Midwest","East North Central","39079","39.013477","-82.614142 ","7763","121","89","0","1/21/2022 12:00:00 AM","2019","32413","NYTIMES-USCENSUS"
"1/22/2022 12:00:00 AM","Stanton County","Kansas","Midwest","West North Central","20187","37.565932","-101.789383 ","411","7","0","0","1/21/2022 12:00:00 AM","2019","2006","NYTIMES-USCENSUS"
"1/22/2022 12:00:00 AM","Dunklin County","Missouri","Midwest","West North Central","29069","36.153025","-90.062254 ","6151","93","69","0","1/21/2022 12:00:00 AM","2019","29131","NYTIMES-USCENSUS"
"1/22/2022 12:00:00 AM","Buena Vista city","Virginia","South","South Atlantic","51530","37.729345","-79.358134 ","1726","34","0","0","1/21/2022 12:00:00 AM","2019","6478","NYTIMES-USCENSUS"
"1/22/2022 12:00:00 AM","Greenbrier County","West Virginia","South","South Atlantic","54025","37.924418","-80.45059 ","7345","124","125","0","1/21/2022 12:00:00 AM","2019","34662","NYTIMES-USCENSUS"
"1/22/2022 12:00:00 AM","Anoka County","Minnesota","Midwest","West North Central","27003","45.27411","-93.242723 ","84799","719","0","0","1/21/2022 12:00:00 AM","2019","356921","NYTIMES-USCENSUS"
"1/22/2022 12:00:00 AM","Coahoma County","Mississippi","South","East South Central","28027","34.230316","-90.60401 ","5648","116","0","0","1/21/2022 12:00:00 AM","2019","22124","NYTIMES-USCENSUS"
"1/22/2022 12:00:00 AM","Bullitt County","Kentucky","South","East South Central","21029","37.969945","-85.702635 ","17769","170","0","0","1/21/2022 12:00:00 AM","2019","81676","NYTIMES-USCENSUS"
"1/22/2022 12:00:00 AM","Petersburg Borough","Alaska","West","Pacific","02195","57.112458","-133.008598 ","587","2","0","0","1/21/2022 12:00:00 AM","2019","3266","NYTIMES-USCENSUS"
"1/22/2022 12:00:00 AM","Trigg County","Kentucky","South","East South Central","21221","36.807681","-87.858652 ","2890","34","0","0","1/21/2022 12:00:00 AM","2019","14651","NYTIMES-USCENSUS"
"1/22/2022 12:00:00 AM","Mohave County","Arizona","West","Mountain","04015","35.717705","-113.749689 ","48948","1258","1072","3","1/21/2022 12:00:00 AM","2019","212181","NYTIMES-USCENSUS"
"1/22/2022 12:00:00 AM","Racine County","Wisconsin","Midwest","East North Central","55101","42.780392","-87.771599 ","52720","586","0","0","1/21/2022 12:00:00 AM","2019","196311","NYTIMES-USCENSUS"
"1/22/2022 12:00:00 AM","Jasper County","Missouri","Midwest","West North Central","29097","37.205197","-94.337259 ","18107","269","228","0","1/21/2022 12:00:00 AM","2019","121328","NYTIMES-USCENSUS"
"1/22/2022 12:00:00 AM","Nelson County","North Dakota","Midwest","West North Central","38063","47.918667","-98.204428 ","685","17","8","0","1/21/2022 12:00:00 AM","2019","2879","NYTIMES-USCENSUS"
"1/22/2022 12:00:00 AM","Asotin County","Washington","West","Pacific","53003","46.181861","-117.227781 ","3571","54","0","0","1/21/2022 12:00:00 AM","2019","22582","NYTIMES-USCENSUS"
"1/22/2022 12:00:00 AM","Jefferson County","Montana","West","Mountain","30043","46.124232","-112.059428 ","2180","22","0","0","1/21/2022 12:00:00 AM","2019","12221","NYTIMES-USCENSUS"
"1/22/2022 12:00:00 AM","West Feliciana Parish","Louisiana","South","West South Central","22125","30.873364","-91.421776 ","2488","41","0","0","1/21/2022 12:00:00 AM","2019","15568","NYTIMES-USCENSUS"
"1/22/2022 12:00:00 AM","Mineral County","Colorado","West","Mountain","08079","37.549067","-107.003236 ","195","1","0","0","1/21/2022 12:00:00 AM","2019","769","NYTIMES-USCENSUS"
"1/22/2022 12:00:00 AM","Riley County","Kansas","Midwest","West North Central","20161","39.291211","-96.727489 ","11511","70","0","0","1/21/2022 12:00:00 AM","2019","74232","NYTIMES-USCENSUS"
"1/22/2022 12:00:00 AM","Wetzel County","West Virginia","South","South Atlantic","54103","39.59818","-80.635399 ","3611","68","37","0","1/21/2022 12:00:00 AM","2019","15065","NYTIMES-USCENSUS"
"1/22/2022 12:00:00 AM","Nye County","Nevada","West","Mountain","32023","37.965864","-116.459011 ","6005","208","0","0","1/21/2022 12:00:00 AM","2019","46523","NYTIMES-USCENSUS"
"1/22/2022 12:00:00 AM","Tuscarawas County","Ohio","Midwest","East North Central","39157","40.44749","-81.471105 ","19512","428","94","0","1/21/2022 12:00:00 AM","2019","91987","NYTIMES-USCENSUS"
"1/22/2022 12:00:00 AM","Cascade County","Montana","West","Mountain","30013","47.316575","-111.350262 ","18626","288","0","0","1/21/2022 12:00:00 AM","2019","81366","NYTIMES-USCENSUS"
"1/22/2022 12:00:00 AM","Waynesboro city","Virginia","South","South Atlantic","51820","38.067157","-78.90142 ","4785","55","0","0","1/21/2022 12:00:00 AM","2019","22630","NYTIMES-USCENSUS"
"1/22/2022 12:00:00 AM","Franklin County","New York","Northeast","Middle Atlantic","36033","44.594376","-74.31067 ","7985","37","69","0","1/21/2022 12:00:00 AM","2019","50022","NYTIMES-USCENSUS"
"1/22/2022 12:00:00 AM","Douglas County","Colorado","West","Mountain","08035","39.325414","-104.925987 ","68572","385","0","0","1/21/2022 12:00:00 AM","2019","351154","NYTIMES-USCENSUS"
"1/22/2022 12:00:00 AM","Greene County","New York","Northeast","Middle Atlantic","36039","42.279821","-74.142025 ","7849","107","56","0","1/21/2022 12:00:00 AM","2019","47188","NYTIMES-USCENSUS"
"1/22/2022 12:00:00 AM","Emanuel County","Georgia","South","South Atlantic","13107","32.5911","-82.299763 ","5349","144","0","0","1/21/2022 12:00:00 AM","2019","22646","NYTIMES-USCENSUS"
"1/22/2022 12:00:00 AM","Anne Arundel County","Maryland","South","South Atlantic","24003","38.991617","-76.560894 ","82293","928","383","5","1/21/2022 12:00:00 AM","2019","579234","NYTIMES-USCENSUS"
"1/22/2022 12:00:00 AM","Hockley County","Texas","South","West South Central","48219","33.605932","-102.343398 ","7035","146","51","1","1/21/2022 12:00:00 AM","2019","23021","NYTIMES-USCENSUS"
"1/22/2022 12:00:00 AM","McHenry County","Illinois","Midwest","East North Central","17111","42.324298","-88.452245 ","62874","420","0","0","1/21/2022 12:00:00 AM","2019","307774","NYTIMES-USCENSUS"
"1/22/2022 12:00:00 AM","Vernon County","Wisconsin","Midwest","East North Central","55123","43.599366","-90.821983 ","5103","78","0","0","1/21/2022 12:00:00 AM","2019","30822","NYTIMES-USCENSUS"
"1/22/2022 12:00:00 AM","Butler County","Pennsylvania","Northeast","Middle Atlantic","42019","40.913847","-79.918978 ","40712","655","350","2","1/21/2022 12:00:00 AM","2019","187853","NYTIMES-USCENSUS"
"1/22/2022 12:00:00 AM","Juneau County","Wisconsin","Midwest","East North Central","55057","43.932836","-90.113984 ","7004","57","0","0","1/21/2022 12:00:00 AM","2019","26687","NYTIMES-USCENSUS"
"1/22/2022 12:00:00 AM","St. Martin Parish","Louisiana","South","West South Central","22099","30.121433","-91.611481 ","11005","166","0","0","1/21/2022 12:00:00 AM","2019","53431","NYTIMES-USCENSUS"
"1/22/2022 12:00:00 AM","Metcalfe County","Kentucky","South","East South Central","21169","36.99243","-85.633456 ","2427","54","0","0","1/21/2022 12:00:00 AM","2019","10071","NYTIMES-USCENSUS"
"1/22/2022 12:00:00 AM","Knox County","Tennessee","South","East South Central","47093","35.992726","-83.937721 ","100632","1103","0","0","1/21/2022 12:00:00 AM","2019","470313","NYTIMES-USCENSUS"
"1/22/2022 12:00:00 AM","Turner County","South Dakota","Midwest","West North Central","46125","43.30867","-97.150185 ","1849","62","0","0","1/21/2022 12:00:00 AM","2019","8384","NYTIMES-USCENSUS"
"1/22/2022 12:00:00 AM","McLean County","North Dakota","Midwest","West North Central","38055","47.653206","-101.421914 ","2468","48","19","0","1/21/2022 12:00:00 AM","2019","9450","NYTIMES-USCENSUS"
"1/22/2022 12:00:00 AM","Sumter County","Alabama","South","East South Central","01119","32.597481","-88.200057 ","2060","42","78","0","1/21/2022 12:00:00 AM","2019","12427","NYTIMES-USCENSUS"
