"monitor_date","county","state_name","region","subregion","fips","latitude","longitude","case_count_to_date","death_count_to_date","case_count","death_count","previous_monitor_date","population_year","population","source"
"6/6/2022 12:00:00 AM","Van Buren County","Tennessee","South","East South Central","47175","35.699234","-85.458409 ","1862","48","0","0","6/5/2022 12:00:00 AM","2019","5872","NYTIMES-USCENSUS"
"6/6/2022 12:00:00 AM","Lyman County","South Dakota","Midwest","West North Central","46085","43.894812","-99.841925 ","1218","12","0","0","6/5/2022 12:00:00 AM","2019","3781","NYTIMES-USCENSUS"
"6/6/2022 12:00:00 AM","Pickett County","Tennessee","South","East South Central","47137","36.559364","-85.075741 ","1785","36","0","0","6/5/2022 12:00:00 AM","2019","5048","NYTIMES-USCENSUS"
"6/6/2022 12:00:00 AM","Clay County","Minnesota","Midwest","West North Central","27027","46.898377","-96.494901 ","20476","125","11","0","6/5/2022 12:00:00 AM","2019","64222","NYTIMES-USCENSUS"
"6/6/2022 12:00:00 AM","Craig County","Virginia","South","South Atlantic","51045","37.473603","-80.231051 ","1146","19","1","0","6/5/2022 12:00:00 AM","2019","5131","NYTIMES-USCENSUS"
"6/6/2022 12:00:00 AM","Houston County","Georgia","South","South Atlantic","13153","32.458287","-83.662522 ","40449","501","0","0","6/5/2022 12:00:00 AM","2019","157863","NYTIMES-USCENSUS"
"6/6/2022 12:00:00 AM","Union County","Indiana","Midwest","East North Central","18161","39.623111","-84.925152 ","2048","21","3","0","6/5/2022 12:00:00 AM","2019","7054","NYTIMES-USCENSUS"
"6/6/2022 12:00:00 AM","Seneca County","Ohio","Midwest","East North Central","39147","41.119992","-83.127547 ","12993","231","0","0","6/5/2022 12:00:00 AM","2019","55178","NYTIMES-USCENSUS"
"6/6/2022 12:00:00 AM","Clinton County","Ohio","Midwest","East North Central","39027","39.416681","-83.804583 ","10570","168","0","0","6/5/2022 12:00:00 AM","2019","41968","NYTIMES-USCENSUS"
"6/6/2022 12:00:00 AM","Kinney County","Texas","South","West South Central","48271","29.347086","-100.4177 ","743","11","0","0","6/5/2022 12:00:00 AM","2019","3667","NYTIMES-USCENSUS"
"6/6/2022 12:00:00 AM","Screven County","Georgia","South","South Atlantic","13251","32.744751","-81.617585 ","2678","70","0","0","6/5/2022 12:00:00 AM","2019","13966","NYTIMES-USCENSUS"
"6/6/2022 12:00:00 AM","Clatsop County","Oregon","West","Pacific","41007","46.024509","-123.705037 ","5024","50","37","0","6/5/2022 12:00:00 AM","2019","40224","NYTIMES-USCENSUS"
"6/6/2022 12:00:00 AM","Jefferson County","Tennessee","South","East South Central","47089","36.048338","-83.441143 ","15925","273","0","0","6/5/2022 12:00:00 AM","2019","54495","NYTIMES-USCENSUS"
"6/6/2022 12:00:00 AM","Polk County","Tennessee","South","East South Central","47139","35.109437","-84.541112 ","4762","76","0","0","6/5/2022 12:00:00 AM","2019","16832","NYTIMES-USCENSUS"
"6/6/2022 12:00:00 AM","Fillmore County","Minnesota","Midwest","West North Central","27045","43.679187","-92.093937 ","5021","24","3","0","6/5/2022 12:00:00 AM","2019","21067","NYTIMES-USCENSUS"
"6/6/2022 12:00:00 AM","Hale County","Texas","South","West South Central","48189","34.068436","-101.822888 ","6608","245","2","0","6/5/2022 12:00:00 AM","2019","33406","NYTIMES-USCENSUS"
"6/6/2022 12:00:00 AM","Glasscock County","Texas","South","West South Central","48173","31.868006","-101.521494 ","199","3","0","0","6/5/2022 12:00:00 AM","2019","1409","NYTIMES-USCENSUS"
"6/6/2022 12:00:00 AM","Switzerland County","Indiana","Midwest","East North Central","18155","38.825854","-85.029681 ","2326","20","2","0","6/5/2022 12:00:00 AM","2019","10751","NYTIMES-USCENSUS"
"6/6/2022 12:00:00 AM","Charlotte County","Virginia","South","South Atlantic","51037","37.009042","-78.658568 ","2623","45","4","0","6/5/2022 12:00:00 AM","2019","11880","NYTIMES-USCENSUS"
"6/6/2022 12:00:00 AM","Harrison County","Indiana","Midwest","East North Central","18061","38.186454","-86.103766 ","11068","140","21","0","6/5/2022 12:00:00 AM","2019","40515","NYTIMES-USCENSUS"
"6/6/2022 12:00:00 AM","Walker County","Georgia","South","South Atlantic","13295","34.735802","-85.305456 ","17468","250","0","0","6/5/2022 12:00:00 AM","2019","69761","NYTIMES-USCENSUS"
"6/6/2022 12:00:00 AM","Walsh County","North Dakota","Midwest","West North Central","38099","48.376979","-97.72223 ","3398","34","0","0","6/5/2022 12:00:00 AM","2019","10641","NYTIMES-USCENSUS"
"6/6/2022 12:00:00 AM","Buena Vista County","Iowa","Midwest","West North Central","19021","42.741522","-95.141432 ","6404","58","0","0","6/5/2022 12:00:00 AM","2019","19620","NYTIMES-USCENSUS"
"6/6/2022 12:00:00 AM","Gallatin County","Montana","West","Mountain","30031","45.518054","-111.163921 ","36106","123","80","0","6/5/2022 12:00:00 AM","2019","114434","NYTIMES-USCENSUS"
"6/6/2022 12:00:00 AM","Cuming County","Nebraska","Midwest","West North Central","31039","41.915865","-96.788517 ","1834","15","1","0","6/5/2022 12:00:00 AM","2019","8846","NYTIMES-USCENSUS"
"6/6/2022 12:00:00 AM","Rock Island County","Illinois","Midwest","East North Central","17161","41.468421","-90.572125 ","34668","527","83","0","6/5/2022 12:00:00 AM","2019","141879","NYTIMES-USCENSUS"
"6/6/2022 12:00:00 AM","Dodge County","Nebraska","Midwest","West North Central","31053","41.577008","-96.645852 ","10231","109","15","0","6/5/2022 12:00:00 AM","2019","36565","NYTIMES-USCENSUS"
"6/6/2022 12:00:00 AM","Clermont County","Ohio","Midwest","East North Central","39025","39.052054","-84.149485 ","53045","562","0","0","6/5/2022 12:00:00 AM","2019","206428","NYTIMES-USCENSUS"
"6/6/2022 12:00:00 AM","Copiah County","Mississippi","South","East South Central","28029","31.866915","-90.448758 ","7438","121","60","0","6/5/2022 12:00:00 AM","2019","28065","NYTIMES-USCENSUS"
"6/6/2022 12:00:00 AM","Twin Falls County","Idaho","West","Mountain","16083","42.352309","-114.665639 ","24391","296","28","0","6/5/2022 12:00:00 AM","2019","86878","NYTIMES-USCENSUS"
"6/6/2022 12:00:00 AM","Norton city","Virginia","South","South Atlantic","51720","36.931549","-82.625996 ","1349","22","4","0","6/5/2022 12:00:00 AM","2019","3981","NYTIMES-USCENSUS"
"6/6/2022 12:00:00 AM","Tuolumne County","California","West","Pacific","06109","38.021434","-119.964733 ","14170","189","0","0","6/5/2022 12:00:00 AM","2019","54478","NYTIMES-USCENSUS"
"6/6/2022 12:00:00 AM","Chilton County","Alabama","South","East South Central","01021","32.854051","-86.726607 ","11184","208","12","1","6/5/2022 12:00:00 AM","2019","44428","NYTIMES-USCENSUS"
"6/6/2022 12:00:00 AM","Lincoln County","Mississippi","South","East South Central","28085","31.535216","-90.453566 ","8480","158","94","0","6/5/2022 12:00:00 AM","2019","34153","NYTIMES-USCENSUS"
"6/6/2022 12:00:00 AM","Lincoln County","New Mexico","West","Mountain","35027","33.740841","-105.449805 ","5373","68","18","0","6/5/2022 12:00:00 AM","2019","19572","NYTIMES-USCENSUS"
"6/6/2022 12:00:00 AM","Dade County","Georgia","South","South Atlantic","13083","34.852424","-85.506201 ","3477","32","-1","0","6/5/2022 12:00:00 AM","2019","16116","NYTIMES-USCENSUS"
"6/6/2022 12:00:00 AM","Hancock County","Tennessee","South","East South Central","47067","36.521353","-83.227493 ","2053","37","0","0","6/5/2022 12:00:00 AM","2019","6620","NYTIMES-USCENSUS"
"6/6/2022 12:00:00 AM","Knox County","Nebraska","Midwest","West North Central","31107","42.634404","-97.891349 ","1675","13","0","0","6/5/2022 12:00:00 AM","2019","8332","NYTIMES-USCENSUS"
"6/6/2022 12:00:00 AM","Guernsey County","Ohio","Midwest","East North Central","39059","40.056665","-81.497875 ","10729","153","0","0","6/5/2022 12:00:00 AM","2019","38875","NYTIMES-USCENSUS"
"6/6/2022 12:00:00 AM","Okmulgee County","Oklahoma","South","West South Central","40111","35.6435","-95.965947 ","9719","190","0","0","6/5/2022 12:00:00 AM","2019","38465","NYTIMES-USCENSUS"
"6/6/2022 12:00:00 AM","Craig County","Oklahoma","South","West South Central","40035","36.76389","-95.201553 ","4814","55","0","0","6/5/2022 12:00:00 AM","2019","14142","NYTIMES-USCENSUS"
"6/6/2022 12:00:00 AM","McDowell County","West Virginia","South","South Atlantic","54047","37.38276","-81.658204 ","5769","75","13","0","6/5/2022 12:00:00 AM","2019","17624","NYTIMES-USCENSUS"
"6/6/2022 12:00:00 AM","Alamance County","North Carolina","South","South Atlantic","37001","36.043954","-79.400573 ","49188","488","0","0","6/5/2022 12:00:00 AM","2019","169509","NYTIMES-USCENSUS"
"6/6/2022 12:00:00 AM","Bingham County","Idaho","West","Mountain","16011","43.216357","-112.399206 ","9939","155","17","0","6/5/2022 12:00:00 AM","2019","46811","NYTIMES-USCENSUS"
"6/6/2022 12:00:00 AM","Washburn County","Wisconsin","Midwest","East North Central","55129","45.892489","-91.796422 ","4183","46","9","0","6/5/2022 12:00:00 AM","2019","15720","NYTIMES-USCENSUS"
"6/6/2022 12:00:00 AM","Platte County","Nebraska","Midwest","West North Central","31141","41.576866","-97.513467 ","8660","75","29","0","6/5/2022 12:00:00 AM","2019","33470","NYTIMES-USCENSUS"
"6/6/2022 12:00:00 AM","Swain County","North Carolina","South","South Atlantic","37173","35.568849","-83.465614 ","3861","43","0","0","6/5/2022 12:00:00 AM","2019","14271","NYTIMES-USCENSUS"
"6/6/2022 12:00:00 AM","Adams County","Colorado","West","Mountain","08001","39.874325","-104.331872 ","142720","1390","223","0","6/5/2022 12:00:00 AM","2019","517421","NYTIMES-USCENSUS"
"6/6/2022 12:00:00 AM","Kaufman County","Texas","South","West South Central","48257","32.598944","-96.288377 ","36075","536","20","0","6/5/2022 12:00:00 AM","2019","136154","NYTIMES-USCENSUS"
"6/6/2022 12:00:00 AM","Essex County","Virginia","South","South Atlantic","51057","37.936389","-76.933747 ","2340","35","5","0","6/5/2022 12:00:00 AM","2019","10953","NYTIMES-USCENSUS"
"6/6/2022 12:00:00 AM","Pershing County","Nevada","West","Mountain","32027","40.439639","-118.409477 ","2144","29","0","0","6/5/2022 12:00:00 AM","2019","6725","NYTIMES-USCENSUS"
"6/6/2022 12:00:00 AM","Beauregard Parish","Louisiana","South","West South Central","22011","30.645018","-93.340253 ","9380","143","18","0","6/5/2022 12:00:00 AM","2019","37497","NYTIMES-USCENSUS"
"6/6/2022 12:00:00 AM","Lincoln County","Montana","West","Mountain","30053","48.552385","-115.463185 ","4840","90","0","0","6/5/2022 12:00:00 AM","2019","19980","NYTIMES-USCENSUS"
"6/6/2022 12:00:00 AM","Waukesha County","Wisconsin","Midwest","East North Central","55133","43.018368","-88.30424 ","119749","1110","312","0","6/5/2022 12:00:00 AM","2019","404198","NYTIMES-USCENSUS"
"6/6/2022 12:00:00 AM","Todd County","South Dakota","Midwest","West North Central","46121","43.208794","-100.707664 ","2993","52","0","0","6/5/2022 12:00:00 AM","2019","10177","NYTIMES-USCENSUS"
"6/6/2022 12:00:00 AM","Mifflin County","Pennsylvania","Northeast","Middle Atlantic","42087","40.601615","-77.651832 ","12489","279","0","0","6/5/2022 12:00:00 AM","2019","46138","NYTIMES-USCENSUS"
"6/6/2022 12:00:00 AM","Knox County","Maine","Northeast","New England","23013","44.042045","-69.038514 ","6652","40","0","0","6/5/2022 12:00:00 AM","2019","39772","NYTIMES-USCENSUS"
"6/6/2022 12:00:00 AM","Cleburne County","Arkansas","South","West South Central","05023","35.566315","-92.05995 ","6511","129","2","0","6/5/2022 12:00:00 AM","2019","24919","NYTIMES-USCENSUS"
"6/6/2022 12:00:00 AM","Tangipahoa Parish","Louisiana","South","West South Central","22105","30.621348","-90.40649 ","35514","601","55","0","6/5/2022 12:00:00 AM","2019","134758","NYTIMES-USCENSUS"
"6/6/2022 12:00:00 AM","Lincoln County","South Dakota","Midwest","West North Central","46083","43.27942","-96.722286 ","15701","102","0","0","6/5/2022 12:00:00 AM","2019","61128","NYTIMES-USCENSUS"
"6/6/2022 12:00:00 AM","Nemaha County","Kansas","Midwest","West North Central","20131","39.791043","-96.005381 ","3260","60","0","0","6/5/2022 12:00:00 AM","2019","10231","NYTIMES-USCENSUS"
"6/6/2022 12:00:00 AM","Perry County","Arkansas","South","West South Central","05105","34.946363","-92.926877 ","2543","38","0","0","6/5/2022 12:00:00 AM","2019","10455","NYTIMES-USCENSUS"
"6/6/2022 12:00:00 AM","Yamhill County","Oregon","West","Pacific","41071","45.247827","-123.316399 ","18951","223","70","0","6/5/2022 12:00:00 AM","2019","107100","NYTIMES-USCENSUS"
"6/6/2022 12:00:00 AM","Arapahoe County","Colorado","West","Mountain","08005","39.644554","-104.331706 ","165993","1299","343","0","6/5/2022 12:00:00 AM","2019","656590","NYTIMES-USCENSUS"
"6/6/2022 12:00:00 AM","Pottawattamie County","Iowa","Midwest","West North Central","19155","41.340184","-95.544905 ","24520","320","0","0","6/5/2022 12:00:00 AM","2019","93206","NYTIMES-USCENSUS"
"6/6/2022 12:00:00 AM","Treutlen County","Georgia","South","South Atlantic","13283","32.409586","-82.570882 ","1647","61","-1","0","6/5/2022 12:00:00 AM","2019","6901","NYTIMES-USCENSUS"
"6/6/2022 12:00:00 AM","Montour County","Pennsylvania","Northeast","Middle Atlantic","42093","41.029284","-76.665225 ","4774","93","0","0","6/5/2022 12:00:00 AM","2019","18230","NYTIMES-USCENSUS"
"6/6/2022 12:00:00 AM","Sharp County","Arkansas","South","West South Central","05135","36.173399","-91.471069 ","4702","108","1","0","6/5/2022 12:00:00 AM","2019","17442","NYTIMES-USCENSUS"
"6/6/2022 12:00:00 AM","Shannon County","Missouri","Midwest","West North Central","29203","37.152498","-91.391328 ","1616","40","0","0","6/5/2022 12:00:00 AM","2019","8166","NYTIMES-USCENSUS"
"6/6/2022 12:00:00 AM","Monroe County","Pennsylvania","Northeast","Middle Atlantic","42089","41.05624","-75.329065 ","39160","534","0","0","6/5/2022 12:00:00 AM","2019","170271","NYTIMES-USCENSUS"
"6/6/2022 12:00:00 AM","Isabella County","Michigan","Midwest","East North Central","26073","43.645233","-84.839424 ","16182","214","0","0","6/5/2022 12:00:00 AM","2019","69872","NYTIMES-USCENSUS"
"6/6/2022 12:00:00 AM","Fayette County","Kentucky","South","East South Central","21067","38.040678","-84.458272 ","99169","617","1032","1","6/5/2022 12:00:00 AM","2019","323152","NYTIMES-USCENSUS"
"6/6/2022 12:00:00 AM","Norfolk city","Virginia","South","South Atlantic","51710","36.923015","-76.244641 ","44460","476","206","0","6/5/2022 12:00:00 AM","2019","242742","NYTIMES-USCENSUS"
"6/6/2022 12:00:00 AM","Parker County","Texas","South","West South Central","48367","32.777096","-97.805905 ","35156","450","17","0","6/5/2022 12:00:00 AM","2019","142878","NYTIMES-USCENSUS"
"6/6/2022 12:00:00 AM","Crenshaw County","Alabama","South","East South Central","01041","31.730311","-86.320038 ","3866","100","6","0","6/5/2022 12:00:00 AM","2019","13772","NYTIMES-USCENSUS"
"6/6/2022 12:00:00 AM","Carlisle County","Kentucky","South","East South Central","21039","36.85718","-88.976614 ","1099","20","8","0","6/5/2022 12:00:00 AM","2019","4760","NYTIMES-USCENSUS"
"6/6/2022 12:00:00 AM","Daviess County","Indiana","Midwest","East North Central","18027","38.69609","-87.076943 ","7554","155","9","0","6/5/2022 12:00:00 AM","2019","33351","NYTIMES-USCENSUS"
"6/6/2022 12:00:00 AM","Hamilton County","Florida","South","South Atlantic","12047","30.491187","-82.951071 ","3889","56","0","0","6/5/2022 12:00:00 AM","2019","14428","NYTIMES-USCENSUS"
"6/6/2022 12:00:00 AM","Bristol County","Rhode Island","Northeast","New England","44001","41.70684","-71.286687 ","15116","172","0","0","6/5/2022 12:00:00 AM","2019","48479","NYTIMES-USCENSUS"
"6/6/2022 12:00:00 AM","Nassau County","Florida","South","South Atlantic","12089","30.605963","-81.765087 ","22572","296","0","0","6/5/2022 12:00:00 AM","2019","88625","NYTIMES-USCENSUS"
"6/6/2022 12:00:00 AM","Schuylkill County","Pennsylvania","Northeast","Middle Atlantic","42107","40.703682","-76.217788 ","35618","682","0","0","6/5/2022 12:00:00 AM","2019","141359","NYTIMES-USCENSUS"
"6/6/2022 12:00:00 AM","Schuyler County","Missouri","Midwest","West North Central","29197","40.469361","-92.519016 ","746","26","0","0","6/5/2022 12:00:00 AM","2019","4660","NYTIMES-USCENSUS"
"6/6/2022 12:00:00 AM","Manitowoc County","Wisconsin","Midwest","East North Central","55071","44.156137","-87.577352 ","21260","190","49","0","6/5/2022 12:00:00 AM","2019","78981","NYTIMES-USCENSUS"
"6/6/2022 12:00:00 AM","Sarasota County","Florida","South","South Atlantic","12115","27.225327","-82.423714 ","96074","1632","0","0","6/5/2022 12:00:00 AM","2019","433742","NYTIMES-USCENSUS"
"6/6/2022 12:00:00 AM","Potter County","Texas","South","West South Central","48375","35.398675","-101.893804 ","35955","740","0","0","6/5/2022 12:00:00 AM","2019","117415","NYTIMES-USCENSUS"
"6/6/2022 12:00:00 AM","Sonoma County","California","West","Pacific","06097","38.525182","-122.92611 ","95157","493","0","0","6/5/2022 12:00:00 AM","2019","494336","NYTIMES-USCENSUS"
"6/6/2022 12:00:00 AM","Las Animas County","Colorado","West","Mountain","08071","37.318831","-104.04411 ","3690","43","7","0","6/5/2022 12:00:00 AM","2019","14506","NYTIMES-USCENSUS"
"6/6/2022 12:00:00 AM","Keokuk County","Iowa","Midwest","West North Central","19107","41.331182","-92.167721 ","2101","48","0","0","6/5/2022 12:00:00 AM","2019","10246","NYTIMES-USCENSUS"
"6/6/2022 12:00:00 AM","Atascosa County","Texas","South","West South Central","48013","28.891478","-98.535381 ","13736","231","8","0","6/5/2022 12:00:00 AM","2019","51153","NYTIMES-USCENSUS"
"6/6/2022 12:00:00 AM","Warren County","Indiana","Midwest","East North Central","18171","40.352498","-87.375163 ","2131","30","1","0","6/5/2022 12:00:00 AM","2019","8265","NYTIMES-USCENSUS"
"6/6/2022 12:00:00 AM","Liberty County","Montana","West","Mountain","30051","48.559654","-111.036924 ","403","4","0","0","6/5/2022 12:00:00 AM","2019","2337","NYTIMES-USCENSUS"
"6/6/2022 12:00:00 AM","Morgan County","Illinois","Midwest","East North Central","17137","39.717668","-90.205005 ","9960","144","68","0","6/5/2022 12:00:00 AM","2019","33658","NYTIMES-USCENSUS"
"6/6/2022 12:00:00 AM","Choctaw County","Oklahoma","South","West South Central","40023","34.027699","-95.554079 ","4059","64","0","0","6/5/2022 12:00:00 AM","2019","14672","NYTIMES-USCENSUS"
"6/6/2022 12:00:00 AM","Manistee County","Michigan","Midwest","East North Central","26101","44.245268","-86.327537 ","4690","94","0","0","6/5/2022 12:00:00 AM","2019","24558","NYTIMES-USCENSUS"
"6/6/2022 12:00:00 AM","Tolland County","Connecticut","Northeast","New England","09013","41.858081","-72.340978 ","23123","278","60","0","6/5/2022 12:00:00 AM","2019","150721","NYTIMES-USCENSUS"
"6/6/2022 12:00:00 AM","Orleans Parish","Louisiana","South","West South Central","22071","30.05342","-89.934502 ","93993","1120","284","2","6/5/2022 12:00:00 AM","2019","390144","NYTIMES-USCENSUS"
"6/6/2022 12:00:00 AM","Taliaferro County","Georgia","South","South Atlantic","13265","33.559319","-82.875272 ","270","3","0","0","6/5/2022 12:00:00 AM","2019","1537","NYTIMES-USCENSUS"
"6/6/2022 12:00:00 AM","Stephens County","Oklahoma","South","West South Central","40137","34.481361","-97.855607 ","11403","205","0","0","6/5/2022 12:00:00 AM","2019","43143","NYTIMES-USCENSUS"
"6/6/2022 12:00:00 AM","Alleghany County","North Carolina","South","South Atlantic","37005","36.489356","-81.132299 ","3041","16","0","0","6/5/2022 12:00:00 AM","2019","11137","NYTIMES-USCENSUS"
"6/6/2022 12:00:00 AM","Granville County","North Carolina","South","South Atlantic","37077","36.299884","-78.657634 ","15033","115","0","0","6/5/2022 12:00:00 AM","2019","60443","NYTIMES-USCENSUS"
"6/6/2022 12:00:00 AM","Ashland County","Ohio","Midwest","East North Central","39005","40.843273","-82.270127 ","12291","218","0","0","6/5/2022 12:00:00 AM","2019","53484","NYTIMES-USCENSUS"
"6/6/2022 12:00:00 AM","Emmet County","Michigan","Midwest","East North Central","26047","45.590094","-84.986822 ","6766","92","0","0","6/5/2022 12:00:00 AM","2019","33415","NYTIMES-USCENSUS"
"6/6/2022 12:00:00 AM","Storey County","Nevada","West","Mountain","32029","39.438385","-119.524646 ","142","11","0","0","6/5/2022 12:00:00 AM","2019","4123","NYTIMES-USCENSUS"
"6/6/2022 12:00:00 AM","Island County","Washington","West","Pacific","53029","48.158554","-122.670649 ","11205","78","54","0","6/5/2022 12:00:00 AM","2019","85141","NYTIMES-USCENSUS"
"6/6/2022 12:00:00 AM","Washington County","Minnesota","Midwest","West North Central","27163","45.037929","-92.890117 ","71072","486","132","1","6/5/2022 12:00:00 AM","2019","262440","NYTIMES-USCENSUS"
"6/6/2022 12:00:00 AM","Cleburne County","Alabama","South","East South Central","01029","33.671964","-85.516126 ","3576","69","3","0","6/5/2022 12:00:00 AM","2019","14910","NYTIMES-USCENSUS"
"6/6/2022 12:00:00 AM","Sagadahoc County","Maine","Northeast","New England","23023","43.916845","-69.844227 ","5698","34","0","0","6/5/2022 12:00:00 AM","2019","35856","NYTIMES-USCENSUS"
"6/6/2022 12:00:00 AM","Santa Cruz County","California","West","Pacific","06087","37.012347","-122.007789 ","54774","263","0","0","6/5/2022 12:00:00 AM","2019","273213","NYTIMES-USCENSUS"
"6/6/2022 12:00:00 AM","Alfalfa County","Oklahoma","South","West South Central","40003","36.729703","-98.323445 ","1717","16","0","0","6/5/2022 12:00:00 AM","2019","5702","NYTIMES-USCENSUS"
"6/6/2022 12:00:00 AM","Brookings County","South Dakota","Midwest","West North Central","46011","44.376675","-96.797797 ","8213","52","0","0","6/5/2022 12:00:00 AM","2019","35077","NYTIMES-USCENSUS"
"6/6/2022 12:00:00 AM","Marion County","Kansas","Midwest","West North Central","20115","38.359647","-97.102771 ","3367","46","0","0","6/5/2022 12:00:00 AM","2019","11884","NYTIMES-USCENSUS"
"6/6/2022 12:00:00 AM","Wayne County","Michigan","Midwest","East North Central","26163","42.284664","-83.261953 ","432206","8021","0","0","6/5/2022 12:00:00 AM","2019","1749343","NYTIMES-USCENSUS"
"6/6/2022 12:00:00 AM","Effingham County","Georgia","South","South Atlantic","13103","32.361688","-81.343355 ","13422","196","0","0","6/5/2022 12:00:00 AM","2019","64296","NYTIMES-USCENSUS"
"6/6/2022 12:00:00 AM","Cecil County","Maryland","South","South Atlantic","24015","39.562354","-75.941585 ","16471","259","16","0","6/5/2022 12:00:00 AM","2019","102855","NYTIMES-USCENSUS"
"6/6/2022 12:00:00 AM","Russell County","Alabama","South","East South Central","01113","32.289811","-85.18698 ","10236","95","32","0","6/5/2022 12:00:00 AM","2019","57961","NYTIMES-USCENSUS"
"6/6/2022 12:00:00 AM","Pitt County","North Carolina","South","South Atlantic","37147","35.59249","-77.372739 ","53986","223","0","0","6/5/2022 12:00:00 AM","2019","180742","NYTIMES-USCENSUS"
"6/6/2022 12:00:00 AM","Caldwell County","Missouri","Midwest","West North Central","29025","39.658998","-93.979179 ","1715","39","0","0","6/5/2022 12:00:00 AM","2019","9020","NYTIMES-USCENSUS"
"6/6/2022 12:00:00 AM","Vermilion County","Illinois","Midwest","East North Central","17183","40.186754","-87.726778 ","28808","314","85","0","6/5/2022 12:00:00 AM","2019","75758","NYTIMES-USCENSUS"
"6/6/2022 12:00:00 AM","Monterey County","California","West","Pacific","06053","36.240104","-121.315578 ","98041","749","0","1","6/5/2022 12:00:00 AM","2019","434061","NYTIMES-USCENSUS"
"6/6/2022 12:00:00 AM","Clinton County","Illinois","Midwest","East North Central","17027","38.606295","-89.426228 ","12273","122","32","0","6/5/2022 12:00:00 AM","2019","37562","NYTIMES-USCENSUS"
"6/6/2022 12:00:00 AM","Lonoke County","Arkansas","South","West South Central","05085","34.755114","-91.894132 ","20135","246","1","0","6/5/2022 12:00:00 AM","2019","73309","NYTIMES-USCENSUS"
"6/6/2022 12:00:00 AM","Dillon County","South Carolina","South","South Atlantic","45033","34.390172","-79.374964 ","9845","144","0","0","6/5/2022 12:00:00 AM","2019","30479","NYTIMES-USCENSUS"
"6/6/2022 12:00:00 AM","Ouachita County","Arkansas","South","West South Central","05103","33.591168","-92.878413 ","5531","109","1","2","6/5/2022 12:00:00 AM","2019","23382","NYTIMES-USCENSUS"
"6/6/2022 12:00:00 AM","Eastland County","Texas","South","West South Central","48133","32.324645","-98.83656 ","2836","113","0","0","6/5/2022 12:00:00 AM","2019","18360","NYTIMES-USCENSUS"
"6/6/2022 12:00:00 AM","Harrison County","Missouri","Midwest","West North Central","29081","40.34562","-93.992582 ","1890","33","0","0","6/5/2022 12:00:00 AM","2019","8352","NYTIMES-USCENSUS"
"6/6/2022 12:00:00 AM","Geauga County","Ohio","Midwest","East North Central","39055","41.499322","-81.173505 ","16802","265","0","0","6/5/2022 12:00:00 AM","2019","93649","NYTIMES-USCENSUS"
"6/6/2022 12:00:00 AM","Warren County","Mississippi","South","East South Central","28149","32.356095","-90.852384 ","10452","202","99","0","6/5/2022 12:00:00 AM","2019","45381","NYTIMES-USCENSUS"
"6/6/2022 12:00:00 AM","Winkler County","Texas","South","West South Central","48495","31.832862","-103.054925 ","1857","34","0","0","6/5/2022 12:00:00 AM","2019","8010","NYTIMES-USCENSUS"
"6/6/2022 12:00:00 AM","Stark County","Illinois","Midwest","East North Central","17175","41.096908","-89.797411 ","1584","33","18","0","6/5/2022 12:00:00 AM","2019","5342","NYTIMES-USCENSUS"
"6/6/2022 12:00:00 AM","Scott County","Minnesota","Midwest","West North Central","27139","44.651805","-93.533731 ","42171","262","49","0","6/5/2022 12:00:00 AM","2019","149013","NYTIMES-USCENSUS"
"6/6/2022 12:00:00 AM","Loudoun County","Virginia","South","South Atlantic","51107","39.0812","-77.638898 ","76614","386","533","0","6/5/2022 12:00:00 AM","2019","413538","NYTIMES-USCENSUS"
"6/6/2022 12:00:00 AM","Eddy County","North Dakota","Midwest","West North Central","38027","47.723436","-98.900474 ","767","6","0","0","6/5/2022 12:00:00 AM","2019","2287","NYTIMES-USCENSUS"
"6/6/2022 12:00:00 AM","Hart County","Georgia","South","South Atlantic","13147","34.348733","-82.96329 ","4923","100","-2","0","6/5/2022 12:00:00 AM","2019","26205","NYTIMES-USCENSUS"
"6/6/2022 12:00:00 AM","Butler County","Iowa","Midwest","West North Central","19023","42.734757","-92.780153 ","3296","53","0","0","6/5/2022 12:00:00 AM","2019","14439","NYTIMES-USCENSUS"
"6/6/2022 12:00:00 AM","Sequatchie County","Tennessee","South","East South Central","47153","35.372336","-85.410082 ","4251","69","0","0","6/5/2022 12:00:00 AM","2019","15026","NYTIMES-USCENSUS"
"6/6/2022 12:00:00 AM","Valencia County","New Mexico","West","Mountain","35061","34.71684","-106.806582 ","19722","282","133","2","6/5/2022 12:00:00 AM","2019","76688","NYTIMES-USCENSUS"
"6/6/2022 12:00:00 AM","Ohio County","Indiana","Midwest","East North Central","18115","38.940527","-84.964299 ","1471","19","2","0","6/5/2022 12:00:00 AM","2019","5875","NYTIMES-USCENSUS"
"6/6/2022 12:00:00 AM","Shawnee County","Kansas","Midwest","West North Central","20177","39.041805","-95.755664 ","49487","650","0","0","6/5/2022 12:00:00 AM","2019","176875","NYTIMES-USCENSUS"
"6/6/2022 12:00:00 AM","Pike County","Mississippi","South","East South Central","28113","31.177516","-90.397725 ","9866","189","69","0","6/5/2022 12:00:00 AM","2019","39288","NYTIMES-USCENSUS"
"6/6/2022 12:00:00 AM","Karnes County","Texas","South","West South Central","48255","28.908996","-97.852205 ","6070","70","1","0","6/5/2022 12:00:00 AM","2019","15601","NYTIMES-USCENSUS"
"6/6/2022 12:00:00 AM","Martin County","Kentucky","South","East South Central","21159","37.796774","-82.506623 ","3360","49","27","0","6/5/2022 12:00:00 AM","2019","11195","NYTIMES-USCENSUS"
"6/6/2022 12:00:00 AM","Blount County","Alabama","South","East South Central","01009","33.977358","-86.56644 ","15096","244","12","0","6/5/2022 12:00:00 AM","2019","57826","NYTIMES-USCENSUS"
"6/6/2022 12:00:00 AM","Stearns County","Minnesota","Midwest","West North Central","27145","45.555235","-94.610482 ","52735","370","70","0","6/5/2022 12:00:00 AM","2019","161075","NYTIMES-USCENSUS"
"6/6/2022 12:00:00 AM","Clinton County","Kentucky","South","East South Central","21053","36.727258","-85.136098 ","3702","52","13","0","6/5/2022 12:00:00 AM","2019","10218","NYTIMES-USCENSUS"
"6/6/2022 12:00:00 AM","Washington County","Maryland","South","South Atlantic","24043","39.603621","-77.814671 ","35981","587","43","0","6/5/2022 12:00:00 AM","2019","151049","NYTIMES-USCENSUS"
"6/6/2022 12:00:00 AM","Stevens County","Washington","West","Pacific","53065","48.388728","-117.854455 ","8452","147","21","0","6/5/2022 12:00:00 AM","2019","45723","NYTIMES-USCENSUS"
"6/6/2022 12:00:00 AM","Sullivan County","New York","Northeast","Middle Atlantic","36105","41.719993","-74.771577 ","20037","133","11","0","6/5/2022 12:00:00 AM","2019","75432","NYTIMES-USCENSUS"
"6/6/2022 12:00:00 AM","Atoka County","Oklahoma","South","West South Central","40005","34.392469","-96.036558 ","3938","54","0","0","6/5/2022 12:00:00 AM","2019","13758","NYTIMES-USCENSUS"
"6/6/2022 12:00:00 AM","Buena Vista city","Virginia","South","South Atlantic","51530","37.729345","-79.358134 ","2055","44","8","0","6/5/2022 12:00:00 AM","2019","6478","NYTIMES-USCENSUS"
"6/6/2022 12:00:00 AM","Uintah County","Utah","West","Mountain","49047","40.125887","-109.517748 ","8188","72","0","0","6/5/2022 12:00:00 AM","2019","35734","NYTIMES-USCENSUS"
"6/6/2022 12:00:00 AM","Washtenaw County","Michigan","Midwest","East North Central","26161","42.252217","-83.843423 ","88308","529","477","0","6/5/2022 12:00:00 AM","2019","367601","NYTIMES-USCENSUS"
"6/6/2022 12:00:00 AM","Mohave County","Arizona","West","Mountain","04015","35.717705","-113.749689 ","58198","1462","0","0","6/5/2022 12:00:00 AM","2019","212181","NYTIMES-USCENSUS"
"6/6/2022 12:00:00 AM","Humphreys County","Mississippi","South","East South Central","28053","33.130996","-90.523421 ","2047","46","12","0","6/5/2022 12:00:00 AM","2019","8064","NYTIMES-USCENSUS"
"6/6/2022 12:00:00 AM","Churchill County","Nevada","West","Mountain","32001","39.53771","-118.264166 ","6649","115","0","0","6/5/2022 12:00:00 AM","2019","24909","NYTIMES-USCENSUS"
"6/6/2022 12:00:00 AM","Marengo County","Alabama","South","East South Central","01091","32.247591","-87.791091 ","5241","108","9","0","6/5/2022 12:00:00 AM","2019","18863","NYTIMES-USCENSUS"
"6/6/2022 12:00:00 AM","Washington County","Nebraska","Midwest","West North Central","31177","41.533973","-96.224577 ","4640","45","7","0","6/5/2022 12:00:00 AM","2019","20729","NYTIMES-USCENSUS"
"6/6/2022 12:00:00 AM","Putnam County","West Virginia","South","South Atlantic","54079","38.510518","-81.906109 ","17315","182","34","0","6/5/2022 12:00:00 AM","2019","56450","NYTIMES-USCENSUS"
"6/6/2022 12:00:00 AM","Crawford County","Georgia","South","South Atlantic","13079","32.709428","-83.979187 ","1800","55","0","0","6/5/2022 12:00:00 AM","2019","12404","NYTIMES-USCENSUS"
"6/6/2022 12:00:00 AM","Kalkaska County","Michigan","Midwest","East North Central","26079","44.678881","-85.088992 ","3765","61","0","0","6/5/2022 12:00:00 AM","2019","18038","NYTIMES-USCENSUS"
"6/6/2022 12:00:00 AM","Johnson County","Tennessee","South","East South Central","47091","36.453203","-81.861247 ","5214","95","0","0","6/5/2022 12:00:00 AM","2019","17788","NYTIMES-USCENSUS"
"6/6/2022 12:00:00 AM","Petersburg Borough","Alaska","West","Pacific","02195","57.112458","-133.008598 ","810","5","0","0","6/5/2022 12:00:00 AM","2019","3266","NYTIMES-USCENSUS"
"6/6/2022 12:00:00 AM","Coahoma County","Mississippi","South","East South Central","28027","34.230316","-90.60401 ","6599","126","75","0","6/5/2022 12:00:00 AM","2019","22124","NYTIMES-USCENSUS"
"6/6/2022 12:00:00 AM","Marathon County","Wisconsin","Midwest","East North Central","55073","44.898036","-89.757823 ","41451","503","97","1","6/5/2022 12:00:00 AM","2019","135692","NYTIMES-USCENSUS"
"6/6/2022 12:00:00 AM","Alcorn County","Mississippi","South","East South Central","28003","34.886569","-88.581109 ","10190","161","77","0","6/5/2022 12:00:00 AM","2019","36953","NYTIMES-USCENSUS"
"6/6/2022 12:00:00 AM","Matanuska-Susitna Borough","Alaska","West","Pacific","02170","62.265626","-149.503993 ","35523","239","0","0","6/5/2022 12:00:00 AM","2019","108317","NYTIMES-USCENSUS"
"6/6/2022 12:00:00 AM","Union County","Florida","South","South Atlantic","12125","30.05428","-82.366918 ","4354","115","0","0","6/5/2022 12:00:00 AM","2019","15237","NYTIMES-USCENSUS"
"6/6/2022 12:00:00 AM","Passaic County","New Jersey","Northeast","Middle Atlantic","34031","41.036655","-74.299408 ","155168","2346","140","0","6/5/2022 12:00:00 AM","2019","501826","NYTIMES-USCENSUS"
"6/6/2022 12:00:00 AM","Rooks County","Kansas","Midwest","West North Central","20163","39.346006","-99.324492 ","1389","21","0","0","6/5/2022 12:00:00 AM","2019","4920","NYTIMES-USCENSUS"
"6/6/2022 12:00:00 AM","Cowley County","Kansas","Midwest","West North Central","20035","37.234507","-96.837247 ","10259","163","0","0","6/5/2022 12:00:00 AM","2019","34908","NYTIMES-USCENSUS"
"6/6/2022 12:00:00 AM","Lenoir County","North Carolina","South","South Atlantic","37107","35.240066","-77.635514 ","16023","220","0","0","6/5/2022 12:00:00 AM","2019","55949","NYTIMES-USCENSUS"
"6/6/2022 12:00:00 AM","Chittenden County","Vermont","Northeast","New England","50007","44.463329","-73.06941 ","35589","177","0","0","6/5/2022 12:00:00 AM","2019","163774","NYTIMES-USCENSUS"
"6/6/2022 12:00:00 AM","Henry County","Georgia","South","South Atlantic","13151","33.452947","-84.154021 ","59348","689","0","0","6/5/2022 12:00:00 AM","2019","234561","NYTIMES-USCENSUS"
"6/6/2022 12:00:00 AM","Muhlenberg County","Kentucky","South","East South Central","21177","37.213816","-87.134092 ","10355","123","68","0","6/5/2022 12:00:00 AM","2019","30622","NYTIMES-USCENSUS"
"6/6/2022 12:00:00 AM","Kane County","Utah","West","Mountain","49025","37.275089","-111.815329 ","1385","15","0","0","6/5/2022 12:00:00 AM","2019","7886","NYTIMES-USCENSUS"
"6/6/2022 12:00:00 AM","Lampasas County","Texas","South","West South Central","48281","31.196731","-98.240889 ","5605","91","0","0","6/5/2022 12:00:00 AM","2019","21428","NYTIMES-USCENSUS"
"6/6/2022 12:00:00 AM","Stanton County","Kansas","Midwest","West North Central","20187","37.565932","-101.789383 ","425","9","0","0","6/5/2022 12:00:00 AM","2019","2006","NYTIMES-USCENSUS"
"6/6/2022 12:00:00 AM","Panola County","Texas","South","West South Central","48365","32.163978","-94.305156 ","4636","129","0","0","6/5/2022 12:00:00 AM","2019","23194","NYTIMES-USCENSUS"
"6/6/2022 12:00:00 AM","Monroe County","Mississippi","South","East South Central","28095","33.89003","-88.485038 ","11092","220","52","0","6/5/2022 12:00:00 AM","2019","35252","NYTIMES-USCENSUS"
"6/6/2022 12:00:00 AM","Anoka County","Minnesota","Midwest","West North Central","27003","45.27411","-93.242723 ","102929","803","106","1","6/5/2022 12:00:00 AM","2019","356921","NYTIMES-USCENSUS"
"6/6/2022 12:00:00 AM","Chenango County","New York","Northeast","Middle Atlantic","36017","42.478024","-75.602241 ","10168","123","5","0","6/5/2022 12:00:00 AM","2019","47207","NYTIMES-USCENSUS"
"6/6/2022 12:00:00 AM","Douglas County","Nebraska","Midwest","West North Central","31055","41.297091","-96.154066 ","153931","1127","317","0","6/5/2022 12:00:00 AM","2019","571327","NYTIMES-USCENSUS"
"6/6/2022 12:00:00 AM","Daviess County","Missouri","Midwest","West North Central","29061","39.962839","-93.970053 ","1737","30","0","0","6/5/2022 12:00:00 AM","2019","8278","NYTIMES-USCENSUS"
"6/6/2022 12:00:00 AM","Sitka City and Borough","Alaska","West","Pacific","02220","57.193204","-135.367396 ","2785","5","0","0","6/5/2022 12:00:00 AM","2019","8493","NYTIMES-USCENSUS"
"6/6/2022 12:00:00 AM","Webster Parish","Louisiana","South","West South Central","22119","32.732152","-93.339825 ","11312","188","13","0","6/5/2022 12:00:00 AM","2019","38340","NYTIMES-USCENSUS"
"6/6/2022 12:00:00 AM","Greene County","Indiana","Midwest","East North Central","18055","39.047147","-87.004771 ","7390","141","14","0","6/5/2022 12:00:00 AM","2019","31922","NYTIMES-USCENSUS"
"6/6/2022 12:00:00 AM","Randall County","Texas","South","West South Central","48381","34.962529","-101.895547 ","38401","516","0","0","6/5/2022 12:00:00 AM","2019","137713","NYTIMES-USCENSUS"
"6/6/2022 12:00:00 AM","Mecklenburg County","North Carolina","South","South Atlantic","37119","35.246862","-80.833832 ","293852","1622","0","0","6/5/2022 12:00:00 AM","2019","1110356","NYTIMES-USCENSUS"
"6/6/2022 12:00:00 AM","Hall County","Georgia","South","South Atlantic","13139","34.317569","-83.8185 ","55081","849","21","0","6/5/2022 12:00:00 AM","2019","204441","NYTIMES-USCENSUS"
"6/6/2022 12:00:00 AM","Washington County","Wisconsin","Midwest","East North Central","55131","43.391156","-88.232917 ","40142","345","70","0","6/5/2022 12:00:00 AM","2019","136034","NYTIMES-USCENSUS"
"6/6/2022 12:00:00 AM","Centre County","Pennsylvania","Northeast","Middle Atlantic","42027","40.909128","-77.847877 ","37081","355","0","0","6/5/2022 12:00:00 AM","2019","162385","NYTIMES-USCENSUS"
"6/6/2022 12:00:00 AM","Iberia Parish","Louisiana","South","West South Central","22045","29.606013","-91.842706 ","19429","263","25","0","6/5/2022 12:00:00 AM","2019","69830","NYTIMES-USCENSUS"
"6/6/2022 12:00:00 AM","Natrona County","Wyoming","West","Mountain","56025","42.977645","-106.768219 ","22544","273","0","0","6/5/2022 12:00:00 AM","2019","79858","NYTIMES-USCENSUS"
"6/6/2022 12:00:00 AM","McIntosh County","Oklahoma","South","West South Central","40091","35.369108","-95.671787 ","4884","125","0","0","6/5/2022 12:00:00 AM","2019","19596","NYTIMES-USCENSUS"
"6/6/2022 12:00:00 AM","Millard County","Utah","West","Mountain","49027","38.956744","-113.133092 ","3297","35","0","0","6/5/2022 12:00:00 AM","2019","13188","NYTIMES-USCENSUS"
"6/6/2022 12:00:00 AM","Pennington County","South Dakota","Midwest","West North Central","46103","44.002349","-102.823801 ","33237","346","0","0","6/5/2022 12:00:00 AM","2019","113775","NYTIMES-USCENSUS"
"6/6/2022 12:00:00 AM","Talbot County","Georgia","South","South Atlantic","13263","32.704603","-84.530029 ","1177","32","0","0","6/5/2022 12:00:00 AM","2019","6195","NYTIMES-USCENSUS"
"6/6/2022 12:00:00 AM","Lamar County","Alabama","South","East South Central","01075","33.787085","-88.087431 ","3775","65","4","0","6/5/2022 12:00:00 AM","2019","13805","NYTIMES-USCENSUS"
"6/6/2022 12:00:00 AM","Atkinson County","Georgia","South","South Atlantic","13003","31.296806","-82.878151 ","2233","50","0","0","6/5/2022 12:00:00 AM","2019","8165","NYTIMES-USCENSUS"
"6/6/2022 12:00:00 AM","Robeson County","North Carolina","South","South Atlantic","37155","34.63921","-79.100881 ","41642","538","0","0","6/5/2022 12:00:00 AM","2019","130625","NYTIMES-USCENSUS"
"6/6/2022 12:00:00 AM","Potter County","Pennsylvania","Northeast","Middle Atlantic","42105","41.748587","-77.894436 ","3357","92","0","0","6/5/2022 12:00:00 AM","2019","16526","NYTIMES-USCENSUS"
"6/6/2022 12:00:00 AM","Union County","North Carolina","South","South Atlantic","37179","34.99182","-80.530426 ","64414","491","0","0","6/5/2022 12:00:00 AM","2019","239859","NYTIMES-USCENSUS"
"6/6/2022 12:00:00 AM","Los Angeles County","California","West","Pacific","06037","34.196398","-118.261862 ","3005679","32168","14324","14","6/5/2022 12:00:00 AM","2019","10039107","NYTIMES-USCENSUS"
"6/6/2022 12:00:00 AM","Beaufort County","North Carolina","South","South Atlantic","37013","35.482313","-76.842014 ","12939","175","0","0","6/5/2022 12:00:00 AM","2019","46994","NYTIMES-USCENSUS"
"6/6/2022 12:00:00 AM","Morgan County","Colorado","West","Mountain","08087","40.263159","-103.81221 ","5840","137","17","0","6/5/2022 12:00:00 AM","2019","29068","NYTIMES-USCENSUS"
"6/6/2022 12:00:00 AM","Culpeper County","Virginia","South","South Atlantic","51047","38.48593","-77.956476 ","11724","151","15","0","6/5/2022 12:00:00 AM","2019","52605","NYTIMES-USCENSUS"
"6/6/2022 12:00:00 AM","Alleghany County","Virginia","South","South Atlantic","51005","37.787905","-80.008669 ","3408","98","0","0","6/5/2022 12:00:00 AM","2019","14860","NYTIMES-USCENSUS"
"6/6/2022 12:00:00 AM","Kingsbury County","South Dakota","Midwest","West North Central","46077","44.362969","-97.499313 ","1347","22","0","0","6/5/2022 12:00:00 AM","2019","4939","NYTIMES-USCENSUS"
"6/6/2022 12:00:00 AM","Poinsett County","Arkansas","South","West South Central","05111","35.56887","-90.681104 ","8139","127","3","0","6/5/2022 12:00:00 AM","2019","23528","NYTIMES-USCENSUS"
"6/6/2022 12:00:00 AM","Sandoval County","New Mexico","West","Mountain","35043","35.685091","-106.883119 ","35534","449","306","3","6/5/2022 12:00:00 AM","2019","146748","NYTIMES-USCENSUS"
"6/6/2022 12:00:00 AM","Ingham County","Michigan","Midwest","East North Central","26065","42.603534","-84.373811 ","68674","776","0","0","6/5/2022 12:00:00 AM","2019","292406","NYTIMES-USCENSUS"
"6/6/2022 12:00:00 AM","Bent County","Colorado","West","Mountain","08011","37.931891","-103.077584 ","2583","47","5","0","6/5/2022 12:00:00 AM","2019","5577","NYTIMES-USCENSUS"
"6/6/2022 12:00:00 AM","Brown County","Illinois","Midwest","East North Central","17009","39.962069","-90.750309 ","2466","21","13","0","6/5/2022 12:00:00 AM","2019","6578","NYTIMES-USCENSUS"
"6/6/2022 12:00:00 AM","Mason County","Kentucky","South","East South Central","21161","38.594137","-83.828125 ","5111","106","28","0","6/5/2022 12:00:00 AM","2019","17070","NYTIMES-USCENSUS"
"6/6/2022 12:00:00 AM","Morris County","Kansas","Midwest","West North Central","20127","38.688204","-96.651448 ","1519","30","0","0","6/5/2022 12:00:00 AM","2019","5620","NYTIMES-USCENSUS"
"6/6/2022 12:00:00 AM","Nicholas County","Kentucky","South","East South Central","21181","38.338031","-84.026223 ","2158","32","22","0","6/5/2022 12:00:00 AM","2019","7269","NYTIMES-USCENSUS"
"6/6/2022 12:00:00 AM","Columbia County","Wisconsin","Midwest","East North Central","55021","43.471882","-89.330472 ","16357","130","49","0","6/5/2022 12:00:00 AM","2019","57532","NYTIMES-USCENSUS"
"6/6/2022 12:00:00 AM","Benzie County","Michigan","Midwest","East North Central","26019","44.636844","-86.231999 ","3603","69","0","0","6/5/2022 12:00:00 AM","2019","17766","NYTIMES-USCENSUS"
"6/6/2022 12:00:00 AM","Columbiana County","Ohio","Midwest","East North Central","39029","40.770073","-80.778455 ","25108","489","0","0","6/5/2022 12:00:00 AM","2019","101883","NYTIMES-USCENSUS"
"6/6/2022 12:00:00 AM","Meriwether County","Georgia","South","South Atlantic","13199","33.029267","-84.667058 ","4527","145","0","0","6/5/2022 12:00:00 AM","2019","21167","NYTIMES-USCENSUS"
"6/6/2022 12:00:00 AM","Grimes County","Texas","South","West South Central","48185","30.543231","-95.988082 ","8597","121","2","0","6/5/2022 12:00:00 AM","2019","28880","NYTIMES-USCENSUS"
"6/6/2022 12:00:00 AM","Paulding County","Georgia","South","South Atlantic","13223","33.92103","-84.867169 ","38901","435","0","0","6/5/2022 12:00:00 AM","2019","168667","NYTIMES-USCENSUS"
"6/6/2022 12:00:00 AM","Bryan County","Georgia","South","South Atlantic","13029","32.017969","-81.438543 ","9320","92","0","0","6/5/2022 12:00:00 AM","2019","39627","NYTIMES-USCENSUS"
"6/6/2022 12:00:00 AM","Chisago County","Minnesota","Midwest","West North Central","27025","45.505444","-92.903849 ","15136","120","21","0","6/5/2022 12:00:00 AM","2019","56579","NYTIMES-USCENSUS"
"6/6/2022 12:00:00 AM","McHenry County","North Dakota","Midwest","West North Central","38049","48.233842","-100.633267 ","1358","31","0","0","6/5/2022 12:00:00 AM","2019","5745","NYTIMES-USCENSUS"
"6/6/2022 12:00:00 AM","Anderson County","Texas","South","West South Central","48001","31.841261","-95.661727 ","9721","240","0","0","6/5/2022 12:00:00 AM","2019","57735","NYTIMES-USCENSUS"
"6/6/2022 12:00:00 AM","Knox County","Ohio","Midwest","East North Central","39083","40.40362","-82.422393 ","13573","228","0","0","6/5/2022 12:00:00 AM","2019","62322","NYTIMES-USCENSUS"
"6/6/2022 12:00:00 AM","Hinsdale County","Colorado","West","Mountain","08053","37.811519","-107.383974 ","133","0","0","0","6/5/2022 12:00:00 AM","2019","820","NYTIMES-USCENSUS"
"6/6/2022 12:00:00 AM","Guadalupe County","New Mexico","West","Mountain","35019","34.869782","-104.784968 ","1501","17","6","0","6/5/2022 12:00:00 AM","2019","4300","NYTIMES-USCENSUS"
"6/6/2022 12:00:00 AM","Obion County","Tennessee","South","East South Central","47131","36.361892","-89.148078 ","10835","197","0","0","6/5/2022 12:00:00 AM","2019","30069","NYTIMES-USCENSUS"
"6/6/2022 12:00:00 AM","Calhoun County","Mississippi","South","East South Central","28013","33.936634","-89.337114 ","4655","71","11","0","6/5/2022 12:00:00 AM","2019","14361","NYTIMES-USCENSUS"
"6/6/2022 12:00:00 AM","Bradford County","Pennsylvania","Northeast","Middle Atlantic","42015","41.791504","-76.502123 ","16832","212","0","0","6/5/2022 12:00:00 AM","2019","60323","NYTIMES-USCENSUS"
"6/6/2022 12:00:00 AM","Marion County","Tennessee","South","East South Central","47115","35.133422","-85.618399 ","8929","132","0","0","6/5/2022 12:00:00 AM","2019","28907","NYTIMES-USCENSUS"
"6/6/2022 12:00:00 AM","Warren County","Ohio","Midwest","East North Central","39165","39.425663","-84.16994 ","59627","586","0","0","6/5/2022 12:00:00 AM","2019","234602","NYTIMES-USCENSUS"
"6/6/2022 12:00:00 AM","Bowie County","Texas","South","West South Central","48037","33.446065","-94.422393 ","20421","435","10","0","6/5/2022 12:00:00 AM","2019","93245","NYTIMES-USCENSUS"
"6/6/2022 12:00:00 AM","Claiborne Parish","Louisiana","South","West South Central","22027","32.82716","-92.989728 ","3295","78","1","0","6/5/2022 12:00:00 AM","2019","15670","NYTIMES-USCENSUS"
"6/6/2022 12:00:00 AM","Jefferson County","Nebraska","Midwest","West North Central","31095","40.175736","-97.143103 ","1227","7","2","0","6/5/2022 12:00:00 AM","2019","7046","NYTIMES-USCENSUS"
"6/6/2022 12:00:00 AM","Chickasaw County","Iowa","Midwest","West North Central","19037","43.059741","-92.31721 ","2736","32","0","0","6/5/2022 12:00:00 AM","2019","11933","NYTIMES-USCENSUS"
"6/6/2022 12:00:00 AM","Madison County","Virginia","South","South Atlantic","51113","38.412059","-78.276961 ","2516","42","10","0","6/5/2022 12:00:00 AM","2019","13261","NYTIMES-USCENSUS"
"6/6/2022 12:00:00 AM","Amelia County","Virginia","South","South Atlantic","51007","37.331927","-77.977462 ","2758","59","5","0","6/5/2022 12:00:00 AM","2019","13145","NYTIMES-USCENSUS"
"6/6/2022 12:00:00 AM","Monroe County","West Virginia","South","South Atlantic","54063","37.554062","-80.550329 ","4388","46","14","0","6/5/2022 12:00:00 AM","2019","13275","NYTIMES-USCENSUS"
"6/6/2022 12:00:00 AM","Dare County","North Carolina","South","South Atlantic","37055","35.606269","-75.767536 ","7914","27","0","0","6/5/2022 12:00:00 AM","2019","37009","NYTIMES-USCENSUS"
"6/6/2022 12:00:00 AM","Gunnison County","Colorado","West","Mountain","08051","38.670499","-107.05688 ","3468","14","10","0","6/5/2022 12:00:00 AM","2019","17462","NYTIMES-USCENSUS"
"6/6/2022 12:00:00 AM","Caribou County","Idaho","West","Mountain","16029","42.786072","-111.544273 ","1503","28","2","0","6/5/2022 12:00:00 AM","2019","7155","NYTIMES-USCENSUS"
"6/6/2022 12:00:00 AM","Montezuma County","Colorado","West","Mountain","08083","37.338025","-108.595786 ","6328","81","20","0","6/5/2022 12:00:00 AM","2019","26183","NYTIMES-USCENSUS"
"6/6/2022 12:00:00 AM","Somerset County","Pennsylvania","Northeast","Middle Atlantic","42111","39.981297","-79.028486 ","19124","410","0","0","6/5/2022 12:00:00 AM","2019","73447","NYTIMES-USCENSUS"
"6/6/2022 12:00:00 AM","Butler County","Alabama","South","East South Central","01013","31.751667","-86.681969 ","5107","129","13","0","6/5/2022 12:00:00 AM","2019","19448","NYTIMES-USCENSUS"
"6/6/2022 12:00:00 AM","Clark County","Ohio","Midwest","East North Central","39023","39.917032","-83.783676 ","35697","587","0","0","6/5/2022 12:00:00 AM","2019","134083","NYTIMES-USCENSUS"
"6/6/2022 12:00:00 AM","Ness County","Kansas","Midwest","West North Central","20135","38.480437","-99.908745 ","781","19","0","0","6/5/2022 12:00:00 AM","2019","2750","NYTIMES-USCENSUS"
"6/6/2022 12:00:00 AM","Curry County","New Mexico","West","Mountain","35009","34.572984","-103.346055 ","13025","206","37","1","6/5/2022 12:00:00 AM","2019","48954","NYTIMES-USCENSUS"
"6/6/2022 12:00:00 AM","Glades County","Florida","South","South Atlantic","12043","26.95481","-81.19082 ","2037","36","0","0","6/5/2022 12:00:00 AM","2019","13811","NYTIMES-USCENSUS"
"6/6/2022 12:00:00 AM","Wheeler County","Texas","South","West South Central","48483","35.392593","-100.253107 ","1195","23","0","0","6/5/2022 12:00:00 AM","2019","5056","NYTIMES-USCENSUS"
"6/6/2022 12:00:00 AM","Park County","Montana","West","Mountain","30067","45.463081","-110.53493 ","4385","35","0","0","6/5/2022 12:00:00 AM","2019","16606","NYTIMES-USCENSUS"
"6/6/2022 12:00:00 AM","Pierce County","Nebraska","Midwest","West North Central","31139","42.271413","-97.610992 ","1262","21","3","0","6/5/2022 12:00:00 AM","2019","7148","NYTIMES-USCENSUS"
"6/6/2022 12:00:00 AM","Union County","Illinois","Midwest","East North Central","17181","37.485652","-89.244639 ","5522","69","16","0","6/5/2022 12:00:00 AM","2019","16653","NYTIMES-USCENSUS"
"6/6/2022 12:00:00 AM","Edmonson County","Kentucky","South","East South Central","21061","37.227514","-86.218015 ","2600","49","26","2","6/5/2022 12:00:00 AM","2019","12150","NYTIMES-USCENSUS"
"6/6/2022 12:00:00 AM","Trigg County","Kentucky","South","East South Central","21221","36.807681","-87.858652 ","4077","45","13","0","6/5/2022 12:00:00 AM","2019","14651","NYTIMES-USCENSUS"
"6/6/2022 12:00:00 AM","Monona County","Iowa","Midwest","West North Central","19133","42.049432","-95.956566 ","1734","48","0","0","6/5/2022 12:00:00 AM","2019","8615","NYTIMES-USCENSUS"
"6/6/2022 12:00:00 AM","Marion County","Ohio","Midwest","East North Central","39101","40.588034","-83.168803 ","20416","268","0","0","6/5/2022 12:00:00 AM","2019","65093","NYTIMES-USCENSUS"
"6/6/2022 12:00:00 AM","Somerset County","Maine","Northeast","New England","23025","45.503646","-69.95611 ","10464","112","0","0","6/5/2022 12:00:00 AM","2019","50484","NYTIMES-USCENSUS"
"6/6/2022 12:00:00 AM","Okeechobee County","Florida","South","South Atlantic","12093","27.385592","-80.887388 ","10774","183","0","0","6/5/2022 12:00:00 AM","2019","42168","NYTIMES-USCENSUS"
"6/6/2022 12:00:00 AM","Alpena County","Michigan","Midwest","East North Central","26007","44.894954","-83.426574 ","5891","139","0","0","6/5/2022 12:00:00 AM","2019","28405","NYTIMES-USCENSUS"
"6/6/2022 12:00:00 AM","Cumberland County","Tennessee","South","East South Central","47035","35.952398","-84.994761 ","16269","329","0","0","6/5/2022 12:00:00 AM","2019","60520","NYTIMES-USCENSUS"
"6/6/2022 12:00:00 AM","Roane County","Tennessee","South","East South Central","47145","35.84725","-84.523929 ","15955","235","0","0","6/5/2022 12:00:00 AM","2019","53382","NYTIMES-USCENSUS"
"6/6/2022 12:00:00 AM","Caddo County","Oklahoma","South","West South Central","40015","35.16792","-98.381045 ","8304","172","0","0","6/5/2022 12:00:00 AM","2019","28762","NYTIMES-USCENSUS"
"6/6/2022 12:00:00 AM","Valley County","Idaho","West","Mountain","16085","44.85596","-115.618061 ","2701","16","5","0","6/5/2022 12:00:00 AM","2019","11392","NYTIMES-USCENSUS"
"6/6/2022 12:00:00 AM","Lee County","Florida","South","South Atlantic","12071","26.563273","-81.984182 ","198761","2176","0","0","6/5/2022 12:00:00 AM","2019","770577","NYTIMES-USCENSUS"
"6/6/2022 12:00:00 AM","Texas County","Oklahoma","South","West South Central","40139","36.746317","-101.483855 ","6007","54","0","0","6/5/2022 12:00:00 AM","2019","19983","NYTIMES-USCENSUS"
"6/6/2022 12:00:00 AM","Grenada County","Mississippi","South","East South Central","28043","33.770031","-89.80274 ","5596","131","42","0","6/5/2022 12:00:00 AM","2019","20758","NYTIMES-USCENSUS"
"6/6/2022 12:00:00 AM","Mineral County","West Virginia","South","South Atlantic","54057","39.404781","-78.95669 ","8261","159","24","0","6/5/2022 12:00:00 AM","2019","26868","NYTIMES-USCENSUS"
"6/6/2022 12:00:00 AM","Tazewell County","Virginia","South","South Atlantic","51185","37.125395","-81.562924 ","10525","175","24","0","6/5/2022 12:00:00 AM","2019","40595","NYTIMES-USCENSUS"
"6/6/2022 12:00:00 AM","Lawrence County","Missouri","Midwest","West North Central","29109","37.10659","-93.830551 ","7858","167","0","0","6/5/2022 12:00:00 AM","2019","38355","NYTIMES-USCENSUS"
"6/6/2022 12:00:00 AM","Cass County","Illinois","Midwest","East North Central","17017","39.969202","-90.245704 ","4730","44","32","0","6/5/2022 12:00:00 AM","2019","12147","NYTIMES-USCENSUS"
"6/6/2022 12:00:00 AM","Madison County","Arkansas","South","West South Central","05087","36.012545","-93.724053 ","4016","63","1","0","6/5/2022 12:00:00 AM","2019","16576","NYTIMES-USCENSUS"
"6/6/2022 12:00:00 AM","Barrow County","Georgia","South","South Atlantic","13013","33.992009","-83.712303 ","22201","258","0","0","6/5/2022 12:00:00 AM","2019","83240","NYTIMES-USCENSUS"
"6/6/2022 12:00:00 AM","Fairbanks North Star Borough","Alaska","West","Pacific","02090","64.676044","-146.548159 ","28413","142","0","0","6/5/2022 12:00:00 AM","2019","96849","NYTIMES-USCENSUS"
"6/6/2022 12:00:00 AM","Dallas County","Iowa","Midwest","West North Central","19049","41.68532","-94.040706 ","23697","145","0","0","6/5/2022 12:00:00 AM","2019","93453","NYTIMES-USCENSUS"
"6/6/2022 12:00:00 AM","Sheridan County","Wyoming","West","Mountain","56033","44.781369","-106.881211 ","8150","79","0","0","6/5/2022 12:00:00 AM","2019","30485","NYTIMES-USCENSUS"
"6/6/2022 12:00:00 AM","Morgan County","Alabama","South","East South Central","01103","34.454484","-86.846402 ","36500","519","89","1","6/5/2022 12:00:00 AM","2019","119679","NYTIMES-USCENSUS"
"6/6/2022 12:00:00 AM","Blue Earth County","Minnesota","Midwest","West North Central","27013","44.03371","-94.064012 ","18634","103","19","0","6/5/2022 12:00:00 AM","2019","67653","NYTIMES-USCENSUS"
"6/6/2022 12:00:00 AM","Rice County","Minnesota","Midwest","West North Central","27131","44.350775","-93.298513 ","18679","179","9","0","6/5/2022 12:00:00 AM","2019","66972","NYTIMES-USCENSUS"
"6/6/2022 12:00:00 AM","Washington County","North Carolina","South","South Atlantic","37187","35.844713","-76.572291 ","3091","51","0","0","6/5/2022 12:00:00 AM","2019","11580","NYTIMES-USCENSUS"
"6/6/2022 12:00:00 AM","Yolo County","California","West","Pacific","06113","38.679609","-121.90275 ","43075","321","0","0","6/5/2022 12:00:00 AM","2019","220500","NYTIMES-USCENSUS"
"6/6/2022 12:00:00 AM","LaSalle Parish","Louisiana","South","West South Central","22059","31.680083","-92.161596 ","4297","61","7","0","6/5/2022 12:00:00 AM","2019","14892","NYTIMES-USCENSUS"
"6/6/2022 12:00:00 AM","Summit County","Ohio","Midwest","East North Central","39153","41.121847","-81.534928 ","118434","1714","0","0","6/5/2022 12:00:00 AM","2019","541013","NYTIMES-USCENSUS"
"6/6/2022 12:00:00 AM","Archer County","Texas","South","West South Central","48009","33.616305","-98.687267 ","2239","28","1","0","6/5/2022 12:00:00 AM","2019","8553","NYTIMES-USCENSUS"
"6/6/2022 12:00:00 AM","Rockland County","New York","Northeast","Middle Atlantic","36087","41.154628","-74.024662 ","99093","904","54","0","6/5/2022 12:00:00 AM","2019","325789","NYTIMES-USCENSUS"
"6/6/2022 12:00:00 AM","Gasconade County","Missouri","Midwest","West North Central","29073","38.441183","-91.50578 ","3431","102","0","0","6/5/2022 12:00:00 AM","2019","14706","NYTIMES-USCENSUS"
"6/6/2022 12:00:00 AM","Nassau County","New York","Northeast","Middle Atlantic","36059","40.729612","-73.589414 ","443850","3882","339","0","6/5/2022 12:00:00 AM","2019","1356924","NYTIMES-USCENSUS"
"6/6/2022 12:00:00 AM","Gaston County","North Carolina","South","South Atlantic","37071","35.293344","-81.177256 ","67085","852","0","0","6/5/2022 12:00:00 AM","2019","224529","NYTIMES-USCENSUS"
"6/6/2022 12:00:00 AM","Delta County","Michigan","Midwest","East North Central","26041","45.805229","-86.901938 ","10275","158","0","0","6/5/2022 12:00:00 AM","2019","35784","NYTIMES-USCENSUS"
"6/6/2022 12:00:00 AM","Todd County","Minnesota","Midwest","West North Central","27153","46.066569","-94.900576 ","7037","59","9","0","6/5/2022 12:00:00 AM","2019","24664","NYTIMES-USCENSUS"
"6/6/2022 12:00:00 AM","Greene County","Iowa","Midwest","West North Central","19073","42.042513","-94.388727 ","1759","21","0","0","6/5/2022 12:00:00 AM","2019","8888","NYTIMES-USCENSUS"
"6/6/2022 12:00:00 AM","Bladen County","North Carolina","South","South Atlantic","37017","34.591938","-78.539489 ","9608","128","0","0","6/5/2022 12:00:00 AM","2019","32722","NYTIMES-USCENSUS"
"6/6/2022 12:00:00 AM","Bleckley County","Georgia","South","South Atlantic","13023","32.435403","-83.331717 ","3364","100","-1","0","6/5/2022 12:00:00 AM","2019","12873","NYTIMES-USCENSUS"
"6/6/2022 12:00:00 AM","Monroe County","Arkansas","South","West South Central","05095","34.679512","-91.20331 ","1952","36","1","0","6/5/2022 12:00:00 AM","2019","6701","NYTIMES-USCENSUS"
"6/6/2022 12:00:00 AM","Pike County","Ohio","Midwest","East North Central","39131","39.071341","-83.052911 ","7623","123","0","0","6/5/2022 12:00:00 AM","2019","27772","NYTIMES-USCENSUS"
"6/6/2022 12:00:00 AM","DeSoto County","Mississippi","South","East South Central","28033","34.874922","-89.991211 ","51579","554","728","0","6/5/2022 12:00:00 AM","2019","184945","NYTIMES-USCENSUS"
"6/6/2022 12:00:00 AM","Noble County","Indiana","Midwest","East North Central","18113","41.404679","-85.417271 ","13294","158","15","0","6/5/2022 12:00:00 AM","2019","47744","NYTIMES-USCENSUS"
"6/6/2022 12:00:00 AM","Platte County","Wyoming","West","Mountain","56031","42.131593","-104.953963 ","1929","41","0","0","6/5/2022 12:00:00 AM","2019","8393","NYTIMES-USCENSUS"
"6/6/2022 12:00:00 AM","Monroe County","Alabama","South","East South Central","01099","31.580332","-87.383266 ","5313","80","11","0","6/5/2022 12:00:00 AM","2019","20733","NYTIMES-USCENSUS"
"6/6/2022 12:00:00 AM","Ascension Parish","Louisiana","South","West South Central","22005","30.206444","-90.912502 ","35605","293","59","0","6/5/2022 12:00:00 AM","2019","126604","NYTIMES-USCENSUS"
"6/6/2022 12:00:00 AM","Davis County","Utah","West","Mountain","49011","41.037559","-112.201943 ","103118","405","0","0","6/5/2022 12:00:00 AM","2019","355481","NYTIMES-USCENSUS"
"6/6/2022 12:00:00 AM","Kanabec County","Minnesota","Midwest","West North Central","27065","45.94776","-93.297788 ","3663","57","2","0","6/5/2022 12:00:00 AM","2019","16337","NYTIMES-USCENSUS"
"6/6/2022 12:00:00 AM","Caledonia County","Vermont","Northeast","New England","50005","44.468791","-72.112168 ","5999","28","0","0","6/5/2022 12:00:00 AM","2019","29993","NYTIMES-USCENSUS"
"6/6/2022 12:00:00 AM","Monroe County","Iowa","Midwest","West North Central","19135","41.028847","-92.869642 ","1899","49","0","0","6/5/2022 12:00:00 AM","2019","7707","NYTIMES-USCENSUS"
"6/6/2022 12:00:00 AM","Fresno County","California","West","Pacific","06019","36.761006","-119.655019 ","262836","2766","0","0","6/5/2022 12:00:00 AM","2019","999101","NYTIMES-USCENSUS"
"6/6/2022 12:00:00 AM","Talladega County","Alabama","South","East South Central","01121","33.369314","-86.17593 ","22604","377","33","0","6/5/2022 12:00:00 AM","2019","79978","NYTIMES-USCENSUS"
"6/6/2022 12:00:00 AM","Tom Green County","Texas","South","West South Central","48451","31.398823","-100.463788 ","41338","553","0","0","6/5/2022 12:00:00 AM","2019","119200","NYTIMES-USCENSUS"
"6/6/2022 12:00:00 AM","Nueces County","Texas","South","West South Central","48355","27.740032","-97.516214 ","94356","1498","0","0","6/5/2022 12:00:00 AM","2019","362294","NYTIMES-USCENSUS"
"6/6/2022 12:00:00 AM","Grant County","Oregon","West","Pacific","41023","44.496326","-119.014057 ","1755","22","13","0","6/5/2022 12:00:00 AM","2019","7199","NYTIMES-USCENSUS"
"6/6/2022 12:00:00 AM","Danville city","Virginia","South","South Atlantic","51590","36.583334","-79.408071 ","11590","283","93","0","6/5/2022 12:00:00 AM","2019","40044","NYTIMES-USCENSUS"
"6/6/2022 12:00:00 AM","Dimmit County","Texas","South","West South Central","48127","28.423587","-99.765871 ","5787","51","5","0","6/5/2022 12:00:00 AM","2019","10124","NYTIMES-USCENSUS"
"6/6/2022 12:00:00 AM","Ralls County","Missouri","Midwest","West North Central","29173","39.553455","-91.524787 ","2505","28","0","0","6/5/2022 12:00:00 AM","2019","10309","NYTIMES-USCENSUS"
"6/6/2022 12:00:00 AM","Jersey County","Illinois","Midwest","East North Central","17083","39.080195","-90.361385 ","6435","91","14","0","6/5/2022 12:00:00 AM","2019","21773","NYTIMES-USCENSUS"
"6/6/2022 12:00:00 AM","Putnam County","Ohio","Midwest","East North Central","39137","41.024533","-84.129879 ","8569","157","0","0","6/5/2022 12:00:00 AM","2019","33861","NYTIMES-USCENSUS"
"6/6/2022 12:00:00 AM","La Crosse County","Wisconsin","Midwest","East North Central","55063","43.908222","-91.111758 ","37051","187","101","0","6/5/2022 12:00:00 AM","2019","118016","NYTIMES-USCENSUS"
"6/6/2022 12:00:00 AM","Whitman County","Washington","West","Pacific","53075","46.905944","-117.53539 ","8928","90","11","0","6/5/2022 12:00:00 AM","2019","50104","NYTIMES-USCENSUS"
"6/6/2022 12:00:00 AM","Marshall County","Oklahoma","South","West South Central","40095","34.027007","-96.770533 ","4615","46","0","0","6/5/2022 12:00:00 AM","2019","16931","NYTIMES-USCENSUS"
"6/6/2022 12:00:00 AM","Tarrant County","Texas","South","West South Central","48439","32.772119","-97.291224 ","574394","5941","334","2","6/5/2022 12:00:00 AM","2019","2102515","NYTIMES-USCENSUS"
"6/6/2022 12:00:00 AM","Floyd County","Georgia","South","South Atlantic","13115","34.263692","-85.213685 ","27671","521","2","0","6/5/2022 12:00:00 AM","2019","98498","NYTIMES-USCENSUS"
"6/6/2022 12:00:00 AM","Faribault County","Minnesota","Midwest","West North Central","27043","43.676522","-93.947234 ","3930","54","5","0","6/5/2022 12:00:00 AM","2019","13653","NYTIMES-USCENSUS"
"6/6/2022 12:00:00 AM","Marion County","Oregon","West","Pacific","41047","44.900898","-122.57626 ","73004","727","261","0","6/5/2022 12:00:00 AM","2019","347818","NYTIMES-USCENSUS"
"6/6/2022 12:00:00 AM","St. Lawrence County","New York","Northeast","Middle Atlantic","36089","44.488112","-75.074311 ","22963","196","7","0","6/5/2022 12:00:00 AM","2019","107740","NYTIMES-USCENSUS"
"6/6/2022 12:00:00 AM","Olmsted County","Minnesota","Midwest","West North Central","27109","43.999499","-92.410098 ","45115","189","87","0","6/5/2022 12:00:00 AM","2019","158293","NYTIMES-USCENSUS"
"6/6/2022 12:00:00 AM","Piute County","Utah","West","Mountain","49031","38.335881","-112.129375 ","305","7","0","0","6/5/2022 12:00:00 AM","2019","1479","NYTIMES-USCENSUS"
"6/6/2022 12:00:00 AM","Lyon County","Kentucky","South","East South Central","21143","37.023976","-88.083391 ","2924","35","17","0","6/5/2022 12:00:00 AM","2019","8210","NYTIMES-USCENSUS"
"6/6/2022 12:00:00 AM","Stevens County","Kansas","Midwest","West North Central","20189","37.2017","-101.317268 ","1469","22","0","0","6/5/2022 12:00:00 AM","2019","5485","NYTIMES-USCENSUS"
"6/6/2022 12:00:00 AM","Kennebec County","Maine","Northeast","New England","23011","44.417012","-69.765764 ","25585","246","0","0","6/5/2022 12:00:00 AM","2019","122302","NYTIMES-USCENSUS"
"6/6/2022 12:00:00 AM","Rusk County","Texas","South","West South Central","48401","32.109423","-94.756382 ","10909","233","7","0","6/5/2022 12:00:00 AM","2019","54406","NYTIMES-USCENSUS"
"6/6/2022 12:00:00 AM","Kimball County","Nebraska","Midwest","West North Central","31105","41.199274","-103.703153 ","752","9","0","0","6/5/2022 12:00:00 AM","2019","3632","NYTIMES-USCENSUS"
"6/6/2022 12:00:00 AM","Petersburg city","Virginia","South","South Atlantic","51730","37.20473","-77.392368 ","8428","140","28","0","6/5/2022 12:00:00 AM","2019","31346","NYTIMES-USCENSUS"
"6/6/2022 12:00:00 AM","Broome County","New York","Northeast","Middle Atlantic","36007","42.161977","-75.830283 ","50540","531","20","0","6/5/2022 12:00:00 AM","2019","190488","NYTIMES-USCENSUS"
"6/6/2022 12:00:00 AM","Charles Mix County","South Dakota","Midwest","West North Central","46023","43.206185","-98.595143 ","2965","35","0","0","6/5/2022 12:00:00 AM","2019","9292","NYTIMES-USCENSUS"
"6/6/2022 12:00:00 AM","Strafford County","New Hampshire","Northeast","New England","33017","43.293272","-71.035589 ","32146","214","104","0","6/5/2022 12:00:00 AM","2019","130633","NYTIMES-USCENSUS"
"6/6/2022 12:00:00 AM","Pontotoc County","Oklahoma","South","West South Central","40123","34.721415","-96.69178 ","12184","151","0","0","6/5/2022 12:00:00 AM","2019","38284","NYTIMES-USCENSUS"
"6/6/2022 12:00:00 AM","Lane County","Kansas","Midwest","West North Central","20101","38.481286","-100.466185 ","299","12","0","0","6/5/2022 12:00:00 AM","2019","1535","NYTIMES-USCENSUS"
"6/6/2022 12:00:00 AM","Sandusky County","Ohio","Midwest","East North Central","39143","41.355319","-83.142776 ","14212","239","0","0","6/5/2022 12:00:00 AM","2019","58518","NYTIMES-USCENSUS"
"6/6/2022 12:00:00 AM","Juab County","Utah","West","Mountain","49023","39.71412","-112.790471 ","2915","25","0","0","6/5/2022 12:00:00 AM","2019","12017","NYTIMES-USCENSUS"
"6/6/2022 12:00:00 AM","Carbon County","Utah","West","Mountain","49007","39.673284","-110.588484 ","5324","46","0","0","6/5/2022 12:00:00 AM","2019","20463","NYTIMES-USCENSUS"
"6/6/2022 12:00:00 AM","Cherokee County","North Carolina","South","South Atlantic","37039","35.13715","-84.061449 ","7196","121","0","0","6/5/2022 12:00:00 AM","2019","28612","NYTIMES-USCENSUS"
"6/6/2022 12:00:00 AM","Ripley County","Indiana","Midwest","East North Central","18137","39.100226","-85.260494 ","8425","139","9","0","6/5/2022 12:00:00 AM","2019","28324","NYTIMES-USCENSUS"
"6/6/2022 12:00:00 AM","Jackson County","Ohio","Midwest","East North Central","39079","39.013477","-82.614142 ","9148","141","0","0","6/5/2022 12:00:00 AM","2019","32413","NYTIMES-USCENSUS"
"6/6/2022 12:00:00 AM","Waseca County","Minnesota","Midwest","West North Central","27161","44.01846","-93.589844 ","5694","39","8","0","6/5/2022 12:00:00 AM","2019","18612","NYTIMES-USCENSUS"
"6/6/2022 12:00:00 AM","Parke County","Indiana","Midwest","East North Central","18121","39.77425","-87.19695 ","3640","47","4","0","6/5/2022 12:00:00 AM","2019","16937","NYTIMES-USCENSUS"
"6/6/2022 12:00:00 AM","Ellsworth County","Kansas","Midwest","West North Central","20053","38.700845","-98.205355 ","2022","31","0","0","6/5/2022 12:00:00 AM","2019","6102","NYTIMES-USCENSUS"
"6/6/2022 12:00:00 AM","Greenup County","Kentucky","South","East South Central","21089","38.563562","-82.93382 ","12437","148","121","1","6/5/2022 12:00:00 AM","2019","35098","NYTIMES-USCENSUS"
"6/6/2022 12:00:00 AM","Tippah County","Mississippi","South","East South Central","28139","34.763618","-88.918819 ","7455","109","57","0","6/5/2022 12:00:00 AM","2019","22015","NYTIMES-USCENSUS"
"6/6/2022 12:00:00 AM","Dallas County","Arkansas","South","West South Central","05039","33.967823","-92.653999 ","1778","32","0","0","6/5/2022 12:00:00 AM","2019","7009","NYTIMES-USCENSUS"
"6/6/2022 12:00:00 AM","Pope County","Arkansas","South","West South Central","05115","35.456557","-93.026818 ","18518","211","0","0","6/5/2022 12:00:00 AM","2019","64072","NYTIMES-USCENSUS"
"6/6/2022 12:00:00 AM","Orange County","Virginia","South","South Atlantic","51137","38.249326","-78.011092 ","7175","88","20","0","6/5/2022 12:00:00 AM","2019","37051","NYTIMES-USCENSUS"
"6/6/2022 12:00:00 AM","Lexington city","Virginia","South","South Atlantic","51678","37.782332","-79.44432 ","2926","40","8","0","6/5/2022 12:00:00 AM","2019","7446","NYTIMES-USCENSUS"
"6/6/2022 12:00:00 AM","Montgomery County","North Carolina","South","South Atlantic","37123","35.327548","-79.910752 ","7393","129","0","0","6/5/2022 12:00:00 AM","2019","27173","NYTIMES-USCENSUS"
"6/6/2022 12:00:00 AM","Pierce County","Georgia","South","South Atlantic","13229","31.353998","-82.21037 ","5711","130","-2","0","6/5/2022 12:00:00 AM","2019","19465","NYTIMES-USCENSUS"
"6/6/2022 12:00:00 AM","Wilkes County","Georgia","South","South Atlantic","13317","33.779031","-82.747921 ","2257","53","0","0","6/5/2022 12:00:00 AM","2019","9777","NYTIMES-USCENSUS"
"6/6/2022 12:00:00 AM","Pickens County","Georgia","South","South Atlantic","13227","34.456746","-84.490351 ","8467","170","-2","0","6/5/2022 12:00:00 AM","2019","32591","NYTIMES-USCENSUS"
"6/6/2022 12:00:00 AM","Steuben County","New York","Northeast","Middle Atlantic","36101","42.266725","-77.385525 ","21920","258","11","0","6/5/2022 12:00:00 AM","2019","95379","NYTIMES-USCENSUS"
"6/6/2022 12:00:00 AM","Otter Tail County","Minnesota","Midwest","West North Central","27111","46.405727","-95.714581 ","13986","169","5","0","6/5/2022 12:00:00 AM","2019","58746","NYTIMES-USCENSUS"
"6/6/2022 12:00:00 AM","Hampton city","Virginia","South","South Atlantic","51650","37.047961","-76.297293 ","29597","331","135","0","6/5/2022 12:00:00 AM","2019","134510","NYTIMES-USCENSUS"
"6/6/2022 12:00:00 AM","Fredericksburg city","Virginia","South","South Atlantic","51630","38.299272","-77.486658 ","5726","42","25","0","6/5/2022 12:00:00 AM","2019","29036","NYTIMES-USCENSUS"
"6/6/2022 12:00:00 AM","Deer Lodge County","Montana","West","Mountain","30023","46.094672","-113.141624 ","2595","29","0","0","6/5/2022 12:00:00 AM","2019","9140","NYTIMES-USCENSUS"
"6/6/2022 12:00:00 AM","Benton County","Washington","West","Pacific","53005","46.228125","-119.516659 ","53925","477","151","0","6/5/2022 12:00:00 AM","2019","204390","NYTIMES-USCENSUS"
"6/6/2022 12:00:00 AM","Miami-Dade County","Florida","South","South Atlantic","12086","25.616009","-80.50375 ","1270888","10971","0","0","6/5/2022 12:00:00 AM","2019","2716940","NYTIMES-USCENSUS"
"6/6/2022 12:00:00 AM","Gilchrist County","Florida","South","South Atlantic","12041","29.723456","-82.795801 ","4622","94","0","0","6/5/2022 12:00:00 AM","2019","18582","NYTIMES-USCENSUS"
"6/6/2022 12:00:00 AM","Fayette County","Illinois","Midwest","East North Central","17051","39.001125","-89.017923 ","7236","104","8","0","6/5/2022 12:00:00 AM","2019","21336","NYTIMES-USCENSUS"
"6/6/2022 12:00:00 AM","Humboldt County","Nevada","West","Mountain","32013","41.407914","-118.127591 ","2521","57","0","0","6/5/2022 12:00:00 AM","2019","16831","NYTIMES-USCENSUS"
"6/6/2022 12:00:00 AM","King and Queen County","Virginia","South","South Atlantic","51097","37.717772","-76.905581 ","1175","12","1","0","6/5/2022 12:00:00 AM","2019","7025","NYTIMES-USCENSUS"
"6/6/2022 12:00:00 AM","Wetzel County","West Virginia","South","South Atlantic","54103","39.59818","-80.635399 ","4486","86","28","0","6/5/2022 12:00:00 AM","2019","15065","NYTIMES-USCENSUS"
"6/6/2022 12:00:00 AM","Wise County","Virginia","South","South Atlantic","51195","36.974561","-82.62156 ","10540","200","32","1","6/5/2022 12:00:00 AM","2019","37383","NYTIMES-USCENSUS"
"6/6/2022 12:00:00 AM","Hot Spring County","Arkansas","South","West South Central","05059","34.315177","-92.944147 ","11289","134","1","0","6/5/2022 12:00:00 AM","2019","33771","NYTIMES-USCENSUS"
"6/6/2022 12:00:00 AM","Douglas County","Oregon","West","Pacific","41019","43.286328","-123.154476 ","20653","402","45","0","6/5/2022 12:00:00 AM","2019","110980","NYTIMES-USCENSUS"
"6/6/2022 12:00:00 AM","Oregon County","Missouri","Midwest","West North Central","29149","36.68531","-91.401827 ","2047","37","0","0","6/5/2022 12:00:00 AM","2019","10529","NYTIMES-USCENSUS"
"6/6/2022 12:00:00 AM","Clarke County","Virginia","South","South Atlantic","51043","39.115307","-77.990748 ","2804","43","14","0","6/5/2022 12:00:00 AM","2019","14619","NYTIMES-USCENSUS"
"6/6/2022 12:00:00 AM","Southampton County","Virginia","South","South Atlantic","51175","36.720068","-77.103813 ","3585","96","10","0","6/5/2022 12:00:00 AM","2019","17631","NYTIMES-USCENSUS"
"6/6/2022 12:00:00 AM","Fauquier County","Virginia","South","South Atlantic","51061","38.744096","-77.8215 ","13627","146","42","0","6/5/2022 12:00:00 AM","2019","71222","NYTIMES-USCENSUS"
"6/6/2022 12:00:00 AM","Christian County","Kentucky","South","East South Central","21047","36.892059","-87.492986 ","16610","214","89","1","6/5/2022 12:00:00 AM","2019","70461","NYTIMES-USCENSUS"
"6/6/2022 12:00:00 AM","Shasta County","California","West","Pacific","06089","40.760514","-122.043556 ","37565","655","0","0","6/5/2022 12:00:00 AM","2019","180080","NYTIMES-USCENSUS"
"6/6/2022 12:00:00 AM","Harper County","Oklahoma","South","West South Central","40059","36.80035","-99.662805 ","718","12","0","0","6/5/2022 12:00:00 AM","2019","3688","NYTIMES-USCENSUS"
"6/6/2022 12:00:00 AM","Sacramento County","California","West","Pacific","06067","38.450136","-121.344329 ","327373","3200","0","0","6/5/2022 12:00:00 AM","2019","1552058","NYTIMES-USCENSUS"
"6/6/2022 12:00:00 AM","Hardin County","Texas","South","West South Central","48199","30.329648","-94.393178 ","12156","251","7","0","6/5/2022 12:00:00 AM","2019","57602","NYTIMES-USCENSUS"
"6/6/2022 12:00:00 AM","Crawford County","Wisconsin","Midwest","East North Central","55023","43.242768","-90.935185 ","4371","28","6","0","6/5/2022 12:00:00 AM","2019","16131","NYTIMES-USCENSUS"
"6/6/2022 12:00:00 AM","St. Louis County","Minnesota","Midwest","West North Central","27137","47.578635","-92.514593 ","50502","540","97","0","6/5/2022 12:00:00 AM","2019","199070","NYTIMES-USCENSUS"
"6/6/2022 12:00:00 AM","Wythe County","Virginia","South","South Atlantic","51197","36.899867","-81.083001 ","7716","149","20","0","6/5/2022 12:00:00 AM","2019","28684","NYTIMES-USCENSUS"
"6/6/2022 12:00:00 AM","Muskogee County","Oklahoma","South","West South Central","40101","35.617551","-95.383911 ","20077","348","0","0","6/5/2022 12:00:00 AM","2019","67997","NYTIMES-USCENSUS"
"6/6/2022 12:00:00 AM","Todd County","Kentucky","South","East South Central","21219","36.840338","-87.183642 ","3028","44","13","0","6/5/2022 12:00:00 AM","2019","12294","NYTIMES-USCENSUS"
"6/6/2022 12:00:00 AM","Fayette County","Alabama","South","East South Central","01057","33.716157","-87.764292 ","5009","96","6","0","6/5/2022 12:00:00 AM","2019","16302","NYTIMES-USCENSUS"
"6/6/2022 12:00:00 AM","Allen Parish","Louisiana","South","West South Central","22003","30.652744","-92.819605 ","7922","141","1","0","6/5/2022 12:00:00 AM","2019","25627","NYTIMES-USCENSUS"
"6/6/2022 12:00:00 AM","Iowa County","Wisconsin","Midwest","East North Central","55049","43.001021","-90.133691 ","5635","30","19","0","6/5/2022 12:00:00 AM","2019","23678","NYTIMES-USCENSUS"
"6/6/2022 12:00:00 AM","Natchitoches Parish","Louisiana","South","West South Central","22069","31.732509","-93.082546 ","10250","168","13","0","6/5/2022 12:00:00 AM","2019","38158","NYTIMES-USCENSUS"
"6/6/2022 12:00:00 AM","Middlesex County","Connecticut","Northeast","New England","09007","41.433003","-72.52278 ","32077","486","101","0","6/5/2022 12:00:00 AM","2019","162436","NYTIMES-USCENSUS"
"6/6/2022 12:00:00 AM","Pointe Coupee Parish","Louisiana","South","West South Central","22077","30.708319","-91.604621 ","6395","93","11","0","6/5/2022 12:00:00 AM","2019","21730","NYTIMES-USCENSUS"
"6/6/2022 12:00:00 AM","Routt County","Colorado","West","Mountain","08107","40.483664","-106.987702 ","6784","25","49","0","6/5/2022 12:00:00 AM","2019","25638","NYTIMES-USCENSUS"
"6/6/2022 12:00:00 AM","Pender County","North Carolina","South","South Atlantic","37141","34.512556","-77.888106 ","15698","128","0","0","6/5/2022 12:00:00 AM","2019","63060","NYTIMES-USCENSUS"
"6/6/2022 12:00:00 AM","Limestone County","Texas","South","West South Central","48293","31.547543","-96.593623 ","5149","124","1","0","6/5/2022 12:00:00 AM","2019","23437","NYTIMES-USCENSUS"
"6/6/2022 12:00:00 AM","Smith County","Texas","South","West South Central","48423","32.377016","-95.270041 ","45902","969","21","0","6/5/2022 12:00:00 AM","2019","232751","NYTIMES-USCENSUS"
"6/6/2022 12:00:00 AM","DeKalb County","Missouri","Midwest","West North Central","29063","39.894665","-94.40719 ","2246","47","0","0","6/5/2022 12:00:00 AM","2019","12547","NYTIMES-USCENSUS"
"6/6/2022 12:00:00 AM","Kendall County","Illinois","Midwest","East North Central","17093","41.58814","-88.430626 ","34051","171","144","0","6/5/2022 12:00:00 AM","2019","128990","NYTIMES-USCENSUS"
"6/6/2022 12:00:00 AM","Calhoun County","Iowa","Midwest","West North Central","19025","42.38617","-94.643683 ","2640","25","0","0","6/5/2022 12:00:00 AM","2019","9668","NYTIMES-USCENSUS"
"6/6/2022 12:00:00 AM","Reeves County","Texas","South","West South Central","48389","31.308366","-103.712706 ","4677","74","0","0","6/5/2022 12:00:00 AM","2019","15976","NYTIMES-USCENSUS"
"6/6/2022 12:00:00 AM","Augusta County","Virginia","South","South Atlantic","51015","38.17259","-79.140975 ","19672","209","95","0","6/5/2022 12:00:00 AM","2019","75558","NYTIMES-USCENSUS"
"6/6/2022 12:00:00 AM","Cheatham County","Tennessee","South","East South Central","47021","36.255169","-87.100808 ","11093","124","0","0","6/5/2022 12:00:00 AM","2019","40667","NYTIMES-USCENSUS"
"6/6/2022 12:00:00 AM","Jefferson Davis County","Mississippi","South","East South Central","28065","31.564808","-89.827086 ","2899","53","12","0","6/5/2022 12:00:00 AM","2019","11128","NYTIMES-USCENSUS"
"6/6/2022 12:00:00 AM","Ogemaw County","Michigan","Midwest","East North Central","26129","44.33328","-84.128073 ","4452","106","0","0","6/5/2022 12:00:00 AM","2019","20997","NYTIMES-USCENSUS"
"6/6/2022 12:00:00 AM","Mississippi County","Missouri","Midwest","West North Central","29133","36.826264","-89.295929 ","3553","59","0","0","6/5/2022 12:00:00 AM","2019","13180","NYTIMES-USCENSUS"
"6/6/2022 12:00:00 AM","Lyon County","Kansas","Midwest","West North Central","20111","38.455403","-96.161641 ","10261","124","0","0","6/5/2022 12:00:00 AM","2019","33195","NYTIMES-USCENSUS"
"6/6/2022 12:00:00 AM","Dale County","Alabama","South","East South Central","01045","31.430654","-85.609476 ","13119","231","35","0","6/5/2022 12:00:00 AM","2019","49172","NYTIMES-USCENSUS"
"6/6/2022 12:00:00 AM","Lake County","Colorado","West","Mountain","08065","39.205341","-106.350079 ","1884","2","11","0","6/5/2022 12:00:00 AM","2019","8127","NYTIMES-USCENSUS"
"6/6/2022 12:00:00 AM","Lake County","Michigan","Midwest","East North Central","26085","43.995187","-85.8114 ","1954","37","0","0","6/5/2022 12:00:00 AM","2019","11853","NYTIMES-USCENSUS"
"6/6/2022 12:00:00 AM","Mason County","Michigan","Midwest","East North Central","26105","43.957196","-86.442937 ","7012","96","0","0","6/5/2022 12:00:00 AM","2019","29144","NYTIMES-USCENSUS"
"6/6/2022 12:00:00 AM","Douglas County","Nevada","West","Mountain","32005","38.905129","-119.609019 ","7596","92","0","0","6/5/2022 12:00:00 AM","2019","48905","NYTIMES-USCENSUS"
"6/6/2022 12:00:00 AM","Custer County","Colorado","West","Mountain","08027","38.101996","-105.373512 ","688","21","2","0","6/5/2022 12:00:00 AM","2019","5068","NYTIMES-USCENSUS"
"6/6/2022 12:00:00 AM","Charlottesville city","Virginia","South","South Atlantic","51540","38.037658","-78.485381 ","10047","74","47","0","6/5/2022 12:00:00 AM","2019","47266","NYTIMES-USCENSUS"
"6/6/2022 12:00:00 AM","Lac qui Parle County","Minnesota","Midwest","West North Central","27073","44.999856","-96.176836 ","1800","29","5","0","6/5/2022 12:00:00 AM","2019","6623","NYTIMES-USCENSUS"
"6/6/2022 12:00:00 AM","Champaign County","Ohio","Midwest","East North Central","39021","40.132775","-83.767604 ","8905","148","0","0","6/5/2022 12:00:00 AM","2019","38885","NYTIMES-USCENSUS"
"6/6/2022 12:00:00 AM","Armstrong County","Texas","South","West South Central","48011","34.964179","-101.356636 ","556","10","0","0","6/5/2022 12:00:00 AM","2019","1887","NYTIMES-USCENSUS"
"6/6/2022 12:00:00 AM","Perry County","Pennsylvania","Northeast","Middle Atlantic","42099","40.39778","-77.266328 ","8993","188","0","0","6/5/2022 12:00:00 AM","2019","46272","NYTIMES-USCENSUS"
"6/6/2022 12:00:00 AM","Highlands County","Florida","South","South Atlantic","12055","27.34108","-81.342353 ","24868","692","0","0","6/5/2022 12:00:00 AM","2019","106221","NYTIMES-USCENSUS"
"6/6/2022 12:00:00 AM","Dallas County","Texas","South","West South Central","48113","32.766987","-96.778424 ","581750","6781","481","0","6/5/2022 12:00:00 AM","2019","2635516","NYTIMES-USCENSUS"
"6/6/2022 12:00:00 AM","Winnebago County","Illinois","Midwest","East North Central","17201","42.337396","-89.161205 ","82199","860","337","0","6/5/2022 12:00:00 AM","2019","282572","NYTIMES-USCENSUS"
"6/6/2022 12:00:00 AM","McKinley County","New Mexico","West","Mountain","35031","35.584062","-108.253294 ","26368","593","76","0","6/5/2022 12:00:00 AM","2019","71367","NYTIMES-USCENSUS"
"6/6/2022 12:00:00 AM","McPherson County","Kansas","Midwest","West North Central","20113","38.395812","-97.647489 ","7944","130","0","0","6/5/2022 12:00:00 AM","2019","28542","NYTIMES-USCENSUS"
"6/6/2022 12:00:00 AM","Elk County","Kansas","Midwest","West North Central","20049","37.456026","-96.244642 ","572","12","0","0","6/5/2022 12:00:00 AM","2019","2530","NYTIMES-USCENSUS"
"6/6/2022 12:00:00 AM","Lincoln County","Idaho","West","Mountain","16063","42.990782","-114.153089 ","1114","15","2","0","6/5/2022 12:00:00 AM","2019","5366","NYTIMES-USCENSUS"
"6/6/2022 12:00:00 AM","Franklin County","Idaho","West","Mountain","16041","42.173609","-111.822965 ","2360","29","6","0","6/5/2022 12:00:00 AM","2019","13876","NYTIMES-USCENSUS"
"6/6/2022 12:00:00 AM","Ransom County","North Dakota","Midwest","West North Central","38073","46.449276","-97.647554 ","1534","28","0","0","6/5/2022 12:00:00 AM","2019","5218","NYTIMES-USCENSUS"
"6/6/2022 12:00:00 AM","Perry County","Missouri","Midwest","West North Central","29157","37.71113","-89.802125 ","5119","46","0","0","6/5/2022 12:00:00 AM","2019","19136","NYTIMES-USCENSUS"
"6/6/2022 12:00:00 AM","Hanover County","Virginia","South","South Atlantic","51085","37.760215","-77.491317 ","23212","287","85","0","6/5/2022 12:00:00 AM","2019","107766","NYTIMES-USCENSUS"
"6/6/2022 12:00:00 AM","Nevada County","California","West","Pacific","06057","39.297508","-120.771343 ","18041","127","0","0","6/5/2022 12:00:00 AM","2019","99755","NYTIMES-USCENSUS"
"6/6/2022 12:00:00 AM","Hill County","Montana","West","Mountain","30041","48.631959","-110.106321 ","4608","73","0","0","6/5/2022 12:00:00 AM","2019","16484","NYTIMES-USCENSUS"
"6/6/2022 12:00:00 AM","Lawrence County","Indiana","Midwest","East North Central","18093","38.839815","-86.48782 ","12260","263","15","0","6/5/2022 12:00:00 AM","2019","45370","NYTIMES-USCENSUS"
"6/6/2022 12:00:00 AM","Randolph County","Alabama","South","East South Central","01111","33.296461","-85.464064 ","5095","75","7","0","6/5/2022 12:00:00 AM","2019","22722","NYTIMES-USCENSUS"
"6/6/2022 12:00:00 AM","Kootenai County","Idaho","West","Mountain","16055","47.675957","-116.695919 ","42541","594","34","0","6/5/2022 12:00:00 AM","2019","165697","NYTIMES-USCENSUS"
"6/6/2022 12:00:00 AM","Braxton County","West Virginia","South","South Atlantic","54007","38.69933","-80.73166 ","4012","44","15","0","6/5/2022 12:00:00 AM","2019","13957","NYTIMES-USCENSUS"
"6/6/2022 12:00:00 AM","Franklin County","Kentucky","South","East South Central","21073","38.234919","-84.868786 ","14267","157","103","1","6/5/2022 12:00:00 AM","2019","50991","NYTIMES-USCENSUS"
"6/6/2022 12:00:00 AM","Coryell County","Texas","South","West South Central","48099","31.391177","-97.798022 ","17829","213","10","0","6/5/2022 12:00:00 AM","2019","75951","NYTIMES-USCENSUS"
"6/6/2022 12:00:00 AM","Highland County","Virginia","South","South Atlantic","51091","38.366243","-79.564472 ","396","7","0","0","6/5/2022 12:00:00 AM","2019","2190","NYTIMES-USCENSUS"
"6/6/2022 12:00:00 AM","Grayson County","Texas","South","West South Central","48181","33.624524","-96.675693 ","27331","636","9","0","6/5/2022 12:00:00 AM","2019","136212","NYTIMES-USCENSUS"
"6/6/2022 12:00:00 AM","Chaves County","New Mexico","West","Mountain","35005","33.361604","-104.469837 ","21886","337","26","2","6/5/2022 12:00:00 AM","2019","64615","NYTIMES-USCENSUS"
"6/6/2022 12:00:00 AM","Allegany County","New York","Northeast","Middle Atlantic","36003","42.247853","-78.026153 ","9518","156","4","0","6/5/2022 12:00:00 AM","2019","46091","NYTIMES-USCENSUS"
"6/6/2022 12:00:00 AM","Franklin County","Kansas","Midwest","West North Central","20059","38.558019","-95.278962 ","7088","93","0","0","6/5/2022 12:00:00 AM","2019","25544","NYTIMES-USCENSUS"
"6/6/2022 12:00:00 AM","Montgomery County","New York","Northeast","Middle Atlantic","36057","42.900891","-74.435357 ","12900","206","6","0","6/5/2022 12:00:00 AM","2019","49221","NYTIMES-USCENSUS"
"6/6/2022 12:00:00 AM","Camden County","Missouri","Midwest","West North Central","29029","38.026527","-92.765327 ","9403","182","0","0","6/5/2022 12:00:00 AM","2019","46305","NYTIMES-USCENSUS"
"6/6/2022 12:00:00 AM","Gloucester County","Virginia","South","South Atlantic","51073","37.403541","-76.523505 ","7642","104","21","0","6/5/2022 12:00:00 AM","2019","37348","NYTIMES-USCENSUS"
"6/6/2022 12:00:00 AM","Johnston County","North Carolina","South","South Atlantic","37101","35.513419","-78.367348 ","61914","453","0","0","6/5/2022 12:00:00 AM","2019","209339","NYTIMES-USCENSUS"
"6/6/2022 12:00:00 AM","Shelby County","Indiana","Midwest","East North Central","18145","39.524135","-85.792174 ","13838","184","5","0","6/5/2022 12:00:00 AM","2019","44729","NYTIMES-USCENSUS"
"6/6/2022 12:00:00 AM","Davidson County","Tennessee","South","East South Central","47037","36.169129","-86.78479 ","215914","1693","713","0","6/5/2022 12:00:00 AM","2019","694144","NYTIMES-USCENSUS"
"6/6/2022 12:00:00 AM","Teton County","Idaho","West","Mountain","16081","43.760994","-111.211765 ","2750","9","3","0","6/5/2022 12:00:00 AM","2019","12142","NYTIMES-USCENSUS"
"6/6/2022 12:00:00 AM","Canadian County","Oklahoma","South","West South Central","40017","35.543354","-97.979889 ","40302","392","0","0","6/5/2022 12:00:00 AM","2019","148306","NYTIMES-USCENSUS"
"6/6/2022 12:00:00 AM","Kalamazoo County","Michigan","Midwest","East North Central","26077","42.246266","-85.532854 ","62639","679","0","0","6/5/2022 12:00:00 AM","2019","265066","NYTIMES-USCENSUS"
"6/6/2022 12:00:00 AM","Garfield County","Oklahoma","South","West South Central","40047","36.378132","-97.788741 ","15304","295","0","0","6/5/2022 12:00:00 AM","2019","61056","NYTIMES-USCENSUS"
"6/6/2022 12:00:00 AM","Holt County","Missouri","Midwest","West North Central","29087","40.095724","-95.219072 ","1094","30","0","0","6/5/2022 12:00:00 AM","2019","4403","NYTIMES-USCENSUS"
"6/6/2022 12:00:00 AM","Galveston County","Texas","South","West South Central","48167","29.233453","-94.888456 ","98966","854","126","0","6/5/2022 12:00:00 AM","2019","342139","NYTIMES-USCENSUS"
"6/6/2022 12:00:00 AM","Addison County","Vermont","Northeast","New England","50001","44.031248","-73.141581 ","6135","19","0","0","6/5/2022 12:00:00 AM","2019","36777","NYTIMES-USCENSUS"
"6/6/2022 12:00:00 AM","Lincoln County","Oregon","West","Pacific","41041","44.641061","-123.911212 ","7533","87","23","0","6/5/2022 12:00:00 AM","2019","49962","NYTIMES-USCENSUS"
"6/6/2022 12:00:00 AM","Phelps County","Missouri","Midwest","West North Central","29161","37.866326","-91.790349 ","10439","243","0","0","6/5/2022 12:00:00 AM","2019","44573","NYTIMES-USCENSUS"
"6/6/2022 12:00:00 AM","Greenwood County","Kansas","Midwest","West North Central","20073","37.879347","-96.241732 ","1817","27","0","0","6/5/2022 12:00:00 AM","2019","5982","NYTIMES-USCENSUS"
"6/6/2022 12:00:00 AM","Edmunds County","South Dakota","Midwest","West North Central","46045","45.41168","-99.205362 ","952","16","0","0","6/5/2022 12:00:00 AM","2019","3829","NYTIMES-USCENSUS"
"6/6/2022 12:00:00 AM","Colorado County","Texas","South","West South Central","48089","29.596296","-96.508935 ","3831","66","0","0","6/5/2022 12:00:00 AM","2019","21493","NYTIMES-USCENSUS"
"6/6/2022 12:00:00 AM","Livingston County","Illinois","Midwest","East North Central","17105","40.894376","-88.552852 ","11200","148","35","0","6/5/2022 12:00:00 AM","2019","35648","NYTIMES-USCENSUS"
"6/6/2022 12:00:00 AM","Dooly County","Georgia","South","South Atlantic","13093","32.151995","-83.807167 ","2403","69","0","0","6/5/2022 12:00:00 AM","2019","13390","NYTIMES-USCENSUS"
"6/6/2022 12:00:00 AM","Logan County","Nebraska","Midwest","West North Central","31113","41.542155","-100.443665 ","138","0","0","0","6/5/2022 12:00:00 AM","2019","748","NYTIMES-USCENSUS"
"6/6/2022 12:00:00 AM","Wyandot County","Ohio","Midwest","East North Central","39175","40.839782","-83.313681 ","5487","105","0","0","6/5/2022 12:00:00 AM","2019","21772","NYTIMES-USCENSUS"
"6/6/2022 12:00:00 AM","Carroll County","Kentucky","South","East South Central","21041","38.668394","-85.124024 ","3541","48","12","2","6/5/2022 12:00:00 AM","2019","10631","NYTIMES-USCENSUS"
"6/6/2022 12:00:00 AM","Saline County","Illinois","Midwest","East North Central","17165","37.751508","-88.545024 ","8048","112","13","0","6/5/2022 12:00:00 AM","2019","23491","NYTIMES-USCENSUS"
"6/6/2022 12:00:00 AM","Fulton County","New York","Northeast","Middle Atlantic","36035","43.115609","-74.423678 ","13884","172","7","0","6/5/2022 12:00:00 AM","2019","53383","NYTIMES-USCENSUS"
"6/6/2022 12:00:00 AM","Gray County","Texas","South","West South Central","48179","35.402542","-100.812374 ","6213","125","0","0","6/5/2022 12:00:00 AM","2019","21886","NYTIMES-USCENSUS"
"6/6/2022 12:00:00 AM","Wyandotte County","Kansas","Midwest","West North Central","20209","39.115384","-94.763087 ","47797","521","0","0","6/5/2022 12:00:00 AM","2019","165429","NYTIMES-USCENSUS"
"6/6/2022 12:00:00 AM","Polk County","Nebraska","Midwest","West North Central","31143","41.187925","-97.570663 ","1202","18","0","0","6/5/2022 12:00:00 AM","2019","5213","NYTIMES-USCENSUS"
"6/6/2022 12:00:00 AM","Tooele County","Utah","West","Mountain","49045","40.467753","-113.123979 ","21802","103","0","0","6/5/2022 12:00:00 AM","2019","72259","NYTIMES-USCENSUS"
"6/6/2022 12:00:00 AM","Boyd County","Nebraska","Midwest","West North Central","31015","42.894448","-98.773022 ","405","7","0","0","6/5/2022 12:00:00 AM","2019","1919","NYTIMES-USCENSUS"
"6/6/2022 12:00:00 AM","Faulk County","South Dakota","Midwest","West North Central","46049","45.065476","-99.153564 ","574","16","0","0","6/5/2022 12:00:00 AM","2019","2299","NYTIMES-USCENSUS"
"6/6/2022 12:00:00 AM","Crawford County","Indiana","Midwest","East North Central","18025","38.289433","-86.440871 ","2589","40","3","0","6/5/2022 12:00:00 AM","2019","10577","NYTIMES-USCENSUS"
"6/6/2022 12:00:00 AM","Clay County","Kentucky","South","East South Central","21051","37.164273","-83.715473 ","7907","96","22","1","6/5/2022 12:00:00 AM","2019","19901","NYTIMES-USCENSUS"
"6/6/2022 12:00:00 AM","Cass County","Minnesota","Midwest","West North Central","27021","46.951745","-94.333705 ","7270","81","5","0","6/5/2022 12:00:00 AM","2019","29779","NYTIMES-USCENSUS"
"6/6/2022 12:00:00 AM","Antelope County","Nebraska","Midwest","West North Central","31003","42.183225","-98.058037 ","1086","14","4","0","6/5/2022 12:00:00 AM","2019","6298","NYTIMES-USCENSUS"
"6/6/2022 12:00:00 AM","Valley County","Nebraska","Midwest","West North Central","31175","41.564094","-98.983484 ","736","6","3","0","6/5/2022 12:00:00 AM","2019","4158","NYTIMES-USCENSUS"
"6/6/2022 12:00:00 AM","Bedford County","Tennessee","South","East South Central","47003","35.51366","-86.458294 ","15095","238","0","0","6/5/2022 12:00:00 AM","2019","49713","NYTIMES-USCENSUS"
"6/6/2022 12:00:00 AM","Hartley County","Texas","South","West South Central","48205","35.840244","-102.610047 ","1365","3","0","0","6/5/2022 12:00:00 AM","2019","5576","NYTIMES-USCENSUS"
"6/6/2022 12:00:00 AM","Pamlico County","North Carolina","South","South Atlantic","37137","35.147575","-76.665268 ","2702","28","0","0","6/5/2022 12:00:00 AM","2019","12726","NYTIMES-USCENSUS"
"6/6/2022 12:00:00 AM","Lewis County","Idaho","West","Mountain","16061","46.236328","-116.42376 ","1149","29","0","0","6/5/2022 12:00:00 AM","2019","3838","NYTIMES-USCENSUS"
"6/6/2022 12:00:00 AM","Hamlin County","South Dakota","Midwest","West North Central","46057","44.680619","-97.178598 ","1527","41","0","0","6/5/2022 12:00:00 AM","2019","6164","NYTIMES-USCENSUS"
"6/6/2022 12:00:00 AM","Oxford County","Maine","Northeast","New England","23017","44.4945","-70.734421 ","12236","148","0","0","6/5/2022 12:00:00 AM","2019","57975","NYTIMES-USCENSUS"
"6/6/2022 12:00:00 AM","Washington County","Iowa","Midwest","West North Central","19183","41.329401","-91.725052 ","5753","79","0","0","6/5/2022 12:00:00 AM","2019","21965","NYTIMES-USCENSUS"
"6/6/2022 12:00:00 AM","San Joaquin County","California","West","Pacific","06077","37.934982","-121.272244 ","183875","2242","0","0","6/5/2022 12:00:00 AM","2019","762148","NYTIMES-USCENSUS"
"6/6/2022 12:00:00 AM","Nantucket County","Massachusetts","Northeast","New England","25019","41.293392","-70.102164 ","3529","0","6","0","6/5/2022 12:00:00 AM","2019","11399","NYTIMES-USCENSUS"
"6/6/2022 12:00:00 AM","Essex County","Vermont","Northeast","New England","50009","44.724021","-71.732736 ","1329","3","0","0","6/5/2022 12:00:00 AM","2019","6163","NYTIMES-USCENSUS"
"6/6/2022 12:00:00 AM","Woodford County","Kentucky","South","East South Central","21239","38.043103","-84.748855 ","7286","52","100","2","6/5/2022 12:00:00 AM","2019","26734","NYTIMES-USCENSUS"
"6/6/2022 12:00:00 AM","Baker County","Florida","South","South Atlantic","12003","30.324442","-82.302284 ","8786","142","0","0","6/5/2022 12:00:00 AM","2019","29210","NYTIMES-USCENSUS"
"6/6/2022 12:00:00 AM","Rock County","Wisconsin","Midwest","East North Central","55105","42.66988","-89.075284 ","45571","397","121","0","6/5/2022 12:00:00 AM","2019","163354","NYTIMES-USCENSUS"
"6/6/2022 12:00:00 AM","Columbia County","Pennsylvania","Northeast","Middle Atlantic","42037","41.045517","-76.40426 ","15969","248","0","0","6/5/2022 12:00:00 AM","2019","64964","NYTIMES-USCENSUS"
"6/6/2022 12:00:00 AM","San Francisco County","California","West","Pacific","06075","37.727239","-123.032229 ","155507","881","0","0","6/5/2022 12:00:00 AM","2019","881549","NYTIMES-USCENSUS"
"6/6/2022 12:00:00 AM","Brule County","South Dakota","Midwest","West North Central","46015","43.729873","-99.092909 ","1440","22","0","0","6/5/2022 12:00:00 AM","2019","5297","NYTIMES-USCENSUS"
"6/6/2022 12:00:00 AM","Hopkins County","Kentucky","South","East South Central","21107","37.31107","-87.542196 ","15168","256","67","0","6/5/2022 12:00:00 AM","2019","44686","NYTIMES-USCENSUS"
"6/6/2022 12:00:00 AM","Iron County","Michigan","Midwest","East North Central","26071","46.170254","-88.540526 ","2724","88","0","0","6/5/2022 12:00:00 AM","2019","11066","NYTIMES-USCENSUS"
"6/6/2022 12:00:00 AM","Oscoda County","Michigan","Midwest","East North Central","26135","44.687257","-84.126905 ","1483","56","0","0","6/5/2022 12:00:00 AM","2019","8241","NYTIMES-USCENSUS"
"6/6/2022 12:00:00 AM","Clark County","Missouri","Midwest","West North Central","29045","40.407275","-91.729472 ","1645","40","0","0","6/5/2022 12:00:00 AM","2019","6797","NYTIMES-USCENSUS"
"6/6/2022 12:00:00 AM","Taylor County","Georgia","South","South Atlantic","13269","32.554667","-84.251426 ","2012","54","1","0","6/5/2022 12:00:00 AM","2019","8020","NYTIMES-USCENSUS"
"6/6/2022 12:00:00 AM","Gila County","Arizona","West","Mountain","04007","33.789618","-110.81187 ","17545","386","0","0","6/5/2022 12:00:00 AM","2019","54018","NYTIMES-USCENSUS"
"6/6/2022 12:00:00 AM","Mahoning County","Ohio","Midwest","East North Central","39099","41.01088","-80.770396 ","55339","1093","0","0","6/5/2022 12:00:00 AM","2019","228683","NYTIMES-USCENSUS"
"6/6/2022 12:00:00 AM","Dunn County","Wisconsin","Midwest","East North Central","55033","44.947751","-91.897645 ","13847","76","29","1","6/5/2022 12:00:00 AM","2019","45368","NYTIMES-USCENSUS"
"6/6/2022 12:00:00 AM","Smyth County","Virginia","South","South Atlantic","51173","36.842318","-81.539786 ","9037","171","10","0","6/5/2022 12:00:00 AM","2019","30104","NYTIMES-USCENSUS"
"6/6/2022 12:00:00 AM","Chesterfield County","Virginia","South","South Atlantic","51041","37.378434","-77.585847 ","78853","765","371","0","6/5/2022 12:00:00 AM","2019","352802","NYTIMES-USCENSUS"
"6/6/2022 12:00:00 AM","Mitchell County","Kansas","Midwest","West North Central","20123","39.393026","-98.207362 ","1434","24","0","0","6/5/2022 12:00:00 AM","2019","5979","NYTIMES-USCENSUS"
"6/6/2022 12:00:00 AM","Tallapoosa County","Alabama","South","East South Central","01123","32.863308","-85.799618 ","11526","234","21","0","6/5/2022 12:00:00 AM","2019","40367","NYTIMES-USCENSUS"
"6/6/2022 12:00:00 AM","Lycoming County","Pennsylvania","Northeast","Middle Atlantic","42081","41.343882","-77.055262 ","29684","529","0","0","6/5/2022 12:00:00 AM","2019","113299","NYTIMES-USCENSUS"
"6/6/2022 12:00:00 AM","Lyon County","Minnesota","Midwest","West North Central","27083","44.409195","-95.847268 ","7227","74","3","0","6/5/2022 12:00:00 AM","2019","25474","NYTIMES-USCENSUS"
"6/6/2022 12:00:00 AM","Oconee County","South Carolina","South","South Atlantic","45073","34.748766","-83.06154 ","24725","344","0","0","6/5/2022 12:00:00 AM","2019","79546","NYTIMES-USCENSUS"
"6/6/2022 12:00:00 AM","Jackson County","Wisconsin","Midwest","East North Central","55053","44.32459","-90.79951 ","5841","43","10","0","6/5/2022 12:00:00 AM","2019","20643","NYTIMES-USCENSUS"
"6/6/2022 12:00:00 AM","White County","Indiana","Midwest","East North Central","18181","40.75095","-86.864293 ","7029","97","16","0","6/5/2022 12:00:00 AM","2019","24102","NYTIMES-USCENSUS"
"6/6/2022 12:00:00 AM","Arlington County","Virginia","South","South Atlantic","51013","38.878337","-77.100703 ","50422","323","447","0","6/5/2022 12:00:00 AM","2019","236842","NYTIMES-USCENSUS"
"6/6/2022 12:00:00 AM","Carroll County","Iowa","Midwest","West North Central","19027","42.039502","-94.86765 ","5006","66","0","0","6/5/2022 12:00:00 AM","2019","20165","NYTIMES-USCENSUS"
"6/6/2022 12:00:00 AM","Bradford County","Florida","South","South Atlantic","12007","29.952386","-82.166698 ","7639","150","0","0","6/5/2022 12:00:00 AM","2019","28201","NYTIMES-USCENSUS"
"6/6/2022 12:00:00 AM","Antrim County","Michigan","Midwest","East North Central","26009","45.005455","-85.175639 ","4587","68","0","0","6/5/2022 12:00:00 AM","2019","23324","NYTIMES-USCENSUS"
"6/6/2022 12:00:00 AM","Seneca County","New York","Northeast","Middle Atlantic","36099","42.782294","-76.827088 ","6526","92","1","0","6/5/2022 12:00:00 AM","2019","34016","NYTIMES-USCENSUS"
"6/6/2022 12:00:00 AM","Lauderdale County","Mississippi","South","East South Central","28075","32.403998","-88.660449 ","19180","367","125","0","6/5/2022 12:00:00 AM","2019","74125","NYTIMES-USCENSUS"
"6/6/2022 12:00:00 AM","Montgomery County","Virginia","South","South Atlantic","51121","37.175538","-80.387794 ","20189","154","64","0","6/5/2022 12:00:00 AM","2019","98535","NYTIMES-USCENSUS"
"6/6/2022 12:00:00 AM","Lackawanna County","Pennsylvania","Northeast","Middle Atlantic","42069","41.440284","-75.609666 ","46941","787","0","0","6/5/2022 12:00:00 AM","2019","209674","NYTIMES-USCENSUS"
"6/6/2022 12:00:00 AM","Owen County","Kentucky","South","East South Central","21187","38.499395","-84.84159 ","2403","34","9","0","6/5/2022 12:00:00 AM","2019","10901","NYTIMES-USCENSUS"
"6/6/2022 12:00:00 AM","Tipton County","Tennessee","South","East South Central","47167","35.498763","-89.747145 ","17902","236","0","0","6/5/2022 12:00:00 AM","2019","61599","NYTIMES-USCENSUS"
"6/6/2022 12:00:00 AM","Cooke County","Texas","South","West South Central","48097","33.639196","-97.210343 ","7453","134","1","0","6/5/2022 12:00:00 AM","2019","41257","NYTIMES-USCENSUS"
"6/6/2022 12:00:00 AM","Plaquemines Parish","Louisiana","South","West South Central","22075","29.282447","-89.576068 ","6702","46","13","0","6/5/2022 12:00:00 AM","2019","23197","NYTIMES-USCENSUS"
