"monitor_date","county","state_name","region","subregion","fips","latitude","longitude","case_count_to_date","death_count_to_date","case_count","death_count","previous_monitor_date","population_year","population","source"
"2/17/2022 12:00:00 AM","Wichita County","Texas","South","West South Central","48485","33.988212","-98.70801 ","32959","629","0","12","2/16/2022 12:00:00 AM","2019","132230","NYTIMES-USCENSUS"
"2/17/2022 12:00:00 AM","Isabella County","Michigan","Midwest","East North Central","26073","43.645233","-84.839424 ","15272","191","0","0","2/16/2022 12:00:00 AM","2019","69872","NYTIMES-USCENSUS"
"2/17/2022 12:00:00 AM","Wilson County","Kansas","Midwest","West North Central","20205","37.558515","-95.745175 ","2773","38","0","0","2/16/2022 12:00:00 AM","2019","8525","NYTIMES-USCENSUS"
"2/17/2022 12:00:00 AM","Uintah County","Utah","West","Mountain","49047","40.125887","-109.517748 ","7916","60","9","0","2/16/2022 12:00:00 AM","2019","35734","NYTIMES-USCENSUS"
"2/17/2022 12:00:00 AM","Major County","Oklahoma","South","West South Central","40093","36.313119","-98.542015 ","2427","36","0","0","2/16/2022 12:00:00 AM","2019","7629","NYTIMES-USCENSUS"
"2/17/2022 12:00:00 AM","Bacon County","Georgia","South","South Atlantic","13005","31.55021","-82.451433 ","3465","70","9","0","2/16/2022 12:00:00 AM","2019","11164","NYTIMES-USCENSUS"
"2/17/2022 12:00:00 AM","St. Francois County","Missouri","Midwest","West North Central","29187","37.810707","-90.473868 ","18384","264","25","0","2/16/2022 12:00:00 AM","2019","67215","NYTIMES-USCENSUS"
"2/17/2022 12:00:00 AM","Elbert County","Georgia","South","South Atlantic","13105","34.116413","-82.841909 ","4522","103","0","0","2/16/2022 12:00:00 AM","2019","19194","NYTIMES-USCENSUS"
"2/17/2022 12:00:00 AM","Searcy County","Arkansas","South","West South Central","05129","35.896387","-92.695888 ","2033","41","3","0","2/16/2022 12:00:00 AM","2019","7881","NYTIMES-USCENSUS"
"2/17/2022 12:00:00 AM","Cameron County","Texas","South","West South Central","48061","26.102923","-97.478958 ","97051","2029","343","0","2/16/2022 12:00:00 AM","2019","423163","NYTIMES-USCENSUS"
"2/17/2022 12:00:00 AM","Dillingham Census Area","Alaska","West","Pacific","02070","59.543326","-158.267123 ","1492","11","0","0","2/16/2022 12:00:00 AM","2019","4916","NYTIMES-USCENSUS"
"2/17/2022 12:00:00 AM","Treutlen County","Georgia","South","South Atlantic","13283","32.409586","-82.570882 ","1609","59","2","0","2/16/2022 12:00:00 AM","2019","6901","NYTIMES-USCENSUS"
"2/17/2022 12:00:00 AM","Whiteside County","Illinois","Midwest","East North Central","17195","41.750673","-89.911005 ","15044","261","20","0","2/16/2022 12:00:00 AM","2019","55175","NYTIMES-USCENSUS"
"2/17/2022 12:00:00 AM","Smith County","Kansas","Midwest","West North Central","20183","39.78466","-98.785429 ","640","8","0","0","2/16/2022 12:00:00 AM","2019","3583","NYTIMES-USCENSUS"
"2/17/2022 12:00:00 AM","Laurens County","Georgia","South","South Atlantic","13175","32.39322","-82.926317 ","13689","278","8","0","2/16/2022 12:00:00 AM","2019","47546","NYTIMES-USCENSUS"
"2/17/2022 12:00:00 AM","Allegheny County","Pennsylvania","Northeast","Middle Atlantic","42003","40.469757","-79.980451 ","258378","3140","370","4","2/16/2022 12:00:00 AM","2019","1216045","NYTIMES-USCENSUS"
"2/17/2022 12:00:00 AM","Charles County","Maryland","South","South Atlantic","24017","38.472853","-77.015427 ","27416","337","20","2","2/16/2022 12:00:00 AM","2019","163257","NYTIMES-USCENSUS"
"2/17/2022 12:00:00 AM","Nemaha County","Kansas","Midwest","West North Central","20131","39.791043","-96.005381 ","3202","60","0","0","2/16/2022 12:00:00 AM","2019","10231","NYTIMES-USCENSUS"
"2/17/2022 12:00:00 AM","Coleman County","Texas","South","West South Central","48083","31.914205","-99.346622 ","1572","67","4","0","2/16/2022 12:00:00 AM","2019","8175","NYTIMES-USCENSUS"
"2/17/2022 12:00:00 AM","Newton County","Arkansas","South","West South Central","05101","35.910742","-93.215898 ","1692","45","3","0","2/16/2022 12:00:00 AM","2019","7753","NYTIMES-USCENSUS"
"2/17/2022 12:00:00 AM","Lincoln County","Tennessee","South","East South Central","47103","35.142784","-86.593403 ","9795","140","0","0","2/16/2022 12:00:00 AM","2019","34366","NYTIMES-USCENSUS"
"2/17/2022 12:00:00 AM","Putnam County","Georgia","South","South Atlantic","13237","33.32106","-83.37179 ","4417","99","2","2","2/16/2022 12:00:00 AM","2019","22119","NYTIMES-USCENSUS"
"2/17/2022 12:00:00 AM","Benton County","Indiana","Midwest","East North Central","18007","40.600939","-87.314786 ","2451","21","8","0","2/16/2022 12:00:00 AM","2019","8748","NYTIMES-USCENSUS"
"2/17/2022 12:00:00 AM","Lorain County","Ohio","Midwest","East North Central","39093","41.438805","-82.179722 ","65907","911","23","0","2/16/2022 12:00:00 AM","2019","309833","NYTIMES-USCENSUS"
"2/17/2022 12:00:00 AM","Lackawanna County","Pennsylvania","Northeast","Middle Atlantic","42069","41.440284","-75.609666 ","42325","709","96","0","2/16/2022 12:00:00 AM","2019","209674","NYTIMES-USCENSUS"
"2/17/2022 12:00:00 AM","Mille Lacs County","Minnesota","Midwest","West North Central","27095","45.929043","-93.632996 ","7048","108","7","1","2/16/2022 12:00:00 AM","2019","26277","NYTIMES-USCENSUS"
"2/17/2022 12:00:00 AM","Pershing County","Nevada","West","Mountain","32027","40.439639","-118.409477 ","1387","29","0","0","2/16/2022 12:00:00 AM","2019","6725","NYTIMES-USCENSUS"
"2/17/2022 12:00:00 AM","Mathews County","Virginia","South","South Atlantic","51115","37.425348","-76.268808 ","1402","27","-1","0","2/16/2022 12:00:00 AM","2019","8834","NYTIMES-USCENSUS"
"2/17/2022 12:00:00 AM","Johnson County","Missouri","Midwest","West North Central","29101","38.741528","-93.811863 ","11882","136","18","0","2/16/2022 12:00:00 AM","2019","54062","NYTIMES-USCENSUS"
"2/17/2022 12:00:00 AM","Hall County","Texas","South","West South Central","48191","34.453189","-100.576343 ","984","21","3","0","2/16/2022 12:00:00 AM","2019","2964","NYTIMES-USCENSUS"
"2/17/2022 12:00:00 AM","Suwannee County","Florida","South","South Atlantic","12121","30.189244","-82.992754 ","12719","270","0","0","2/16/2022 12:00:00 AM","2019","44417","NYTIMES-USCENSUS"
"2/17/2022 12:00:00 AM","Barnes County","North Dakota","Midwest","West North Central","38003","46.94255","-98.070195 ","2938","46","5","0","2/16/2022 12:00:00 AM","2019","10415","NYTIMES-USCENSUS"
"2/17/2022 12:00:00 AM","Grant County","Oregon","West","Pacific","41023","44.496326","-119.014057 ","1546","18","10","0","2/16/2022 12:00:00 AM","2019","7199","NYTIMES-USCENSUS"
"2/17/2022 12:00:00 AM","York County","South Carolina","South","South Atlantic","45091","34.970188","-81.183187 ","76309","586","85","6","2/16/2022 12:00:00 AM","2019","280979","NYTIMES-USCENSUS"
"2/17/2022 12:00:00 AM","Walton County","Georgia","South","South Atlantic","13297","33.783887","-83.731829 ","21840","405","15","2","2/16/2022 12:00:00 AM","2019","94593","NYTIMES-USCENSUS"
"2/17/2022 12:00:00 AM","Geneva County","Alabama","South","East South Central","01061","31.092382","-85.821022 ","6124","149","5","1","2/16/2022 12:00:00 AM","2019","26271","NYTIMES-USCENSUS"
"2/17/2022 12:00:00 AM","Jay County","Indiana","Midwest","East North Central","18075","40.434956","-85.002331 ","4812","76","5","0","2/16/2022 12:00:00 AM","2019","20436","NYTIMES-USCENSUS"
"2/17/2022 12:00:00 AM","Coffey County","Kansas","Midwest","West North Central","20031","38.23645","-95.729137 ","2377","39","0","0","2/16/2022 12:00:00 AM","2019","8179","NYTIMES-USCENSUS"
"2/17/2022 12:00:00 AM","Brown County","Wisconsin","Midwest","East North Central","55009","44.474024","-87.99613 ","83029","464","70","1","2/16/2022 12:00:00 AM","2019","264542","NYTIMES-USCENSUS"
"2/17/2022 12:00:00 AM","Will County","Illinois","Midwest","East North Central","17197","41.448474","-87.978456 ","158927","1536","95","6","2/16/2022 12:00:00 AM","2019","690743","NYTIMES-USCENSUS"
"2/17/2022 12:00:00 AM","Beaufort County","North Carolina","South","South Atlantic","37013","35.482313","-76.842014 ","11828","149","30","0","2/16/2022 12:00:00 AM","2019","46994","NYTIMES-USCENSUS"
"2/17/2022 12:00:00 AM","Webster County","Missouri","Midwest","West North Central","29225","37.280804","-92.87608 ","8901","135","20","0","2/16/2022 12:00:00 AM","2019","39592","NYTIMES-USCENSUS"
"2/17/2022 12:00:00 AM","Jasper County","Mississippi","South","East South Central","28061","32.016748","-89.119176 ","4745","70","1","0","2/16/2022 12:00:00 AM","2019","16383","NYTIMES-USCENSUS"
"2/17/2022 12:00:00 AM","Knox County","Indiana","Midwest","East North Central","18083","38.688391","-87.420354 ","10599","139","18","0","2/16/2022 12:00:00 AM","2019","36594","NYTIMES-USCENSUS"
"2/17/2022 12:00:00 AM","Marion County","Indiana","Midwest","East North Central","18097","39.782976","-86.135794 ","222618","2864","102","1","2/16/2022 12:00:00 AM","2019","964582","NYTIMES-USCENSUS"
"2/17/2022 12:00:00 AM","Freeborn County","Minnesota","Midwest","West North Central","27047","43.674202","-93.350289 ","8782","69","18","0","2/16/2022 12:00:00 AM","2019","30281","NYTIMES-USCENSUS"
"2/17/2022 12:00:00 AM","Bannock County","Idaho","West","Mountain","16005","42.692921","-112.228982 ","20500","235","25","0","2/16/2022 12:00:00 AM","2019","87808","NYTIMES-USCENSUS"
"2/17/2022 12:00:00 AM","St. Lucie County","Florida","South","South Atlantic","12111","27.379814","-80.443536 ","72164","1103","0","0","2/16/2022 12:00:00 AM","2019","328297","NYTIMES-USCENSUS"
"2/17/2022 12:00:00 AM","Shiawassee County","Michigan","Midwest","East North Central","26155","42.951545","-84.146352 ","17426","218","0","0","2/16/2022 12:00:00 AM","2019","68122","NYTIMES-USCENSUS"
"2/17/2022 12:00:00 AM","Tuscaloosa County","Alabama","South","East South Central","01125","33.29022","-87.522783 ","53992","710","339","1","2/16/2022 12:00:00 AM","2019","209355","NYTIMES-USCENSUS"
"2/17/2022 12:00:00 AM","Huntington County","Indiana","Midwest","East North Central","18069","40.826394","-85.478597 ","11380","150","6","0","2/16/2022 12:00:00 AM","2019","36520","NYTIMES-USCENSUS"
"2/17/2022 12:00:00 AM","Thurston County","Nebraska","Midwest","West North Central","31173","42.154061","-96.533943 ","1684","20","0","0","2/16/2022 12:00:00 AM","2019","7224","NYTIMES-USCENSUS"
"2/17/2022 12:00:00 AM","LaGrange County","Indiana","Midwest","East North Central","18087","41.642462","-85.427845 ","5822","100","3","0","2/16/2022 12:00:00 AM","2019","39614","NYTIMES-USCENSUS"
"2/17/2022 12:00:00 AM","Lincoln County","Arkansas","South","West South Central","05079","33.956385","-91.742355 ","4873","62","12","1","2/16/2022 12:00:00 AM","2019","13024","NYTIMES-USCENSUS"
"2/17/2022 12:00:00 AM","Fentress County","Tennessee","South","East South Central","47049","36.369892","-84.937764 ","5563","111","0","0","2/16/2022 12:00:00 AM","2019","18523","NYTIMES-USCENSUS"
"2/17/2022 12:00:00 AM","Colbert County","Alabama","South","East South Central","01033","34.703112","-87.801457 ","16004","227","24","1","2/16/2022 12:00:00 AM","2019","55241","NYTIMES-USCENSUS"
"2/17/2022 12:00:00 AM","Reagan County","Texas","South","West South Central","48383","31.375191","-101.514395 ","850","13","8","-1","2/16/2022 12:00:00 AM","2019","3849","NYTIMES-USCENSUS"
"2/17/2022 12:00:00 AM","Androscoggin County","Maine","Northeast","New England","23001","44.167681","-70.207435 ","20434","210","612","5","2/16/2022 12:00:00 AM","2019","108277","NYTIMES-USCENSUS"
"2/17/2022 12:00:00 AM","Montgomery County","Tennessee","South","East South Central","47125","36.500354","-87.380887 ","48720","525","0","0","2/16/2022 12:00:00 AM","2019","208993","NYTIMES-USCENSUS"
"2/17/2022 12:00:00 AM","Clay County","Kansas","Midwest","West North Central","20027","39.344964","-97.168853 ","1959","33","0","0","2/16/2022 12:00:00 AM","2019","8002","NYTIMES-USCENSUS"
"2/17/2022 12:00:00 AM","Lincoln County","Wyoming","West","Mountain","56023","42.229993","-110.682961 ","3918","28","7","0","2/16/2022 12:00:00 AM","2019","19830","NYTIMES-USCENSUS"
"2/17/2022 12:00:00 AM","Walker County","Georgia","South","South Atlantic","13295","34.735802","-85.305456 ","16153","215","28","1","2/16/2022 12:00:00 AM","2019","69761","NYTIMES-USCENSUS"
"2/17/2022 12:00:00 AM","Iron County","Michigan","Midwest","East North Central","26071","46.170254","-88.540526 ","2602","81","0","0","2/16/2022 12:00:00 AM","2019","11066","NYTIMES-USCENSUS"
"2/17/2022 12:00:00 AM","Amherst County","Virginia","South","South Atlantic","51009","37.629304","-79.154667 ","6721","79","29","0","2/16/2022 12:00:00 AM","2019","31605","NYTIMES-USCENSUS"
"2/17/2022 12:00:00 AM","Gadsden County","Florida","South","South Atlantic","12039","30.578687","-84.612607 ","13232","168","0","0","2/16/2022 12:00:00 AM","2019","45660","NYTIMES-USCENSUS"
"2/17/2022 12:00:00 AM","Sevier County","Utah","West","Mountain","49041","38.746824","-111.81193 ","5374","25","6","0","2/16/2022 12:00:00 AM","2019","21620","NYTIMES-USCENSUS"
"2/17/2022 12:00:00 AM","St. Joseph County","Indiana","Midwest","East North Central","18141","41.617723","-86.288048 ","69926","833","50","3","2/16/2022 12:00:00 AM","2019","271826","NYTIMES-USCENSUS"
"2/17/2022 12:00:00 AM","DeSoto County","Florida","South","South Atlantic","12027","27.190581","-81.806253 ","9124","141","0","0","2/16/2022 12:00:00 AM","2019","38001","NYTIMES-USCENSUS"
"2/17/2022 12:00:00 AM","Windsor County","Vermont","Northeast","New England","50027","43.572448","-72.598813 ","7134","47","30","0","2/16/2022 12:00:00 AM","2019","55062","NYTIMES-USCENSUS"
"2/17/2022 12:00:00 AM","Winchester city","Virginia","South","South Atlantic","51840","39.173869","-78.176356 ","6215","72","1","0","2/16/2022 12:00:00 AM","2019","28078","NYTIMES-USCENSUS"
"2/17/2022 12:00:00 AM","Chippewa County","Minnesota","Midwest","West North Central","27023","45.028625","-95.564108 ","2982","47","3","0","2/16/2022 12:00:00 AM","2019","11800","NYTIMES-USCENSUS"
"2/17/2022 12:00:00 AM","Keith County","Nebraska","Midwest","West North Central","31101","41.194245","-101.644449 ","1453","16","2","0","2/16/2022 12:00:00 AM","2019","8034","NYTIMES-USCENSUS"
"2/17/2022 12:00:00 AM","Ogemaw County","Michigan","Midwest","East North Central","26129","44.33328","-84.128073 ","4257","94","0","0","2/16/2022 12:00:00 AM","2019","20997","NYTIMES-USCENSUS"
"2/17/2022 12:00:00 AM","Utah County","Utah","West","Mountain","49049","40.120425","-111.668508 ","199691","738","173","0","2/16/2022 12:00:00 AM","2019","636235","NYTIMES-USCENSUS"
"2/17/2022 12:00:00 AM","Harris County","Georgia","South","South Atlantic","13145","32.731549","-84.912432 ","5998","103","8","2","2/16/2022 12:00:00 AM","2019","35236","NYTIMES-USCENSUS"
"2/17/2022 12:00:00 AM","Sierra County","California","West","Pacific","06091","39.576925","-120.521993 ","309","0","-2","0","2/16/2022 12:00:00 AM","2019","3005","NYTIMES-USCENSUS"
"2/17/2022 12:00:00 AM","Hunt County","Texas","South","West South Central","48231","33.123308","-96.08423 ","15588","346","5","1","2/16/2022 12:00:00 AM","2019","98594","NYTIMES-USCENSUS"
"2/17/2022 12:00:00 AM","Clarendon County","South Carolina","South","South Atlantic","45027","33.664682","-80.217889 ","8532","152","17","1","2/16/2022 12:00:00 AM","2019","33745","NYTIMES-USCENSUS"
"2/17/2022 12:00:00 AM","Yuma County","Arizona","West","Mountain","04027","32.773942","-113.910905 ","61676","1101","54","13","2/16/2022 12:00:00 AM","2019","213787","NYTIMES-USCENSUS"
"2/17/2022 12:00:00 AM","Morehouse Parish","Louisiana","South","West South Central","22067","32.820008","-91.800399 ","6771","131","15","0","2/16/2022 12:00:00 AM","2019","24874","NYTIMES-USCENSUS"
"2/17/2022 12:00:00 AM","Ramsey County","Minnesota","Midwest","West North Central","27123","45.015204","-93.099965 ","120786","1291","81","4","2/16/2022 12:00:00 AM","2019","550321","NYTIMES-USCENSUS"
"2/17/2022 12:00:00 AM","Clark County","South Dakota","Midwest","West North Central","46025","44.855211","-97.724912 ","777","8","3","0","2/16/2022 12:00:00 AM","2019","3736","NYTIMES-USCENSUS"
"2/17/2022 12:00:00 AM","Woodford County","Illinois","Midwest","East North Central","17203","40.789787","-89.210587 ","10198","123","18","0","2/16/2022 12:00:00 AM","2019","38459","NYTIMES-USCENSUS"
"2/17/2022 12:00:00 AM","Johnson County","Nebraska","Midwest","West North Central","31097","40.394955","-96.265264 ","876","10","-1","0","2/16/2022 12:00:00 AM","2019","5071","NYTIMES-USCENSUS"
"2/17/2022 12:00:00 AM","Lafayette County","Mississippi","South","East South Central","28071","34.353078","-89.485385 ","14960","173","17","0","2/16/2022 12:00:00 AM","2019","54019","NYTIMES-USCENSUS"
"2/17/2022 12:00:00 AM","Santa Rosa County","Florida","South","South Atlantic","12113","30.675348","-87.018919 ","47464","561","0","0","2/16/2022 12:00:00 AM","2019","184313","NYTIMES-USCENSUS"
"2/17/2022 12:00:00 AM","Norfolk County","Massachusetts","Northeast","New England","25021","42.171738","-71.18111 ","127745","2184","166","3","2/16/2022 12:00:00 AM","2019","706775","NYTIMES-USCENSUS"
"2/17/2022 12:00:00 AM","Fisher County","Texas","South","West South Central","48151","32.740473","-100.40312 ","599","22","1","0","2/16/2022 12:00:00 AM","2019","3830","NYTIMES-USCENSUS"
"2/17/2022 12:00:00 AM","Monroe County","New York","Northeast","Middle Atlantic","36055","43.250347","-77.700518 ","148456","1524","139","3","2/16/2022 12:00:00 AM","2019","741770","NYTIMES-USCENSUS"
"2/17/2022 12:00:00 AM","Houston County","Alabama","South","East South Central","01069","31.158183","-85.296411 ","24704","463","53","0","2/16/2022 12:00:00 AM","2019","105882","NYTIMES-USCENSUS"
"2/17/2022 12:00:00 AM","Greenbrier County","West Virginia","South","South Atlantic","54025","37.924418","-80.45059 ","9028","135","37","3","2/16/2022 12:00:00 AM","2019","34662","NYTIMES-USCENSUS"
"2/17/2022 12:00:00 AM","Cheyenne County","Nebraska","Midwest","West North Central","31033","41.214236","-103.011929 ","1912","23","2","0","2/16/2022 12:00:00 AM","2019","8910","NYTIMES-USCENSUS"
"2/17/2022 12:00:00 AM","Sangamon County","Illinois","Midwest","East North Central","17167","39.756886","-89.662435 ","53764","408","63","2","2/16/2022 12:00:00 AM","2019","194672","NYTIMES-USCENSUS"
"2/17/2022 12:00:00 AM","Transylvania County","North Carolina","South","South Atlantic","37175","35.210103","-82.816666 ","5986","65","10","0","2/16/2022 12:00:00 AM","2019","34385","NYTIMES-USCENSUS"
"2/17/2022 12:00:00 AM","Shawnee County","Kansas","Midwest","West North Central","20177","39.041805","-95.755664 ","47424","559","0","0","2/16/2022 12:00:00 AM","2019","176875","NYTIMES-USCENSUS"
"2/17/2022 12:00:00 AM","Wood County","Ohio","Midwest","East North Central","39173","41.360183","-83.622682 ","30969","331","40","0","2/16/2022 12:00:00 AM","2019","130817","NYTIMES-USCENSUS"
"2/17/2022 12:00:00 AM","Greene County","Mississippi","South","East South Central","28041","31.212845","-88.634811 ","3156","54","4","0","2/16/2022 12:00:00 AM","2019","13586","NYTIMES-USCENSUS"
"2/17/2022 12:00:00 AM","Waukesha County","Wisconsin","Midwest","East North Central","55133","43.018368","-88.30424 ","110446","974","122","3","2/16/2022 12:00:00 AM","2019","404198","NYTIMES-USCENSUS"
"2/17/2022 12:00:00 AM","Lincoln County","Colorado","West","Mountain","08073","38.99374","-103.507555 ","2022","9","0","0","2/16/2022 12:00:00 AM","2019","5701","NYTIMES-USCENSUS"
"2/17/2022 12:00:00 AM","Macon County","Georgia","South","South Atlantic","13193","32.362686","-84.051231 ","2099","48","0","0","2/16/2022 12:00:00 AM","2019","12947","NYTIMES-USCENSUS"
"2/17/2022 12:00:00 AM","Gaston County","North Carolina","South","South Atlantic","37071","35.293344","-81.177256 ","63961","743","150","2","2/16/2022 12:00:00 AM","2019","224529","NYTIMES-USCENSUS"
"2/17/2022 12:00:00 AM","Lincoln Parish","Louisiana","South","West South Central","22061","32.601823","-92.662303 ","12043","131","17","0","2/16/2022 12:00:00 AM","2019","46742","NYTIMES-USCENSUS"
"2/17/2022 12:00:00 AM","Meeker County","Minnesota","Midwest","West North Central","27093","45.123155","-94.527346 ","5733","74","5","0","2/16/2022 12:00:00 AM","2019","23222","NYTIMES-USCENSUS"
"2/17/2022 12:00:00 AM","Delaware County","Pennsylvania","Northeast","Middle Atlantic","42045","39.916685","-75.398818 ","108205","1798","89","4","2/16/2022 12:00:00 AM","2019","566747","NYTIMES-USCENSUS"
"2/17/2022 12:00:00 AM","Converse County","Wyoming","West","Mountain","56009","42.984623","-105.524752 ","3114","52","3","0","2/16/2022 12:00:00 AM","2019","13822","NYTIMES-USCENSUS"
"2/17/2022 12:00:00 AM","Covington city","Virginia","South","South Atlantic","51580","37.78106","-79.985434 ","977","23","7","0","2/16/2022 12:00:00 AM","2019","5538","NYTIMES-USCENSUS"
"2/17/2022 12:00:00 AM","San Juan County","New Mexico","West","Mountain","35045","36.511624","-108.324578 ","39724","710","97","0","2/16/2022 12:00:00 AM","2019","123958","NYTIMES-USCENSUS"
"2/17/2022 12:00:00 AM","Kay County","Oklahoma","South","West South Central","40071","36.814885","-97.143862 ","11921","198","0","0","2/16/2022 12:00:00 AM","2019","43538","NYTIMES-USCENSUS"
"2/17/2022 12:00:00 AM","Franklin County","Nebraska","Midwest","West North Central","31061","40.183203","-98.96208 ","395","10","0","0","2/16/2022 12:00:00 AM","2019","2979","NYTIMES-USCENSUS"
"2/17/2022 12:00:00 AM","Champaign County","Illinois","Midwest","East North Central","17019","40.138985","-88.196975 ","61089","289","123","0","2/16/2022 12:00:00 AM","2019","209689","NYTIMES-USCENSUS"
"2/17/2022 12:00:00 AM","Kosciusko County","Indiana","Midwest","East North Central","18085","41.244293","-85.861575 ","19588","223","16","0","2/16/2022 12:00:00 AM","2019","79456","NYTIMES-USCENSUS"
"2/17/2022 12:00:00 AM","Gwinnett County","Georgia","South","South Atlantic","13135","33.958756","-84.025735 ","203887","1743","142","4","2/16/2022 12:00:00 AM","2019","936250","NYTIMES-USCENSUS"
"2/17/2022 12:00:00 AM","Thayer County","Nebraska","Midwest","West North Central","31169","40.173845","-97.596263 ","1053","8","0","0","2/16/2022 12:00:00 AM","2019","5003","NYTIMES-USCENSUS"
"2/17/2022 12:00:00 AM","Newport News city","Virginia","South","South Atlantic","51700","37.076136","-76.52198 ","35614","354","39","1","2/16/2022 12:00:00 AM","2019","179225","NYTIMES-USCENSUS"
"2/17/2022 12:00:00 AM","Livingston County","Illinois","Midwest","East North Central","17105","40.894376","-88.552852 ","10536","144","11","0","2/16/2022 12:00:00 AM","2019","35648","NYTIMES-USCENSUS"
"2/17/2022 12:00:00 AM","Sevier County","Arkansas","South","West South Central","05133","33.994877","-94.243279 ","5687","67","2","0","2/16/2022 12:00:00 AM","2019","17007","NYTIMES-USCENSUS"
"2/17/2022 12:00:00 AM","Quay County","New Mexico","West","Mountain","35037","35.107018","-103.548071 ","1958","47","2","0","2/16/2022 12:00:00 AM","2019","8253","NYTIMES-USCENSUS"
"2/17/2022 12:00:00 AM","Adams County","Indiana","Midwest","East North Central","18001","40.745733","-84.93613 ","7291","111","2","1","2/16/2022 12:00:00 AM","2019","35777","NYTIMES-USCENSUS"
"2/17/2022 12:00:00 AM","Franklin County","Idaho","West","Mountain","16041","42.173609","-111.822965 ","2313","29","0","0","2/16/2022 12:00:00 AM","2019","13876","NYTIMES-USCENSUS"
"2/17/2022 12:00:00 AM","Crowley County","Colorado","West","Mountain","08025","38.30618","-103.772736 ","3084","28","5","0","2/16/2022 12:00:00 AM","2019","6061","NYTIMES-USCENSUS"
"2/17/2022 12:00:00 AM","Paulding County","Georgia","South","South Atlantic","13223","33.92103","-84.867169 ","37545","399","25","2","2/16/2022 12:00:00 AM","2019","168667","NYTIMES-USCENSUS"
"2/17/2022 12:00:00 AM","Clay County","Texas","South","West South Central","48077","33.785904","-98.212917 ","2025","29","0","1","2/16/2022 12:00:00 AM","2019","10471","NYTIMES-USCENSUS"
"2/17/2022 12:00:00 AM","Ohio County","Indiana","Midwest","East North Central","18115","38.940527","-84.964299 ","1435","18","1","0","2/16/2022 12:00:00 AM","2019","5875","NYTIMES-USCENSUS"
"2/17/2022 12:00:00 AM","Halifax County","Virginia","South","South Atlantic","51083","36.766461","-78.939614 ","6790","139","17","0","2/16/2022 12:00:00 AM","2019","33911","NYTIMES-USCENSUS"
"2/17/2022 12:00:00 AM","Ohio County","West Virginia","South","South Atlantic","54069","40.100323","-80.6199 ","10817","148","18","1","2/16/2022 12:00:00 AM","2019","41411","NYTIMES-USCENSUS"
"2/17/2022 12:00:00 AM","Washington County","Arkansas","South","West South Central","05143","35.978001","-94.217269 ","66742","569","104","0","2/16/2022 12:00:00 AM","2019","239187","NYTIMES-USCENSUS"
"2/17/2022 12:00:00 AM","Wise County","Texas","South","West South Central","48497","33.219095","-97.653997 ","16670","247","15","0","2/16/2022 12:00:00 AM","2019","69984","NYTIMES-USCENSUS"
"2/17/2022 12:00:00 AM","Cass County","Indiana","Midwest","East North Central","18017","40.753799","-86.355168 ","11443","155","42","0","2/16/2022 12:00:00 AM","2019","37689","NYTIMES-USCENSUS"
"2/17/2022 12:00:00 AM","Edgefield County","South Carolina","South","South Atlantic","45037","33.776498","-81.968245 ","6543","65","10","0","2/16/2022 12:00:00 AM","2019","27260","NYTIMES-USCENSUS"
"2/17/2022 12:00:00 AM","St. Mary's County","Maryland","South","South Atlantic","24037","38.223077","-76.534487 ","18563","206","45","0","2/16/2022 12:00:00 AM","2019","113510","NYTIMES-USCENSUS"
"2/17/2022 12:00:00 AM","Lincoln County","Kentucky","South","East South Central","21137","37.457174","-84.658335 ","6042","118","22","0","2/16/2022 12:00:00 AM","2019","24549","NYTIMES-USCENSUS"
"2/17/2022 12:00:00 AM","Montgomery County","Texas","South","West South Central","48339","30.298801","-95.50295 ","134018","1250","174","2","2/16/2022 12:00:00 AM","2019","607391","NYTIMES-USCENSUS"
"2/17/2022 12:00:00 AM","Limestone County","Texas","South","West South Central","48293","31.547543","-96.593623 ","5039","118","9","0","2/16/2022 12:00:00 AM","2019","23437","NYTIMES-USCENSUS"
"2/17/2022 12:00:00 AM","Prince George's County","Maryland","South","South Atlantic","24033","38.829278","-76.848188 ","168209","2086","81","6","2/16/2022 12:00:00 AM","2019","909327","NYTIMES-USCENSUS"
"2/17/2022 12:00:00 AM","Hancock County","Georgia","South","South Atlantic","13141","33.26922","-83.000465 ","1555","87","3","0","2/16/2022 12:00:00 AM","2019","8457","NYTIMES-USCENSUS"
"2/17/2022 12:00:00 AM","Auglaize County","Ohio","Midwest","East North Central","39011","40.561309","-84.224018 ","11476","168","12","0","2/16/2022 12:00:00 AM","2019","45656","NYTIMES-USCENSUS"
"2/17/2022 12:00:00 AM","Frederick County","Maryland","South","South Atlantic","24021","39.470177","-77.397636 ","44721","499","35","0","2/16/2022 12:00:00 AM","2019","259547","NYTIMES-USCENSUS"
"2/17/2022 12:00:00 AM","Lee County","Arkansas","South","West South Central","05077","34.779505","-90.779717 ","2839","55","4","0","2/16/2022 12:00:00 AM","2019","8857","NYTIMES-USCENSUS"
"2/17/2022 12:00:00 AM","Keokuk County","Iowa","Midwest","West North Central","19107","41.331182","-92.167721 ","2020","47","0","0","2/16/2022 12:00:00 AM","2019","10246","NYTIMES-USCENSUS"
"2/17/2022 12:00:00 AM","Montgomery County","Indiana","Midwest","East North Central","18107","40.040296","-86.892715 ","10555","157","25","1","2/16/2022 12:00:00 AM","2019","38338","NYTIMES-USCENSUS"
"2/17/2022 12:00:00 AM","Erie County","Pennsylvania","Northeast","Middle Atlantic","42049","42.117952","-80.096386 ","55973","727","74","2","2/16/2022 12:00:00 AM","2019","269728","NYTIMES-USCENSUS"
"2/17/2022 12:00:00 AM","Sherman County","Texas","South","West South Central","48421","36.278593","-101.899265 ","485","16","2","0","2/16/2022 12:00:00 AM","2019","3022","NYTIMES-USCENSUS"
"2/17/2022 12:00:00 AM","Harrison County","West Virginia","South","South Atlantic","54033","39.279182","-80.386498 ","18864","232","-8","0","2/16/2022 12:00:00 AM","2019","67256","NYTIMES-USCENSUS"
"2/17/2022 12:00:00 AM","Knox County","Tennessee","South","East South Central","47093","35.992726","-83.937721 ","124460","1234","0","0","2/16/2022 12:00:00 AM","2019","470313","NYTIMES-USCENSUS"
"2/17/2022 12:00:00 AM","Boone County","Kentucky","South","East South Central","21015","38.9589","-84.736371 ","38319","264","39","0","2/16/2022 12:00:00 AM","2019","133581","NYTIMES-USCENSUS"
"2/17/2022 12:00:00 AM","Washington County","Georgia","South","South Atlantic","13303","32.971843","-82.798112 ","4313","132","6","0","2/16/2022 12:00:00 AM","2019","20374","NYTIMES-USCENSUS"
"2/17/2022 12:00:00 AM","Grayson County","Virginia","South","South Atlantic","51077","36.652229","-81.215324 ","3823","75","17","1","2/16/2022 12:00:00 AM","2019","15550","NYTIMES-USCENSUS"
"2/17/2022 12:00:00 AM","Jones County","Georgia","South","South Atlantic","13169","33.021664","-83.562196 ","4988","104","4","0","2/16/2022 12:00:00 AM","2019","28735","NYTIMES-USCENSUS"
"2/17/2022 12:00:00 AM","Kent County","Michigan","Midwest","East North Central","26081","43.032497","-85.547446 ","163199","1442","0","0","2/16/2022 12:00:00 AM","2019","656955","NYTIMES-USCENSUS"
"2/17/2022 12:00:00 AM","Kent County","Delaware","South","South Atlantic","10001","39.097088","-75.502982 ","49165","589","73","0","2/16/2022 12:00:00 AM","2019","180786","NYTIMES-USCENSUS"
"2/17/2022 12:00:00 AM","Kinney County","Texas","South","West South Central","48271","29.347086","-100.4177 ","719","10","2","0","2/16/2022 12:00:00 AM","2019","3667","NYTIMES-USCENSUS"
"2/17/2022 12:00:00 AM","San Juan County","Utah","West","Mountain","49037","37.602633","-109.791574 ","3901","47","9","0","2/16/2022 12:00:00 AM","2019","15308","NYTIMES-USCENSUS"
"2/17/2022 12:00:00 AM","Vinton County","Ohio","Midwest","East North Central","39163","39.252042","-82.485961 ","2863","52","4","0","2/16/2022 12:00:00 AM","2019","13085","NYTIMES-USCENSUS"
"2/17/2022 12:00:00 AM","Cottonwood County","Minnesota","Midwest","West North Central","27033","44.010639","-95.183152 ","3144","40","6","0","2/16/2022 12:00:00 AM","2019","11196","NYTIMES-USCENSUS"
"2/17/2022 12:00:00 AM","Lewis County","Missouri","Midwest","West North Central","29111","40.084559","-91.728803 ","2650","31","11","0","2/16/2022 12:00:00 AM","2019","9776","NYTIMES-USCENSUS"
"2/17/2022 12:00:00 AM","Owsley County","Kentucky","South","East South Central","21189","37.423622","-83.691637 ","1478","23","11","0","2/16/2022 12:00:00 AM","2019","4415","NYTIMES-USCENSUS"
"2/17/2022 12:00:00 AM","Cherokee County","Georgia","South","South Atlantic","13057","34.244317","-84.475057 ","62624","561","35","6","2/16/2022 12:00:00 AM","2019","258773","NYTIMES-USCENSUS"
"2/17/2022 12:00:00 AM","Woodford County","Kentucky","South","East South Central","21239","38.043103","-84.748855 ","6577","42","14","0","2/16/2022 12:00:00 AM","2019","26734","NYTIMES-USCENSUS"
"2/17/2022 12:00:00 AM","Bamberg County","South Carolina","South","South Atlantic","45009","33.203021","-81.053161 ","3374","71","3","0","2/16/2022 12:00:00 AM","2019","14066","NYTIMES-USCENSUS"
"2/17/2022 12:00:00 AM","Rockdale County","Georgia","South","South Atlantic","13247","33.652081","-84.02637 ","18122","298","27","1","2/16/2022 12:00:00 AM","2019","90896","NYTIMES-USCENSUS"
"2/17/2022 12:00:00 AM","Taylor County","Georgia","South","South Atlantic","13269","32.554667","-84.251426 ","1959","49","4","0","2/16/2022 12:00:00 AM","2019","8020","NYTIMES-USCENSUS"
"2/17/2022 12:00:00 AM","Tippecanoe County","Indiana","Midwest","East North Central","18157","40.389133","-86.893554 ","49278","369","50","3","2/16/2022 12:00:00 AM","2019","195732","NYTIMES-USCENSUS"
"2/17/2022 12:00:00 AM","Union County","Tennessee","South","East South Central","47173","36.28414","-83.836088 ","5254","70","0","0","2/16/2022 12:00:00 AM","2019","19972","NYTIMES-USCENSUS"
"2/17/2022 12:00:00 AM","Comanche County","Kansas","Midwest","West North Central","20033","37.181442","-99.251293 ","436","14","0","0","2/16/2022 12:00:00 AM","2019","1700","NYTIMES-USCENSUS"
"2/17/2022 12:00:00 AM","Butler County","Pennsylvania","Northeast","Middle Atlantic","42019","40.913847","-79.918978 ","43713","696","64","0","2/16/2022 12:00:00 AM","2019","187853","NYTIMES-USCENSUS"
"2/17/2022 12:00:00 AM","McPherson County","South Dakota","Midwest","West North Central","46089","45.784249","-99.211421 ","422","9","1","0","2/16/2022 12:00:00 AM","2019","2379","NYTIMES-USCENSUS"
"2/17/2022 12:00:00 AM","Luce County","Michigan","Midwest","East North Central","26095","46.510988","-85.517552 ","2241","10","0","0","2/16/2022 12:00:00 AM","2019","6229","NYTIMES-USCENSUS"
"2/17/2022 12:00:00 AM","Cannon County","Tennessee","South","East South Central","47015","35.808394","-86.062404 ","4100","53","0","0","2/16/2022 12:00:00 AM","2019","14678","NYTIMES-USCENSUS"
"2/17/2022 12:00:00 AM","Candler County","Georgia","South","South Atlantic","13043","32.40395","-82.071266 ","2056","91","12","0","2/16/2022 12:00:00 AM","2019","10803","NYTIMES-USCENSUS"
"2/17/2022 12:00:00 AM","Eddy County","North Dakota","Midwest","West North Central","38027","47.723436","-98.900474 ","749","6","1","0","2/16/2022 12:00:00 AM","2019","2287","NYTIMES-USCENSUS"
"2/17/2022 12:00:00 AM","Hidalgo County","Texas","South","West South Central","48215","26.396384","-98.18099 ","188507","3741","732","8","2/16/2022 12:00:00 AM","2019","868707","NYTIMES-USCENSUS"
"2/17/2022 12:00:00 AM","Greenville County","South Carolina","South","South Atlantic","45045","34.892645","-82.372077 ","170533","1824","171","18","2/16/2022 12:00:00 AM","2019","523542","NYTIMES-USCENSUS"
"2/17/2022 12:00:00 AM","Vermilion Parish","Louisiana","South","West South Central","22113","29.789722","-92.291568 ","15072","213","21","1","2/16/2022 12:00:00 AM","2019","59511","NYTIMES-USCENSUS"
"2/17/2022 12:00:00 AM","Ness County","Kansas","Midwest","West North Central","20135","38.480437","-99.908745 ","777","18","0","0","2/16/2022 12:00:00 AM","2019","2750","NYTIMES-USCENSUS"
"2/17/2022 12:00:00 AM","Henry County","Missouri","Midwest","West North Central","29083","38.386491","-93.792628 ","5655","77","15","0","2/16/2022 12:00:00 AM","2019","21824","NYTIMES-USCENSUS"
"2/17/2022 12:00:00 AM","Park County","Montana","West","Mountain","30067","45.463081","-110.53493 ","4023","33","10","0","2/16/2022 12:00:00 AM","2019","16606","NYTIMES-USCENSUS"
"2/17/2022 12:00:00 AM","Leon County","Florida","South","South Atlantic","12073","30.45931","-84.2778 ","83283","570","0","0","2/16/2022 12:00:00 AM","2019","293582","NYTIMES-USCENSUS"
"2/17/2022 12:00:00 AM","Bernalillo County","New Mexico","West","Mountain","35001","35.053628","-106.66908 ","143135","1589","301","8","2/16/2022 12:00:00 AM","2019","679121","NYTIMES-USCENSUS"
"2/17/2022 12:00:00 AM","Waseca County","Minnesota","Midwest","West North Central","27161","44.01846","-93.589844 ","5371","38","11","0","2/16/2022 12:00:00 AM","2019","18612","NYTIMES-USCENSUS"
"2/17/2022 12:00:00 AM","Gibson County","Indiana","Midwest","East North Central","18051","38.317398","-87.580523 ","11502","137","7","0","2/16/2022 12:00:00 AM","2019","33659","NYTIMES-USCENSUS"
"2/17/2022 12:00:00 AM","Collin County","Texas","South","West South Central","48085","33.194494","-96.579428 ","201386","1400","257","11","2/16/2022 12:00:00 AM","2019","1034730","NYTIMES-USCENSUS"
"2/17/2022 12:00:00 AM","Nemaha County","Nebraska","Midwest","West North Central","31127","40.387389","-95.852721 ","1462","19","2","0","2/16/2022 12:00:00 AM","2019","6972","NYTIMES-USCENSUS"
"2/17/2022 12:00:00 AM","White Pine County","Nevada","West","Mountain","32033","39.418176","-114.900565 ","1929","18","3","0","2/16/2022 12:00:00 AM","2019","9580","NYTIMES-USCENSUS"
"2/17/2022 12:00:00 AM","Greene County","Missouri","Midwest","West North Central","29077","37.258196","-93.340641 ","70013","924","412","0","2/16/2022 12:00:00 AM","2019","293086","NYTIMES-USCENSUS"
"2/17/2022 12:00:00 AM","Delta County","Texas","South","West South Central","48119","33.385933","-95.67335 ","1763","24","2","0","2/16/2022 12:00:00 AM","2019","5331","NYTIMES-USCENSUS"
"2/17/2022 12:00:00 AM","Mitchell County","Iowa","Midwest","West North Central","19131","43.348564","-92.784466 ","2415","49","0","0","2/16/2022 12:00:00 AM","2019","10586","NYTIMES-USCENSUS"
"2/17/2022 12:00:00 AM","Spalding County","Georgia","South","South Atlantic","13255","33.262348","-84.284905 ","15633","381","11","3","2/16/2022 12:00:00 AM","2019","66703","NYTIMES-USCENSUS"
"2/17/2022 12:00:00 AM","Rockingham County","New Hampshire","Northeast","New England","33015","42.988664","-71.09908 ","64495","493","193","0","2/16/2022 12:00:00 AM","2019","309769","NYTIMES-USCENSUS"
"2/17/2022 12:00:00 AM","Sherman County","Kansas","Midwest","West North Central","20181","39.351352","-101.719859 ","1486","19","0","0","2/16/2022 12:00:00 AM","2019","5917","NYTIMES-USCENSUS"
"2/17/2022 12:00:00 AM","Scott County","Mississippi","South","East South Central","28123","32.411959","-89.533486 ","6451","111","2","0","2/16/2022 12:00:00 AM","2019","28124","NYTIMES-USCENSUS"
"2/17/2022 12:00:00 AM","Kaufman County","Texas","South","West South Central","48257","32.598944","-96.288377 ","34599","499","54","1","2/16/2022 12:00:00 AM","2019","136154","NYTIMES-USCENSUS"
"2/17/2022 12:00:00 AM","Grainger County","Tennessee","South","East South Central","47057","36.277509","-83.509546 ","6610","100","0","0","2/16/2022 12:00:00 AM","2019","23320","NYTIMES-USCENSUS"
"2/17/2022 12:00:00 AM","Pinellas County","Florida","South","South Atlantic","12103","27.905342","-82.798066 ","202745","3073","0","0","2/16/2022 12:00:00 AM","2019","974996","NYTIMES-USCENSUS"
"2/17/2022 12:00:00 AM","Cass County","Michigan","Midwest","East North Central","26027","41.917243","-86.000142 ","10972","133","0","0","2/16/2022 12:00:00 AM","2019","51787","NYTIMES-USCENSUS"
"2/17/2022 12:00:00 AM","Elmore County","Alabama","South","East South Central","01051","32.597229","-86.142735 ","22754","320","18","0","2/16/2022 12:00:00 AM","2019","81209","NYTIMES-USCENSUS"
"2/17/2022 12:00:00 AM","Adams County","Idaho","West","Mountain","16003","44.877004","-116.461624 ","674","14","3","0","2/16/2022 12:00:00 AM","2019","4294","NYTIMES-USCENSUS"
"2/17/2022 12:00:00 AM","Pittsburg County","Oklahoma","South","West South Central","40121","34.92554","-95.74813 ","10625","190","0","0","2/16/2022 12:00:00 AM","2019","43654","NYTIMES-USCENSUS"
"2/17/2022 12:00:00 AM","Northampton County","Pennsylvania","Northeast","Middle Atlantic","42095","40.752791","-75.307447 ","78389","1056","53","2","2/16/2022 12:00:00 AM","2019","305285","NYTIMES-USCENSUS"
"2/17/2022 12:00:00 AM","Trego County","Kansas","Midwest","West North Central","20195","38.921302","-99.865423 ","747","9","0","0","2/16/2022 12:00:00 AM","2019","2803","NYTIMES-USCENSUS"
"2/17/2022 12:00:00 AM","Marion County","Tennessee","South","East South Central","47115","35.133422","-85.618399 ","8648","119","0","0","2/16/2022 12:00:00 AM","2019","28907","NYTIMES-USCENSUS"
"2/17/2022 12:00:00 AM","Mecklenburg County","Virginia","South","South Atlantic","51117","36.687256","-78.368959 ","5789","107","7","1","2/16/2022 12:00:00 AM","2019","30587","NYTIMES-USCENSUS"
"2/17/2022 12:00:00 AM","Seminole County","Florida","South","South Atlantic","12117","28.690065","-81.131975 ","101261","1004","0","0","2/16/2022 12:00:00 AM","2019","471826","NYTIMES-USCENSUS"
"2/17/2022 12:00:00 AM","Montgomery County","Illinois","Midwest","East North Central","17135","39.228068","-89.478141 ","9599","103","21","0","2/16/2022 12:00:00 AM","2019","28414","NYTIMES-USCENSUS"
"2/17/2022 12:00:00 AM","Charles City County","Virginia","South","South Atlantic","51036","37.361054","-77.05417 ","1133","26","2","0","2/16/2022 12:00:00 AM","2019","6963","NYTIMES-USCENSUS"
"2/17/2022 12:00:00 AM","Miller County","Georgia","South","South Atlantic","13201","31.162931","-84.730398 ","1696","28","2","0","2/16/2022 12:00:00 AM","2019","5718","NYTIMES-USCENSUS"
"2/17/2022 12:00:00 AM","Bracken County","Kentucky","South","East South Central","21023","38.680365","-84.115235 ","2066","23","3","0","2/16/2022 12:00:00 AM","2019","8303","NYTIMES-USCENSUS"
"2/17/2022 12:00:00 AM","Orange County","California","West","Pacific","06059","33.675687","-117.777207 ","578359","6419","762","24","2/16/2022 12:00:00 AM","2019","3175692","NYTIMES-USCENSUS"
"2/17/2022 12:00:00 AM","Camden County","Missouri","Midwest","West North Central","29029","38.026527","-92.765327 ","9154","165","6","0","2/16/2022 12:00:00 AM","2019","46305","NYTIMES-USCENSUS"
"2/17/2022 12:00:00 AM","Sherman County","Oregon","West","Pacific","41055","45.399216","-120.678512 ","307","3","2","0","2/16/2022 12:00:00 AM","2019","1780","NYTIMES-USCENSUS"
"2/17/2022 12:00:00 AM","Oakland County","Michigan","Midwest","East North Central","26125","42.660452","-83.38421 ","279488","3625","0","0","2/16/2022 12:00:00 AM","2019","1257584","NYTIMES-USCENSUS"
"2/17/2022 12:00:00 AM","Mills County","Iowa","Midwest","West North Central","19129","41.033703","-95.619101 ","3298","40","0","0","2/16/2022 12:00:00 AM","2019","15109","NYTIMES-USCENSUS"
"2/17/2022 12:00:00 AM","Edgar County","Illinois","Midwest","East North Central","17045","39.679037","-87.74711 ","5044","77","-1","0","2/16/2022 12:00:00 AM","2019","17161","NYTIMES-USCENSUS"
"2/17/2022 12:00:00 AM","Winn Parish","Louisiana","South","West South Central","22127","31.941187","-92.641269 ","4349","60","5","0","2/16/2022 12:00:00 AM","2019","13904","NYTIMES-USCENSUS"
"2/17/2022 12:00:00 AM","Lawrence County","Alabama","South","East South Central","01079","34.529776","-87.321865 ","7470","145","18","0","2/16/2022 12:00:00 AM","2019","32924","NYTIMES-USCENSUS"
"2/17/2022 12:00:00 AM","Alexander County","Illinois","Midwest","East North Central","17003","37.183658","-89.349516 ","1264","14","0","0","2/16/2022 12:00:00 AM","2019","5761","NYTIMES-USCENSUS"
"2/17/2022 12:00:00 AM","Newton County","Missouri","Midwest","West North Central","29145","36.908371","-94.335034 ","11572","181","7","0","2/16/2022 12:00:00 AM","2019","58236","NYTIMES-USCENSUS"
"2/17/2022 12:00:00 AM","Taylor County","Florida","South","South Atlantic","12123","29.967146","-83.639573 ","6909","86","0","0","2/16/2022 12:00:00 AM","2019","21569","NYTIMES-USCENSUS"
"2/17/2022 12:00:00 AM","Harford County","Maryland","South","South Atlantic","24025","39.537429","-76.299789 ","37495","557","32","1","2/16/2022 12:00:00 AM","2019","255441","NYTIMES-USCENSUS"
"2/17/2022 12:00:00 AM","Montcalm County","Michigan","Midwest","East North Central","26117","43.312782","-85.149468 ","16874","200","0","0","2/16/2022 12:00:00 AM","2019","63888","NYTIMES-USCENSUS"
"2/17/2022 12:00:00 AM","York County","Pennsylvania","Northeast","Middle Atlantic","42133","39.921751","-76.728889 ","116911","1423","138","3","2/16/2022 12:00:00 AM","2019","449058","NYTIMES-USCENSUS"
"2/17/2022 12:00:00 AM","Williams County","North Dakota","Midwest","West North Central","38105","48.355765","-103.501333 ","10326","68","17","0","2/16/2022 12:00:00 AM","2019","37589","NYTIMES-USCENSUS"
"2/17/2022 12:00:00 AM","Essex County","Massachusetts","Northeast","New England","25009","42.642708","-70.864909 ","201562","3075","178","6","2/16/2022 12:00:00 AM","2019","789034","NYTIMES-USCENSUS"
"2/17/2022 12:00:00 AM","Baker County","Florida","South","South Atlantic","12003","30.324442","-82.302284 ","8506","130","0","0","2/16/2022 12:00:00 AM","2019","29210","NYTIMES-USCENSUS"
"2/17/2022 12:00:00 AM","Brown County","South Dakota","Midwest","West North Central","46013","45.589254","-98.352175 ","10116","115","21","0","2/16/2022 12:00:00 AM","2019","38839","NYTIMES-USCENSUS"
"2/17/2022 12:00:00 AM","Boone County","Iowa","Midwest","West North Central","19015","42.038642","-93.938603 ","5344","50","0","0","2/16/2022 12:00:00 AM","2019","26234","NYTIMES-USCENSUS"
"2/17/2022 12:00:00 AM","Ashtabula County","Ohio","Midwest","East North Central","39007","41.906637","-80.745592 ","19440","391","7","0","2/16/2022 12:00:00 AM","2019","97241","NYTIMES-USCENSUS"
"2/17/2022 12:00:00 AM","Gallatin County","Montana","West","Mountain","30031","45.518054","-111.163921 ","33817","114","55","0","2/16/2022 12:00:00 AM","2019","114434","NYTIMES-USCENSUS"
"2/17/2022 12:00:00 AM","Lafayette County","Florida","South","South Atlantic","12067","29.990066","-83.17851 ","2721","52","0","0","2/16/2022 12:00:00 AM","2019","8422","NYTIMES-USCENSUS"
"2/17/2022 12:00:00 AM","Kenai Peninsula Borough","Alaska","West","Pacific","02122","60.360766","-152.05264 ","16417","91","0","0","2/16/2022 12:00:00 AM","2019","58708","NYTIMES-USCENSUS"
"2/17/2022 12:00:00 AM","Benton County","Tennessee","South","East South Central","47005","36.070948","-88.071232 ","4321","85","0","0","2/16/2022 12:00:00 AM","2019","16160","NYTIMES-USCENSUS"
"2/17/2022 12:00:00 AM","Avoyelles Parish","Louisiana","South","West South Central","22009","31.088503","-91.983275 ","11503","197","20","2","2/16/2022 12:00:00 AM","2019","40144","NYTIMES-USCENSUS"
"2/17/2022 12:00:00 AM","Island County","Washington","West","Pacific","53029","48.158554","-122.670649 ","9656","65","0","0","2/16/2022 12:00:00 AM","2019","85141","NYTIMES-USCENSUS"
"2/17/2022 12:00:00 AM","Yoakum County","Texas","South","West South Central","48501","33.162339","-102.832241 ","1051","39","0","0","2/16/2022 12:00:00 AM","2019","8713","NYTIMES-USCENSUS"
"2/17/2022 12:00:00 AM","Bexar County","Texas","South","West South Central","48029","29.448671","-98.520147 ","538648","5776","867","14","2/16/2022 12:00:00 AM","2019","2003554","NYTIMES-USCENSUS"
"2/17/2022 12:00:00 AM","Polk County","Texas","South","West South Central","48373","30.784553","-94.837338 ","7724","236","11","0","2/16/2022 12:00:00 AM","2019","51353","NYTIMES-USCENSUS"
"2/17/2022 12:00:00 AM","Paulding County","Ohio","Midwest","East North Central","39125","41.118948","-84.582125 ","4570","69","0","0","2/16/2022 12:00:00 AM","2019","18672","NYTIMES-USCENSUS"
"2/17/2022 12:00:00 AM","Wheeler County","Georgia","South","South Atlantic","13309","32.105258","-82.733849 ","1394","38","1","0","2/16/2022 12:00:00 AM","2019","7855","NYTIMES-USCENSUS"
"2/17/2022 12:00:00 AM","McCracken County","Kentucky","South","East South Central","21145","37.054111","-88.712454 ","17516","218","25","0","2/16/2022 12:00:00 AM","2019","65418","NYTIMES-USCENSUS"
"2/17/2022 12:00:00 AM","Jerome County","Idaho","West","Mountain","16053","42.691395","-114.262086 ","5129","61","15","0","2/16/2022 12:00:00 AM","2019","24412","NYTIMES-USCENSUS"
"2/17/2022 12:00:00 AM","Denton County","Texas","South","West South Central","48121","33.205132","-97.12114 ","174525","1263","343","7","2/16/2022 12:00:00 AM","2019","887207","NYTIMES-USCENSUS"
"2/17/2022 12:00:00 AM","Warren County","Illinois","Midwest","East North Central","17187","40.850441","-90.620223 ","3943","82","0","0","2/16/2022 12:00:00 AM","2019","16844","NYTIMES-USCENSUS"
"2/17/2022 12:00:00 AM","Bienville Parish","Louisiana","South","West South Central","22013","32.340952","-93.041151 ","3940","105","8","0","2/16/2022 12:00:00 AM","2019","13241","NYTIMES-USCENSUS"
"2/17/2022 12:00:00 AM","Iosco County","Michigan","Midwest","East North Central","26069","44.386912","-83.380141 ","4705","129","0","0","2/16/2022 12:00:00 AM","2019","25127","NYTIMES-USCENSUS"
"2/17/2022 12:00:00 AM","Stevens County","Washington","West","Pacific","53065","48.388728","-117.854455 ","7888","128","0","0","2/16/2022 12:00:00 AM","2019","45723","NYTIMES-USCENSUS"
"2/17/2022 12:00:00 AM","Lincoln County","New Mexico","West","Mountain","35027","33.740841","-105.449805 ","5083","60","2","0","2/16/2022 12:00:00 AM","2019","19572","NYTIMES-USCENSUS"
"2/17/2022 12:00:00 AM","La Crosse County","Wisconsin","Midwest","East North Central","55063","43.908222","-91.111758 ","33837","163","47","0","2/16/2022 12:00:00 AM","2019","118016","NYTIMES-USCENSUS"
"2/17/2022 12:00:00 AM","Anderson County","Kansas","Midwest","West North Central","20003","38.215114","-95.292046 ","2081","26","0","0","2/16/2022 12:00:00 AM","2019","7858","NYTIMES-USCENSUS"
"2/17/2022 12:00:00 AM","Scurry County","Texas","South","West South Central","48415","32.744353","-100.913346 ","4933","100","4","0","2/16/2022 12:00:00 AM","2019","16703","NYTIMES-USCENSUS"
"2/17/2022 12:00:00 AM","Taney County","Missouri","Midwest","West North Central","29213","36.649827","-93.042819 ","13119","202","14","0","2/16/2022 12:00:00 AM","2019","55928","NYTIMES-USCENSUS"
"2/17/2022 12:00:00 AM","Houston County","Georgia","South","South Atlantic","13153","32.458287","-83.662522 ","38884","461","35","1","2/16/2022 12:00:00 AM","2019","157863","NYTIMES-USCENSUS"
"2/17/2022 12:00:00 AM","Highland County","Ohio","Midwest","East North Central","39071","39.184422","-83.601359 ","10513","168","1","0","2/16/2022 12:00:00 AM","2019","43161","NYTIMES-USCENSUS"
"2/17/2022 12:00:00 AM","Mesa County","Colorado","West","Mountain","08077","39.019524","-108.460571 ","40610","522","106","0","2/16/2022 12:00:00 AM","2019","154210","NYTIMES-USCENSUS"
"2/17/2022 12:00:00 AM","Caldwell County","Missouri","Midwest","West North Central","29025","39.658998","-93.979179 ","1645","32","4","0","2/16/2022 12:00:00 AM","2019","9020","NYTIMES-USCENSUS"
"2/17/2022 12:00:00 AM","Washington County","Kentucky","South","East South Central","21229","37.754209","-85.175416 ","3763","55","11","0","2/16/2022 12:00:00 AM","2019","12095","NYTIMES-USCENSUS"
"2/17/2022 12:00:00 AM","Emmet County","Michigan","Midwest","East North Central","26047","45.590094","-84.986822 ","6281","76","18","1","2/16/2022 12:00:00 AM","2019","33415","NYTIMES-USCENSUS"
"2/17/2022 12:00:00 AM","Todd County","Minnesota","Midwest","West North Central","27153","46.066569","-94.900576 ","6557","54","16","0","2/16/2022 12:00:00 AM","2019","24664","NYTIMES-USCENSUS"
"2/17/2022 12:00:00 AM","Stanislaus County","California","West","Pacific","06099","37.562316","-121.002831 ","133425","1609","278","3","2/16/2022 12:00:00 AM","2019","550660","NYTIMES-USCENSUS"
"2/17/2022 12:00:00 AM","Anderson County","Kentucky","South","East South Central","21005","38.005396","-84.986417 ","5994","60","6","0","2/16/2022 12:00:00 AM","2019","22747","NYTIMES-USCENSUS"
"2/17/2022 12:00:00 AM","Ouachita County","Arkansas","South","West South Central","05103","33.591168","-92.878413 ","5315","93","6","0","2/16/2022 12:00:00 AM","2019","23382","NYTIMES-USCENSUS"
"2/17/2022 12:00:00 AM","Seneca County","Ohio","Midwest","East North Central","39147","41.119992","-83.127547 ","12598","217","4","0","2/16/2022 12:00:00 AM","2019","55178","NYTIMES-USCENSUS"
"2/17/2022 12:00:00 AM","Desha County","Arkansas","South","West South Central","05041","33.828752","-91.244103 ","2985","37","5","0","2/16/2022 12:00:00 AM","2019","11361","NYTIMES-USCENSUS"
"2/17/2022 12:00:00 AM","Pembina County","North Dakota","Midwest","West North Central","38067","48.766896","-97.545405 ","1938","16","0","0","2/16/2022 12:00:00 AM","2019","6801","NYTIMES-USCENSUS"
"2/17/2022 12:00:00 AM","Switzerland County","Indiana","Midwest","East North Central","18155","38.825854","-85.029681 ","2288","16","1","0","2/16/2022 12:00:00 AM","2019","10751","NYTIMES-USCENSUS"
"2/17/2022 12:00:00 AM","Stokes County","North Carolina","South","South Atlantic","37169","36.393797","-80.269921 ","10865","155","36","2","2/16/2022 12:00:00 AM","2019","45591","NYTIMES-USCENSUS"
"2/17/2022 12:00:00 AM","Liberty County","Florida","South","South Atlantic","12077","30.259849","-84.86858 ","2468","25","0","0","2/16/2022 12:00:00 AM","2019","8354","NYTIMES-USCENSUS"
"2/17/2022 12:00:00 AM","Harrison County","Mississippi","South","East South Central","28047","30.416536","-89.083376 ","52763","636","46","1","2/16/2022 12:00:00 AM","2019","208080","NYTIMES-USCENSUS"
"2/17/2022 12:00:00 AM","Menominee County","Wisconsin","Midwest","East North Central","55078","44.991304","-88.669251 ","1868","13","0","0","2/16/2022 12:00:00 AM","2019","4556","NYTIMES-USCENSUS"
"2/17/2022 12:00:00 AM","Baca County","Colorado","West","Mountain","08009","37.30978","-102.543741 ","801","8","0","0","2/16/2022 12:00:00 AM","2019","3581","NYTIMES-USCENSUS"
"2/17/2022 12:00:00 AM","Brookings County","South Dakota","Midwest","West North Central","46011","44.376675","-96.797797 ","8044","48","6","0","2/16/2022 12:00:00 AM","2019","35077","NYTIMES-USCENSUS"
"2/17/2022 12:00:00 AM","Ottawa County","Michigan","Midwest","East North Central","26139","43.054969","-86.219349 ","73433","759","0","0","2/16/2022 12:00:00 AM","2019","291830","NYTIMES-USCENSUS"
"2/17/2022 12:00:00 AM","Coke County","Texas","South","West South Central","48081","31.87711","-100.635231 ","827","19","0","0","2/16/2022 12:00:00 AM","2019","3387","NYTIMES-USCENSUS"
"2/17/2022 12:00:00 AM","Itasca County","Minnesota","Midwest","West North Central","27061","47.490817","-93.611102 ","10724","137","14","1","2/16/2022 12:00:00 AM","2019","45130","NYTIMES-USCENSUS"
"2/17/2022 12:00:00 AM","Brule County","South Dakota","Midwest","West North Central","46015","43.729873","-99.092909 ","1401","18","1","0","2/16/2022 12:00:00 AM","2019","5297","NYTIMES-USCENSUS"
"2/17/2022 12:00:00 AM","Pike County","Arkansas","South","West South Central","05109","34.158191","-93.658659 ","2505","39","1","0","2/16/2022 12:00:00 AM","2019","10718","NYTIMES-USCENSUS"
"2/17/2022 12:00:00 AM","Aiken County","South Carolina","South","South Atlantic","45003","33.550013","-81.632983 ","40399","416","75","4","2/16/2022 12:00:00 AM","2019","170872","NYTIMES-USCENSUS"
"2/17/2022 12:00:00 AM","LaSalle County","Illinois","Midwest","East North Central","17099","41.343341","-88.885931 ","28352","428","33","0","2/16/2022 12:00:00 AM","2019","108669","NYTIMES-USCENSUS"
"2/17/2022 12:00:00 AM","Cherokee County","Texas","South","West South Central","48073","31.843881","-95.156343 ","7877","243","3","0","2/16/2022 12:00:00 AM","2019","52646","NYTIMES-USCENSUS"
"2/17/2022 12:00:00 AM","Tallapoosa County","Alabama","South","East South Central","01123","32.863308","-85.799618 ","11233","218","17","1","2/16/2022 12:00:00 AM","2019","40367","NYTIMES-USCENSUS"
"2/17/2022 12:00:00 AM","Cape Girardeau County","Missouri","Midwest","West North Central","29031","37.384141","-89.685658 ","18337","224","22","0","2/16/2022 12:00:00 AM","2019","78871","NYTIMES-USCENSUS"
"2/17/2022 12:00:00 AM","Southeast Fairbanks Census Area","Alaska","West","Pacific","02240","63.864997","-143.218628 ","1940","16","0","0","2/16/2022 12:00:00 AM","2019","6893","NYTIMES-USCENSUS"
"2/17/2022 12:00:00 AM","Chelan County","Washington","West","Pacific","53007","47.860974","-120.619041 ","19615","150","0","0","2/16/2022 12:00:00 AM","2019","77200","NYTIMES-USCENSUS"
"2/17/2022 12:00:00 AM","Tom Green County","Texas","South","West South Central","48451","31.398823","-100.463788 ","40699","436","32","1","2/16/2022 12:00:00 AM","2019","119200","NYTIMES-USCENSUS"
"2/17/2022 12:00:00 AM","Warrick County","Indiana","Midwest","East North Central","18173","38.097728","-87.272049 ","19989","227","19","0","2/16/2022 12:00:00 AM","2019","62998","NYTIMES-USCENSUS"
"2/17/2022 12:00:00 AM","Power County","Idaho","West","Mountain","16077","42.694126","-112.844407 ","1473","19","2","1","2/16/2022 12:00:00 AM","2019","7681","NYTIMES-USCENSUS"
"2/17/2022 12:00:00 AM","Talbot County","Maryland","South","South Atlantic","24041","38.748349","-76.178476 ","5459","80","6","0","2/16/2022 12:00:00 AM","2019","37181","NYTIMES-USCENSUS"
"2/17/2022 12:00:00 AM","Grant County","North Dakota","Midwest","West North Central","38037","46.357827","-101.639049 ","448","11","0","0","2/16/2022 12:00:00 AM","2019","2274","NYTIMES-USCENSUS"
"2/17/2022 12:00:00 AM","Alpine County","California","West","Pacific","06003","38.621783","-119.798352 ","126","0","0","0","2/16/2022 12:00:00 AM","2019","1129","NYTIMES-USCENSUS"
"2/17/2022 12:00:00 AM","Goodhue County","Minnesota","Midwest","West North Central","27049","44.406178","-92.716 ","12627","120","19","0","2/16/2022 12:00:00 AM","2019","46340","NYTIMES-USCENSUS"
"2/17/2022 12:00:00 AM","Salem County","New Jersey","Northeast","Middle Atlantic","34033","39.573828","-75.357356 ","14111","244","9","1","2/16/2022 12:00:00 AM","2019","62385","NYTIMES-USCENSUS"
"2/17/2022 12:00:00 AM","Baker County","Georgia","South","South Atlantic","13007","31.31958","-84.454881 ","531","14","1","0","2/16/2022 12:00:00 AM","2019","3038","NYTIMES-USCENSUS"
"2/17/2022 12:00:00 AM","Lawrence County","Missouri","Midwest","West North Central","29109","37.10659","-93.830551 ","7632","148","14","0","2/16/2022 12:00:00 AM","2019","38355","NYTIMES-USCENSUS"
"2/17/2022 12:00:00 AM","Saginaw County","Michigan","Midwest","East North Central","26145","43.328267","-84.05541 ","49496","901","0","0","2/16/2022 12:00:00 AM","2019","190539","NYTIMES-USCENSUS"
"2/17/2022 12:00:00 AM","Tattnall County","Georgia","South","South Atlantic","13267","32.043768","-82.059208 ","4989","126","10","0","2/16/2022 12:00:00 AM","2019","25286","NYTIMES-USCENSUS"
"2/17/2022 12:00:00 AM","Fulton County","Arkansas","South","West South Central","05049","36.381322","-91.819285 ","2612","83","2","0","2/16/2022 12:00:00 AM","2019","12477","NYTIMES-USCENSUS"
"2/17/2022 12:00:00 AM","Grand County","Utah","West","Mountain","49019","38.974326","-109.57345 ","2226","6","0","0","2/16/2022 12:00:00 AM","2019","9754","NYTIMES-USCENSUS"
"2/17/2022 12:00:00 AM","Dade County","Georgia","South","South Atlantic","13083","34.852424","-85.506201 ","3081","28","11","0","2/16/2022 12:00:00 AM","2019","16116","NYTIMES-USCENSUS"
"2/17/2022 12:00:00 AM","Pend Oreille County","Washington","West","Pacific","53051","48.543825","-117.232191 ","2474","30","0","0","2/16/2022 12:00:00 AM","2019","13724","NYTIMES-USCENSUS"
"2/17/2022 12:00:00 AM","Washington County","Idaho","West","Mountain","16087","44.448223","-116.797792 ","2270","54","19","0","2/16/2022 12:00:00 AM","2019","10194","NYTIMES-USCENSUS"
"2/17/2022 12:00:00 AM","Spokane County","Washington","West","Pacific","53063","47.620375","-117.403371 ","120458","1279","0","0","2/16/2022 12:00:00 AM","2019","522798","NYTIMES-USCENSUS"
"2/17/2022 12:00:00 AM","Minnehaha County","South Dakota","Midwest","West North Central","46099","43.667472","-96.795726 ","56611","492","38","3","2/16/2022 12:00:00 AM","2019","193134","NYTIMES-USCENSUS"
"2/17/2022 12:00:00 AM","Clark County","Kentucky","South","East South Central","21049","37.970314","-84.145115 ","9547","51","28","0","2/16/2022 12:00:00 AM","2019","36263","NYTIMES-USCENSUS"
"2/17/2022 12:00:00 AM","Gray County","Kansas","Midwest","West North Central","20069","37.744513","-100.451716 ","1219","23","0","0","2/16/2022 12:00:00 AM","2019","5988","NYTIMES-USCENSUS"
"2/17/2022 12:00:00 AM","Walla Walla County","Washington","West","Pacific","53071","46.254606","-118.48037 ","15207","127","59","0","2/16/2022 12:00:00 AM","2019","60760","NYTIMES-USCENSUS"
"2/17/2022 12:00:00 AM","Casey County","Kentucky","South","East South Central","21045","37.321962","-84.92822 ","3802","66","23","0","2/16/2022 12:00:00 AM","2019","16159","NYTIMES-USCENSUS"
"2/17/2022 12:00:00 AM","Howell County","Missouri","Midwest","West North Central","29091","36.774369","-91.887368 ","8700","190","16","1","2/16/2022 12:00:00 AM","2019","40117","NYTIMES-USCENSUS"
"2/17/2022 12:00:00 AM","Dooly County","Georgia","South","South Atlantic","13093","32.151995","-83.807167 ","2354","65","3","0","2/16/2022 12:00:00 AM","2019","13390","NYTIMES-USCENSUS"
"2/17/2022 12:00:00 AM","Rush County","Indiana","Midwest","East North Central","18139","39.622362","-85.466529 ","4846","52","6","0","2/16/2022 12:00:00 AM","2019","16581","NYTIMES-USCENSUS"
"2/17/2022 12:00:00 AM","Winneshiek County","Iowa","Midwest","West North Central","19191","43.292989","-91.850788 ","3731","46","0","0","2/16/2022 12:00:00 AM","2019","19991","NYTIMES-USCENSUS"
"2/17/2022 12:00:00 AM","Lampasas County","Texas","South","West South Central","48281","31.196731","-98.240889 ","5442","84","2","1","2/16/2022 12:00:00 AM","2019","21428","NYTIMES-USCENSUS"
"2/17/2022 12:00:00 AM","Churchill County","Nevada","West","Mountain","32001","39.53771","-118.264166 ","6339","101","5","0","2/16/2022 12:00:00 AM","2019","24909","NYTIMES-USCENSUS"
"2/17/2022 12:00:00 AM","Jefferson County","Tennessee","South","East South Central","47089","36.048338","-83.441143 ","15302","245","0","0","2/16/2022 12:00:00 AM","2019","54495","NYTIMES-USCENSUS"
"2/17/2022 12:00:00 AM","Chester County","Tennessee","South","East South Central","47023","35.420253","-88.611353 ","5598","88","0","0","2/16/2022 12:00:00 AM","2019","17297","NYTIMES-USCENSUS"
"2/17/2022 12:00:00 AM","Macon County","Alabama","South","East South Central","01087","32.387027","-85.692887 ","3814","72","5","0","2/16/2022 12:00:00 AM","2019","18068","NYTIMES-USCENSUS"
"2/17/2022 12:00:00 AM","Spartanburg County","South Carolina","South","South Atlantic","45083","34.932014","-81.991624 ","93359","1440","171","14","2/16/2022 12:00:00 AM","2019","319785","NYTIMES-USCENSUS"
"2/17/2022 12:00:00 AM","Jefferson County","Texas","South","West South Central","48245","29.854","-94.149331 ","42928","790","98","1","2/16/2022 12:00:00 AM","2019","251565","NYTIMES-USCENSUS"
"2/17/2022 12:00:00 AM","Hutchinson County","South Dakota","Midwest","West North Central","46067","43.33671","-97.749383 ","1723","34","1","0","2/16/2022 12:00:00 AM","2019","7291","NYTIMES-USCENSUS"
"2/17/2022 12:00:00 AM","Pierce County","North Dakota","Midwest","West North Central","38069","48.238883","-99.966497 ","1045","31","0","0","2/16/2022 12:00:00 AM","2019","3975","NYTIMES-USCENSUS"
"2/17/2022 12:00:00 AM","Polk County","Florida","South","South Atlantic","12105","27.953649","-81.693534 ","195864","2739","0","0","2/16/2022 12:00:00 AM","2019","724777","NYTIMES-USCENSUS"
"2/17/2022 12:00:00 AM","Mason County","Washington","West","Pacific","53045","47.350832","-123.173103 ","11713","127","0","0","2/16/2022 12:00:00 AM","2019","66768","NYTIMES-USCENSUS"
"2/17/2022 12:00:00 AM","Denver County","Colorado","West","Mountain","08031","39.76185","-104.881105 ","163016","1258","224","0","2/16/2022 12:00:00 AM","2019","727211","NYTIMES-USCENSUS"
"2/17/2022 12:00:00 AM","Carson County","Texas","South","West South Central","48065","35.405496","-101.355356 ","1454","33","2","0","2/16/2022 12:00:00 AM","2019","5926","NYTIMES-USCENSUS"
"2/17/2022 12:00:00 AM","Mercer County","West Virginia","South","South Atlantic","54055","37.403448","-81.106456 ","16129","241","76","2","2/16/2022 12:00:00 AM","2019","58758","NYTIMES-USCENSUS"
"2/17/2022 12:00:00 AM","Lynchburg city","Virginia","South","South Atlantic","51680","37.399016","-79.195458 ","19145","257","50","1","2/16/2022 12:00:00 AM","2019","82168","NYTIMES-USCENSUS"
"2/17/2022 12:00:00 AM","Gentry County","Missouri","Midwest","West North Central","29075","40.208127","-94.405321 ","2110","29","3","0","2/16/2022 12:00:00 AM","2019","6571","NYTIMES-USCENSUS"
"2/17/2022 12:00:00 AM","Floyd County","Virginia","South","South Atlantic","51063","36.931433","-80.350266 ","2408","41","2","1","2/16/2022 12:00:00 AM","2019","15749","NYTIMES-USCENSUS"
"2/17/2022 12:00:00 AM","Dewey County","Oklahoma","South","West South Central","40043","35.97796","-99.014385 ","1051","28","0","0","2/16/2022 12:00:00 AM","2019","4891","NYTIMES-USCENSUS"
"2/17/2022 12:00:00 AM","Livingston County","Michigan","Midwest","East North Central","26093","42.602532","-83.911718 ","44935","420","0","0","2/16/2022 12:00:00 AM","2019","191995","NYTIMES-USCENSUS"
"2/17/2022 12:00:00 AM","Box Elder County","Utah","West","Mountain","49003","41.622623","-113.060252 ","13924","111","14","0","2/16/2022 12:00:00 AM","2019","56046","NYTIMES-USCENSUS"
"2/17/2022 12:00:00 AM","Rowan County","Kentucky","South","East South Central","21205","38.204266","-83.428079 ","6162","52","21","0","2/16/2022 12:00:00 AM","2019","24460","NYTIMES-USCENSUS"
"2/17/2022 12:00:00 AM","Coshocton County","Ohio","Midwest","East North Central","39031","40.29671","-81.930109 ","7858","144","5","0","2/16/2022 12:00:00 AM","2019","36600","NYTIMES-USCENSUS"
"2/17/2022 12:00:00 AM","Renville County","Minnesota","Midwest","West North Central","27129","44.723697","-94.955617 ","3546","54","8","0","2/16/2022 12:00:00 AM","2019","14548","NYTIMES-USCENSUS"
"2/17/2022 12:00:00 AM","Outagamie County","Wisconsin","Midwest","East North Central","55087","44.418226","-88.464988 ","53500","347","57","2","2/16/2022 12:00:00 AM","2019","187885","NYTIMES-USCENSUS"
"2/17/2022 12:00:00 AM","Chaves County","New Mexico","West","Mountain","35005","33.361604","-104.469837 ","21533","290","27","0","2/16/2022 12:00:00 AM","2019","64615","NYTIMES-USCENSUS"
"2/17/2022 12:00:00 AM","Bates County","Missouri","Midwest","West North Central","29013","38.257217","-94.339246 ","3696","80","3","1","2/16/2022 12:00:00 AM","2019","16172","NYTIMES-USCENSUS"
"2/17/2022 12:00:00 AM","Pike County","Ohio","Midwest","East North Central","39131","39.071341","-83.052911 ","7304","101","6","0","2/16/2022 12:00:00 AM","2019","27772","NYTIMES-USCENSUS"
"2/17/2022 12:00:00 AM","Massac County","Illinois","Midwest","East North Central","17127","37.216119","-88.705658 ","3776","67","9","0","2/16/2022 12:00:00 AM","2019","13772","NYTIMES-USCENSUS"
"2/17/2022 12:00:00 AM","Pennington County","Minnesota","Midwest","West North Central","27113","48.069247","-96.037725 ","3413","39","8","0","2/16/2022 12:00:00 AM","2019","14119","NYTIMES-USCENSUS"
"2/17/2022 12:00:00 AM","Eau Claire County","Wisconsin","Midwest","East North Central","55035","44.726355","-91.286414 ","29589","176","31","0","2/16/2022 12:00:00 AM","2019","104646","NYTIMES-USCENSUS"
"2/17/2022 12:00:00 AM","Carroll County","Arkansas","South","West South Central","05015","36.33737","-93.540972 ","5940","88","7","0","2/16/2022 12:00:00 AM","2019","28380","NYTIMES-USCENSUS"
"2/17/2022 12:00:00 AM","Dorchester County","Maryland","South","South Atlantic","24019","38.429196","-76.047433 ","7621","104","6","0","2/16/2022 12:00:00 AM","2019","31929","NYTIMES-USCENSUS"
"2/17/2022 12:00:00 AM","Craighead County","Arkansas","South","West South Central","05031","35.827729","-90.631421 ","36009","302","90","0","2/16/2022 12:00:00 AM","2019","110332","NYTIMES-USCENSUS"
"2/17/2022 12:00:00 AM","Fannin County","Georgia","South","South Atlantic","13111","34.866543","-84.317331 ","5053","134","3","1","2/16/2022 12:00:00 AM","2019","26188","NYTIMES-USCENSUS"
"2/17/2022 12:00:00 AM","Newberry County","South Carolina","South","South Atlantic","45071","34.289881","-81.599676 ","13020","174","40","3","2/16/2022 12:00:00 AM","2019","38440","NYTIMES-USCENSUS"
"2/17/2022 12:00:00 AM","Clayton County","Georgia","South","South Atlantic","13063","33.542686","-84.355573 ","62809","873","61","5","2/16/2022 12:00:00 AM","2019","292256","NYTIMES-USCENSUS"
"2/17/2022 12:00:00 AM","Pittsylvania County","Virginia","South","South Atlantic","51143","36.821721","-79.398502 ","12898","168","27","0","2/16/2022 12:00:00 AM","2019","60354","NYTIMES-USCENSUS"
"2/17/2022 12:00:00 AM","Washita County","Oklahoma","South","West South Central","40149","35.289497","-98.991436 ","2576","44","0","0","2/16/2022 12:00:00 AM","2019","10916","NYTIMES-USCENSUS"
"2/17/2022 12:00:00 AM","Shelby County","Texas","South","West South Central","48419","31.790139","-94.142579 ","4276","125","17","0","2/16/2022 12:00:00 AM","2019","25274","NYTIMES-USCENSUS"
"2/17/2022 12:00:00 AM","Clay County","Alabama","South","East South Central","01027","33.2704","-85.863525 ","4045","73","7","0","2/16/2022 12:00:00 AM","2019","13235","NYTIMES-USCENSUS"
"2/17/2022 12:00:00 AM","Carroll County","Kentucky","South","East South Central","21041","38.668394","-85.124024 ","3391","40","10","0","2/16/2022 12:00:00 AM","2019","10631","NYTIMES-USCENSUS"
"2/17/2022 12:00:00 AM","Barton County","Kansas","Midwest","West North Central","20009","38.481239","-98.767837 ","6426","86","0","0","2/16/2022 12:00:00 AM","2019","25779","NYTIMES-USCENSUS"
"2/17/2022 12:00:00 AM","Dixie County","Florida","South","South Atlantic","12029","29.552675","-83.236232 ","3960","52","0","0","2/16/2022 12:00:00 AM","2019","16826","NYTIMES-USCENSUS"
"2/17/2022 12:00:00 AM","Van Buren County","Michigan","Midwest","East North Central","26159","42.28215","-86.306076 ","16686","253","0","0","2/16/2022 12:00:00 AM","2019","75677","NYTIMES-USCENSUS"
"2/17/2022 12:00:00 AM","Lee County","Iowa","Midwest","West North Central","19111","40.647588","-91.477157 ","7743","133","0","0","2/16/2022 12:00:00 AM","2019","33657","NYTIMES-USCENSUS"
"2/17/2022 12:00:00 AM","Jefferson County","West Virginia","South","South Atlantic","54037","39.307398","-77.86322 ","13908","124","15","0","2/16/2022 12:00:00 AM","2019","57146","NYTIMES-USCENSUS"
"2/17/2022 12:00:00 AM","Harney County","Oregon","West","Pacific","41025","43.064449","-118.987169 ","1540","36","3","0","2/16/2022 12:00:00 AM","2019","7393","NYTIMES-USCENSUS"
"2/17/2022 12:00:00 AM","Williamsburg city","Virginia","South","South Atlantic","51830","37.269481","-76.708193 ","1665","13","4","0","2/16/2022 12:00:00 AM","2019","14954","NYTIMES-USCENSUS"
"2/17/2022 12:00:00 AM","Jackson County","Illinois","Midwest","East North Central","17077","37.786096","-89.381212 ","15227","123","19","0","2/16/2022 12:00:00 AM","2019","56750","NYTIMES-USCENSUS"
"2/17/2022 12:00:00 AM","Providence County","Rhode Island","Northeast","New England","44007","41.869768","-71.578625 ","214864","2431","1840","11","2/16/2022 12:00:00 AM","2019","638931","NYTIMES-USCENSUS"
"2/17/2022 12:00:00 AM","Washington County","Maryland","South","South Atlantic","24043","39.603621","-77.814671 ","34592","556","28","1","2/16/2022 12:00:00 AM","2019","151049","NYTIMES-USCENSUS"
"2/17/2022 12:00:00 AM","Mercer County","Kentucky","South","East South Central","21167","37.812085","-84.879695 ","7144","99","18","0","2/16/2022 12:00:00 AM","2019","21933","NYTIMES-USCENSUS"
"2/17/2022 12:00:00 AM","DeKalb County","Tennessee","South","East South Central","47041","35.982219","-85.833596 ","6181","94","0","0","2/16/2022 12:00:00 AM","2019","20490","NYTIMES-USCENSUS"
"2/17/2022 12:00:00 AM","Eastland County","Texas","South","West South Central","48133","32.324645","-98.83656 ","2733","102","2","0","2/16/2022 12:00:00 AM","2019","18360","NYTIMES-USCENSUS"
"2/17/2022 12:00:00 AM","Caribou County","Idaho","West","Mountain","16029","42.786072","-111.544273 ","1471","25","2","0","2/16/2022 12:00:00 AM","2019","7155","NYTIMES-USCENSUS"
"2/17/2022 12:00:00 AM","Pointe Coupee Parish","Louisiana","South","West South Central","22077","30.708319","-91.604621 ","6181","87","438","0","2/16/2022 12:00:00 AM","2019","21730","NYTIMES-USCENSUS"
"2/17/2022 12:00:00 AM","Washington County","Florida","South","South Atlantic","12133","30.602102","-85.655805 ","6522","90","0","0","2/16/2022 12:00:00 AM","2019","25473","NYTIMES-USCENSUS"
"2/17/2022 12:00:00 AM","Franklin County","Iowa","Midwest","West North Central","19069","42.736545","-93.271415 ","2470","40","0","0","2/16/2022 12:00:00 AM","2019","10070","NYTIMES-USCENSUS"
"2/17/2022 12:00:00 AM","Roberts County","Texas","South","West South Central","48393","35.838596","-100.836682 ","165","1","1","0","2/16/2022 12:00:00 AM","2019","854","NYTIMES-USCENSUS"
"2/17/2022 12:00:00 AM","Bristol County","Massachusetts","Northeast","New England","25005","41.748588","-71.088894 ","147334","2416","164","7","2/16/2022 12:00:00 AM","2019","565217","NYTIMES-USCENSUS"
"2/17/2022 12:00:00 AM","Phillips County","Kansas","Midwest","West North Central","20147","39.784506","-99.34215 ","1345","29","0","0","2/16/2022 12:00:00 AM","2019","5234","NYTIMES-USCENSUS"
"2/17/2022 12:00:00 AM","Price County","Wisconsin","Midwest","East North Central","55099","45.679072","-90.35965 ","3206","28","7","0","2/16/2022 12:00:00 AM","2019","13351","NYTIMES-USCENSUS"
"2/17/2022 12:00:00 AM","Saline County","Missouri","Midwest","West North Central","29195","39.13584","-93.204164 ","6209","97","14","0","2/16/2022 12:00:00 AM","2019","22761","NYTIMES-USCENSUS"
"2/17/2022 12:00:00 AM","Buena Vista city","Virginia","South","South Atlantic","51530","37.729345","-79.358134 ","1944","39","13","0","2/16/2022 12:00:00 AM","2019","6478","NYTIMES-USCENSUS"
"2/17/2022 12:00:00 AM","Scioto County","Ohio","Midwest","East North Central","39145","38.814889","-82.998675 ","20201","229","50","0","2/16/2022 12:00:00 AM","2019","75314","NYTIMES-USCENSUS"
"2/17/2022 12:00:00 AM","Toombs County","Georgia","South","South Atlantic","13279","32.117753","-82.330597 ","6839","186","12","0","2/16/2022 12:00:00 AM","2019","26830","NYTIMES-USCENSUS"
"2/17/2022 12:00:00 AM","Carlisle County","Kentucky","South","East South Central","21039","36.85718","-88.976614 ","947","18","3","0","2/16/2022 12:00:00 AM","2019","4760","NYTIMES-USCENSUS"
"2/17/2022 12:00:00 AM","Iron County","Missouri","Midwest","West North Central","29093","37.625971","-90.699587 ","2129","36","3","0","2/16/2022 12:00:00 AM","2019","10125","NYTIMES-USCENSUS"
"2/17/2022 12:00:00 AM","Hamilton County","Iowa","Midwest","West North Central","19079","42.390789","-93.70913 ","3421","69","0","0","2/16/2022 12:00:00 AM","2019","14773","NYTIMES-USCENSUS"
"2/17/2022 12:00:00 AM","Nelson County","Kentucky","South","East South Central","21179","37.80312","-85.465931 ","14138","132","27","0","2/16/2022 12:00:00 AM","2019","46233","NYTIMES-USCENSUS"
"2/17/2022 12:00:00 AM","Madera County","California","West","Pacific","06039","37.209821","-119.749802 ","42195","330","292","0","2/16/2022 12:00:00 AM","2019","157327","NYTIMES-USCENSUS"
"2/17/2022 12:00:00 AM","Newton County","Indiana","Midwest","East North Central","18111","40.962399","-87.402172 ","2526","67","1","0","2/16/2022 12:00:00 AM","2019","13984","NYTIMES-USCENSUS"
"2/17/2022 12:00:00 AM","Sanborn County","South Dakota","Midwest","West North Central","46111","44.018942","-98.091709 ","566","6","0","0","2/16/2022 12:00:00 AM","2019","2344","NYTIMES-USCENSUS"
"2/17/2022 12:00:00 AM","Cedar County","Missouri","Midwest","West North Central","29039","37.733655","-93.850014 ","2874","44","9","0","2/16/2022 12:00:00 AM","2019","14349","NYTIMES-USCENSUS"
"2/17/2022 12:00:00 AM","Knox County","Illinois","Midwest","East North Central","17095","40.930945","-90.213792 ","12355","237","15","0","2/16/2022 12:00:00 AM","2019","49699","NYTIMES-USCENSUS"
"2/17/2022 12:00:00 AM","Delaware County","Iowa","Midwest","West North Central","19055","42.472937","-91.366767 ","3962","65","0","0","2/16/2022 12:00:00 AM","2019","17011","NYTIMES-USCENSUS"
"2/17/2022 12:00:00 AM","Montmorency County","Michigan","Midwest","East North Central","26119","45.024134","-84.130107 ","1686","46","0","0","2/16/2022 12:00:00 AM","2019","9328","NYTIMES-USCENSUS"
"2/17/2022 12:00:00 AM","Middlesex County","New Jersey","Northeast","Middle Atlantic","34023","40.439621","-74.40743 ","187086","2813","270","2","2/16/2022 12:00:00 AM","2019","825062","NYTIMES-USCENSUS"
"2/17/2022 12:00:00 AM","Siskiyou County","California","West","Pacific","06093","41.587986","-122.533287 ","7173","94","21","0","2/16/2022 12:00:00 AM","2019","43539","NYTIMES-USCENSUS"
"2/17/2022 12:00:00 AM","Tyler County","Texas","South","West South Central","48457","30.769295","-94.375656 ","3342","79","0","0","2/16/2022 12:00:00 AM","2019","21672","NYTIMES-USCENSUS"
"2/17/2022 12:00:00 AM","Queen Anne's County","Maryland","South","South Atlantic","24035","39.040693","-76.082405 ","6959","107","10","0","2/16/2022 12:00:00 AM","2019","50381","NYTIMES-USCENSUS"
"2/17/2022 12:00:00 AM","Antelope County","Nebraska","Midwest","West North Central","31003","42.183225","-98.058037 ","1032","12","0","0","2/16/2022 12:00:00 AM","2019","6298","NYTIMES-USCENSUS"
"2/17/2022 12:00:00 AM","Jasper County","Georgia","South","South Atlantic","13159","33.316981","-83.689151 ","3087","68","4","0","2/16/2022 12:00:00 AM","2019","14219","NYTIMES-USCENSUS"
"2/17/2022 12:00:00 AM","Palo Alto County","Iowa","Midwest","West North Central","19147","43.075337","-94.669055 ","2005","36","0","0","2/16/2022 12:00:00 AM","2019","8886","NYTIMES-USCENSUS"
"2/17/2022 12:00:00 AM","Lee County","Illinois","Midwest","East North Central","17103","41.747447","-89.299362 ","8621","116","11","0","2/16/2022 12:00:00 AM","2019","34096","NYTIMES-USCENSUS"
"2/17/2022 12:00:00 AM","Morgan County","Missouri","Midwest","West North Central","29141","38.420806","-92.874835 ","3957","100","0","0","2/16/2022 12:00:00 AM","2019","20627","NYTIMES-USCENSUS"
"2/17/2022 12:00:00 AM","Crow Wing County","Minnesota","Midwest","West North Central","27035","46.491653","-94.070718 ","15560","160","13","1","2/16/2022 12:00:00 AM","2019","65055","NYTIMES-USCENSUS"
"2/17/2022 12:00:00 AM","Austin County","Texas","South","West South Central","48015","29.891901","-96.27017 ","5409","68","6","0","2/16/2022 12:00:00 AM","2019","30032","NYTIMES-USCENSUS"
"2/17/2022 12:00:00 AM","Jefferson Davis Parish","Louisiana","South","West South Central","22053","30.269529","-92.816221 ","6880","146","5","3","2/16/2022 12:00:00 AM","2019","31368","NYTIMES-USCENSUS"
"2/17/2022 12:00:00 AM","Richland County","Wisconsin","Midwest","East North Central","55103","43.376199","-90.435693 ","3770","40","9","0","2/16/2022 12:00:00 AM","2019","17252","NYTIMES-USCENSUS"
"2/17/2022 12:00:00 AM","Bossier Parish","Louisiana","South","West South Central","22015","32.698481","-93.626561 ","37104","453","76","0","2/16/2022 12:00:00 AM","2019","127039","NYTIMES-USCENSUS"
"2/17/2022 12:00:00 AM","Lewis County","Washington","West","Pacific","53041","46.580071","-122.377444 ","17053","220","0","0","2/16/2022 12:00:00 AM","2019","80707","NYTIMES-USCENSUS"
"2/17/2022 12:00:00 AM","Tift County","Georgia","South","South Atlantic","13277","31.457003","-83.525931 ","11440","207","9","0","2/16/2022 12:00:00 AM","2019","40644","NYTIMES-USCENSUS"
"2/17/2022 12:00:00 AM","Clinton County","Illinois","Midwest","East North Central","17027","38.606295","-89.426228 ","11751","122","13","0","2/16/2022 12:00:00 AM","2019","37562","NYTIMES-USCENSUS"
"2/17/2022 12:00:00 AM","Sullivan County","New York","Northeast","Middle Atlantic","36105","41.719993","-74.771577 ","18047","124","15","0","2/16/2022 12:00:00 AM","2019","75432","NYTIMES-USCENSUS"
"2/17/2022 12:00:00 AM","Union County","Iowa","Midwest","West North Central","19175","41.02855","-94.245091 ","2678","47","0","0","2/16/2022 12:00:00 AM","2019","12241","NYTIMES-USCENSUS"
"2/17/2022 12:00:00 AM","Lincoln County","Washington","West","Pacific","53043","47.582743","-118.417692 ","2189","27","0","0","2/16/2022 12:00:00 AM","2019","10939","NYTIMES-USCENSUS"
"2/17/2022 12:00:00 AM","Allegan County","Michigan","Midwest","East North Central","26005","42.421251","-86.261403 ","26610","326","0","0","2/16/2022 12:00:00 AM","2019","118081","NYTIMES-USCENSUS"
"2/17/2022 12:00:00 AM","Letcher County","Kentucky","South","East South Central","21133","37.118536","-82.861251 ","6484","90","50","0","2/16/2022 12:00:00 AM","2019","21553","NYTIMES-USCENSUS"
"2/17/2022 12:00:00 AM","Fannin County","Texas","South","West South Central","48147","33.591161","-96.104988 ","6618","170","6","0","2/16/2022 12:00:00 AM","2019","35514","NYTIMES-USCENSUS"
"2/17/2022 12:00:00 AM","Decatur County","Georgia","South","South Atlantic","13087","30.880643","-84.58389 ","6758","121","7","1","2/16/2022 12:00:00 AM","2019","26404","NYTIMES-USCENSUS"
"2/17/2022 12:00:00 AM","Scott County","Indiana","Midwest","East North Central","18143","38.679431","-85.751898 ","7749","99","11","0","2/16/2022 12:00:00 AM","2019","23873","NYTIMES-USCENSUS"
"2/17/2022 12:00:00 AM","Putnam County","Indiana","Midwest","East North Central","18133","39.665548","-86.853373 ","9205","118","10","1","2/16/2022 12:00:00 AM","2019","37576","NYTIMES-USCENSUS"
"2/17/2022 12:00:00 AM","Davidson County","North Carolina","South","South Atlantic","37057","35.795131","-80.207107 ","42227","382","72","4","2/16/2022 12:00:00 AM","2019","167609","NYTIMES-USCENSUS"
"2/17/2022 12:00:00 AM","Franklin County","Vermont","Northeast","New England","50011","44.858964","-72.909402 ","8221","61","14","1","2/16/2022 12:00:00 AM","2019","49402","NYTIMES-USCENSUS"
"2/17/2022 12:00:00 AM","Nelson County","North Dakota","Midwest","West North Central","38063","47.918667","-98.204428 ","751","18","0","0","2/16/2022 12:00:00 AM","2019","2879","NYTIMES-USCENSUS"
"2/17/2022 12:00:00 AM","Lancaster County","Nebraska","Midwest","West North Central","31109","40.783547","-96.688658 ","73070","414","72","3","2/16/2022 12:00:00 AM","2019","319090","NYTIMES-USCENSUS"
"2/17/2022 12:00:00 AM","Lipscomb County","Texas","South","West South Central","48295","36.2802","-100.272683 ","620","14","0","1","2/16/2022 12:00:00 AM","2019","3233","NYTIMES-USCENSUS"
"2/17/2022 12:00:00 AM","Goshen County","Wyoming","West","Mountain","56015","42.089455","-104.35354 ","3533","54","6","0","2/16/2022 12:00:00 AM","2019","13211","NYTIMES-USCENSUS"
"2/17/2022 12:00:00 AM","Fulton County","Indiana","Midwest","East North Central","18049","41.050384","-86.265006 ","4842","101","10","0","2/16/2022 12:00:00 AM","2019","19974","NYTIMES-USCENSUS"
"2/17/2022 12:00:00 AM","Aransas County","Texas","South","West South Central","48007","28.122621","-96.967501 ","3936","75","2","0","2/16/2022 12:00:00 AM","2019","23510","NYTIMES-USCENSUS"
"2/17/2022 12:00:00 AM","Bingham County","Idaho","West","Mountain","16011","43.216357","-112.399206 ","9669","145","5","0","2/16/2022 12:00:00 AM","2019","46811","NYTIMES-USCENSUS"
"2/17/2022 12:00:00 AM","Osborne County","Kansas","Midwest","West North Central","20141","39.348261","-98.767942 ","780","16","0","0","2/16/2022 12:00:00 AM","2019","3421","NYTIMES-USCENSUS"
"2/17/2022 12:00:00 AM","Henry County","Alabama","South","East South Central","01067","31.516978","-85.239971 ","4403","69","8","0","2/16/2022 12:00:00 AM","2019","17205","NYTIMES-USCENSUS"
"2/17/2022 12:00:00 AM","Saline County","Arkansas","South","West South Central","05125","34.648525","-92.674463 ","30144","298","41","0","2/16/2022 12:00:00 AM","2019","122437","NYTIMES-USCENSUS"
"2/17/2022 12:00:00 AM","Cobb County","Georgia","South","South Atlantic","13067","33.939929","-84.574121 ","168499","1646","109","6","2/16/2022 12:00:00 AM","2019","760141","NYTIMES-USCENSUS"
"2/17/2022 12:00:00 AM","Washoe County","Nevada","West","Mountain","32031","40.73132","-119.663269 ","101322","1128","62","8","2/16/2022 12:00:00 AM","2019","471519","NYTIMES-USCENSUS"
"2/17/2022 12:00:00 AM","Lake County","Illinois","Midwest","East North Central","17097","42.185968","-87.805939 ","145779","1367","111","0","2/16/2022 12:00:00 AM","2019","696535","NYTIMES-USCENSUS"
"2/17/2022 12:00:00 AM","Clatsop County","Oregon","West","Pacific","41007","46.024509","-123.705037 ","4448","38","10","0","2/16/2022 12:00:00 AM","2019","40224","NYTIMES-USCENSUS"
"2/17/2022 12:00:00 AM","Brevard County","Florida","South","South Atlantic","12009","28.298311","-80.700333 ","130075","1939","0","0","2/16/2022 12:00:00 AM","2019","601942","NYTIMES-USCENSUS"
"2/17/2022 12:00:00 AM","Trinity County","California","West","Pacific","06105","40.647858","-123.114666 ","1409","20","10","0","2/16/2022 12:00:00 AM","2019","12285","NYTIMES-USCENSUS"
"2/17/2022 12:00:00 AM","Tama County","Iowa","Midwest","West North Central","19171","42.074848","-92.529411 ","3790","86","0","0","2/16/2022 12:00:00 AM","2019","16854","NYTIMES-USCENSUS"
"2/17/2022 12:00:00 AM","Mayes County","Oklahoma","South","West South Central","40097","36.303804","-95.235638 ","10072","145","0","0","2/16/2022 12:00:00 AM","2019","41100","NYTIMES-USCENSUS"
"2/17/2022 12:00:00 AM","Suffolk city","Virginia","South","South Atlantic","51800","36.697157","-76.634781 ","18389","275","14","0","2/16/2022 12:00:00 AM","2019","92108","NYTIMES-USCENSUS"
"2/17/2022 12:00:00 AM","Goliad County","Texas","South","West South Central","48175","28.6607","-97.430415 ","1154","31","2","1","2/16/2022 12:00:00 AM","2019","7658","NYTIMES-USCENSUS"
"2/17/2022 12:00:00 AM","West Baton Rouge Parish","Louisiana","South","West South Central","22121","30.464052","-91.309808 ","7214","82","54","0","2/16/2022 12:00:00 AM","2019","26465","NYTIMES-USCENSUS"
"2/17/2022 12:00:00 AM","Jerauld County","South Dakota","Midwest","West North Central","46073","44.06341","-98.62317 ","406","20","2","0","2/16/2022 12:00:00 AM","2019","2013","NYTIMES-USCENSUS"
"2/17/2022 12:00:00 AM","Gibson County","Tennessee","South","East South Central","47053","35.991632","-88.933812 ","16912","236","0","0","2/16/2022 12:00:00 AM","2019","49133","NYTIMES-USCENSUS"
"2/17/2022 12:00:00 AM","Jackson County","Mississippi","South","East South Central","28059","30.456005","-88.625101 ","36506","433","12","2","2/16/2022 12:00:00 AM","2019","143617","NYTIMES-USCENSUS"
"2/17/2022 12:00:00 AM","Muscatine County","Iowa","Midwest","West North Central","19139","41.483776","-91.118699 ","9418","129","0","0","2/16/2022 12:00:00 AM","2019","42664","NYTIMES-USCENSUS"
"2/17/2022 12:00:00 AM","Bath County","Kentucky","South","East South Central","21011","38.152249","-83.737641 ","2693","37","11","0","2/16/2022 12:00:00 AM","2019","12500","NYTIMES-USCENSUS"
"2/17/2022 12:00:00 AM","Lake County","Minnesota","Midwest","West North Central","27075","47.517111","-91.411704 ","1980","27","1","0","2/16/2022 12:00:00 AM","2019","10641","NYTIMES-USCENSUS"
"2/17/2022 12:00:00 AM","Isanti County","Minnesota","Midwest","West North Central","27059","45.562431","-93.296339 ","9934","113","9","0","2/16/2022 12:00:00 AM","2019","40596","NYTIMES-USCENSUS"
"2/17/2022 12:00:00 AM","San Miguel County","Colorado","West","Mountain","08113","38.009319","-108.427263 ","2199","7","2","0","2/16/2022 12:00:00 AM","2019","8179","NYTIMES-USCENSUS"
"2/17/2022 12:00:00 AM","Franklin County","Mississippi","South","East South Central","28037","31.477773","-90.895457 ","1910","36","1","0","2/16/2022 12:00:00 AM","2019","7713","NYTIMES-USCENSUS"
"2/17/2022 12:00:00 AM","Blount County","Tennessee","South","East South Central","47009","35.688185","-83.922973 ","38344","375","0","0","2/16/2022 12:00:00 AM","2019","133088","NYTIMES-USCENSUS"
"2/17/2022 12:00:00 AM","Putnam County","Ohio","Midwest","East North Central","39137","41.024533","-84.129879 ","8389","147","1","0","2/16/2022 12:00:00 AM","2019","33861","NYTIMES-USCENSUS"
"2/17/2022 12:00:00 AM","Hughes County","Oklahoma","South","West South Central","40063","35.052934","-96.251183 ","2507","53","0","0","2/16/2022 12:00:00 AM","2019","13279","NYTIMES-USCENSUS"
"2/17/2022 12:00:00 AM","Nicollet County","Minnesota","Midwest","West North Central","27103","44.35882","-94.245684 ","7742","66","7","0","2/16/2022 12:00:00 AM","2019","34274","NYTIMES-USCENSUS"
"2/17/2022 12:00:00 AM","Albemarle County","Virginia","South","South Atlantic","51003","38.024184","-78.553506 ","15068","132","74","0","2/16/2022 12:00:00 AM","2019","109330","NYTIMES-USCENSUS"
"2/17/2022 12:00:00 AM","Lee County","South Carolina","South","South Atlantic","45061","34.15864","-80.251209 ","4185","90","8","0","2/16/2022 12:00:00 AM","2019","16828","NYTIMES-USCENSUS"
"2/17/2022 12:00:00 AM","Rio Arriba County","New Mexico","West","Mountain","35039","36.509669","-106.693983 ","9632","114","25","0","2/16/2022 12:00:00 AM","2019","38921","NYTIMES-USCENSUS"
"2/17/2022 12:00:00 AM","Caswell County","North Carolina","South","South Atlantic","37033","36.394298","-79.339609 ","5105","40","19","0","2/16/2022 12:00:00 AM","2019","22604","NYTIMES-USCENSUS"
"2/17/2022 12:00:00 AM","Columbia County","Georgia","South","South Atlantic","13073","33.552075","-82.249608 ","35154","350","41","1","2/16/2022 12:00:00 AM","2019","156714","NYTIMES-USCENSUS"
"2/17/2022 12:00:00 AM","Niagara County","New York","Northeast","Middle Atlantic","36063","43.272672","-78.812943 ","46899","554","37","2","2/16/2022 12:00:00 AM","2019","209281","NYTIMES-USCENSUS"
"2/17/2022 12:00:00 AM","Blue Earth County","Minnesota","Midwest","West North Central","27013","44.03371","-94.064012 ","17210","90","21","1","2/16/2022 12:00:00 AM","2019","67653","NYTIMES-USCENSUS"
"2/17/2022 12:00:00 AM","Charles Mix County","South Dakota","Midwest","West North Central","46023","43.206185","-98.595143 ","2905","33","1","1","2/16/2022 12:00:00 AM","2019","9292","NYTIMES-USCENSUS"
"2/17/2022 12:00:00 AM","Johnson County","Illinois","Midwest","East North Central","17087","37.460709","-88.882131 ","4333","46","10","1","2/16/2022 12:00:00 AM","2019","12417","NYTIMES-USCENSUS"
"2/17/2022 12:00:00 AM","Putnam County","New York","Northeast","Middle Atlantic","36079","41.427907","-73.743861 ","23163","121","9","0","2/16/2022 12:00:00 AM","2019","98320","NYTIMES-USCENSUS"
"2/17/2022 12:00:00 AM","Saline County","Nebraska","Midwest","West North Central","31151","40.516802","-97.131755 ","3587","8","0","0","2/16/2022 12:00:00 AM","2019","14224","NYTIMES-USCENSUS"
"2/17/2022 12:00:00 AM","Shenandoah County","Virginia","South","South Atlantic","51171","38.856204","-78.573987 ","10552","216","23","1","2/16/2022 12:00:00 AM","2019","43616","NYTIMES-USCENSUS"
"2/17/2022 12:00:00 AM","St. Francis County","Arkansas","South","West South Central","05123","35.022838","-90.751506 ","6985","80","5","0","2/16/2022 12:00:00 AM","2019","24994","NYTIMES-USCENSUS"
"2/17/2022 12:00:00 AM","Benson County","North Dakota","Midwest","West North Central","38005","48.071743","-99.351152 ","1929","22","12","0","2/16/2022 12:00:00 AM","2019","6832","NYTIMES-USCENSUS"
"2/17/2022 12:00:00 AM","Greene County","North Carolina","South","South Atlantic","37079","35.481959","-77.681688 ","5658","55","12","0","2/16/2022 12:00:00 AM","2019","21069","NYTIMES-USCENSUS"
"2/17/2022 12:00:00 AM","Surry County","North Carolina","South","South Atlantic","37171","36.415416","-80.686463 ","20532","305","99","2","2/16/2022 12:00:00 AM","2019","71783","NYTIMES-USCENSUS"
"2/17/2022 12:00:00 AM","Mitchell County","Texas","South","West South Central","48335","32.304117","-100.924392 ","1841","46","3","0","2/16/2022 12:00:00 AM","2019","8545","NYTIMES-USCENSUS"
"2/17/2022 12:00:00 AM","York County","Virginia","South","South Atlantic","51199","37.220914","-76.395533 ","9543","98","18","1","2/16/2022 12:00:00 AM","2019","68280","NYTIMES-USCENSUS"
"2/17/2022 12:00:00 AM","Allegany County","Maryland","South","South Atlantic","24001","39.612313","-78.703104 ","16727","342","13","2","2/16/2022 12:00:00 AM","2019","70416","NYTIMES-USCENSUS"
"2/17/2022 12:00:00 AM","Turner County","Georgia","South","South Atlantic","13287","31.7248","-83.620319 ","2516","53","5","0","2/16/2022 12:00:00 AM","2019","7985","NYTIMES-USCENSUS"
"2/17/2022 12:00:00 AM","Gasconade County","Missouri","Midwest","West North Central","29073","38.441183","-91.50578 ","3268","93","4","0","2/16/2022 12:00:00 AM","2019","14706","NYTIMES-USCENSUS"
"2/17/2022 12:00:00 AM","Aroostook County","Maine","Northeast","New England","23003","46.709193","-68.612409 ","9862","119","152","1","2/16/2022 12:00:00 AM","2019","67055","NYTIMES-USCENSUS"
"2/17/2022 12:00:00 AM","Okaloosa County","Florida","South","South Atlantic","12091","30.614325","-86.59108 ","50414","635","0","0","2/16/2022 12:00:00 AM","2019","210738","NYTIMES-USCENSUS"
"2/17/2022 12:00:00 AM","Roosevelt County","Montana","West","Mountain","30085","48.282747","-104.99517 ","3103","70","20","0","2/16/2022 12:00:00 AM","2019","11004","NYTIMES-USCENSUS"
"2/17/2022 12:00:00 AM","Barnwell County","South Carolina","South","South Atlantic","45011","33.260552","-81.434228 ","5754","93","14","0","2/16/2022 12:00:00 AM","2019","20866","NYTIMES-USCENSUS"
"2/17/2022 12:00:00 AM","Dickinson County","Iowa","Midwest","West North Central","19059","43.389611","-95.196057 ","4098","71","0","0","2/16/2022 12:00:00 AM","2019","17258","NYTIMES-USCENSUS"
"2/17/2022 12:00:00 AM","Taylor County","Iowa","Midwest","West North Central","19173","40.737949","-94.697108 ","1296","21","0","0","2/16/2022 12:00:00 AM","2019","6121","NYTIMES-USCENSUS"
"2/17/2022 12:00:00 AM","Boone County","West Virginia","South","South Atlantic","54005","38.022814","-81.713538 ","6400","68","20","1","2/16/2022 12:00:00 AM","2019","21457","NYTIMES-USCENSUS"
"2/17/2022 12:00:00 AM","Greenlee County","Arizona","West","Mountain","04011","33.238872","-109.242323 ","2175","31","6","0","2/16/2022 12:00:00 AM","2019","9498","NYTIMES-USCENSUS"
"2/17/2022 12:00:00 AM","Craig County","Oklahoma","South","West South Central","40035","36.76389","-95.201553 ","4620","45","0","0","2/16/2022 12:00:00 AM","2019","14142","NYTIMES-USCENSUS"
"2/17/2022 12:00:00 AM","Appanoose County","Iowa","Midwest","West North Central","19007","40.744249","-92.873065 ","2822","63","0","0","2/16/2022 12:00:00 AM","2019","12426","NYTIMES-USCENSUS"
"2/17/2022 12:00:00 AM","Hemphill County","Texas","South","West South Central","48211","35.815956","-100.27921 ","1109","6","8","1","2/16/2022 12:00:00 AM","2019","3819","NYTIMES-USCENSUS"
"2/17/2022 12:00:00 AM","Emmons County","North Dakota","Midwest","West North Central","38029","46.284255","-100.237842 ","722","17","1","0","2/16/2022 12:00:00 AM","2019","3241","NYTIMES-USCENSUS"
"2/17/2022 12:00:00 AM","Hardeman County","Texas","South","West South Central","48197","34.289904","-99.745697 ","551","16","0","1","2/16/2022 12:00:00 AM","2019","3933","NYTIMES-USCENSUS"
"2/17/2022 12:00:00 AM","Norton city","Virginia","South","South Atlantic","51720","36.931549","-82.625996 ","1251","22","8","0","2/16/2022 12:00:00 AM","2019","3981","NYTIMES-USCENSUS"
"2/17/2022 12:00:00 AM","Day County","South Dakota","Midwest","West North Central","46037","45.355161","-97.58143 ","1260","33","0","0","2/16/2022 12:00:00 AM","2019","5424","NYTIMES-USCENSUS"
"2/17/2022 12:00:00 AM","Northwest Arctic Borough","Alaska","West","Pacific","02188","67.005066","-160.021086 ","3906","11","0","0","2/16/2022 12:00:00 AM","2019","7621","NYTIMES-USCENSUS"
"2/17/2022 12:00:00 AM","Swain County","North Carolina","South","South Atlantic","37173","35.568849","-83.465614 ","3301","34","10","0","2/16/2022 12:00:00 AM","2019","14271","NYTIMES-USCENSUS"
"2/17/2022 12:00:00 AM","Perry County","Tennessee","South","East South Central","47135","35.663752","-87.869326 ","2265","43","0","0","2/16/2022 12:00:00 AM","2019","8076","NYTIMES-USCENSUS"
"2/17/2022 12:00:00 AM","Morris County","Texas","South","West South Central","48343","33.116466","-94.731265 ","2451","67","5","1","2/16/2022 12:00:00 AM","2019","12388","NYTIMES-USCENSUS"
"2/17/2022 12:00:00 AM","Jones County","Iowa","Midwest","West North Central","19105","42.125118","-91.116914 ","5386","70","0","0","2/16/2022 12:00:00 AM","2019","20681","NYTIMES-USCENSUS"
"2/17/2022 12:00:00 AM","Rock County","Wisconsin","Midwest","East North Central","55105","42.66988","-89.075284 ","41899","347","59","1","2/16/2022 12:00:00 AM","2019","163354","NYTIMES-USCENSUS"
"2/17/2022 12:00:00 AM","Boone County","Nebraska","Midwest","West North Central","31011","41.703934","-98.070476 ","1043","4","3","0","2/16/2022 12:00:00 AM","2019","5192","NYTIMES-USCENSUS"
"2/17/2022 12:00:00 AM","Crawford County","Georgia","South","South Atlantic","13079","32.709428","-83.979187 ","1763","51","1","0","2/16/2022 12:00:00 AM","2019","12404","NYTIMES-USCENSUS"
"2/17/2022 12:00:00 AM","Pulaski County","Missouri","Midwest","West North Central","29169","37.824835","-92.207022 ","8713","110","11","0","2/16/2022 12:00:00 AM","2019","52607","NYTIMES-USCENSUS"
"2/17/2022 12:00:00 AM","Terry County","Texas","South","West South Central","48445","33.171229","-102.339284 ","2329","83","0","2","2/16/2022 12:00:00 AM","2019","12337","NYTIMES-USCENSUS"
"2/17/2022 12:00:00 AM","Grimes County","Texas","South","West South Central","48185","30.543231","-95.988082 ","8354","116","5","0","2/16/2022 12:00:00 AM","2019","28880","NYTIMES-USCENSUS"
"2/17/2022 12:00:00 AM","Petersburg city","Virginia","South","South Atlantic","51730","37.20473","-77.392368 ","8169","129","14","1","2/16/2022 12:00:00 AM","2019","31346","NYTIMES-USCENSUS"
"2/17/2022 12:00:00 AM","Mississippi County","Missouri","Midwest","West North Central","29133","36.826264","-89.295929 ","3183","55","8","0","2/16/2022 12:00:00 AM","2019","13180","NYTIMES-USCENSUS"
"2/17/2022 12:00:00 AM","Breckinridge County","Kentucky","South","East South Central","21027","37.777988","-86.432919 ","4914","65","12","0","2/16/2022 12:00:00 AM","2019","20477","NYTIMES-USCENSUS"
"2/17/2022 12:00:00 AM","Grant County","Oklahoma","South","West South Central","40053","36.788254","-97.788151 ","1019","14","0","0","2/16/2022 12:00:00 AM","2019","4333","NYTIMES-USCENSUS"
"2/17/2022 12:00:00 AM","Wood County","Wisconsin","Midwest","East North Central","55141","44.461413","-90.038825 ","20495","203","29","0","2/16/2022 12:00:00 AM","2019","72999","NYTIMES-USCENSUS"
"2/17/2022 12:00:00 AM","Okmulgee County","Oklahoma","South","West South Central","40111","35.6435","-95.965947 ","9508","170","0","0","2/16/2022 12:00:00 AM","2019","38465","NYTIMES-USCENSUS"
"2/17/2022 12:00:00 AM","Kanabec County","Minnesota","Midwest","West North Central","27065","45.94776","-93.297788 ","3432","54","6","0","2/16/2022 12:00:00 AM","2019","16337","NYTIMES-USCENSUS"
"2/17/2022 12:00:00 AM","Valdez-Cordova Census Area","Alaska","West","Pacific","02261","61.4","-144.5","2709","16","0","0","2/16/2022 12:00:00 AM","2019","9202","NYTIMES-USCENSUS"
"2/17/2022 12:00:00 AM","Conway County","Arkansas","South","West South Central","05029","35.265702","-92.689248 ","5350","55","8","0","2/16/2022 12:00:00 AM","2019","20846","NYTIMES-USCENSUS"
"2/17/2022 12:00:00 AM","Butte County","California","West","Pacific","06007","39.665336","-121.603209 ","38565","363","253","2","2/16/2022 12:00:00 AM","2019","219186","NYTIMES-USCENSUS"
"2/17/2022 12:00:00 AM","Sumter County","Florida","South","South Atlantic","12119","28.715444","-82.069952 ","20796","505","0","0","2/16/2022 12:00:00 AM","2019","132420","NYTIMES-USCENSUS"
"2/17/2022 12:00:00 AM","Oliver County","North Dakota","Midwest","West North Central","38065","47.118079","-101.33142 ","325","4","1","0","2/16/2022 12:00:00 AM","2019","1959","NYTIMES-USCENSUS"
"2/17/2022 12:00:00 AM","Bay County","Michigan","Midwest","East North Central","26017","43.699711","-83.978701 ","26593","556","0","0","2/16/2022 12:00:00 AM","2019","103126","NYTIMES-USCENSUS"
"2/17/2022 12:00:00 AM","Jackson County","Ohio","Midwest","East North Central","39079","39.013477","-82.614142 ","8700","129","12","0","2/16/2022 12:00:00 AM","2019","32413","NYTIMES-USCENSUS"
"2/17/2022 12:00:00 AM","Pulaski County","Virginia","South","South Atlantic","51155","37.063385","-80.713444 ","6935","118","23","1","2/16/2022 12:00:00 AM","2019","34027","NYTIMES-USCENSUS"
"2/17/2022 12:00:00 AM","Kauai County","Hawaii","West","Pacific","15007","22.012038","-159.705965 ","11190","26","65","0","2/16/2022 12:00:00 AM","2019","72293","NYTIMES-USCENSUS"
"2/17/2022 12:00:00 AM","Emanuel County","Georgia","South","South Atlantic","13107","32.5911","-82.299763 ","5826","150","9","0","2/16/2022 12:00:00 AM","2019","22646","NYTIMES-USCENSUS"
"2/17/2022 12:00:00 AM","Perry County","Illinois","Midwest","East North Central","17145","38.084381","-89.368525 ","7275","102","4","0","2/16/2022 12:00:00 AM","2019","20916","NYTIMES-USCENSUS"
"2/17/2022 12:00:00 AM","Jersey County","Illinois","Midwest","East North Central","17083","39.080195","-90.361385 ","6139","85","3","0","2/16/2022 12:00:00 AM","2019","21773","NYTIMES-USCENSUS"
"2/17/2022 12:00:00 AM","Dallas County","Texas","South","West South Central","48113","32.766987","-96.778424 ","561889","6340","300","22","2/16/2022 12:00:00 AM","2019","2635516","NYTIMES-USCENSUS"
"2/17/2022 12:00:00 AM","Etowah County","Alabama","South","East South Central","01055","34.047641","-86.034263 ","28534","570","35","1","2/16/2022 12:00:00 AM","2019","102268","NYTIMES-USCENSUS"
