"monitor_date","county","state_name","region","subregion","fips","latitude","longitude","case_count_to_date","death_count_to_date","case_count","death_count","previous_monitor_date","population_year","population","source"
"8/30/2021 12:00:00 AM","Otsego County","Michigan","Midwest","East North Central","26137","45.021787","-84.576603 ","2514","41","5","0","8/29/2021 12:00:00 AM","2019","24668","NYTIMES-USCENSUS"
"8/30/2021 12:00:00 AM","Franklin County","Texas","South","West South Central","48159","33.175846","-95.219066 ","1007","27","0","0","8/29/2021 12:00:00 AM","2019","10725","NYTIMES-USCENSUS"
"8/30/2021 12:00:00 AM","Wilcox County","Alabama","South","East South Central","01131","31.990082","-87.304935 ","1439","32","9","0","8/29/2021 12:00:00 AM","2019","10373","NYTIMES-USCENSUS"
"8/30/2021 12:00:00 AM","Grafton County","New Hampshire","Northeast","New England","33009","43.926439","-71.842424 ","4562","30","61","0","8/29/2021 12:00:00 AM","2019","89886","NYTIMES-USCENSUS"
"8/30/2021 12:00:00 AM","Walker County","Texas","South","West South Central","48471","30.743163","-95.569825 ","10157","141","86","0","8/29/2021 12:00:00 AM","2019","72971","NYTIMES-USCENSUS"
"8/30/2021 12:00:00 AM","Somerset County","Maryland","South","South Atlantic","24039","38.07445","-75.853323 ","2778","43","6","0","8/29/2021 12:00:00 AM","2019","25616","NYTIMES-USCENSUS"
"8/30/2021 12:00:00 AM","Wood County","Ohio","Midwest","East North Central","39173","41.360183","-83.622682 ","14045","206","23","0","8/29/2021 12:00:00 AM","2019","130817","NYTIMES-USCENSUS"
"8/30/2021 12:00:00 AM","La Crosse County","Wisconsin","Midwest","East North Central","55063","43.908222","-91.111758 ","14584","95","90","1","8/29/2021 12:00:00 AM","2019","118016","NYTIMES-USCENSUS"
"8/30/2021 12:00:00 AM","Dallas County","Alabama","South","East South Central","01047","32.333526","-87.11436 ","4256","167","8","0","8/29/2021 12:00:00 AM","2019","37196","NYTIMES-USCENSUS"
"8/30/2021 12:00:00 AM","Franklin County","Mississippi","South","East South Central","28037","31.477773","-90.895457 ","1054","26","25","0","8/29/2021 12:00:00 AM","2019","7713","NYTIMES-USCENSUS"
"8/30/2021 12:00:00 AM","Walton County","Florida","South","South Atlantic","12131","30.571247","-86.162798 ","10161","89","0","0","8/29/2021 12:00:00 AM","2019","74071","NYTIMES-USCENSUS"
"8/30/2021 12:00:00 AM","Hancock County","Mississippi","South","East South Central","28045","30.391641","-89.482791 ","6484","98","173","1","8/29/2021 12:00:00 AM","2019","47632","NYTIMES-USCENSUS"
"8/30/2021 12:00:00 AM","Aransas County","Texas","South","West South Central","48007","28.122621","-96.967501 ","1922","47","0","0","8/29/2021 12:00:00 AM","2019","23510","NYTIMES-USCENSUS"
"8/30/2021 12:00:00 AM","Brown County","Wisconsin","Midwest","East North Central","55009","44.474024","-87.99613 ","37911","311","114","0","8/29/2021 12:00:00 AM","2019","264542","NYTIMES-USCENSUS"
"8/30/2021 12:00:00 AM","Rogers County","Oklahoma","South","West South Central","40131","36.377794","-95.601383 ","13103","205","0","0","8/29/2021 12:00:00 AM","2019","92459","NYTIMES-USCENSUS"
"8/30/2021 12:00:00 AM","San Diego County","California","West","Pacific","06073","33.023604","-116.776117 ","348849","3880","684","0","8/29/2021 12:00:00 AM","2019","3338330","NYTIMES-USCENSUS"
"8/30/2021 12:00:00 AM","Guadalupe County","New Mexico","West","Mountain","35019","34.869782","-104.784968 ","794","15","5","0","8/29/2021 12:00:00 AM","2019","4300","NYTIMES-USCENSUS"
"8/30/2021 12:00:00 AM","Wyandotte County","Kansas","Midwest","West North Central","20209","39.115384","-94.763087 ","25211","325","236","0","8/29/2021 12:00:00 AM","2019","165429","NYTIMES-USCENSUS"
"8/30/2021 12:00:00 AM","Stone County","Arkansas","South","West South Central","05137","35.857001","-92.140482 ","1450","36","4","0","8/29/2021 12:00:00 AM","2019","12506","NYTIMES-USCENSUS"
"8/30/2021 12:00:00 AM","Muskingum County","Ohio","Midwest","East North Central","39119","39.966046","-81.943506 ","10155","140","43","0","8/29/2021 12:00:00 AM","2019","86215","NYTIMES-USCENSUS"
"8/30/2021 12:00:00 AM","Essex County","New York","Northeast","Middle Atlantic","36031","44.109601","-73.778431 ","1780","26","0","0","8/29/2021 12:00:00 AM","2019","36885","NYTIMES-USCENSUS"
"8/30/2021 12:00:00 AM","San Juan County","Utah","West","Mountain","49037","37.602633","-109.791574 ","2064","39","15","0","8/29/2021 12:00:00 AM","2019","15308","NYTIMES-USCENSUS"
"8/30/2021 12:00:00 AM","Ripley County","Indiana","Midwest","East North Central","18137","39.100226","-85.260494 ","3973","72","64","0","8/29/2021 12:00:00 AM","2019","28324","NYTIMES-USCENSUS"
"8/30/2021 12:00:00 AM","Noble County","Indiana","Midwest","East North Central","18113","41.404679","-85.417271 ","6699","99","117","1","8/29/2021 12:00:00 AM","2019","47744","NYTIMES-USCENSUS"
"8/30/2021 12:00:00 AM","Cochran County","Texas","South","West South Central","48079","33.60844","-102.830449 ","368","15","0","0","8/29/2021 12:00:00 AM","2019","2853","NYTIMES-USCENSUS"
"8/30/2021 12:00:00 AM","Grady County","Oklahoma","South","West South Central","40051","35.021058","-97.88689 ","6768","133","0","0","8/29/2021 12:00:00 AM","2019","55834","NYTIMES-USCENSUS"
"8/30/2021 12:00:00 AM","Lafayette County","Missouri","Midwest","West North Central","29107","39.068705","-93.802639 ","4088","62","10","0","8/29/2021 12:00:00 AM","2019","32708","NYTIMES-USCENSUS"
"8/30/2021 12:00:00 AM","Marion County","Arkansas","South","West South Central","05089","36.266664","-92.678577 ","1895","49","8","0","8/29/2021 12:00:00 AM","2019","16694","NYTIMES-USCENSUS"
"8/30/2021 12:00:00 AM","York County","Maine","Northeast","New England","23031","43.426019","-70.668425 ","14664","143","0","0","8/29/2021 12:00:00 AM","2019","207641","NYTIMES-USCENSUS"
"8/30/2021 12:00:00 AM","Paulding County","Ohio","Midwest","East North Central","39125","41.118948","-84.582125 ","2016","42","5","0","8/29/2021 12:00:00 AM","2019","18672","NYTIMES-USCENSUS"
"8/30/2021 12:00:00 AM","Reeves County","Texas","South","West South Central","48389","31.308366","-103.712706 ","2969","46","0","0","8/29/2021 12:00:00 AM","2019","15976","NYTIMES-USCENSUS"
"8/30/2021 12:00:00 AM","Chatham County","North Carolina","South","South Atlantic","37037","35.704994","-79.251454 ","5797","91","99","2","8/29/2021 12:00:00 AM","2019","74470","NYTIMES-USCENSUS"
"8/30/2021 12:00:00 AM","Carroll County","Indiana","Midwest","East North Central","18015","40.58498","-86.565141 ","2232","26","23","0","8/29/2021 12:00:00 AM","2019","20257","NYTIMES-USCENSUS"
"8/30/2021 12:00:00 AM","Sullivan County","New Hampshire","Northeast","New England","33019","43.361188","-72.222084 ","2087","29","17","1","8/29/2021 12:00:00 AM","2019","43146","NYTIMES-USCENSUS"
"8/30/2021 12:00:00 AM","Poweshiek County","Iowa","Midwest","West North Central","19157","41.684642","-92.522934 ","1667","36","0","0","8/29/2021 12:00:00 AM","2019","18504","NYTIMES-USCENSUS"
"8/30/2021 12:00:00 AM","Marshall County","West Virginia","South","South Atlantic","54051","39.854426","-80.671794 ","4068","85","20","0","8/29/2021 12:00:00 AM","2019","30531","NYTIMES-USCENSUS"
"8/30/2021 12:00:00 AM","Boone County","West Virginia","South","South Atlantic","54005","38.022814","-81.713538 ","2433","36","22","0","8/29/2021 12:00:00 AM","2019","21457","NYTIMES-USCENSUS"
"8/30/2021 12:00:00 AM","Bottineau County","North Dakota","Midwest","West North Central","38009","48.794412","-100.831257 ","772","20","0","0","8/29/2021 12:00:00 AM","2019","6282","NYTIMES-USCENSUS"
"8/30/2021 12:00:00 AM","Edwards County","Kansas","Midwest","West North Central","20047","37.883595","-99.304746 ","284","12","2","0","8/29/2021 12:00:00 AM","2019","2798","NYTIMES-USCENSUS"
"8/30/2021 12:00:00 AM","Dodge County","Wisconsin","Midwest","East North Central","55027","43.429628","-88.701939 ","13745","203","69","1","8/29/2021 12:00:00 AM","2019","87839","NYTIMES-USCENSUS"
"8/30/2021 12:00:00 AM","Jackson County","Mississippi","South","East South Central","28059","30.456005","-88.625101 ","21157","292","362","4","8/29/2021 12:00:00 AM","2019","143617","NYTIMES-USCENSUS"
"8/30/2021 12:00:00 AM","Christian County","Missouri","Midwest","West North Central","29043","36.969739","-93.187614 ","12567","139","0","0","8/29/2021 12:00:00 AM","2019","88595","NYTIMES-USCENSUS"
"8/30/2021 12:00:00 AM","El Paso County","Texas","South","West South Central","48141","31.76648","-106.241423 ","141781","2783","0","0","8/29/2021 12:00:00 AM","2019","839238","NYTIMES-USCENSUS"
"8/30/2021 12:00:00 AM","Bailey County","Texas","South","West South Central","48017","34.067521","-102.830345 ","903","21","0","0","8/29/2021 12:00:00 AM","2019","7000","NYTIMES-USCENSUS"
"8/30/2021 12:00:00 AM","Currituck County","North Carolina","South","South Atlantic","37053","36.372174","-75.941224 ","1950","17","49","0","8/29/2021 12:00:00 AM","2019","27763","NYTIMES-USCENSUS"
"8/30/2021 12:00:00 AM","Torrance County","New Mexico","West","Mountain","35057","34.554978","-105.890557 ","1407","16","20","0","8/29/2021 12:00:00 AM","2019","15461","NYTIMES-USCENSUS"
"8/30/2021 12:00:00 AM","Surry County","North Carolina","South","South Atlantic","37171","36.415416","-80.686463 ","9748","183","75","0","8/29/2021 12:00:00 AM","2019","71783","NYTIMES-USCENSUS"
"8/30/2021 12:00:00 AM","Carroll County","Mississippi","South","East South Central","28015","33.440795","-89.918887 ","1481","35","13","0","8/29/2021 12:00:00 AM","2019","9947","NYTIMES-USCENSUS"
"8/30/2021 12:00:00 AM","Clatsop County","Oregon","West","Pacific","41007","46.024509","-123.705037 ","1851","11","55","0","8/29/2021 12:00:00 AM","2019","40224","NYTIMES-USCENSUS"
"8/30/2021 12:00:00 AM","Knox County","Texas","South","West South Central","48275","33.61189","-99.730356 ","270","19","0","0","8/29/2021 12:00:00 AM","2019","3664","NYTIMES-USCENSUS"
"8/30/2021 12:00:00 AM","Vermillion County","Indiana","Midwest","East North Central","18165","39.854045","-87.462071 ","2072","45","17","0","8/29/2021 12:00:00 AM","2019","15498","NYTIMES-USCENSUS"
"8/30/2021 12:00:00 AM","Montgomery County","Texas","South","West South Central","48339","30.298801","-95.50295 ","71505","696","0","0","8/29/2021 12:00:00 AM","2019","607391","NYTIMES-USCENSUS"
"8/30/2021 12:00:00 AM","Hardin County","Tennessee","South","East South Central","47071","35.201893","-88.185696 ","4490","71","78","0","8/29/2021 12:00:00 AM","2019","25652","NYTIMES-USCENSUS"
"8/30/2021 12:00:00 AM","Hamlin County","South Dakota","Midwest","West North Central","46057","44.680619","-97.178598 ","830","39","2","0","8/29/2021 12:00:00 AM","2019","6164","NYTIMES-USCENSUS"
"8/30/2021 12:00:00 AM","Bradley County","Tennessee","South","East South Central","47011","35.153914","-84.859414 ","18052","161","336","0","8/29/2021 12:00:00 AM","2019","108110","NYTIMES-USCENSUS"
"8/30/2021 12:00:00 AM","Hopewell city","Virginia","South","South Atlantic","51670","37.29101","-77.298944 ","3135","80","40","0","8/29/2021 12:00:00 AM","2019","22529","NYTIMES-USCENSUS"
"8/30/2021 12:00:00 AM","Clay County","Florida","South","South Atlantic","12019","29.986584","-81.865036 ","29161","352","0","0","8/29/2021 12:00:00 AM","2019","219252","NYTIMES-USCENSUS"
"8/30/2021 12:00:00 AM","Charlotte County","Virginia","South","South Atlantic","51037","37.009042","-78.658568 ","992","21","15","0","8/29/2021 12:00:00 AM","2019","11880","NYTIMES-USCENSUS"
"8/30/2021 12:00:00 AM","Curry County","New Mexico","West","Mountain","35009","34.572984","-103.346055 ","6301","89","137","0","8/29/2021 12:00:00 AM","2019","48954","NYTIMES-USCENSUS"
"8/30/2021 12:00:00 AM","Lawrence County","Missouri","Midwest","West North Central","29109","37.10659","-93.830551 ","4809","96","7","0","8/29/2021 12:00:00 AM","2019","38355","NYTIMES-USCENSUS"
"8/30/2021 12:00:00 AM","Jackson County","Minnesota","Midwest","West North Central","27063","43.671111","-95.149731 ","1310","12","1","0","8/29/2021 12:00:00 AM","2019","9846","NYTIMES-USCENSUS"
"8/30/2021 12:00:00 AM","Dare County","North Carolina","South","South Atlantic","37055","35.606269","-75.767536 ","2993","10","67","0","8/29/2021 12:00:00 AM","2019","37009","NYTIMES-USCENSUS"
"8/30/2021 12:00:00 AM","Deschutes County","Oregon","West","Pacific","41017","43.915118","-121.225575 ","13905","92","431","1","8/29/2021 12:00:00 AM","2019","197692","NYTIMES-USCENSUS"
"8/30/2021 12:00:00 AM","Smith County","Kansas","Midwest","West North Central","20183","39.78466","-98.785429 ","292","3","0","0","8/29/2021 12:00:00 AM","2019","3583","NYTIMES-USCENSUS"
"8/30/2021 12:00:00 AM","Colbert County","Alabama","South","East South Central","01033","34.703112","-87.801457 ","7636","152","22","0","8/29/2021 12:00:00 AM","2019","55241","NYTIMES-USCENSUS"
"8/30/2021 12:00:00 AM","Leslie County","Kentucky","South","East South Central","21131","37.087846","-83.388617 ","1392","9","70","0","8/29/2021 12:00:00 AM","2019","9877","NYTIMES-USCENSUS"
"8/30/2021 12:00:00 AM","Koochiching County","Minnesota","Midwest","West North Central","27071","48.245374","-93.782896 ","1012","19","4","0","8/29/2021 12:00:00 AM","2019","12229","NYTIMES-USCENSUS"
"8/30/2021 12:00:00 AM","Lincoln County","Mississippi","South","East South Central","28085","31.535216","-90.453566 ","4800","122","69","0","8/29/2021 12:00:00 AM","2019","34153","NYTIMES-USCENSUS"
"8/30/2021 12:00:00 AM","Cass County","North Dakota","Midwest","West North Central","38017","46.927003","-97.252375 ","26112","218","21","0","8/29/2021 12:00:00 AM","2019","181923","NYTIMES-USCENSUS"
"8/30/2021 12:00:00 AM","Miami County","Indiana","Midwest","East North Central","18103","40.772883","-86.044258 ","4769","77","56","1","8/29/2021 12:00:00 AM","2019","35516","NYTIMES-USCENSUS"
"8/30/2021 12:00:00 AM","Livingston County","Illinois","Midwest","East North Central","17105","40.894376","-88.552852 ","5249","106","29","0","8/29/2021 12:00:00 AM","2019","35648","NYTIMES-USCENSUS"
"8/30/2021 12:00:00 AM","Clarendon County","South Carolina","South","South Atlantic","45027","33.664682","-80.217889 ","4231","120","43","4","8/29/2021 12:00:00 AM","2019","33745","NYTIMES-USCENSUS"
"8/30/2021 12:00:00 AM","Charles Mix County","South Dakota","Midwest","West North Central","46023","43.206185","-98.595143 ","1491","23","4","0","8/29/2021 12:00:00 AM","2019","9292","NYTIMES-USCENSUS"
"8/30/2021 12:00:00 AM","Tazewell County","Illinois","Midwest","East North Central","17179","40.508074","-89.51626 ","18769","351","133","0","8/29/2021 12:00:00 AM","2019","131803","NYTIMES-USCENSUS"
"8/30/2021 12:00:00 AM","Johnson County","Missouri","Midwest","West North Central","29101","38.741528","-93.811863 ","6082","62","30","0","8/29/2021 12:00:00 AM","2019","54062","NYTIMES-USCENSUS"
"8/30/2021 12:00:00 AM","Jackson County","Michigan","Midwest","East North Central","26075","42.248474","-84.420868 ","22244","335","79","-1","8/29/2021 12:00:00 AM","2019","158510","NYTIMES-USCENSUS"
"8/30/2021 12:00:00 AM","Cape Girardeau County","Missouri","Midwest","West North Central","29031","37.384141","-89.685658 ","11169","144","92","0","8/29/2021 12:00:00 AM","2019","78871","NYTIMES-USCENSUS"
"8/30/2021 12:00:00 AM","Fulton County","Georgia","South","South Atlantic","13121","33.790034","-84.468182 ","116377","1524","1291","3","8/29/2021 12:00:00 AM","2019","1063937","NYTIMES-USCENSUS"
"8/30/2021 12:00:00 AM","Dale County","Alabama","South","East South Central","01045","31.430654","-85.609476 ","7421","135","40","0","8/29/2021 12:00:00 AM","2019","49172","NYTIMES-USCENSUS"
"8/30/2021 12:00:00 AM","Gage County","Nebraska","Midwest","West North Central","31067","40.255234","-96.683453 ","2155","20","0","0","8/29/2021 12:00:00 AM","2019","21513","NYTIMES-USCENSUS"
"8/30/2021 12:00:00 AM","Preble County","Ohio","Midwest","East North Central","39135","39.73881","-84.644758 ","4315","109","10","0","8/29/2021 12:00:00 AM","2019","40882","NYTIMES-USCENSUS"
"8/30/2021 12:00:00 AM","Logan County","Illinois","Midwest","East North Central","17107","40.129277","-89.365309 ","4538","81","36","0","8/29/2021 12:00:00 AM","2019","28618","NYTIMES-USCENSUS"
"8/30/2021 12:00:00 AM","Fort Bend County","Texas","South","West South Central","48157","29.526602","-95.771015 ","83286","797","457","10","8/29/2021 12:00:00 AM","2019","811688","NYTIMES-USCENSUS"
"8/30/2021 12:00:00 AM","Missoula County","Montana","West","Mountain","30063","47.027263","-113.892691 ","10795","106","113","0","8/29/2021 12:00:00 AM","2019","119600","NYTIMES-USCENSUS"
"8/30/2021 12:00:00 AM","Atoka County","Oklahoma","South","West South Central","40005","34.392469","-96.036558 ","2214","28","0","0","8/29/2021 12:00:00 AM","2019","13758","NYTIMES-USCENSUS"
"8/30/2021 12:00:00 AM","Otter Tail County","Minnesota","Midwest","West North Central","27111","46.405727","-95.714581 ","6288","89","25","0","8/29/2021 12:00:00 AM","2019","58746","NYTIMES-USCENSUS"
"8/30/2021 12:00:00 AM","Forest County","Pennsylvania","Northeast","Middle Atlantic","42053","41.513304","-79.249705 ","1462","21","1","0","8/29/2021 12:00:00 AM","2019","7247","NYTIMES-USCENSUS"
"8/30/2021 12:00:00 AM","Gates County","North Carolina","South","South Atlantic","37073","36.442135","-76.702355 ","849","13","4","0","8/29/2021 12:00:00 AM","2019","11562","NYTIMES-USCENSUS"
"8/30/2021 12:00:00 AM","Baraga County","Michigan","Midwest","East North Central","26013","46.695859","-88.36181 ","1045","41","8","0","8/29/2021 12:00:00 AM","2019","8209","NYTIMES-USCENSUS"
"8/30/2021 12:00:00 AM","Todd County","Kentucky","South","East South Central","21219","36.840338","-87.183642 ","1393","28","3","0","8/29/2021 12:00:00 AM","2019","12294","NYTIMES-USCENSUS"
"8/30/2021 12:00:00 AM","Divide County","North Dakota","Midwest","West North Central","38023","48.814754","-103.509326 ","195","2","0","0","8/29/2021 12:00:00 AM","2019","2264","NYTIMES-USCENSUS"
"8/30/2021 12:00:00 AM","Huntington County","Indiana","Midwest","East North Central","18069","40.826394","-85.478597 ","5449","88","77","0","8/29/2021 12:00:00 AM","2019","36520","NYTIMES-USCENSUS"
"8/30/2021 12:00:00 AM","Plumas County","California","West","Pacific","06063","39.992295","-120.824371 ","1014","6","5","0","8/29/2021 12:00:00 AM","2019","18807","NYTIMES-USCENSUS"
"8/30/2021 12:00:00 AM","Charlottesville city","Virginia","South","South Atlantic","51540","38.037658","-78.485381 ","4397","58","55","0","8/29/2021 12:00:00 AM","2019","47266","NYTIMES-USCENSUS"
"8/30/2021 12:00:00 AM","Sumter County","Florida","South","South Atlantic","12119","28.715444","-82.069952 ","12311","284","0","0","8/29/2021 12:00:00 AM","2019","132420","NYTIMES-USCENSUS"
"8/30/2021 12:00:00 AM","Lenoir County","North Carolina","South","South Atlantic","37107","35.240066","-77.635514 ","7418","131","111","0","8/29/2021 12:00:00 AM","2019","55949","NYTIMES-USCENSUS"
"8/30/2021 12:00:00 AM","Lee County","South Carolina","South","South Atlantic","45061","34.15864","-80.251209 ","2190","66","29","0","8/29/2021 12:00:00 AM","2019","16828","NYTIMES-USCENSUS"
"8/30/2021 12:00:00 AM","Calhoun County","Michigan","Midwest","East North Central","26025","42.24299","-85.012385 ","15513","327","90","0","8/29/2021 12:00:00 AM","2019","134159","NYTIMES-USCENSUS"
"8/30/2021 12:00:00 AM","Baldwin County","Alabama","South","East South Central","01003","30.659218","-87.746067 ","32783","381","112","0","8/29/2021 12:00:00 AM","2019","223234","NYTIMES-USCENSUS"
"8/30/2021 12:00:00 AM","Jones County","North Carolina","South","South Atlantic","37103","35.032268","-77.356195 ","1026","29","13","0","8/29/2021 12:00:00 AM","2019","9419","NYTIMES-USCENSUS"
"8/30/2021 12:00:00 AM","Prince Edward County","Virginia","South","South Atlantic","51147","37.224881","-78.432957 ","2390","38","20","0","8/29/2021 12:00:00 AM","2019","22802","NYTIMES-USCENSUS"
"8/30/2021 12:00:00 AM","Jefferson County","Illinois","Midwest","East North Central","17081","38.30078","-88.92421 ","5410","127","57","0","8/29/2021 12:00:00 AM","2019","37684","NYTIMES-USCENSUS"
"8/30/2021 12:00:00 AM","Nelson County","Virginia","South","South Atlantic","51125","37.789079","-78.88344 ","1028","13","22","0","8/29/2021 12:00:00 AM","2019","14930","NYTIMES-USCENSUS"
"8/30/2021 12:00:00 AM","Caroline County","Virginia","South","South Atlantic","51033","38.028033","-77.353736 ","3160","43","47","0","8/29/2021 12:00:00 AM","2019","30725","NYTIMES-USCENSUS"
"8/30/2021 12:00:00 AM","Butler County","Missouri","Midwest","West North Central","29023","36.71518","-90.40313 ","5443","59","26","0","8/29/2021 12:00:00 AM","2019","42478","NYTIMES-USCENSUS"
"8/30/2021 12:00:00 AM","Franklin city","Virginia","South","South Atlantic","51620","36.684014","-76.941396 ","1267","34","5","0","8/29/2021 12:00:00 AM","2019","7967","NYTIMES-USCENSUS"
"8/30/2021 12:00:00 AM","Brown County","Illinois","Midwest","East North Central","17009","39.962069","-90.750309 ","977","13","17","0","8/29/2021 12:00:00 AM","2019","6578","NYTIMES-USCENSUS"
"8/30/2021 12:00:00 AM","Sevier County","Utah","West","Mountain","49041","38.746824","-111.81193 ","2662","15","35","0","8/29/2021 12:00:00 AM","2019","21620","NYTIMES-USCENSUS"
"8/30/2021 12:00:00 AM","Rush County","Indiana","Midwest","East North Central","18139","39.622362","-85.466529 ","2024","27","23","0","8/29/2021 12:00:00 AM","2019","16581","NYTIMES-USCENSUS"
"8/30/2021 12:00:00 AM","Midland County","Michigan","Midwest","East North Central","26111","43.648203","-84.379414 ","8019","101","59","1","8/29/2021 12:00:00 AM","2019","83156","NYTIMES-USCENSUS"
"8/30/2021 12:00:00 AM","Lincoln County","Montana","West","Mountain","30053","48.552385","-115.463185 ","1978","32","24","0","8/29/2021 12:00:00 AM","2019","19980","NYTIMES-USCENSUS"
"8/30/2021 12:00:00 AM","Humphreys County","Tennessee","South","East South Central","47085","36.040822","-87.790453 ","2400","34","32","1","8/29/2021 12:00:00 AM","2019","18582","NYTIMES-USCENSUS"
"8/30/2021 12:00:00 AM","Jackson County","Illinois","Midwest","East North Central","17077","37.786096","-89.381212 ","6773","82","116","0","8/29/2021 12:00:00 AM","2019","56750","NYTIMES-USCENSUS"
"8/30/2021 12:00:00 AM","Chautauqua County","New York","Northeast","Middle Atlantic","36013","42.304216","-79.407595 ","9657","151","40","0","8/29/2021 12:00:00 AM","2019","126903","NYTIMES-USCENSUS"
"8/30/2021 12:00:00 AM","Grand County","Utah","West","Mountain","49019","38.974326","-109.57345 ","1168","4","5","0","8/29/2021 12:00:00 AM","2019","9754","NYTIMES-USCENSUS"
"8/30/2021 12:00:00 AM","Sierra County","New Mexico","West","Mountain","35051","33.119468","-107.188161 ","857","52","6","0","8/29/2021 12:00:00 AM","2019","10791","NYTIMES-USCENSUS"
"8/30/2021 12:00:00 AM","Montgomery County","Indiana","Midwest","East North Central","18107","40.040296","-86.892715 ","5219","97","121","0","8/29/2021 12:00:00 AM","2019","38338","NYTIMES-USCENSUS"
"8/30/2021 12:00:00 AM","Ketchikan Gateway Borough","Alaska","West","Pacific","02130","55.449938","-131.106685 ","1070","2","24","0","8/29/2021 12:00:00 AM","2019","13901","NYTIMES-USCENSUS"
"8/30/2021 12:00:00 AM","Greene County","Tennessee","South","East South Central","47059","36.179487","-82.847523 ","9930","178","299","3","8/29/2021 12:00:00 AM","2019","69069","NYTIMES-USCENSUS"
"8/30/2021 12:00:00 AM","Westmoreland County","Virginia","South","South Atlantic","51193","38.109311","-76.803933 ","1440","29","24","1","8/29/2021 12:00:00 AM","2019","18015","NYTIMES-USCENSUS"
"8/30/2021 12:00:00 AM","Burleson County","Texas","South","West South Central","48051","30.493487","-96.622091 ","2801","50","7","0","8/29/2021 12:00:00 AM","2019","18443","NYTIMES-USCENSUS"
"8/30/2021 12:00:00 AM","Schoolcraft County","Michigan","Midwest","East North Central","26153","46.021122","-86.197029 ","485","5","5","0","8/29/2021 12:00:00 AM","2019","8094","NYTIMES-USCENSUS"
"8/30/2021 12:00:00 AM","Coffey County","Kansas","Midwest","West North Central","20031","38.23645","-95.729137 ","878","24","13","0","8/29/2021 12:00:00 AM","2019","8179","NYTIMES-USCENSUS"
"8/30/2021 12:00:00 AM","Polk County","Tennessee","South","East South Central","47139","35.109437","-84.541112 ","2514","25","46","0","8/29/2021 12:00:00 AM","2019","16832","NYTIMES-USCENSUS"
"8/30/2021 12:00:00 AM","Fisher County","Texas","South","West South Central","48151","32.740473","-100.40312 ","364","14","0","0","8/29/2021 12:00:00 AM","2019","3830","NYTIMES-USCENSUS"
"8/30/2021 12:00:00 AM","Owen County","Indiana","Midwest","East North Central","18119","39.317339","-86.838845 ","2559","63","34","0","8/29/2021 12:00:00 AM","2019","20799","NYTIMES-USCENSUS"
"8/30/2021 12:00:00 AM","Virginia Beach city","Virginia","South","South Atlantic","51810","36.779525","-76.029142 ","42215","437","493","3","8/29/2021 12:00:00 AM","2019","449974","NYTIMES-USCENSUS"
"8/30/2021 12:00:00 AM","Camas County","Idaho","West","Mountain","16025","43.502552","-114.772135 ","76","0","0","0","8/29/2021 12:00:00 AM","2019","1106","NYTIMES-USCENSUS"
"8/30/2021 12:00:00 AM","Franklin Parish","Louisiana","South","West South Central","22041","32.139076","-91.672371 ","3714","119","0","0","8/29/2021 12:00:00 AM","2019","20015","NYTIMES-USCENSUS"
"8/30/2021 12:00:00 AM","Van Wert County","Ohio","Midwest","East North Central","39161","40.85552","-84.585775 ","2762","67","9","0","8/29/2021 12:00:00 AM","2019","28275","NYTIMES-USCENSUS"
"8/30/2021 12:00:00 AM","Florence County","South Carolina","South","South Atlantic","45041","34.028535","-79.710233 ","22041","443","674","3","8/29/2021 12:00:00 AM","2019","138293","NYTIMES-USCENSUS"
"8/30/2021 12:00:00 AM","Nez Perce County","Idaho","West","Mountain","16069","46.333791","-116.760909 ","4729","66","73","1","8/29/2021 12:00:00 AM","2019","40408","NYTIMES-USCENSUS"
"8/30/2021 12:00:00 AM","Logan County","West Virginia","South","South Atlantic","54045","37.830591","-81.940853 ","3739","102","16","0","8/29/2021 12:00:00 AM","2019","32019","NYTIMES-USCENSUS"
"8/30/2021 12:00:00 AM","Chesterfield County","Virginia","South","South Atlantic","51041","37.378434","-77.585847 ","32524","465","462","1","8/29/2021 12:00:00 AM","2019","352802","NYTIMES-USCENSUS"
"8/30/2021 12:00:00 AM","Hancock County","West Virginia","South","South Atlantic","54029","40.516958","-80.570164 ","3059","91","6","0","8/29/2021 12:00:00 AM","2019","28810","NYTIMES-USCENSUS"
"8/30/2021 12:00:00 AM","Caldwell County","Missouri","Midwest","West North Central","29025","39.658998","-93.979179 ","1041","18","3","0","8/29/2021 12:00:00 AM","2019","9020","NYTIMES-USCENSUS"
"8/30/2021 12:00:00 AM","Minnehaha County","South Dakota","Midwest","West North Central","46099","43.667472","-96.795726 ","33122","367","74","1","8/29/2021 12:00:00 AM","2019","193134","NYTIMES-USCENSUS"
"8/30/2021 12:00:00 AM","Irwin County","Georgia","South","South Atlantic","13155","31.604306","-83.277037 ","1295","31","20","0","8/29/2021 12:00:00 AM","2019","9416","NYTIMES-USCENSUS"
"8/30/2021 12:00:00 AM","Citrus County","Florida","South","South Atlantic","12017","28.850292","-82.595552 ","16555","463","0","0","8/29/2021 12:00:00 AM","2019","149657","NYTIMES-USCENSUS"
"8/30/2021 12:00:00 AM","Martin County","North Carolina","South","South Atlantic","37117","35.847301","-77.119602 ","2848","50","61","0","8/29/2021 12:00:00 AM","2019","22440","NYTIMES-USCENSUS"
"8/30/2021 12:00:00 AM","Adams County","Idaho","West","Mountain","16003","44.877004","-116.461624 ","388","5","5","0","8/29/2021 12:00:00 AM","2019","4294","NYTIMES-USCENSUS"
"8/30/2021 12:00:00 AM","Dorchester County","Maryland","South","South Atlantic","24019","38.429196","-76.047433 ","3271","66","13","0","8/29/2021 12:00:00 AM","2019","31929","NYTIMES-USCENSUS"
"8/30/2021 12:00:00 AM","Bannock County","Idaho","West","Mountain","16005","42.692921","-112.228982 ","9823","123","90","0","8/29/2021 12:00:00 AM","2019","87808","NYTIMES-USCENSUS"
"8/30/2021 12:00:00 AM","Tillamook County","Oregon","West","Pacific","41057","45.45589","-123.759299 ","1442","13","81","0","8/29/2021 12:00:00 AM","2019","27036","NYTIMES-USCENSUS"
"8/30/2021 12:00:00 AM","Garrard County","Kentucky","South","East South Central","21079","37.630162","-84.545856 ","1921","37","25","0","8/29/2021 12:00:00 AM","2019","17666","NYTIMES-USCENSUS"
"8/30/2021 12:00:00 AM","Coleman County","Texas","South","West South Central","48083","31.914205","-99.346622 ","891","39","0","0","8/29/2021 12:00:00 AM","2019","8175","NYTIMES-USCENSUS"
"8/30/2021 12:00:00 AM","Lawrence County","Kentucky","South","East South Central","21127","38.074453","-82.73829 ","1844","31","37","1","8/29/2021 12:00:00 AM","2019","15317","NYTIMES-USCENSUS"
"8/30/2021 12:00:00 AM","Gooding County","Idaho","West","Mountain","16047","42.973185","-114.82142 ","1580","27","25","0","8/29/2021 12:00:00 AM","2019","15179","NYTIMES-USCENSUS"
"8/30/2021 12:00:00 AM","Washington County","Ohio","Midwest","East North Central","39167","39.450676","-81.490636 ","5767","111","27","0","8/29/2021 12:00:00 AM","2019","59911","NYTIMES-USCENSUS"
"8/30/2021 12:00:00 AM","Jackson County","Indiana","Midwest","East North Central","18071","38.911957","-86.042516 ","5877","79","123","0","8/29/2021 12:00:00 AM","2019","44231","NYTIMES-USCENSUS"
"8/30/2021 12:00:00 AM","Norman County","Minnesota","Midwest","West North Central","27107","47.329453","-96.463776 ","587","9","2","0","8/29/2021 12:00:00 AM","2019","6375","NYTIMES-USCENSUS"
"8/30/2021 12:00:00 AM","Douglas County","Missouri","Midwest","West North Central","29067","36.946517","-92.515892 ","1465","36","5","0","8/29/2021 12:00:00 AM","2019","13185","NYTIMES-USCENSUS"
"8/30/2021 12:00:00 AM","Madison County","Arkansas","South","West South Central","05087","36.012545","-93.724053 ","2100","32","5","0","8/29/2021 12:00:00 AM","2019","16576","NYTIMES-USCENSUS"
"8/30/2021 12:00:00 AM","Benton County","Indiana","Midwest","East North Central","18007","40.600939","-87.314786 ","1248","15","31","0","8/29/2021 12:00:00 AM","2019","8748","NYTIMES-USCENSUS"
"8/30/2021 12:00:00 AM","Hooker County","Nebraska","Midwest","West North Central","31091","41.920317","-101.117324 ","47","3","0","0","8/29/2021 12:00:00 AM","2019","682","NYTIMES-USCENSUS"
"8/30/2021 12:00:00 AM","Stanley County","South Dakota","Midwest","West North Central","46117","44.413984","-100.747822 ","371","2","2","0","8/29/2021 12:00:00 AM","2019","3098","NYTIMES-USCENSUS"
"8/30/2021 12:00:00 AM","St. Croix County","Wisconsin","Midwest","East North Central","55109","45.028959","-92.447284 ","10542","73","78","0","8/29/2021 12:00:00 AM","2019","90687","NYTIMES-USCENSUS"
"8/30/2021 12:00:00 AM","Faribault County","Minnesota","Midwest","West North Central","27043","43.676522","-93.947234 ","1661","22","9","0","8/29/2021 12:00:00 AM","2019","13653","NYTIMES-USCENSUS"
"8/30/2021 12:00:00 AM","Dorchester County","South Carolina","South","South Atlantic","45035","33.082186","-80.404697 ","25728","256","905","4","8/29/2021 12:00:00 AM","2019","162809","NYTIMES-USCENSUS"
"8/30/2021 12:00:00 AM","Cherokee County","South Carolina","South","South Atlantic","45021","35.049796","-81.607647 ","7425","168","211","4","8/29/2021 12:00:00 AM","2019","57300","NYTIMES-USCENSUS"
"8/30/2021 12:00:00 AM","Lawrence County","Pennsylvania","Northeast","Middle Atlantic","42073","40.992735","-80.334446 ","8410","229","21","0","8/29/2021 12:00:00 AM","2019","85512","NYTIMES-USCENSUS"
"8/30/2021 12:00:00 AM","Texas County","Missouri","Midwest","West North Central","29215","37.314257","-91.964478 ","2720","32","2","0","8/29/2021 12:00:00 AM","2019","25398","NYTIMES-USCENSUS"
"8/30/2021 12:00:00 AM","Greene County","Missouri","Midwest","West North Central","29077","37.258196","-93.340641 ","41749","615","176","0","8/29/2021 12:00:00 AM","2019","293086","NYTIMES-USCENSUS"
"8/30/2021 12:00:00 AM","Luna County","New Mexico","West","Mountain","35029","32.184523","-107.747191 ","3599","92","29","0","8/29/2021 12:00:00 AM","2019","23709","NYTIMES-USCENSUS"
"8/30/2021 12:00:00 AM","Trempealeau County","Wisconsin","Midwest","East North Central","55121","44.30305","-91.358867 ","3962","49","30","0","8/29/2021 12:00:00 AM","2019","29649","NYTIMES-USCENSUS"
"8/30/2021 12:00:00 AM","Boone County","Missouri","Midwest","West North Central","29019","38.989861","-92.310202 ","22931","140","128","3","8/29/2021 12:00:00 AM","2019","180463","NYTIMES-USCENSUS"
"8/30/2021 12:00:00 AM","Benton County","Missouri","Midwest","West North Central","29015","38.301036","-93.287942 ","2242","40","1","0","8/29/2021 12:00:00 AM","2019","19443","NYTIMES-USCENSUS"
"8/30/2021 12:00:00 AM","Canadian County","Oklahoma","South","West South Central","40017","35.543354","-97.979889 ","19664","198","0","0","8/29/2021 12:00:00 AM","2019","148306","NYTIMES-USCENSUS"
"8/30/2021 12:00:00 AM","Pierce County","Nebraska","Midwest","West North Central","31139","42.271413","-97.610992 ","734","21","0","0","8/29/2021 12:00:00 AM","2019","7148","NYTIMES-USCENSUS"
"8/30/2021 12:00:00 AM","Gallatin County","Illinois","Midwest","East North Central","17059","37.768677","-88.227964 ","650","5","14","0","8/29/2021 12:00:00 AM","2019","4828","NYTIMES-USCENSUS"
"8/30/2021 12:00:00 AM","Ross County","Ohio","Midwest","East North Central","39141","39.323895","-83.059538 ","7821","167","37","0","8/29/2021 12:00:00 AM","2019","76666","NYTIMES-USCENSUS"
"8/30/2021 12:00:00 AM","Rolette County","North Dakota","Midwest","West North Central","38079","48.768271","-99.840463 ","2249","28","1","0","8/29/2021 12:00:00 AM","2019","14176","NYTIMES-USCENSUS"
"8/30/2021 12:00:00 AM","Grundy County","Iowa","Midwest","West North Central","19075","42.403339","-92.790244 ","1460","34","0","0","8/29/2021 12:00:00 AM","2019","12232","NYTIMES-USCENSUS"
"8/30/2021 12:00:00 AM","Stephens County","Texas","South","West South Central","48429","32.738052","-98.839344 ","854","28","0","0","8/29/2021 12:00:00 AM","2019","9366","NYTIMES-USCENSUS"
"8/30/2021 12:00:00 AM","Coryell County","Texas","South","West South Central","48099","31.391177","-97.798022 ","8777","100","138","0","8/29/2021 12:00:00 AM","2019","75951","NYTIMES-USCENSUS"
"8/30/2021 12:00:00 AM","Rensselaer County","New York","Northeast","Middle Atlantic","36083","42.710421","-73.513845 ","12351","153","36","1","8/29/2021 12:00:00 AM","2019","158714","NYTIMES-USCENSUS"
"8/30/2021 12:00:00 AM","Overton County","Tennessee","South","East South Central","47133","36.34485","-85.283076 ","3665","63","119","0","8/29/2021 12:00:00 AM","2019","22241","NYTIMES-USCENSUS"
"8/30/2021 12:00:00 AM","Conway County","Arkansas","South","West South Central","05029","35.265702","-92.689248 ","2789","39","5","0","8/29/2021 12:00:00 AM","2019","20846","NYTIMES-USCENSUS"
"8/30/2021 12:00:00 AM","Davis County","Iowa","Midwest","West North Central","19051","40.748089","-92.410345 ","957","25","0","0","8/29/2021 12:00:00 AM","2019","9000","NYTIMES-USCENSUS"
"8/30/2021 12:00:00 AM","Falls County","Texas","South","West South Central","48145","31.25193","-96.934127 ","2308","35","15","0","8/29/2021 12:00:00 AM","2019","17297","NYTIMES-USCENSUS"
"8/30/2021 12:00:00 AM","Bryan County","Georgia","South","South Atlantic","13029","32.017969","-81.438543 ","5392","43","167","1","8/29/2021 12:00:00 AM","2019","39627","NYTIMES-USCENSUS"
"8/30/2021 12:00:00 AM","Portsmouth city","Virginia","South","South Atlantic","51740","36.859339","-76.356973 ","10452","210","132","0","8/29/2021 12:00:00 AM","2019","94398","NYTIMES-USCENSUS"
"8/30/2021 12:00:00 AM","Louisa County","Virginia","South","South Atlantic","51109","37.972704","-77.959795 ","2326","36","43","0","8/29/2021 12:00:00 AM","2019","37591","NYTIMES-USCENSUS"
"8/30/2021 12:00:00 AM","Brooke County","West Virginia","South","South Atlantic","54009","40.272645","-80.578691 ","2416","61","11","0","8/29/2021 12:00:00 AM","2019","21939","NYTIMES-USCENSUS"
"8/30/2021 12:00:00 AM","Hampton city","Virginia","South","South Atlantic","51650","37.047961","-76.297293 ","12470","189","165","3","8/29/2021 12:00:00 AM","2019","134510","NYTIMES-USCENSUS"
"8/30/2021 12:00:00 AM","Blaine County","Oklahoma","South","West South Central","40011","35.877795","-98.429031 ","1169","21","0","0","8/29/2021 12:00:00 AM","2019","9429","NYTIMES-USCENSUS"
"8/30/2021 12:00:00 AM","Rowan County","Kentucky","South","East South Central","21205","38.204266","-83.428079 ","2731","22","48","0","8/29/2021 12:00:00 AM","2019","24460","NYTIMES-USCENSUS"
"8/30/2021 12:00:00 AM","Williamson County","Illinois","Midwest","East North Central","17199","37.730353","-88.930018 ","9996","153","148","1","8/29/2021 12:00:00 AM","2019","66597","NYTIMES-USCENSUS"
"8/30/2021 12:00:00 AM","Howard County","Maryland","South","South Atlantic","24027","39.252264","-76.924406 ","20612","265","46","0","8/29/2021 12:00:00 AM","2019","325690","NYTIMES-USCENSUS"
"8/30/2021 12:00:00 AM","Benton County","Washington","West","Pacific","53005","46.228125","-119.516659 ","24427","265","381","1","8/29/2021 12:00:00 AM","2019","204390","NYTIMES-USCENSUS"
"8/30/2021 12:00:00 AM","Smith County","Mississippi","South","East South Central","28129","32.019029","-89.494876 ","2283","40","43","0","8/29/2021 12:00:00 AM","2019","15916","NYTIMES-USCENSUS"
"8/30/2021 12:00:00 AM","Barren County","Kentucky","South","East South Central","21009","36.962805","-85.932108 ","5801","109","154","0","8/29/2021 12:00:00 AM","2019","44249","NYTIMES-USCENSUS"
"8/30/2021 12:00:00 AM","Calhoun County","Alabama","South","East South Central","01015","33.770516","-85.827909 ","17707","351","91","0","8/29/2021 12:00:00 AM","2019","113605","NYTIMES-USCENSUS"
"8/30/2021 12:00:00 AM","Hennepin County","Minnesota","Midwest","West North Central","27053","45.006121","-93.475228 ","134308","1830","357","1","8/29/2021 12:00:00 AM","2019","1265843","NYTIMES-USCENSUS"
"8/30/2021 12:00:00 AM","Kinney County","Texas","South","West South Central","48271","29.347086","-100.4177 ","386","7","0","0","8/29/2021 12:00:00 AM","2019","3667","NYTIMES-USCENSUS"
"8/30/2021 12:00:00 AM","Leon County","Texas","South","West South Central","48289","31.300493","-95.995622 ","1997","48","10","0","8/29/2021 12:00:00 AM","2019","17404","NYTIMES-USCENSUS"
"8/30/2021 12:00:00 AM","Jefferson County","Arkansas","South","West South Central","05069","34.277239","-91.929673 ","11614","203","20","1","8/29/2021 12:00:00 AM","2019","66824","NYTIMES-USCENSUS"
"8/30/2021 12:00:00 AM","Boulder County","Colorado","West","Mountain","08013","40.094962","-105.397704 ","26329","265","107","1","8/29/2021 12:00:00 AM","2019","326196","NYTIMES-USCENSUS"
"8/30/2021 12:00:00 AM","Saline County","Missouri","Midwest","West North Central","29195","39.13584","-93.204164 ","3468","42","13","0","8/29/2021 12:00:00 AM","2019","22761","NYTIMES-USCENSUS"
"8/30/2021 12:00:00 AM","Antrim County","Michigan","Midwest","East North Central","26009","45.005455","-85.175639 ","1757","33","15","-1","8/29/2021 12:00:00 AM","2019","23324","NYTIMES-USCENSUS"
"8/30/2021 12:00:00 AM","Jackson County","Arkansas","South","West South Central","05067","35.596467","-91.223205 ","3712","41","2","0","8/29/2021 12:00:00 AM","2019","16719","NYTIMES-USCENSUS"
"8/30/2021 12:00:00 AM","Blanco County","Texas","South","West South Central","48031","30.266456","-98.399217 ","962","23","4","0","8/29/2021 12:00:00 AM","2019","11931","NYTIMES-USCENSUS"
"8/30/2021 12:00:00 AM","Washington County","Vermont","Northeast","New England","50023","44.274969","-72.609444 ","2278","16","15","0","8/29/2021 12:00:00 AM","2019","58409","NYTIMES-USCENSUS"
"8/30/2021 12:00:00 AM","Black Hawk County","Iowa","Midwest","West North Central","19013","42.471132","-92.3076 ","18159","328","0","0","8/29/2021 12:00:00 AM","2019","131228","NYTIMES-USCENSUS"
"8/30/2021 12:00:00 AM","Stanton County","Nebraska","Midwest","West North Central","31167","41.905045","-97.177109 ","372","11","0","0","8/29/2021 12:00:00 AM","2019","5920","NYTIMES-USCENSUS"
"8/30/2021 12:00:00 AM","Winnebago County","Iowa","Midwest","West North Central","19189","43.378124","-93.743488 ","1546","31","0","0","8/29/2021 12:00:00 AM","2019","10354","NYTIMES-USCENSUS"
"8/30/2021 12:00:00 AM","Lewis County","Missouri","Midwest","West North Central","29111","40.084559","-91.728803 ","1430","21","0","0","8/29/2021 12:00:00 AM","2019","9776","NYTIMES-USCENSUS"
"8/30/2021 12:00:00 AM","Atkinson County","Georgia","South","South Atlantic","13003","31.296806","-82.878151 ","1369","23","12","0","8/29/2021 12:00:00 AM","2019","8165","NYTIMES-USCENSUS"
"8/30/2021 12:00:00 AM","Osceola County","Iowa","Midwest","West North Central","19143","43.378542","-95.633788 ","814","17","0","0","8/29/2021 12:00:00 AM","2019","5958","NYTIMES-USCENSUS"
"8/30/2021 12:00:00 AM","Dickinson County","Iowa","Midwest","West North Central","19059","43.389611","-95.196057 ","2584","46","0","0","8/29/2021 12:00:00 AM","2019","17258","NYTIMES-USCENSUS"
"8/30/2021 12:00:00 AM","Webb County","Texas","South","West South Central","48479","27.760799","-99.340752 ","53031","894","0","0","8/29/2021 12:00:00 AM","2019","276652","NYTIMES-USCENSUS"
"8/30/2021 12:00:00 AM","Richmond County","Virginia","South","South Atlantic","51159","37.942894","-76.730561 ","1407","12","19","0","8/29/2021 12:00:00 AM","2019","9023","NYTIMES-USCENSUS"
"8/30/2021 12:00:00 AM","Meade County","Kansas","Midwest","West North Central","20119","37.243886","-100.360094 ","554","13","8","0","8/29/2021 12:00:00 AM","2019","4033","NYTIMES-USCENSUS"
"8/30/2021 12:00:00 AM","Union County","North Carolina","South","South Atlantic","37179","34.99182","-80.530426 ","29572","247","425","1","8/29/2021 12:00:00 AM","2019","239859","NYTIMES-USCENSUS"
"8/30/2021 12:00:00 AM","Union County","Pennsylvania","Northeast","Middle Atlantic","42119","40.962179","-77.055475 ","6328","90","5","0","8/29/2021 12:00:00 AM","2019","44923","NYTIMES-USCENSUS"
"8/30/2021 12:00:00 AM","Massac County","Illinois","Midwest","East North Central","17127","37.216119","-88.705658 ","1717","45","41","0","8/29/2021 12:00:00 AM","2019","13772","NYTIMES-USCENSUS"
"8/30/2021 12:00:00 AM","Pierce County","North Dakota","Midwest","West North Central","38069","48.238883","-99.966497 ","586","26","1","0","8/29/2021 12:00:00 AM","2019","3975","NYTIMES-USCENSUS"
"8/30/2021 12:00:00 AM","Brooks County","Georgia","South","South Atlantic","13027","30.822934","-83.581905 ","2094","53","52","0","8/29/2021 12:00:00 AM","2019","15457","NYTIMES-USCENSUS"
"8/30/2021 12:00:00 AM","Wayne County","North Carolina","South","South Atlantic","37191","35.35419","-78.00867 ","13283","247","200","0","8/29/2021 12:00:00 AM","2019","123131","NYTIMES-USCENSUS"
"8/30/2021 12:00:00 AM","Ogle County","Illinois","Midwest","East North Central","17141","42.041884","-89.320176 ","6641","92","43","0","8/29/2021 12:00:00 AM","2019","50643","NYTIMES-USCENSUS"
"8/30/2021 12:00:00 AM","Bond County","Illinois","Midwest","East North Central","17005","38.885924","-89.436592 ","2303","29","15","0","8/29/2021 12:00:00 AM","2019","16426","NYTIMES-USCENSUS"
"8/30/2021 12:00:00 AM","Buena Vista city","Virginia","South","South Atlantic","51530","37.729345","-79.358134 ","988","22","11","0","8/29/2021 12:00:00 AM","2019","6478","NYTIMES-USCENSUS"
"8/30/2021 12:00:00 AM","Lampasas County","Texas","South","West South Central","48281","31.196731","-98.240889 ","2857","40","37","0","8/29/2021 12:00:00 AM","2019","21428","NYTIMES-USCENSUS"
"8/30/2021 12:00:00 AM","Monroe County","Iowa","Midwest","West North Central","19135","41.028847","-92.869642 ","1057","33","0","0","8/29/2021 12:00:00 AM","2019","7707","NYTIMES-USCENSUS"
"8/30/2021 12:00:00 AM","Hancock County","Tennessee","South","East South Central","47067","36.521353","-83.227493 ","822","13","32","0","8/29/2021 12:00:00 AM","2019","6620","NYTIMES-USCENSUS"
"8/30/2021 12:00:00 AM","Laramie County","Wyoming","West","Mountain","56021","41.29283","-104.660395 ","13049","148","125","0","8/29/2021 12:00:00 AM","2019","99500","NYTIMES-USCENSUS"
"8/30/2021 12:00:00 AM","Archer County","Texas","South","West South Central","48009","33.616305","-98.687267 ","922","13","0","0","8/29/2021 12:00:00 AM","2019","8553","NYTIMES-USCENSUS"
"8/30/2021 12:00:00 AM","Metcalfe County","Kentucky","South","East South Central","21169","36.99243","-85.633456 ","1373","31","31","0","8/29/2021 12:00:00 AM","2019","10071","NYTIMES-USCENSUS"
"8/30/2021 12:00:00 AM","Webster County","Nebraska","Midwest","West North Central","31181","40.180646","-98.49859 ","424","8","0","0","8/29/2021 12:00:00 AM","2019","3487","NYTIMES-USCENSUS"
"8/30/2021 12:00:00 AM","Alamance County","North Carolina","South","South Atlantic","37001","36.043954","-79.400573 ","21680","294","348","2","8/29/2021 12:00:00 AM","2019","169509","NYTIMES-USCENSUS"
"8/30/2021 12:00:00 AM","Johnson County","Iowa","Midwest","West North Central","19103","41.670668","-91.590529 ","15545","88","0","0","8/29/2021 12:00:00 AM","2019","151140","NYTIMES-USCENSUS"
"8/30/2021 12:00:00 AM","Watauga County","North Carolina","South","South Atlantic","37189","36.235368","-81.709888 ","5491","33","36","0","8/29/2021 12:00:00 AM","2019","56177","NYTIMES-USCENSUS"
"8/30/2021 12:00:00 AM","Sumter County","Alabama","South","East South Central","01119","32.597481","-88.200057 ","1179","34","0","0","8/29/2021 12:00:00 AM","2019","12427","NYTIMES-USCENSUS"
"8/30/2021 12:00:00 AM","Butler County","Kentucky","South","East South Central","21031","37.207013","-86.682471 ","1778","28","25","0","8/29/2021 12:00:00 AM","2019","12879","NYTIMES-USCENSUS"
"8/30/2021 12:00:00 AM","Bandera County","Texas","South","West South Central","48019","29.756389","-99.248285 ","1809","36","0","0","8/29/2021 12:00:00 AM","2019","23112","NYTIMES-USCENSUS"
"8/30/2021 12:00:00 AM","Clarke County","Virginia","South","South Atlantic","51043","39.115307","-77.990748 ","1082","21","7","0","8/29/2021 12:00:00 AM","2019","14619","NYTIMES-USCENSUS"
"8/30/2021 12:00:00 AM","Crawford County","Kansas","Midwest","West North Central","20037","37.505821","-94.853897 ","6184","102","43","0","8/29/2021 12:00:00 AM","2019","38818","NYTIMES-USCENSUS"
"8/30/2021 12:00:00 AM","Sagadahoc County","Maine","Northeast","New England","23023","43.916845","-69.844227 ","1560","12","0","0","8/29/2021 12:00:00 AM","2019","35856","NYTIMES-USCENSUS"
"8/30/2021 12:00:00 AM","Genesee County","New York","Northeast","Middle Atlantic","36037","43.00091","-78.192778 ","5706","124","9","0","8/29/2021 12:00:00 AM","2019","57280","NYTIMES-USCENSUS"
"8/30/2021 12:00:00 AM","Franklin County","Tennessee","South","East South Central","47051","35.155926","-86.099203 ","6455","93","174","0","8/29/2021 12:00:00 AM","2019","42208","NYTIMES-USCENSUS"
"8/30/2021 12:00:00 AM","Polk County","Arkansas","South","West South Central","05113","34.490915","-94.230884 ","2517","88","3","0","8/29/2021 12:00:00 AM","2019","19964","NYTIMES-USCENSUS"
"8/30/2021 12:00:00 AM","Dutchess County","New York","Northeast","Middle Atlantic","36027","41.75477","-73.740041 ","31947","464","63","0","8/29/2021 12:00:00 AM","2019","294218","NYTIMES-USCENSUS"
"8/30/2021 12:00:00 AM","Alcorn County","Mississippi","South","East South Central","28003","34.886569","-88.581109 ","4559","80","86","0","8/29/2021 12:00:00 AM","2019","36953","NYTIMES-USCENSUS"
"8/30/2021 12:00:00 AM","Ogemaw County","Michigan","Midwest","East North Central","26129","44.33328","-84.128073 ","1901","44","5","0","8/29/2021 12:00:00 AM","2019","20997","NYTIMES-USCENSUS"
"8/30/2021 12:00:00 AM","St. Joseph County","Michigan","Midwest","East North Central","26149","41.911488","-85.52287 ","6688","104","34","0","8/29/2021 12:00:00 AM","2019","60964","NYTIMES-USCENSUS"
"8/30/2021 12:00:00 AM","Mercer County","North Dakota","Midwest","West North Central","38057","47.307147","-101.833328 ","1222","11","2","0","8/29/2021 12:00:00 AM","2019","8187","NYTIMES-USCENSUS"
"8/30/2021 12:00:00 AM","Gallia County","Ohio","Midwest","East North Central","39053","38.817046","-82.301746 ","2902","52","10","0","8/29/2021 12:00:00 AM","2019","29898","NYTIMES-USCENSUS"
"8/30/2021 12:00:00 AM","Harrison County","West Virginia","South","South Atlantic","54033","39.279182","-80.386498 ","7094","83","43","0","8/29/2021 12:00:00 AM","2019","67256","NYTIMES-USCENSUS"
"8/30/2021 12:00:00 AM","Choctaw County","Oklahoma","South","West South Central","40023","34.027699","-95.554079 ","2006","30","0","0","8/29/2021 12:00:00 AM","2019","14672","NYTIMES-USCENSUS"
"8/30/2021 12:00:00 AM","Edmonson County","Kentucky","South","East South Central","21061","37.227514","-86.218015 ","1115","25","20","0","8/29/2021 12:00:00 AM","2019","12150","NYTIMES-USCENSUS"
"8/30/2021 12:00:00 AM","Roane County","West Virginia","South","South Atlantic","54087","38.74295","-81.354494 ","840","10","8","0","8/29/2021 12:00:00 AM","2019","13688","NYTIMES-USCENSUS"
"8/30/2021 12:00:00 AM","Merrick County","Nebraska","Midwest","West North Central","31121","41.16979","-98.031057 ","786","15","0","0","8/29/2021 12:00:00 AM","2019","7755","NYTIMES-USCENSUS"
"8/30/2021 12:00:00 AM","Washington County","Florida","South","South Atlantic","12133","30.602102","-85.655805 ","3880","52","0","0","8/29/2021 12:00:00 AM","2019","25473","NYTIMES-USCENSUS"
"8/30/2021 12:00:00 AM","Northampton County","North Carolina","South","South Atlantic","37131","36.421774","-77.398352 ","2101","62","20","0","8/29/2021 12:00:00 AM","2019","19483","NYTIMES-USCENSUS"
"8/30/2021 12:00:00 AM","Marion County","Alabama","South","East South Central","01093","34.138219","-87.881551 ","4066","110","9","0","8/29/2021 12:00:00 AM","2019","29709","NYTIMES-USCENSUS"
"8/30/2021 12:00:00 AM","Bee County","Texas","South","West South Central","48025","28.416077","-97.742586 ","4560","83","0","0","8/29/2021 12:00:00 AM","2019","32565","NYTIMES-USCENSUS"
"8/30/2021 12:00:00 AM","Vermilion Parish","Louisiana","South","West South Central","22113","29.789722","-92.291568 ","8883","148","0","0","8/29/2021 12:00:00 AM","2019","59511","NYTIMES-USCENSUS"
"8/30/2021 12:00:00 AM","Gallatin County","Kentucky","South","East South Central","21077","38.755663","-84.865143 ","927","34","17","0","8/29/2021 12:00:00 AM","2019","8869","NYTIMES-USCENSUS"
"8/30/2021 12:00:00 AM","Sumner County","Kansas","Midwest","West North Central","20191","37.236662","-97.493352 ","2573","53","42","0","8/29/2021 12:00:00 AM","2019","22836","NYTIMES-USCENSUS"
"8/30/2021 12:00:00 AM","Buffalo County","Wisconsin","Midwest","East North Central","55011","44.385633","-91.761294 ","1523","7","4","0","8/29/2021 12:00:00 AM","2019","13031","NYTIMES-USCENSUS"
"8/30/2021 12:00:00 AM","Lincoln County","Nebraska","Midwest","West North Central","31111","41.050322","-100.744481 ","4176","80","0","0","8/29/2021 12:00:00 AM","2019","34914","NYTIMES-USCENSUS"
"8/30/2021 12:00:00 AM","Santa Rosa County","Florida","South","South Atlantic","12113","30.675348","-87.018919 ","26301","291","0","0","8/29/2021 12:00:00 AM","2019","184313","NYTIMES-USCENSUS"
"8/30/2021 12:00:00 AM","Hancock County","Iowa","Midwest","West North Central","19081","43.075411","-93.743697 ","1591","35","0","0","8/29/2021 12:00:00 AM","2019","10630","NYTIMES-USCENSUS"
"8/30/2021 12:00:00 AM","Rutherford County","Tennessee","South","East South Central","47149","35.843369","-86.417213 ","51144","471","915","1","8/29/2021 12:00:00 AM","2019","332285","NYTIMES-USCENSUS"
"8/30/2021 12:00:00 AM","Jackson County","Alabama","South","East South Central","01071","34.764114","-85.980056 ","8178","123","29","0","8/29/2021 12:00:00 AM","2019","51626","NYTIMES-USCENSUS"
"8/30/2021 12:00:00 AM","Steele County","Minnesota","Midwest","West North Central","27147","44.015261","-93.220453 ","4461","21","37","1","8/29/2021 12:00:00 AM","2019","36649","NYTIMES-USCENSUS"
"8/30/2021 12:00:00 AM","McHenry County","North Dakota","Midwest","West North Central","38049","48.233842","-100.633267 ","695","23","0","0","8/29/2021 12:00:00 AM","2019","5745","NYTIMES-USCENSUS"
"8/30/2021 12:00:00 AM","Rusk County","Texas","South","West South Central","48401","32.109423","-94.756382 ","5811","122","0","0","8/29/2021 12:00:00 AM","2019","54406","NYTIMES-USCENSUS"
"8/30/2021 12:00:00 AM","Amite County","Mississippi","South","East South Central","28005","31.203933","-90.795542 ","1762","49","46","1","8/29/2021 12:00:00 AM","2019","12297","NYTIMES-USCENSUS"
"8/30/2021 12:00:00 AM","Hand County","South Dakota","Midwest","West North Central","46059","44.546713","-99.004575 ","367","6","0","0","8/29/2021 12:00:00 AM","2019","3191","NYTIMES-USCENSUS"
"8/30/2021 12:00:00 AM","Seward County","Nebraska","Midwest","West North Central","31159","40.871944","-97.140383 ","2055","34","0","0","8/29/2021 12:00:00 AM","2019","17284","NYTIMES-USCENSUS"
"8/30/2021 12:00:00 AM","Hardin County","Texas","South","West South Central","48199","30.329648","-94.393178 ","8106","133","0","1","8/29/2021 12:00:00 AM","2019","57602","NYTIMES-USCENSUS"
"8/30/2021 12:00:00 AM","Pasco County","Florida","South","South Atlantic","12101","28.309823","-82.511006 ","65142","802","0","0","8/29/2021 12:00:00 AM","2019","553947","NYTIMES-USCENSUS"
"8/30/2021 12:00:00 AM","Coconino County","Arizona","West","Mountain","04005","35.829692","-111.773728 ","19814","341","30","0","8/29/2021 12:00:00 AM","2019","143476","NYTIMES-USCENSUS"
"8/30/2021 12:00:00 AM","Blaine County","Idaho","West","Mountain","16013","43.394192","-113.955371 ","2551","19","10","0","8/29/2021 12:00:00 AM","2019","23021","NYTIMES-USCENSUS"
"8/30/2021 12:00:00 AM","Lee County","Iowa","Midwest","West North Central","19111","40.647588","-91.477157 ","4598","63","0","0","8/29/2021 12:00:00 AM","2019","33657","NYTIMES-USCENSUS"
"8/30/2021 12:00:00 AM","Montague County","Texas","South","West South Central","48337","33.678356","-97.725014 ","2422","75","0","0","8/29/2021 12:00:00 AM","2019","19818","NYTIMES-USCENSUS"
"8/30/2021 12:00:00 AM","Adams County","Wisconsin","Midwest","East North Central","55001","43.973757","-89.767228 ","2174","21","17","0","8/29/2021 12:00:00 AM","2019","20220","NYTIMES-USCENSUS"
"8/30/2021 12:00:00 AM","Brookings County","South Dakota","Midwest","West North Central","46011","44.376675","-96.797797 ","4456","37","11","0","8/29/2021 12:00:00 AM","2019","35077","NYTIMES-USCENSUS"
"8/30/2021 12:00:00 AM","Carroll County","Tennessee","South","East South Central","47017","35.965748","-88.452379 ","4493","87","96","0","8/29/2021 12:00:00 AM","2019","27767","NYTIMES-USCENSUS"
"8/30/2021 12:00:00 AM","Albany County","New York","Northeast","Middle Atlantic","36001","42.58824","-73.97401 ","26799","363","67","0","8/29/2021 12:00:00 AM","2019","305506","NYTIMES-USCENSUS"
"8/30/2021 12:00:00 AM","Marion County","Illinois","Midwest","East North Central","17121","38.648236","-88.920362 ","5833","137","93","1","8/29/2021 12:00:00 AM","2019","37205","NYTIMES-USCENSUS"
"8/30/2021 12:00:00 AM","St. Clair County","Alabama","South","East South Central","01115","33.719491","-86.311327 ","13065","258","53","0","8/29/2021 12:00:00 AM","2019","89512","NYTIMES-USCENSUS"
"8/30/2021 12:00:00 AM","Hickman County","Kentucky","South","East South Central","21105","36.675896","-88.972084 ","451","16","7","0","8/29/2021 12:00:00 AM","2019","4380","NYTIMES-USCENSUS"
"8/30/2021 12:00:00 AM","Comanche County","Oklahoma","South","West South Central","40031","34.662625","-98.476586 ","17023","209","0","0","8/29/2021 12:00:00 AM","2019","120749","NYTIMES-USCENSUS"
"8/30/2021 12:00:00 AM","Todd County","Minnesota","Midwest","West North Central","27153","46.066569","-94.900576 ","3036","33","10","0","8/29/2021 12:00:00 AM","2019","24664","NYTIMES-USCENSUS"
"8/30/2021 12:00:00 AM","Sequoyah County","Oklahoma","South","West South Central","40135","35.502435","-94.750757 ","5420","61","0","0","8/29/2021 12:00:00 AM","2019","41569","NYTIMES-USCENSUS"
"8/30/2021 12:00:00 AM","Bladen County","North Carolina","South","South Atlantic","37017","34.591938","-78.539489 ","4717","72","91","1","8/29/2021 12:00:00 AM","2019","32722","NYTIMES-USCENSUS"
"8/30/2021 12:00:00 AM","Fulton County","Pennsylvania","Northeast","Middle Atlantic","42057","39.91075","-78.122617 ","1478","18","6","0","8/29/2021 12:00:00 AM","2019","14530","NYTIMES-USCENSUS"
"8/30/2021 12:00:00 AM","Lincoln County","Washington","West","Pacific","53043","47.582743","-118.417692 ","896","12","12","0","8/29/2021 12:00:00 AM","2019","10939","NYTIMES-USCENSUS"
"8/30/2021 12:00:00 AM","Lewis County","West Virginia","South","South Atlantic","54041","38.988877","-80.495477 ","1727","24","17","0","8/29/2021 12:00:00 AM","2019","15907","NYTIMES-USCENSUS"
"8/30/2021 12:00:00 AM","Defiance County","Ohio","Midwest","East North Central","39039","41.321679","-84.486433 ","4824","100","10","0","8/29/2021 12:00:00 AM","2019","38087","NYTIMES-USCENSUS"
"8/30/2021 12:00:00 AM","Fayette County","Kentucky","South","East South Central","21067","38.040678","-84.458272 ","42628","328","421","1","8/29/2021 12:00:00 AM","2019","323152","NYTIMES-USCENSUS"
"8/30/2021 12:00:00 AM","Klamath County","Oregon","West","Pacific","41035","42.683761","-121.646168 ","5635","82","71","1","8/29/2021 12:00:00 AM","2019","68238","NYTIMES-USCENSUS"
"8/30/2021 12:00:00 AM","Cambria County","Pennsylvania","Northeast","Middle Atlantic","42021","40.510227","-78.710477 ","15470","448","12","0","8/29/2021 12:00:00 AM","2019","130192","NYTIMES-USCENSUS"
"8/30/2021 12:00:00 AM","Fulton County","Ohio","Midwest","East North Central","39051","41.597264","-84.124267 ","4712","79","10","0","8/29/2021 12:00:00 AM","2019","42126","NYTIMES-USCENSUS"
"8/30/2021 12:00:00 AM","Jackson County","Missouri","Midwest","West North Central","29095","39.005364","-94.343211 ","49692","549","154","0","8/29/2021 12:00:00 AM","2019","703011","NYTIMES-USCENSUS"
"8/30/2021 12:00:00 AM","Starr County","Texas","South","West South Central","48427","26.530903","-98.740235 ","10639","311","0","0","8/29/2021 12:00:00 AM","2019","64633","NYTIMES-USCENSUS"
"8/30/2021 12:00:00 AM","Unicoi County","Tennessee","South","East South Central","47171","36.100129","-82.418218 ","2456","54","58","0","8/29/2021 12:00:00 AM","2019","17883","NYTIMES-USCENSUS"
"8/30/2021 12:00:00 AM","Chippewa County","Michigan","Midwest","East North Central","26033","46.321819","-84.52063 ","5805","50","21","0","8/29/2021 12:00:00 AM","2019","37349","NYTIMES-USCENSUS"
"8/30/2021 12:00:00 AM","Meigs County","Ohio","Midwest","East North Central","39105","39.089807","-82.028397 ","1674","40","1","0","8/29/2021 12:00:00 AM","2019","22907","NYTIMES-USCENSUS"
"8/30/2021 12:00:00 AM","Garvin County","Oklahoma","South","West South Central","40049","34.70935","-97.312723 ","4115","82","0","0","8/29/2021 12:00:00 AM","2019","27711","NYTIMES-USCENSUS"
"8/30/2021 12:00:00 AM","Marion County","Indiana","Midwest","East North Central","18097","39.782976","-86.135794 ","117487","1936","1590","7","8/29/2021 12:00:00 AM","2019","964582","NYTIMES-USCENSUS"
"8/30/2021 12:00:00 AM","Pickens County","Alabama","South","East South Central","01107","33.2968","-88.096864 ","2760","63","5","0","8/29/2021 12:00:00 AM","2019","19930","NYTIMES-USCENSUS"
"8/30/2021 12:00:00 AM","Garden County","Nebraska","Midwest","West North Central","31069","41.633364","-102.302985 ","118","1","0","0","8/29/2021 12:00:00 AM","2019","1837","NYTIMES-USCENSUS"
"8/30/2021 12:00:00 AM","Lyon County","Kentucky","South","East South Central","21143","37.023976","-88.083391 ","1727","23","13","0","8/29/2021 12:00:00 AM","2019","8210","NYTIMES-USCENSUS"
"8/30/2021 12:00:00 AM","Shelby County","Kentucky","South","East South Central","21211","38.239011","-85.228247 ","5776","86","74","1","8/29/2021 12:00:00 AM","2019","49024","NYTIMES-USCENSUS"
"8/30/2021 12:00:00 AM","Angelina County","Texas","South","West South Central","48005","31.251896","-94.611134 ","11155","304","0","0","8/29/2021 12:00:00 AM","2019","86715","NYTIMES-USCENSUS"
"8/30/2021 12:00:00 AM","Monroe County","Ohio","Midwest","East North Central","39111","39.726253","-81.090983 ","1521","46","10","0","8/29/2021 12:00:00 AM","2019","13654","NYTIMES-USCENSUS"
"8/30/2021 12:00:00 AM","Murray County","Georgia","South","South Atlantic","13213","34.797097","-84.73799 ","5949","94","77","0","8/29/2021 12:00:00 AM","2019","40096","NYTIMES-USCENSUS"
"8/30/2021 12:00:00 AM","McLean County","Illinois","Midwest","East North Central","17113","40.494559","-88.844539 ","20507","234","164","1","8/29/2021 12:00:00 AM","2019","171517","NYTIMES-USCENSUS"
"8/30/2021 12:00:00 AM","Stafford County","Kansas","Midwest","West North Central","20185","38.03563","-98.719889 ","395","13","0","0","8/29/2021 12:00:00 AM","2019","4156","NYTIMES-USCENSUS"
"8/30/2021 12:00:00 AM","Bonner County","Idaho","West","Mountain","16017","48.316796","-116.612362 ","3836","49","66","0","8/29/2021 12:00:00 AM","2019","45739","NYTIMES-USCENSUS"
"8/30/2021 12:00:00 AM","Potter County","Texas","South","West South Central","48375","35.398675","-101.893804 ","20306","491","88","1","8/29/2021 12:00:00 AM","2019","117415","NYTIMES-USCENSUS"
"8/30/2021 12:00:00 AM","Kingsbury County","South Dakota","Midwest","West North Central","46077","44.362969","-97.499313 ","837","18","1","0","8/29/2021 12:00:00 AM","2019","4939","NYTIMES-USCENSUS"
"8/30/2021 12:00:00 AM","Lamar County","Mississippi","South","East South Central","28073","31.197586","-89.506369 ","9467","105","156","2","8/29/2021 12:00:00 AM","2019","63343","NYTIMES-USCENSUS"
"8/30/2021 12:00:00 AM","Texas County","Oklahoma","South","West South Central","40139","36.746317","-101.483855 ","3660","35","0","0","8/29/2021 12:00:00 AM","2019","19983","NYTIMES-USCENSUS"
"8/30/2021 12:00:00 AM","Danville city","Virginia","South","South Atlantic","51590","36.583334","-79.408071 ","5058","154","65","2","8/29/2021 12:00:00 AM","2019","40044","NYTIMES-USCENSUS"
"8/30/2021 12:00:00 AM","Jasper County","Mississippi","South","East South Central","28061","32.016748","-89.119176 ","2906","52","51","1","8/29/2021 12:00:00 AM","2019","16383","NYTIMES-USCENSUS"
"8/30/2021 12:00:00 AM","Pulaski County","Indiana","Midwest","East North Central","18131","41.045272","-86.692538 ","1387","50","21","0","8/29/2021 12:00:00 AM","2019","12353","NYTIMES-USCENSUS"
"8/30/2021 12:00:00 AM","Cass County","Indiana","Midwest","East North Central","18017","40.753799","-86.355168 ","6577","117","79","1","8/29/2021 12:00:00 AM","2019","37689","NYTIMES-USCENSUS"
"8/30/2021 12:00:00 AM","Campbell County","Virginia","South","South Atlantic","51031","37.210152","-79.095428 ","5581","114","46","2","8/29/2021 12:00:00 AM","2019","54885","NYTIMES-USCENSUS"
"8/30/2021 12:00:00 AM","Lewis County","Idaho","West","Mountain","16061","46.236328","-116.42376 ","551","12","15","0","8/29/2021 12:00:00 AM","2019","3838","NYTIMES-USCENSUS"
"8/30/2021 12:00:00 AM","Hamilton County","Ohio","Midwest","East North Central","39061","39.196927","-84.544187 ","88497","1283","130","0","8/29/2021 12:00:00 AM","2019","817473","NYTIMES-USCENSUS"
"8/30/2021 12:00:00 AM","Winn Parish","Louisiana","South","West South Central","22127","31.941187","-92.641269 ","2222","52","0","0","8/29/2021 12:00:00 AM","2019","13904","NYTIMES-USCENSUS"
"8/30/2021 12:00:00 AM","Stephenson County","Illinois","Midwest","East North Central","17177","42.349726","-89.665994 ","5116","106","21","0","8/29/2021 12:00:00 AM","2019","44498","NYTIMES-USCENSUS"
"8/30/2021 12:00:00 AM","Price County","Wisconsin","Midwest","East North Central","55099","45.679072","-90.35965 ","1423","8","4","0","8/29/2021 12:00:00 AM","2019","13351","NYTIMES-USCENSUS"
"8/30/2021 12:00:00 AM","Tuscola County","Michigan","Midwest","East North Central","26157","43.487902","-83.436618 ","5971","176","18","0","8/29/2021 12:00:00 AM","2019","52245","NYTIMES-USCENSUS"
"8/30/2021 12:00:00 AM","Appling County","Georgia","South","South Atlantic","13001","31.739712","-82.290103 ","2966","75","73","0","8/29/2021 12:00:00 AM","2019","18386","NYTIMES-USCENSUS"
"8/30/2021 12:00:00 AM","Hardeman County","Tennessee","South","East South Central","47069","35.218785","-88.988697 ","4335","67","80","1","8/29/2021 12:00:00 AM","2019","25050","NYTIMES-USCENSUS"
"8/30/2021 12:00:00 AM","Carroll County","Iowa","Midwest","West North Central","19027","42.039502","-94.86765 ","2981","52","0","0","8/29/2021 12:00:00 AM","2019","20165","NYTIMES-USCENSUS"
"8/30/2021 12:00:00 AM","Yuba County","California","West","Pacific","06115","39.27013","-121.344259 ","8551","54","134","-1","8/29/2021 12:00:00 AM","2019","78668","NYTIMES-USCENSUS"
"8/30/2021 12:00:00 AM","Mifflin County","Pennsylvania","Northeast","Middle Atlantic","42087","40.601615","-77.651832 ","5634","183","7","0","8/29/2021 12:00:00 AM","2019","46138","NYTIMES-USCENSUS"
"8/30/2021 12:00:00 AM","Oneida County","New York","Northeast","Middle Atlantic","36065","43.242727","-75.434282 ","24023","522","80","0","8/29/2021 12:00:00 AM","2019","228671","NYTIMES-USCENSUS"
"8/30/2021 12:00:00 AM","Clay County","Georgia","South","South Atlantic","13061","31.619831","-84.992583 ","287","3","4","0","8/29/2021 12:00:00 AM","2019","2834","NYTIMES-USCENSUS"
"8/30/2021 12:00:00 AM","Payette County","Idaho","West","Mountain","16075","44.00243","-116.750238 ","2977","39","41","0","8/29/2021 12:00:00 AM","2019","23951","NYTIMES-USCENSUS"
"8/30/2021 12:00:00 AM","Matanuska-Susitna Borough","Alaska","West","Pacific","02170","62.265626","-149.503993 ","13503","65","88","0","8/29/2021 12:00:00 AM","2019","108317","NYTIMES-USCENSUS"
"8/30/2021 12:00:00 AM","Dillingham Census Area","Alaska","West","Pacific","02070","59.543326","-158.267123 ","351","2","17","0","8/29/2021 12:00:00 AM","2019","4916","NYTIMES-USCENSUS"
"8/30/2021 12:00:00 AM","Olmsted County","Minnesota","Midwest","West North Central","27109","43.999499","-92.410098 ","14776","108","55","0","8/29/2021 12:00:00 AM","2019","158293","NYTIMES-USCENSUS"
"8/30/2021 12:00:00 AM","Ramsey County","North Dakota","Midwest","West North Central","38071","48.266163","-98.739031 ","1774","30","1","0","8/29/2021 12:00:00 AM","2019","11519","NYTIMES-USCENSUS"
"8/30/2021 12:00:00 AM","Anderson County","Texas","South","West South Central","48001","31.841261","-95.661727 ","6612","137","0","0","8/29/2021 12:00:00 AM","2019","57735","NYTIMES-USCENSUS"
"8/30/2021 12:00:00 AM","Pinal County","Arizona","West","Mountain","04021","32.918521","-111.36634 ","62672","943","205","0","8/29/2021 12:00:00 AM","2019","462789","NYTIMES-USCENSUS"
"8/30/2021 12:00:00 AM","Crosby County","Texas","South","West South Central","48107","33.609144","-101.29871 ","853","30","0","0","8/29/2021 12:00:00 AM","2019","5737","NYTIMES-USCENSUS"
"8/30/2021 12:00:00 AM","Madison County","North Carolina","South","South Atlantic","37115","35.864206","-82.712631 ","2000","43","36","0","8/29/2021 12:00:00 AM","2019","21755","NYTIMES-USCENSUS"
"8/30/2021 12:00:00 AM","Allen County","Indiana","Midwest","East North Central","18003","41.091909","-85.071791 ","48653","739","669","3","8/29/2021 12:00:00 AM","2019","379299","NYTIMES-USCENSUS"
"8/30/2021 12:00:00 AM","Donley County","Texas","South","West South Central","48129","34.955036","-100.815846 ","457","15","0","0","8/29/2021 12:00:00 AM","2019","3278","NYTIMES-USCENSUS"
"8/30/2021 12:00:00 AM","Copiah County","Mississippi","South","East South Central","28029","31.866915","-90.448758 ","3912","76","81","0","8/29/2021 12:00:00 AM","2019","28065","NYTIMES-USCENSUS"
"8/30/2021 12:00:00 AM","Thurston County","Nebraska","Midwest","West North Central","31173","42.154061","-96.533943 ","1206","11","0","0","8/29/2021 12:00:00 AM","2019","7224","NYTIMES-USCENSUS"
"8/30/2021 12:00:00 AM","Marion County","Oregon","West","Pacific","41047","44.900898","-122.57626 ","28766","356","526","3","8/29/2021 12:00:00 AM","2019","347818","NYTIMES-USCENSUS"
"8/30/2021 12:00:00 AM","Floyd County","Texas","South","West South Central","48153","34.07373","-101.303274 ","1013","30","0","0","8/29/2021 12:00:00 AM","2019","5712","NYTIMES-USCENSUS"
"8/30/2021 12:00:00 AM","Salem County","New Jersey","Northeast","Middle Atlantic","34033","39.573828","-75.357356 ","6680","193","11","0","8/29/2021 12:00:00 AM","2019","62385","NYTIMES-USCENSUS"
"8/30/2021 12:00:00 AM","Jasper County","South Carolina","South","South Atlantic","45053","32.43059","-81.021627 ","3319","55","113","0","8/29/2021 12:00:00 AM","2019","30073","NYTIMES-USCENSUS"
"8/30/2021 12:00:00 AM","Burke County","North Dakota","Midwest","West North Central","38013","48.786453","-102.520087 ","259","3","-1","0","8/29/2021 12:00:00 AM","2019","2115","NYTIMES-USCENSUS"
"8/30/2021 12:00:00 AM","Garrett County","Maryland","South","South Atlantic","24023","39.547299","-79.274619 ","2245","66","7","0","8/29/2021 12:00:00 AM","2019","29014","NYTIMES-USCENSUS"
"8/30/2021 12:00:00 AM","Lincoln County","Wisconsin","Midwest","East North Central","55069","45.333148","-89.73224 ","3496","100","12","0","8/29/2021 12:00:00 AM","2019","27593","NYTIMES-USCENSUS"
"8/30/2021 12:00:00 AM","Worth County","Missouri","Midwest","West North Central","29227","40.480499","-94.419198 ","205","2","2","0","8/29/2021 12:00:00 AM","2019","2013","NYTIMES-USCENSUS"
"8/30/2021 12:00:00 AM","Alamosa County","Colorado","West","Mountain","08003","37.568442","-105.788041 ","1894","39","12","0","8/29/2021 12:00:00 AM","2019","16233","NYTIMES-USCENSUS"
"8/30/2021 12:00:00 AM","Logan County","Arkansas","South","West South Central","05083","35.218654","-93.72091 ","3028","31","11","0","8/29/2021 12:00:00 AM","2019","21466","NYTIMES-USCENSUS"
"8/30/2021 12:00:00 AM","Goochland County","Virginia","South","South Atlantic","51075","37.718814","-77.917626 ","1663","25","16","0","8/29/2021 12:00:00 AM","2019","23753","NYTIMES-USCENSUS"
"8/30/2021 12:00:00 AM","Phillips County","Colorado","West","Mountain","08095","40.594712","-102.345105 ","419","13","0","0","8/29/2021 12:00:00 AM","2019","4265","NYTIMES-USCENSUS"
"8/30/2021 12:00:00 AM","Sitka City and Borough","Alaska","West","Pacific","02220","57.193204","-135.367396 ","977","2","18","0","8/29/2021 12:00:00 AM","2019","8493","NYTIMES-USCENSUS"
"8/30/2021 12:00:00 AM","Warren County","New York","Northeast","Middle Atlantic","36113","43.555105","-73.838139 ","4190","72","13","1","8/29/2021 12:00:00 AM","2019","63944","NYTIMES-USCENSUS"
"8/30/2021 12:00:00 AM","Yuma County","Arizona","West","Mountain","04027","32.773942","-113.910905 ","39327","860","69","0","8/29/2021 12:00:00 AM","2019","213787","NYTIMES-USCENSUS"
"8/30/2021 12:00:00 AM","Greenbrier County","West Virginia","South","South Atlantic","54025","37.924418","-80.45059 ","3381","66","43","0","8/29/2021 12:00:00 AM","2019","34662","NYTIMES-USCENSUS"
"8/30/2021 12:00:00 AM","Aiken County","South Carolina","South","South Atlantic","45003","33.550013","-81.632983 ","22180","247","438","5","8/29/2021 12:00:00 AM","2019","170872","NYTIMES-USCENSUS"
"8/30/2021 12:00:00 AM","Howard County","Missouri","Midwest","West North Central","29089","39.143365","-92.695926 ","1258","10","3","0","8/29/2021 12:00:00 AM","2019","10001","NYTIMES-USCENSUS"
"8/30/2021 12:00:00 AM","Rice County","Kansas","Midwest","West North Central","20159","38.347178","-98.201415 ","1173","13","10","0","8/29/2021 12:00:00 AM","2019","9537","NYTIMES-USCENSUS"
"8/30/2021 12:00:00 AM","Alexander County","Illinois","Midwest","East North Central","17003","37.183658","-89.349516 ","600","11","7","0","8/29/2021 12:00:00 AM","2019","5761","NYTIMES-USCENSUS"
"8/30/2021 12:00:00 AM","Poquoson city","Virginia","South","South Atlantic","51735","37.12836","-76.303534 ","1016","18","9","0","8/29/2021 12:00:00 AM","2019","12271","NYTIMES-USCENSUS"
"8/30/2021 12:00:00 AM","Glasscock County","Texas","South","West South Central","48173","31.868006","-101.521494 ","135","2","1","0","8/29/2021 12:00:00 AM","2019","1409","NYTIMES-USCENSUS"
"8/30/2021 12:00:00 AM","Van Buren County","Michigan","Midwest","East North Central","26159","42.28215","-86.306076 ","7657","139","34","0","8/29/2021 12:00:00 AM","2019","75677","NYTIMES-USCENSUS"
"8/30/2021 12:00:00 AM","Coke County","Texas","South","West South Central","48081","31.87711","-100.635231 ","565","13","0","0","8/29/2021 12:00:00 AM","2019","3387","NYTIMES-USCENSUS"
"8/30/2021 12:00:00 AM","Franklin County","North Carolina","South","South Atlantic","37069","36.088241","-78.28309 ","8094","55","86","0","8/29/2021 12:00:00 AM","2019","69685","NYTIMES-USCENSUS"
"8/30/2021 12:00:00 AM","DeSoto County","Mississippi","South","East South Central","28033","34.874922","-89.991211 ","27250","304","453","1","8/29/2021 12:00:00 AM","2019","184945","NYTIMES-USCENSUS"
"8/30/2021 12:00:00 AM","Monroe County","West Virginia","South","South Atlantic","54063","37.554062","-80.550329 ","1508","19","29","0","8/29/2021 12:00:00 AM","2019","13275","NYTIMES-USCENSUS"
"8/30/2021 12:00:00 AM","Lincoln County","Arkansas","South","West South Central","05079","33.956385","-91.742355 ","3541","55","0","2","8/29/2021 12:00:00 AM","2019","13024","NYTIMES-USCENSUS"
"8/30/2021 12:00:00 AM","Fairbanks North Star Borough","Alaska","West","Pacific","02090","64.676044","-146.548159 ","9028","50","126","0","8/29/2021 12:00:00 AM","2019","96849","NYTIMES-USCENSUS"
"8/30/2021 12:00:00 AM","Ochiltree County","Texas","South","West South Central","48357","36.278744","-100.815864 ","1285","29","0","0","8/29/2021 12:00:00 AM","2019","9836","NYTIMES-USCENSUS"
"8/30/2021 12:00:00 AM","Livingston County","Michigan","Midwest","East North Central","26093","42.602532","-83.911718 ","18304","204","164","1","8/29/2021 12:00:00 AM","2019","191995","NYTIMES-USCENSUS"
"8/30/2021 12:00:00 AM","Eagle County","Colorado","West","Mountain","08037","39.626992","-106.695169 ","7160","28","46","0","8/29/2021 12:00:00 AM","2019","55127","NYTIMES-USCENSUS"
"8/30/2021 12:00:00 AM","Franklin County","Nebraska","Midwest","West North Central","31061","40.183203","-98.96208 ","266","4","0","0","8/29/2021 12:00:00 AM","2019","2979","NYTIMES-USCENSUS"
"8/30/2021 12:00:00 AM","Umatilla County","Oregon","West","Pacific","41059","45.5912","-118.73388 ","11476","117","78","2","8/29/2021 12:00:00 AM","2019","77950","NYTIMES-USCENSUS"
"8/30/2021 12:00:00 AM","Effingham County","Illinois","Midwest","East North Central","17049","39.047945","-88.592849 ","5190","88","77","0","8/29/2021 12:00:00 AM","2019","34008","NYTIMES-USCENSUS"
"8/30/2021 12:00:00 AM","Calhoun County","Georgia","South","South Atlantic","13037","31.521279","-84.62629 ","766","17","12","-1","8/29/2021 12:00:00 AM","2019","6189","NYTIMES-USCENSUS"
"8/30/2021 12:00:00 AM","Baker County","Georgia","South","South Atlantic","13007","31.31958","-84.454881 ","327","11","3","0","8/29/2021 12:00:00 AM","2019","3038","NYTIMES-USCENSUS"
"8/30/2021 12:00:00 AM","Garland County","Arkansas","South","West South Central","05051","34.578852","-93.146932 ","14416","327","24","5","8/29/2021 12:00:00 AM","2019","99386","NYTIMES-USCENSUS"
"8/30/2021 12:00:00 AM","Monroe County","Illinois","Midwest","East North Central","17133","38.277983","-90.179078 ","4867","96","24","0","8/29/2021 12:00:00 AM","2019","34637","NYTIMES-USCENSUS"
"8/30/2021 12:00:00 AM","Coffee County","Alabama","South","East South Central","01031","31.402258","-85.989602 ","7925","145","38","0","8/29/2021 12:00:00 AM","2019","52342","NYTIMES-USCENSUS"
"8/30/2021 12:00:00 AM","Moultrie County","Illinois","Midwest","East North Central","17139","39.636896","-88.625726 ","1858","37","33","0","8/29/2021 12:00:00 AM","2019","14501","NYTIMES-USCENSUS"
"8/30/2021 12:00:00 AM","Bradford County","Florida","South","South Atlantic","12007","29.952386","-82.166698 ","4664","58","0","0","8/29/2021 12:00:00 AM","2019","28201","NYTIMES-USCENSUS"
"8/30/2021 12:00:00 AM","Pamlico County","North Carolina","South","South Atlantic","37137","35.147575","-76.665268 ","1288","14","21","0","8/29/2021 12:00:00 AM","2019","12726","NYTIMES-USCENSUS"
"8/30/2021 12:00:00 AM","Douglas County","Georgia","South","South Atlantic","13097","33.701242","-84.767314 ","18977","243","301","1","8/29/2021 12:00:00 AM","2019","146343","NYTIMES-USCENSUS"
"8/30/2021 12:00:00 AM","Caldwell County","North Carolina","South","South Atlantic","37027","35.966396","-81.51254 ","10869","111","176","0","8/29/2021 12:00:00 AM","2019","82178","NYTIMES-USCENSUS"
"8/30/2021 12:00:00 AM","Blackford County","Indiana","Midwest","East North Central","18009","40.472672","-85.32373 ","1509","33","28","0","8/29/2021 12:00:00 AM","2019","11758","NYTIMES-USCENSUS"
"8/30/2021 12:00:00 AM","Martin County","Texas","South","West South Central","48317","32.30983","-101.961836 ","741","20","0","0","8/29/2021 12:00:00 AM","2019","5771","NYTIMES-USCENSUS"
"8/30/2021 12:00:00 AM","Otsego County","New York","Northeast","Middle Atlantic","36077","42.629776","-75.028841 ","3811","49","5","0","8/29/2021 12:00:00 AM","2019","59493","NYTIMES-USCENSUS"
"8/30/2021 12:00:00 AM","Butte County","South Dakota","Midwest","West North Central","46019","44.896226","-103.501436 ","1255","24","13","2","8/29/2021 12:00:00 AM","2019","10429","NYTIMES-USCENSUS"
"8/30/2021 12:00:00 AM","Cowley County","Kansas","Midwest","West North Central","20035","37.234507","-96.837247 ","4633","116","35","0","8/29/2021 12:00:00 AM","2019","34908","NYTIMES-USCENSUS"
"8/30/2021 12:00:00 AM","Fulton County","New York","Northeast","Middle Atlantic","36035","43.115609","-74.423678 ","4852","94","20","0","8/29/2021 12:00:00 AM","2019","53383","NYTIMES-USCENSUS"
"8/30/2021 12:00:00 AM","James City County","Virginia","South","South Atlantic","51095","37.324837","-76.777888 ","5515","78","84","1","8/29/2021 12:00:00 AM","2019","76523","NYTIMES-USCENSUS"
"8/30/2021 12:00:00 AM","Coos County","New Hampshire","Northeast","New England","33007","44.652548","-71.289431 ","2265","45","27","0","8/29/2021 12:00:00 AM","2019","31563","NYTIMES-USCENSUS"
"8/30/2021 12:00:00 AM","Middlesex County","New Jersey","Northeast","Middle Atlantic","34023","40.439621","-74.40743 ","98003","2389","113","-1","8/29/2021 12:00:00 AM","2019","825062","NYTIMES-USCENSUS"
"8/30/2021 12:00:00 AM","Craighead County","Arkansas","South","West South Central","05031","35.827729","-90.631421 ","18366","207","51","0","8/29/2021 12:00:00 AM","2019","110332","NYTIMES-USCENSUS"
"8/30/2021 12:00:00 AM","Stokes County","North Carolina","South","South Atlantic","37169","36.393797","-80.269921 ","4928","83","64","0","8/29/2021 12:00:00 AM","2019","45591","NYTIMES-USCENSUS"
"8/30/2021 12:00:00 AM","Wayne County","Ohio","Midwest","East North Central","39169","40.829661","-81.887194 ","10236","230","30","0","8/29/2021 12:00:00 AM","2019","115710","NYTIMES-USCENSUS"
"8/30/2021 12:00:00 AM","Elmore County","Alabama","South","East South Central","01051","32.597229","-86.142735 ","12829","234","83","0","8/29/2021 12:00:00 AM","2019","81209","NYTIMES-USCENSUS"
"8/30/2021 12:00:00 AM","Vernon County","Missouri","Midwest","West North Central","29217","37.850196","-94.341597 ","2673","52","17","0","8/29/2021 12:00:00 AM","2019","20563","NYTIMES-USCENSUS"
"8/30/2021 12:00:00 AM","Lancaster County","South Carolina","South","South Atlantic","45057","34.686818","-80.703688 ","12909","183","328","1","8/29/2021 12:00:00 AM","2019","98012","NYTIMES-USCENSUS"
"8/30/2021 12:00:00 AM","Kitsap County","Washington","West","Pacific","53035","47.639595","-122.649634 ","11794","133","289","1","8/29/2021 12:00:00 AM","2019","271473","NYTIMES-USCENSUS"
"8/30/2021 12:00:00 AM","Clay County","Tennessee","South","East South Central","47027","36.545749","-85.545717 ","1206","30","5","0","8/29/2021 12:00:00 AM","2019","7615","NYTIMES-USCENSUS"
"8/30/2021 12:00:00 AM","Hitchcock County","Nebraska","Midwest","West North Central","31087","40.176896","-101.044217 ","259","5","0","0","8/29/2021 12:00:00 AM","2019","2762","NYTIMES-USCENSUS"
"8/30/2021 12:00:00 AM","Livingston County","Missouri","Midwest","West North Central","29117","39.778587","-93.548201 ","2424","56","2","0","8/29/2021 12:00:00 AM","2019","15227","NYTIMES-USCENSUS"
"8/30/2021 12:00:00 AM","Trousdale County","Tennessee","South","East South Central","47169","36.39303","-86.156691 ","2777","22","25","0","8/29/2021 12:00:00 AM","2019","11284","NYTIMES-USCENSUS"
"8/30/2021 12:00:00 AM","Terrebonne Parish","Louisiana","South","West South Central","22109","29.33413","-90.843674 ","17784","267","0","0","8/29/2021 12:00:00 AM","2019","110461","NYTIMES-USCENSUS"
"8/30/2021 12:00:00 AM","Sherman County","Texas","South","West South Central","48421","36.278593","-101.899265 ","270","12","0","0","8/29/2021 12:00:00 AM","2019","3022","NYTIMES-USCENSUS"
"8/30/2021 12:00:00 AM","Yukon-Koyukuk Census Area","Alaska","West","Pacific","02290","65.375727","-151.57785 ","426","4","12","0","8/29/2021 12:00:00 AM","2019","5230","NYTIMES-USCENSUS"
"8/30/2021 12:00:00 AM","Dunn County","North Dakota","Midwest","West North Central","38025","47.354557","-102.612322 ","453","7","1","0","8/29/2021 12:00:00 AM","2019","4424","NYTIMES-USCENSUS"
"8/30/2021 12:00:00 AM","Henderson County","North Carolina","South","South Atlantic","37089","35.336415","-82.479741 ","12469","166","139","1","8/29/2021 12:00:00 AM","2019","117417","NYTIMES-USCENSUS"
"8/30/2021 12:00:00 AM","Wilson County","Kansas","Midwest","West North Central","20205","37.558515","-95.745175 ","1248","24","8","0","8/29/2021 12:00:00 AM","2019","8525","NYTIMES-USCENSUS"
"8/30/2021 12:00:00 AM","Val Verde County","Texas","South","West South Central","48465","29.875285","-101.143324 ","9430","233","130","0","8/29/2021 12:00:00 AM","2019","49025","NYTIMES-USCENSUS"
"8/30/2021 12:00:00 AM","Lyon County","Minnesota","Midwest","West North Central","27083","44.409195","-95.847268 ","3796","54","2","0","8/29/2021 12:00:00 AM","2019","25474","NYTIMES-USCENSUS"
"8/30/2021 12:00:00 AM","Polk County","Georgia","South","South Atlantic","13233","33.996015","-85.188338 ","6985","104","223","1","8/29/2021 12:00:00 AM","2019","42613","NYTIMES-USCENSUS"
"8/30/2021 12:00:00 AM","Penobscot County","Maine","Northeast","New England","23019","45.409284","-68.666616 ","7408","112","0","0","8/29/2021 12:00:00 AM","2019","152148","NYTIMES-USCENSUS"
"8/30/2021 12:00:00 AM","Stillwater County","Montana","West","Mountain","30095","45.658545","-109.381576 ","824","16","9","0","8/29/2021 12:00:00 AM","2019","9642","NYTIMES-USCENSUS"
"8/30/2021 12:00:00 AM","Clayton County","Iowa","Midwest","West North Central","19043","42.840985","-91.323576 ","1808","58","0","0","8/29/2021 12:00:00 AM","2019","17549","NYTIMES-USCENSUS"
"8/30/2021 12:00:00 AM","Morrow County","Ohio","Midwest","East North Central","39117","40.525266","-82.797729 ","3240","47","16","0","8/29/2021 12:00:00 AM","2019","35328","NYTIMES-USCENSUS"
"8/30/2021 12:00:00 AM","Clayton County","Georgia","South","South Atlantic","13063","33.542686","-84.355573 ","33417","560","508","4","8/29/2021 12:00:00 AM","2019","292256","NYTIMES-USCENSUS"
"8/30/2021 12:00:00 AM","Union County","Mississippi","South","East South Central","28145","34.489533","-89.002339 ","5217","84","67","0","8/29/2021 12:00:00 AM","2019","28815","NYTIMES-USCENSUS"
"8/30/2021 12:00:00 AM","Dearborn County","Indiana","Midwest","East North Central","18029","39.140897","-84.975868 ","6734","85","89","0","8/29/2021 12:00:00 AM","2019","49458","NYTIMES-USCENSUS"
"8/30/2021 12:00:00 AM","St. Bernard Parish","Louisiana","South","West South Central","22087","29.91811","-89.263494 ","6351","77","0","0","8/29/2021 12:00:00 AM","2019","47244","NYTIMES-USCENSUS"
"8/30/2021 12:00:00 AM","Brown County","Minnesota","Midwest","West North Central","27015","44.246541","-94.733647 ","3276","42","11","1","8/29/2021 12:00:00 AM","2019","25008","NYTIMES-USCENSUS"
"8/30/2021 12:00:00 AM","Suffolk County","New York","Northeast","Middle Atlantic","36103","40.943554","-72.692218 ","216316","3455","440","0","8/29/2021 12:00:00 AM","2019","1476601","NYTIMES-USCENSUS"
"8/30/2021 12:00:00 AM","Gonzales County","Texas","South","West South Central","48177","29.461912","-97.49192 ","3056","61","0","0","8/29/2021 12:00:00 AM","2019","20837","NYTIMES-USCENSUS"
"8/30/2021 12:00:00 AM","Sanborn County","South Dakota","Midwest","West North Central","46111","44.018942","-98.091709 ","351","3","1","0","8/29/2021 12:00:00 AM","2019","2344","NYTIMES-USCENSUS"
"8/30/2021 12:00:00 AM","Lyman County","South Dakota","Midwest","West North Central","46085","43.894812","-99.841925 ","675","11","2","0","8/29/2021 12:00:00 AM","2019","3781","NYTIMES-USCENSUS"
"8/30/2021 12:00:00 AM","Clinton County","Illinois","Midwest","East North Central","17027","38.606295","-89.426228 ","6470","103","52","0","8/29/2021 12:00:00 AM","2019","37562","NYTIMES-USCENSUS"
"8/30/2021 12:00:00 AM","Nuckolls County","Nebraska","Midwest","West North Central","31129","40.176492","-98.046842 ","553","12","0","0","8/29/2021 12:00:00 AM","2019","4148","NYTIMES-USCENSUS"
"8/30/2021 12:00:00 AM","Panola County","Mississippi","South","East South Central","28107","34.365205","-89.963065 ","5570","114","73","1","8/29/2021 12:00:00 AM","2019","34192","NYTIMES-USCENSUS"
"8/30/2021 12:00:00 AM","Larimer County","Colorado","West","Mountain","08069","40.658093","-105.486764 ","31512","259","280","4","8/29/2021 12:00:00 AM","2019","356899","NYTIMES-USCENSUS"
"8/30/2021 12:00:00 AM","Franklin County","Vermont","Northeast","New England","50011","44.858964","-72.909402 ","2295","40","3","0","8/29/2021 12:00:00 AM","2019","49402","NYTIMES-USCENSUS"
"8/30/2021 12:00:00 AM","Juab County","Utah","West","Mountain","49023","39.71412","-112.790471 ","1547","14","15","0","8/29/2021 12:00:00 AM","2019","12017","NYTIMES-USCENSUS"
"8/30/2021 12:00:00 AM","Humboldt County","Iowa","Midwest","West North Central","19091","42.782221","-94.202775 ","1352","26","0","0","8/29/2021 12:00:00 AM","2019","9558","NYTIMES-USCENSUS"
"8/30/2021 12:00:00 AM","Coosa County","Alabama","South","East South Central","01037","32.931445","-86.243482 ","1399","31","9","0","8/29/2021 12:00:00 AM","2019","10663","NYTIMES-USCENSUS"
"8/30/2021 12:00:00 AM","Guthrie County","Iowa","Midwest","West North Central","19077","41.683573","-94.501272 ","1311","32","0","0","8/29/2021 12:00:00 AM","2019","10689","NYTIMES-USCENSUS"
"8/30/2021 12:00:00 AM","Lawrence County","Illinois","Midwest","East North Central","17101","38.718954","-87.730221 ","2706","38","39","0","8/29/2021 12:00:00 AM","2019","15678","NYTIMES-USCENSUS"
"8/30/2021 12:00:00 AM","Butler County","Nebraska","Midwest","West North Central","31023","41.226072","-97.132039 ","864","12","0","0","8/29/2021 12:00:00 AM","2019","8016","NYTIMES-USCENSUS"
"8/30/2021 12:00:00 AM","Shasta County","California","West","Pacific","06089","40.760514","-122.043556 ","17564","254","51","2","8/29/2021 12:00:00 AM","2019","180080","NYTIMES-USCENSUS"
"8/30/2021 12:00:00 AM","Barnes County","North Dakota","Midwest","West North Central","38003","46.94255","-98.070195 ","1461","32","0","0","8/29/2021 12:00:00 AM","2019","10415","NYTIMES-USCENSUS"
"8/30/2021 12:00:00 AM","Glades County","Florida","South","South Atlantic","12043","26.95481","-81.19082 ","1218","19","0","0","8/29/2021 12:00:00 AM","2019","13811","NYTIMES-USCENSUS"
"8/30/2021 12:00:00 AM","Wheeler County","Georgia","South","South Atlantic","13309","32.105258","-82.733849 ","848","26","24","0","8/29/2021 12:00:00 AM","2019","7855","NYTIMES-USCENSUS"
"8/30/2021 12:00:00 AM","Costilla County","Colorado","West","Mountain","08023","37.277547","-105.42894 ","267","5","1","0","8/29/2021 12:00:00 AM","2019","3887","NYTIMES-USCENSUS"
"8/30/2021 12:00:00 AM","Mason County","Texas","South","West South Central","48319","30.703916","-99.237302 ","449","6","2","0","8/29/2021 12:00:00 AM","2019","4274","NYTIMES-USCENSUS"
"8/30/2021 12:00:00 AM","Cass County","Texas","South","West South Central","48067","33.083698","-94.357579 ","3248","98","0","0","8/29/2021 12:00:00 AM","2019","30026","NYTIMES-USCENSUS"
"8/30/2021 12:00:00 AM","Richardson County","Nebraska","Midwest","West North Central","31147","40.123743","-95.718603 ","816","24","0","0","8/29/2021 12:00:00 AM","2019","7865","NYTIMES-USCENSUS"
"8/30/2021 12:00:00 AM","Hinsdale County","Colorado","West","Mountain","08053","37.811519","-107.383974 ","47","0","-1","0","8/29/2021 12:00:00 AM","2019","820","NYTIMES-USCENSUS"
"8/30/2021 12:00:00 AM","Yancey County","North Carolina","South","South Atlantic","37199","35.889326","-82.303954 ","2190","28","56","0","8/29/2021 12:00:00 AM","2019","18069","NYTIMES-USCENSUS"
"8/30/2021 12:00:00 AM","Heard County","Georgia","South","South Atlantic","13149","33.291347","-85.137886 ","1257","24","27","0","8/29/2021 12:00:00 AM","2019","11923","NYTIMES-USCENSUS"
"8/30/2021 12:00:00 AM","St. Clair County","Missouri","Midwest","West North Central","29185","38.04223","-93.77656 ","1098","9","3","0","8/29/2021 12:00:00 AM","2019","9397","NYTIMES-USCENSUS"
"8/30/2021 12:00:00 AM","Lipscomb County","Texas","South","West South Central","48295","36.2802","-100.272683 ","360","12","0","0","8/29/2021 12:00:00 AM","2019","3233","NYTIMES-USCENSUS"
"8/30/2021 12:00:00 AM","Tulsa County","Oklahoma","South","West South Central","40143","36.120318","-95.941813 ","90347","1228","0","0","8/29/2021 12:00:00 AM","2019","651552","NYTIMES-USCENSUS"
"8/30/2021 12:00:00 AM","San Augustine County","Texas","South","West South Central","48405","31.382449","-94.16318 ","724","32","0","0","8/29/2021 12:00:00 AM","2019","8237","NYTIMES-USCENSUS"
"8/30/2021 12:00:00 AM","Hampton County","South Carolina","South","South Atlantic","45049","32.778334","-81.143822 ","2533","58","85","1","8/29/2021 12:00:00 AM","2019","19222","NYTIMES-USCENSUS"
"8/30/2021 12:00:00 AM","Chickasaw County","Mississippi","South","East South Central","28017","33.933277","-88.947558 ","2602","61","43","0","8/29/2021 12:00:00 AM","2019","17103","NYTIMES-USCENSUS"
"8/30/2021 12:00:00 AM","Carroll County","Georgia","South","South Atlantic","13045","33.582237","-85.080527 ","14246","255","239","1","8/29/2021 12:00:00 AM","2019","119992","NYTIMES-USCENSUS"
"8/30/2021 12:00:00 AM","Quitman County","Georgia","South","South Atlantic","13239","31.862938","-85.004798 ","216","3","7","0","8/29/2021 12:00:00 AM","2019","2299","NYTIMES-USCENSUS"
"8/30/2021 12:00:00 AM","McMinn County","Tennessee","South","East South Central","47107","35.424472","-84.619949 ","8107","110","182","0","8/29/2021 12:00:00 AM","2019","53794","NYTIMES-USCENSUS"
"8/30/2021 12:00:00 AM","Addison County","Vermont","Northeast","New England","50001","44.031248","-73.141581 ","1229","8","1","0","8/29/2021 12:00:00 AM","2019","36777","NYTIMES-USCENSUS"
"8/30/2021 12:00:00 AM","Wadena County","Minnesota","Midwest","West North Central","27159","46.586986","-94.988608 ","1710","23","1","0","8/29/2021 12:00:00 AM","2019","13682","NYTIMES-USCENSUS"
"8/30/2021 12:00:00 AM","Reagan County","Texas","South","West South Central","48383","31.375191","-101.514395 ","454","8","0","0","8/29/2021 12:00:00 AM","2019","3849","NYTIMES-USCENSUS"
"8/30/2021 12:00:00 AM","Lucas County","Ohio","Midwest","East North Central","39095","41.682321","-83.468903 ","46353","841","78","0","8/29/2021 12:00:00 AM","2019","428348","NYTIMES-USCENSUS"
"8/30/2021 12:00:00 AM","Cole County","Missouri","Midwest","West North Central","29051","38.503233","-92.280027 ","11959","147","25","0","8/29/2021 12:00:00 AM","2019","76745","NYTIMES-USCENSUS"
"8/30/2021 12:00:00 AM","Onslow County","North Carolina","South","South Atlantic","37133","34.763109","-77.499469 ","22014","176","458","3","8/29/2021 12:00:00 AM","2019","197938","NYTIMES-USCENSUS"
"8/30/2021 12:00:00 AM","Henderson County","Kentucky","South","East South Central","21101","37.792542","-87.572577 ","6466","85","94","0","8/29/2021 12:00:00 AM","2019","45210","NYTIMES-USCENSUS"
"8/30/2021 12:00:00 AM","Greene County","Alabama","South","East South Central","01063","32.844497","-87.9642 ","1131","39","2","0","8/29/2021 12:00:00 AM","2019","8111","NYTIMES-USCENSUS"
"8/30/2021 12:00:00 AM","Johnson County","Arkansas","South","West South Central","05071","35.573359","-93.466322 ","3853","48","9","0","8/29/2021 12:00:00 AM","2019","26578","NYTIMES-USCENSUS"
"8/30/2021 12:00:00 AM","Genesee County","Michigan","Midwest","East North Central","26049","43.021077","-83.706372 ","44044","999","215","1","8/29/2021 12:00:00 AM","2019","405813","NYTIMES-USCENSUS"
"8/30/2021 12:00:00 AM","Greene County","Ohio","Midwest","East North Central","39057","39.687479","-83.894894 ","17719","257","47","0","8/29/2021 12:00:00 AM","2019","168937","NYTIMES-USCENSUS"
"8/30/2021 12:00:00 AM","Oneida County","Wisconsin","Midwest","East North Central","55085","45.716176","-89.534533 ","4032","82","17","0","8/29/2021 12:00:00 AM","2019","35595","NYTIMES-USCENSUS"
"8/30/2021 12:00:00 AM","Dinwiddie County","Virginia","South","South Atlantic","51053","37.073498","-77.635492 ","2500","46","27","0","8/29/2021 12:00:00 AM","2019","28544","NYTIMES-USCENSUS"
"8/30/2021 12:00:00 AM","Georgetown County","South Carolina","South","South Atlantic","45043","33.417531","-79.296333 ","8056","151","164","0","8/29/2021 12:00:00 AM","2019","62680","NYTIMES-USCENSUS"
"8/30/2021 12:00:00 AM","Chisago County","Minnesota","Midwest","West North Central","27025","45.505444","-92.903849 ","6676","55","18","0","8/29/2021 12:00:00 AM","2019","56579","NYTIMES-USCENSUS"
"8/30/2021 12:00:00 AM","Box Elder County","Utah","West","Mountain","49003","41.622623","-113.060252 ","6484","63","61","1","8/29/2021 12:00:00 AM","2019","56046","NYTIMES-USCENSUS"
"8/30/2021 12:00:00 AM","Kent County","Maryland","South","South Atlantic","24029","39.241279","-76.125987 ","1455","51","0","0","8/29/2021 12:00:00 AM","2019","19422","NYTIMES-USCENSUS"
"8/30/2021 12:00:00 AM","Creek County","Oklahoma","South","West South Central","40037","35.907398","-96.380177 ","8750","179","0","0","8/29/2021 12:00:00 AM","2019","71522","NYTIMES-USCENSUS"
"8/30/2021 12:00:00 AM","Turner County","Georgia","South","South Atlantic","13287","31.7248","-83.620319 ","1446","42","16","0","8/29/2021 12:00:00 AM","2019","7985","NYTIMES-USCENSUS"
"8/30/2021 12:00:00 AM","Berrien County","Georgia","South","South Atlantic","13019","31.288652","-83.22787 ","3004","53","47","1","8/29/2021 12:00:00 AM","2019","19397","NYTIMES-USCENSUS"
"8/30/2021 12:00:00 AM","Greene County","Mississippi","South","East South Central","28041","31.212845","-88.634811 ","1865","40","35","0","8/29/2021 12:00:00 AM","2019","13586","NYTIMES-USCENSUS"
"8/30/2021 12:00:00 AM","Osage County","Oklahoma","South","West South Central","40113","36.624299","-96.408112 ","5714","92","0","0","8/29/2021 12:00:00 AM","2019","46963","NYTIMES-USCENSUS"
"8/30/2021 12:00:00 AM","Norfolk city","Virginia","South","South Atlantic","51710","36.923015","-76.244641 ","20621","284","232","2","8/29/2021 12:00:00 AM","2019","242742","NYTIMES-USCENSUS"
"8/30/2021 12:00:00 AM","Clay County","North Carolina","South","South Atlantic","37043","35.052997","-83.752264 ","1168","20","30","0","8/29/2021 12:00:00 AM","2019","11231","NYTIMES-USCENSUS"
"8/30/2021 12:00:00 AM","Lincoln County","Oregon","West","Pacific","41041","44.641061","-123.911212 ","2287","25","110","0","8/29/2021 12:00:00 AM","2019","49962","NYTIMES-USCENSUS"
"8/30/2021 12:00:00 AM","Izard County","Arkansas","South","West South Central","05065","36.094879","-91.913625 ","2195","51","3","0","8/29/2021 12:00:00 AM","2019","13629","NYTIMES-USCENSUS"
"8/30/2021 12:00:00 AM","Lyon County","Iowa","Midwest","West North Central","19119","43.38358","-96.207201 ","1658","41","0","0","8/29/2021 12:00:00 AM","2019","11755","NYTIMES-USCENSUS"
"8/30/2021 12:00:00 AM","Andrews County","Texas","South","West South Central","48003","32.312258","-102.640206 ","2069","48","0","0","8/29/2021 12:00:00 AM","2019","18705","NYTIMES-USCENSUS"
"8/30/2021 12:00:00 AM","Perry County","Tennessee","South","East South Central","47135","35.663752","-87.869326 ","1283","30","23","0","8/29/2021 12:00:00 AM","2019","8076","NYTIMES-USCENSUS"
"8/30/2021 12:00:00 AM","Chickasaw County","Iowa","Midwest","West North Central","19037","43.059741","-92.31721 ","1319","17","0","0","8/29/2021 12:00:00 AM","2019","11933","NYTIMES-USCENSUS"
"8/30/2021 12:00:00 AM","Solano County","California","West","Pacific","06095","38.267226","-121.939594 ","40855","290","277","0","8/29/2021 12:00:00 AM","2019","447643","NYTIMES-USCENSUS"
"8/30/2021 12:00:00 AM","Northampton County","Pennsylvania","Northeast","Middle Atlantic","42095","40.752791","-75.307447 ","38639","733","55","0","8/29/2021 12:00:00 AM","2019","305285","NYTIMES-USCENSUS"
"8/30/2021 12:00:00 AM","Winnebago County","Wisconsin","Midwest","East North Central","55139","44.085707","-88.668149 ","22912","231","60","0","8/29/2021 12:00:00 AM","2019","171907","NYTIMES-USCENSUS"
"8/30/2021 12:00:00 AM","Box Butte County","Nebraska","Midwest","West North Central","31013","42.21038","-103.081779 ","982","11","0","0","8/29/2021 12:00:00 AM","2019","10783","NYTIMES-USCENSUS"
"8/30/2021 12:00:00 AM","Gloucester County","Virginia","South","South Atlantic","51073","37.403541","-76.523505 ","2890","53","74","0","8/29/2021 12:00:00 AM","2019","37348","NYTIMES-USCENSUS"
"8/30/2021 12:00:00 AM","Crawford County","Indiana","Midwest","East North Central","18025","38.289433","-86.440871 ","1271","19","44","0","8/29/2021 12:00:00 AM","2019","10577","NYTIMES-USCENSUS"
"8/30/2021 12:00:00 AM","Lycoming County","Pennsylvania","Northeast","Middle Atlantic","42081","41.343882","-77.055262 ","12627","303","39","0","8/29/2021 12:00:00 AM","2019","113299","NYTIMES-USCENSUS"
"8/30/2021 12:00:00 AM","Kane County","Illinois","Midwest","East North Central","17089","41.939594","-88.42804 ","63236","880","303","3","8/29/2021 12:00:00 AM","2019","532403","NYTIMES-USCENSUS"
"8/30/2021 12:00:00 AM","Cook County","Illinois","Midwest","East North Central","17031","41.894294","-87.645455 ","590825","11294","2726","6","8/29/2021 12:00:00 AM","2019","5150233","NYTIMES-USCENSUS"
"8/30/2021 12:00:00 AM","Morgan County","Georgia","South","South Atlantic","13211","33.598696","-83.499435 ","2825","31","26","0","8/29/2021 12:00:00 AM","2019","19276","NYTIMES-USCENSUS"
"8/30/2021 12:00:00 AM","Accomack County","Virginia","South","South Atlantic","51001","37.765944","-75.757807 ","3322","50","36","0","8/29/2021 12:00:00 AM","2019","32316","NYTIMES-USCENSUS"
"8/30/2021 12:00:00 AM","Sheridan County","Wyoming","West","Mountain","56033","44.781369","-106.881211 ","3817","33","31","0","8/29/2021 12:00:00 AM","2019","30485","NYTIMES-USCENSUS"
"8/30/2021 12:00:00 AM","Denton County","Texas","South","West South Central","48121","33.205132","-97.12114 ","88916","829","695","0","8/29/2021 12:00:00 AM","2019","887207","NYTIMES-USCENSUS"
"8/30/2021 12:00:00 AM","Butler County","Alabama","South","East South Central","01013","31.751667","-86.681969 ","2793","74","11","0","8/29/2021 12:00:00 AM","2019","19448","NYTIMES-USCENSUS"
"8/30/2021 12:00:00 AM","Iosco County","Michigan","Midwest","East North Central","26069","44.386912","-83.380141 ","2173","78","24","0","8/29/2021 12:00:00 AM","2019","25127","NYTIMES-USCENSUS"
"8/30/2021 12:00:00 AM","Ballard County","Kentucky","South","East South Central","21007","37.051323","-89.010367 ","528","11","14","0","8/29/2021 12:00:00 AM","2019","7888","NYTIMES-USCENSUS"
"8/30/2021 12:00:00 AM","Dade County","Georgia","South","South Atlantic","13083","34.852424","-85.506201 ","1834","15","40","0","8/29/2021 12:00:00 AM","2019","16116","NYTIMES-USCENSUS"
"8/30/2021 12:00:00 AM","Jefferson County","Florida","South","South Atlantic","12065","30.396898","-83.921761 ","2091","28","0","0","8/29/2021 12:00:00 AM","2019","14246","NYTIMES-USCENSUS"
