"monitor_date","county","state_name","region","subregion","fips","latitude","longitude","case_count_to_date","death_count_to_date","case_count","death_count","previous_monitor_date","population_year","population","source"
"8/3/2021 12:00:00 AM","Covington County","Alabama","South","East South Central","01039","31.243987","-86.448721 ","4804","125","41","0","8/2/2021 12:00:00 AM","2019","37049","NYTIMES-USCENSUS"
"8/3/2021 12:00:00 AM","Union County","New Jersey","Northeast","Middle Atlantic","34039","40.659871","-74.308696 ","72857","1992","44","1","8/2/2021 12:00:00 AM","2019","556341","NYTIMES-USCENSUS"
"8/3/2021 12:00:00 AM","Clinton County","Ohio","Midwest","East North Central","39027","39.416681","-83.804583 ","3956","67","10","1","8/2/2021 12:00:00 AM","2019","41968","NYTIMES-USCENSUS"
"8/3/2021 12:00:00 AM","Mason County","Illinois","Midwest","East North Central","17125","40.236993","-89.913575 ","1666","48","11","0","8/2/2021 12:00:00 AM","2019","13359","NYTIMES-USCENSUS"
"8/3/2021 12:00:00 AM","Ford County","Illinois","Midwest","East North Central","17053","40.596539","-88.224588 ","1965","58","3","0","8/2/2021 12:00:00 AM","2019","12961","NYTIMES-USCENSUS"
"8/3/2021 12:00:00 AM","Kodiak Island Borough","Alaska","West","Pacific","02150","57.7044","-153.918372 ","1236","6","13","0","8/2/2021 12:00:00 AM","2019","12998","NYTIMES-USCENSUS"
"8/3/2021 12:00:00 AM","Fort Bend County","Texas","South","West South Central","48157","29.526602","-95.771015 ","74370","746","893","0","8/2/2021 12:00:00 AM","2019","811688","NYTIMES-USCENSUS"
"8/3/2021 12:00:00 AM","Hampton city","Virginia","South","South Atlantic","51650","37.047961","-76.297293 ","11095","184","17","0","8/2/2021 12:00:00 AM","2019","134510","NYTIMES-USCENSUS"
"8/3/2021 12:00:00 AM","Refugio County","Texas","South","West South Central","48391","28.322116","-97.162472 ","763","23","7","0","8/2/2021 12:00:00 AM","2019","6948","NYTIMES-USCENSUS"
"8/3/2021 12:00:00 AM","Moffat County","Colorado","West","Mountain","08081","40.610864","-108.217154 ","1222","28","1","1","8/2/2021 12:00:00 AM","2019","13283","NYTIMES-USCENSUS"
"8/3/2021 12:00:00 AM","Brooke County","West Virginia","South","South Atlantic","54009","40.272645","-80.578691 ","2279","61","1","0","8/2/2021 12:00:00 AM","2019","21939","NYTIMES-USCENSUS"
"8/3/2021 12:00:00 AM","Vernon County","Wisconsin","Midwest","East North Central","55123","43.599366","-90.821983 ","2082","43","1","0","8/2/2021 12:00:00 AM","2019","30822","NYTIMES-USCENSUS"
"8/3/2021 12:00:00 AM","Clare County","Michigan","Midwest","East North Central","26035","43.991137","-84.838325 ","2513","86","5","0","8/2/2021 12:00:00 AM","2019","30950","NYTIMES-USCENSUS"
"8/3/2021 12:00:00 AM","Llano County","Texas","South","West South Central","48299","30.707584","-98.68469 ","1854","54","3","0","8/2/2021 12:00:00 AM","2019","21795","NYTIMES-USCENSUS"
"8/3/2021 12:00:00 AM","Collin County","Texas","South","West South Central","48085","33.194494","-96.579428 ","97599","866","251","2","8/2/2021 12:00:00 AM","2019","1034730","NYTIMES-USCENSUS"
"8/3/2021 12:00:00 AM","Marquette County","Michigan","Midwest","East North Central","26103","46.656596","-87.584028 ","5959","66","7","1","8/2/2021 12:00:00 AM","2019","66699","NYTIMES-USCENSUS"
"8/3/2021 12:00:00 AM","Southeast Fairbanks Census Area","Alaska","West","Pacific","02240","63.864997","-143.218628 ","796","5","0","0","8/2/2021 12:00:00 AM","2019","6893","NYTIMES-USCENSUS"
"8/3/2021 12:00:00 AM","Buckingham County","Virginia","South","South Atlantic","51029","37.573928","-78.529169 ","2179","32","0","0","8/2/2021 12:00:00 AM","2019","17148","NYTIMES-USCENSUS"
"8/3/2021 12:00:00 AM","Henry County","Indiana","Midwest","East North Central","18065","39.929591","-85.397363 ","6016","113","13","0","8/2/2021 12:00:00 AM","2019","47972","NYTIMES-USCENSUS"
"8/3/2021 12:00:00 AM","Bristol city","Virginia","South","South Atlantic","51520","36.616954","-82.157564 ","1642","36","4","0","8/2/2021 12:00:00 AM","2019","16762","NYTIMES-USCENSUS"
"8/3/2021 12:00:00 AM","Radford city","Virginia","South","South Atlantic","51750","37.120119","-80.559147 ","2288","28","0","0","8/2/2021 12:00:00 AM","2019","18249","NYTIMES-USCENSUS"
"8/3/2021 12:00:00 AM","Benton County","Washington","West","Pacific","53005","46.228125","-119.516659 ","20085","235","363","1","8/2/2021 12:00:00 AM","2019","204390","NYTIMES-USCENSUS"
"8/3/2021 12:00:00 AM","DuPage County","Illinois","Midwest","East North Central","17043","41.852058","-88.086039 ","94445","1406","150","0","8/2/2021 12:00:00 AM","2019","922921","NYTIMES-USCENSUS"
"8/3/2021 12:00:00 AM","Lincoln County","Wyoming","West","Mountain","56023","42.229993","-110.682961 ","1536","14","12","0","8/2/2021 12:00:00 AM","2019","19830","NYTIMES-USCENSUS"
"8/3/2021 12:00:00 AM","Pike County","Mississippi","South","East South Central","28113","31.177516","-90.397725 ","3739","114","28","1","8/2/2021 12:00:00 AM","2019","39288","NYTIMES-USCENSUS"
"8/3/2021 12:00:00 AM","Stone County","Missouri","Midwest","West North Central","29209","36.745822","-93.457842 ","3250","56","6","1","8/2/2021 12:00:00 AM","2019","31952","NYTIMES-USCENSUS"
"8/3/2021 12:00:00 AM","Mathews County","Virginia","South","South Atlantic","51115","37.425348","-76.268808 ","617","14","2","0","8/2/2021 12:00:00 AM","2019","8834","NYTIMES-USCENSUS"
"8/3/2021 12:00:00 AM","Wilkin County","Minnesota","Midwest","West North Central","27167","46.362335","-96.476657 ","848","13","2","0","8/2/2021 12:00:00 AM","2019","6207","NYTIMES-USCENSUS"
"8/3/2021 12:00:00 AM","Sangamon County","Illinois","Midwest","East North Central","17167","39.756886","-89.662435 ","20031","288","49","0","8/2/2021 12:00:00 AM","2019","194672","NYTIMES-USCENSUS"
"8/3/2021 12:00:00 AM","Wayne County","Mississippi","South","East South Central","28153","31.642503","-88.678214 ","2809","45","9","2","8/2/2021 12:00:00 AM","2019","20183","NYTIMES-USCENSUS"
"8/3/2021 12:00:00 AM","Ouachita Parish","Louisiana","South","West South Central","22073","32.480932","-92.151581 ","21477","472","206","3","8/2/2021 12:00:00 AM","2019","153279","NYTIMES-USCENSUS"
"8/3/2021 12:00:00 AM","Scotland County","Missouri","Midwest","West North Central","29199","40.447686","-92.142824 ","308","4","0","0","8/2/2021 12:00:00 AM","2019","4902","NYTIMES-USCENSUS"
"8/3/2021 12:00:00 AM","Daviess County","Missouri","Midwest","West North Central","29061","39.962839","-93.970053 ","812","12","3","1","8/2/2021 12:00:00 AM","2019","8278","NYTIMES-USCENSUS"
"8/3/2021 12:00:00 AM","Montgomery County","Alabama","South","East South Central","01101","32.202881","-86.204461 ","26343","628","91","1","8/2/2021 12:00:00 AM","2019","226486","NYTIMES-USCENSUS"
"8/3/2021 12:00:00 AM","Ramsey County","North Dakota","Midwest","West North Central","38071","48.266163","-98.739031 ","1734","30","1","0","8/2/2021 12:00:00 AM","2019","11519","NYTIMES-USCENSUS"
"8/3/2021 12:00:00 AM","Asotin County","Washington","West","Pacific","53003","46.181861","-117.227781 ","1614","31","6","0","8/2/2021 12:00:00 AM","2019","22582","NYTIMES-USCENSUS"
"8/3/2021 12:00:00 AM","Somerset County","Maine","Northeast","New England","23025","45.503646","-69.95611 ","2350","34","9","0","8/2/2021 12:00:00 AM","2019","50484","NYTIMES-USCENSUS"
"8/3/2021 12:00:00 AM","Putnam County","Illinois","Midwest","East North Central","17155","41.198961","-89.298347 ","495","4","1","0","8/2/2021 12:00:00 AM","2019","5739","NYTIMES-USCENSUS"
"8/3/2021 12:00:00 AM","Pierce County","Washington","West","Pacific","53053","47.051413","-122.15324 ","60709","670","628","1","8/2/2021 12:00:00 AM","2019","904980","NYTIMES-USCENSUS"
"8/3/2021 12:00:00 AM","Hamblen County","Tennessee","South","East South Central","47063","36.218397","-83.266071 ","9079","176","39","0","8/2/2021 12:00:00 AM","2019","64934","NYTIMES-USCENSUS"
"8/3/2021 12:00:00 AM","Strafford County","New Hampshire","Northeast","New England","33017","43.293272","-71.035589 ","10245","100","16","0","8/2/2021 12:00:00 AM","2019","130633","NYTIMES-USCENSUS"
"8/3/2021 12:00:00 AM","St. Lucie County","Florida","South","South Atlantic","12111","27.379814","-80.443536 ","31750","657","0","0","8/2/2021 12:00:00 AM","2019","328297","NYTIMES-USCENSUS"
"8/3/2021 12:00:00 AM","Armstrong County","Texas","South","West South Central","48011","34.964179","-101.356636 ","223","7","2","0","8/2/2021 12:00:00 AM","2019","1887","NYTIMES-USCENSUS"
"8/3/2021 12:00:00 AM","White County","Arkansas","South","West South Central","05145","35.255118","-91.753034 ","9786","136","108","1","8/2/2021 12:00:00 AM","2019","78753","NYTIMES-USCENSUS"
"8/3/2021 12:00:00 AM","Marion County","Indiana","Midwest","East North Central","18097","39.782976","-86.135794 ","106891","1881","281","4","8/2/2021 12:00:00 AM","2019","964582","NYTIMES-USCENSUS"
"8/3/2021 12:00:00 AM","Clay County","Minnesota","Midwest","West North Central","27027","46.898377","-96.494901 ","8315","92","5","0","8/2/2021 12:00:00 AM","2019","64222","NYTIMES-USCENSUS"
"8/3/2021 12:00:00 AM","Pike County","Pennsylvania","Northeast","Middle Atlantic","42103","41.325949","-75.031514 ","4148","54","13","0","8/2/2021 12:00:00 AM","2019","55809","NYTIMES-USCENSUS"
"8/3/2021 12:00:00 AM","Churchill County","Nevada","West","Mountain","32001","39.53771","-118.264166 ","2215","49","2","0","8/2/2021 12:00:00 AM","2019","24909","NYTIMES-USCENSUS"
"8/3/2021 12:00:00 AM","Lancaster County","Nebraska","Midwest","West North Central","31109","40.783547","-96.688658 ","32527","243","86","0","8/2/2021 12:00:00 AM","2019","319090","NYTIMES-USCENSUS"
"8/3/2021 12:00:00 AM","Loudoun County","Virginia","South","South Atlantic","51107","39.0812","-77.638898 ","28757","283","29","0","8/2/2021 12:00:00 AM","2019","413538","NYTIMES-USCENSUS"
"8/3/2021 12:00:00 AM","Wexford County","Michigan","Midwest","East North Central","26165","44.331375","-85.570046 ","2924","48","4","0","8/2/2021 12:00:00 AM","2019","33631","NYTIMES-USCENSUS"
"8/3/2021 12:00:00 AM","Liberty County","Florida","South","South Atlantic","12077","30.259849","-84.86858 ","1212","16","0","0","8/2/2021 12:00:00 AM","2019","8354","NYTIMES-USCENSUS"
"8/3/2021 12:00:00 AM","Charlevoix County","Michigan","Midwest","East North Central","26029","45.618554","-85.543684 ","1740","22","8","0","8/2/2021 12:00:00 AM","2019","26143","NYTIMES-USCENSUS"
"8/3/2021 12:00:00 AM","Milwaukee County","Wisconsin","Midwest","East North Central","55079","42.912643","-87.862312 ","122085","1444","372","0","8/2/2021 12:00:00 AM","2019","945726","NYTIMES-USCENSUS"
"8/3/2021 12:00:00 AM","Mississippi County","Missouri","Midwest","West North Central","29133","36.826264","-89.295929 ","1562","28","2","0","8/2/2021 12:00:00 AM","2019","13180","NYTIMES-USCENSUS"
"8/3/2021 12:00:00 AM","Taylor County","Iowa","Midwest","West North Central","19173","40.737949","-94.697108 ","671","12","0","0","8/2/2021 12:00:00 AM","2019","6121","NYTIMES-USCENSUS"
"8/3/2021 12:00:00 AM","Hancock County","West Virginia","South","South Atlantic","54029","40.516958","-80.570164 ","2885","90","4","0","8/2/2021 12:00:00 AM","2019","28810","NYTIMES-USCENSUS"
"8/3/2021 12:00:00 AM","Lunenburg County","Virginia","South","South Atlantic","51111","36.945555","-78.240528 ","810","15","3","0","8/2/2021 12:00:00 AM","2019","12196","NYTIMES-USCENSUS"
"8/3/2021 12:00:00 AM","Cassia County","Idaho","West","Mountain","16031","42.282313","-113.626328 ","3025","28","4","0","8/2/2021 12:00:00 AM","2019","24030","NYTIMES-USCENSUS"
"8/3/2021 12:00:00 AM","Monroe County","Tennessee","South","East South Central","47123","35.447818","-84.249705 ","6146","98","21","0","8/2/2021 12:00:00 AM","2019","46545","NYTIMES-USCENSUS"
"8/3/2021 12:00:00 AM","Macon County","Alabama","South","East South Central","01087","32.387027","-85.692887 ","1715","52","8","0","8/2/2021 12:00:00 AM","2019","18068","NYTIMES-USCENSUS"
"8/3/2021 12:00:00 AM","Johnson County","Indiana","Midwest","East North Central","18081","39.496092","-86.094264 ","19087","411","30","0","8/2/2021 12:00:00 AM","2019","158167","NYTIMES-USCENSUS"
"8/3/2021 12:00:00 AM","Carroll County","Mississippi","South","East South Central","28015","33.440795","-89.918887 ","1270","31","2","0","8/2/2021 12:00:00 AM","2019","9947","NYTIMES-USCENSUS"
"8/3/2021 12:00:00 AM","Ward County","North Dakota","Midwest","West North Central","38101","48.216686","-101.540537 ","10204","201","27","0","8/2/2021 12:00:00 AM","2019","67641","NYTIMES-USCENSUS"
"8/3/2021 12:00:00 AM","Burke County","North Carolina","South","South Atlantic","37023","35.746182","-81.70618 ","10535","164","33","0","8/2/2021 12:00:00 AM","2019","90485","NYTIMES-USCENSUS"
"8/3/2021 12:00:00 AM","Allegheny County","Pennsylvania","Northeast","Middle Atlantic","42003","40.469757","-79.980451 ","103529","2029","151","1","8/2/2021 12:00:00 AM","2019","1216045","NYTIMES-USCENSUS"
"8/3/2021 12:00:00 AM","St. Joseph County","Indiana","Midwest","East North Central","18141","41.617723","-86.288048 ","37543","586","28","0","8/2/2021 12:00:00 AM","2019","271826","NYTIMES-USCENSUS"
"8/3/2021 12:00:00 AM","Ralls County","Missouri","Midwest","West North Central","29173","39.553455","-91.524787 ","1233","13","5","0","8/2/2021 12:00:00 AM","2019","10309","NYTIMES-USCENSUS"
"8/3/2021 12:00:00 AM","Beaverhead County","Montana","West","Mountain","30001","45.133863","-112.892869 ","939","12","2","0","8/2/2021 12:00:00 AM","2019","9453","NYTIMES-USCENSUS"
"8/3/2021 12:00:00 AM","Crawford County","Georgia","South","South Atlantic","13079","32.709428","-83.979187 ","725","21","7","0","8/2/2021 12:00:00 AM","2019","12404","NYTIMES-USCENSUS"
"8/3/2021 12:00:00 AM","Walworth County","Wisconsin","Midwest","East North Central","55127","42.66811","-88.541731 ","12914","169","76","0","8/2/2021 12:00:00 AM","2019","103868","NYTIMES-USCENSUS"
"8/3/2021 12:00:00 AM","Iberville Parish","Louisiana","South","West South Central","22047","30.270653","-91.365872 ","4572","102","36","0","8/2/2021 12:00:00 AM","2019","32511","NYTIMES-USCENSUS"
"8/3/2021 12:00:00 AM","Prince William County","Virginia","South","South Atlantic","51153","38.701119","-77.479579 ","46688","514","63","0","8/2/2021 12:00:00 AM","2019","470335","NYTIMES-USCENSUS"
"8/3/2021 12:00:00 AM","Woodson County","Kansas","Midwest","West North Central","20207","37.888193","-95.758469 ","244","5","0","0","8/2/2021 12:00:00 AM","2019","3138","NYTIMES-USCENSUS"
"8/3/2021 12:00:00 AM","Audubon County","Iowa","Midwest","West North Central","19009","41.679178","-94.904312 ","536","13","0","0","8/2/2021 12:00:00 AM","2019","5496","NYTIMES-USCENSUS"
"8/3/2021 12:00:00 AM","Gillespie County","Texas","South","West South Central","48171","30.325093","-98.94185 ","2742","53","11","0","8/2/2021 12:00:00 AM","2019","26988","NYTIMES-USCENSUS"
"8/3/2021 12:00:00 AM","Worcester County","Maryland","South","South Atlantic","24047","38.222133","-75.309931 ","3775","106","5","0","8/2/2021 12:00:00 AM","2019","52276","NYTIMES-USCENSUS"
"8/3/2021 12:00:00 AM","Hickman County","Tennessee","South","East South Central","47081","35.802327","-87.467116 ","2992","48","14","1","8/2/2021 12:00:00 AM","2019","25178","NYTIMES-USCENSUS"
"8/3/2021 12:00:00 AM","Hudspeth County","Texas","South","West South Central","48229","31.450868","-105.377549 ","546","12","0","0","8/2/2021 12:00:00 AM","2019","4886","NYTIMES-USCENSUS"
"8/3/2021 12:00:00 AM","Ashland County","Wisconsin","Midwest","East North Central","55003","46.544424","-90.679691 ","1420","15","4","0","8/2/2021 12:00:00 AM","2019","15562","NYTIMES-USCENSUS"
"8/3/2021 12:00:00 AM","Harris County","Georgia","South","South Atlantic","13145","32.731549","-84.912432 ","2804","66","19","0","8/2/2021 12:00:00 AM","2019","35236","NYTIMES-USCENSUS"
"8/3/2021 12:00:00 AM","Duplin County","North Carolina","South","South Atlantic","37061","34.934403","-77.933543 ","6843","143","35","1","8/2/2021 12:00:00 AM","2019","58741","NYTIMES-USCENSUS"
"8/3/2021 12:00:00 AM","Bremer County","Iowa","Midwest","West North Central","19017","42.780895","-92.327356 ","2946","63","0","0","8/2/2021 12:00:00 AM","2019","25062","NYTIMES-USCENSUS"
"8/3/2021 12:00:00 AM","Medina County","Texas","South","West South Central","48325","29.353661","-99.111085 ","5133","108","60","0","8/2/2021 12:00:00 AM","2019","51584","NYTIMES-USCENSUS"
"8/3/2021 12:00:00 AM","Philadelphia County","Pennsylvania","Northeast","Middle Atlantic","42101","40.009376","-75.133346 ","157274","3784","0","0","8/2/2021 12:00:00 AM","2019","1584064","NYTIMES-USCENSUS"
"8/3/2021 12:00:00 AM","Elk County","Kansas","Midwest","West North Central","20049","37.456026","-96.244642 ","187","5","0","0","8/2/2021 12:00:00 AM","2019","2530","NYTIMES-USCENSUS"
"8/3/2021 12:00:00 AM","Lawrence County","Mississippi","South","East South Central","28077","31.550009","-90.10753 ","1454","26","2","0","8/2/2021 12:00:00 AM","2019","12586","NYTIMES-USCENSUS"
"8/3/2021 12:00:00 AM","Noxubee County","Mississippi","South","East South Central","28103","33.106606","-88.566152 ","1372","35","5","0","8/2/2021 12:00:00 AM","2019","10417","NYTIMES-USCENSUS"
"8/3/2021 12:00:00 AM","Botetourt County","Virginia","South","South Atlantic","51023","37.565482","-79.797546 ","2747","38","4","0","8/2/2021 12:00:00 AM","2019","33419","NYTIMES-USCENSUS"
"8/3/2021 12:00:00 AM","Pulaski County","Missouri","Midwest","West North Central","29169","37.824835","-92.207022 ","4261","58","17","1","8/2/2021 12:00:00 AM","2019","52607","NYTIMES-USCENSUS"
"8/3/2021 12:00:00 AM","Donley County","Texas","South","West South Central","48129","34.955036","-100.815846 ","435","15","3","0","8/2/2021 12:00:00 AM","2019","3278","NYTIMES-USCENSUS"
"8/3/2021 12:00:00 AM","Gilmer County","Georgia","South","South Atlantic","13123","34.690506","-84.454624 ","3158","92","11","1","8/2/2021 12:00:00 AM","2019","31369","NYTIMES-USCENSUS"
"8/3/2021 12:00:00 AM","Edmunds County","South Dakota","Midwest","West North Central","46045","45.41168","-99.205362 ","514","14","0","0","8/2/2021 12:00:00 AM","2019","3829","NYTIMES-USCENSUS"
"8/3/2021 12:00:00 AM","Manassas city","Virginia","South","South Atlantic","51683","38.746808","-77.482633 ","4351","48","3","0","8/2/2021 12:00:00 AM","2019","41085","NYTIMES-USCENSUS"
"8/3/2021 12:00:00 AM","Coweta County","Georgia","South","South Atlantic","13077","33.352897","-84.762138 ","15205","238","123","1","8/2/2021 12:00:00 AM","2019","148509","NYTIMES-USCENSUS"
"8/3/2021 12:00:00 AM","Crawford County","Illinois","Midwest","East North Central","17033","39.002787","-87.760619 ","2242","42","20","0","8/2/2021 12:00:00 AM","2019","18667","NYTIMES-USCENSUS"
"8/3/2021 12:00:00 AM","Prince of Wales-Hyder Census Area","Alaska","West","Pacific","02198","55.682773","-133.162389 ","230","4","3","0","8/2/2021 12:00:00 AM","2019","6203","NYTIMES-USCENSUS"
"8/3/2021 12:00:00 AM","Monroe County","Florida","South","South Atlantic","12087","25.58612","-81.022603 ","7374","52","0","0","8/2/2021 12:00:00 AM","2019","74228","NYTIMES-USCENSUS"
"8/3/2021 12:00:00 AM","Pike County","Alabama","South","East South Central","01109","31.798653","-85.941608 ","3340","79","10","0","8/2/2021 12:00:00 AM","2019","33114","NYTIMES-USCENSUS"
"8/3/2021 12:00:00 AM","Lenawee County","Michigan","Midwest","East North Central","26091","41.896022","-84.074356 ","10976","179","33","0","8/2/2021 12:00:00 AM","2019","98451","NYTIMES-USCENSUS"
"8/3/2021 12:00:00 AM","Renville County","North Dakota","Midwest","West North Central","38075","48.712781","-101.658152 ","325","14","0","0","8/2/2021 12:00:00 AM","2019","2327","NYTIMES-USCENSUS"
"8/3/2021 12:00:00 AM","Iron County","Wisconsin","Midwest","East North Central","55051","46.32655","-90.261298 ","720","42","0","0","8/2/2021 12:00:00 AM","2019","5687","NYTIMES-USCENSUS"
"8/3/2021 12:00:00 AM","Montgomery County","Mississippi","South","East South Central","28097","33.500714","-89.639625 ","1339","44","2","0","8/2/2021 12:00:00 AM","2019","9775","NYTIMES-USCENSUS"
"8/3/2021 12:00:00 AM","Bailey County","Texas","South","West South Central","48017","34.067521","-102.830345 ","875","19","1","0","8/2/2021 12:00:00 AM","2019","7000","NYTIMES-USCENSUS"
"8/3/2021 12:00:00 AM","Irion County","Texas","South","West South Central","48235","31.303424","-100.981304 ","137","1","0","0","8/2/2021 12:00:00 AM","2019","1536","NYTIMES-USCENSUS"
"8/3/2021 12:00:00 AM","Newport News city","Virginia","South","South Atlantic","51700","37.076136","-76.52198 ","14862","242","50","0","8/2/2021 12:00:00 AM","2019","179225","NYTIMES-USCENSUS"
"8/3/2021 12:00:00 AM","Pemiscot County","Missouri","Midwest","West North Central","29155","36.209916","-89.785942 ","1666","39","3","0","8/2/2021 12:00:00 AM","2019","15805","NYTIMES-USCENSUS"
"8/3/2021 12:00:00 AM","Northwest Arctic Borough","Alaska","West","Pacific","02188","67.005066","-160.021086 ","671","2","11","0","8/2/2021 12:00:00 AM","2019","7621","NYTIMES-USCENSUS"
"8/3/2021 12:00:00 AM","Adair County","Kentucky","South","East South Central","21001","37.105559","-85.28138 ","2092","55","0","0","8/2/2021 12:00:00 AM","2019","19202","NYTIMES-USCENSUS"
"8/3/2021 12:00:00 AM","Newport County","Rhode Island","Northeast","New England","44005","41.501045","-71.283063 ","7058","43","0","0","8/2/2021 12:00:00 AM","2019","82082","NYTIMES-USCENSUS"
"8/3/2021 12:00:00 AM","Camas County","Idaho","West","Mountain","16025","43.502552","-114.772135 ","73","0","0","0","8/2/2021 12:00:00 AM","2019","1106","NYTIMES-USCENSUS"
"8/3/2021 12:00:00 AM","Webster County","Georgia","South","South Atlantic","13307","32.046691","-84.553828 ","155","4","0","0","8/2/2021 12:00:00 AM","2019","2607","NYTIMES-USCENSUS"
"8/3/2021 12:00:00 AM","Wells County","Indiana","Midwest","East North Central","18179","40.735273","-85.212974 ","3084","83","4","0","8/2/2021 12:00:00 AM","2019","28296","NYTIMES-USCENSUS"
"8/3/2021 12:00:00 AM","Clackamas County","Oregon","West","Pacific","41005","45.160493","-122.195127 ","20244","246","96","0","8/2/2021 12:00:00 AM","2019","418187","NYTIMES-USCENSUS"
"8/3/2021 12:00:00 AM","Decatur County","Indiana","Midwest","East North Central","18031","39.30598","-85.499831 ","3000","97","3","0","8/2/2021 12:00:00 AM","2019","26559","NYTIMES-USCENSUS"
"8/3/2021 12:00:00 AM","Clay County","Arkansas","South","West South Central","05021","36.367302","-90.418704 ","1944","52","13","0","8/2/2021 12:00:00 AM","2019","14551","NYTIMES-USCENSUS"
"8/3/2021 12:00:00 AM","Jefferson County","Florida","South","South Atlantic","12065","30.396898","-83.921761 ","1623","28","0","0","8/2/2021 12:00:00 AM","2019","14246","NYTIMES-USCENSUS"
"8/3/2021 12:00:00 AM","DeKalb County","Indiana","Midwest","East North Central","18033","41.39676","-85.002697 ","4618","88","7","0","8/2/2021 12:00:00 AM","2019","43475","NYTIMES-USCENSUS"
"8/3/2021 12:00:00 AM","Sarasota County","Florida","South","South Atlantic","12115","27.225327","-82.423714 ","35675","844","0","0","8/2/2021 12:00:00 AM","2019","433742","NYTIMES-USCENSUS"
"8/3/2021 12:00:00 AM","Pulaski County","Illinois","Midwest","East North Central","17153","37.215615","-89.127755 ","752","8","2","1","8/2/2021 12:00:00 AM","2019","5335","NYTIMES-USCENSUS"
"8/3/2021 12:00:00 AM","Gila County","Arizona","West","Mountain","04007","33.789618","-110.81187 ","7383","234","8","0","8/2/2021 12:00:00 AM","2019","54018","NYTIMES-USCENSUS"
"8/3/2021 12:00:00 AM","Unicoi County","Tennessee","South","East South Central","47171","36.100129","-82.418218 ","2129","50","13","0","8/2/2021 12:00:00 AM","2019","17883","NYTIMES-USCENSUS"
"8/3/2021 12:00:00 AM","Lincoln County","New Mexico","West","Mountain","35027","33.740841","-105.449805 ","1871","20","13","0","8/2/2021 12:00:00 AM","2019","19572","NYTIMES-USCENSUS"
"8/3/2021 12:00:00 AM","Saunders County","Nebraska","Midwest","West North Central","31155","41.223388","-96.642097 ","2575","20","0","0","8/2/2021 12:00:00 AM","2019","21578","NYTIMES-USCENSUS"
"8/3/2021 12:00:00 AM","Washington County","Rhode Island","Northeast","New England","44009","41.396792","-71.620282 ","10273","172","0","0","8/2/2021 12:00:00 AM","2019","125577","NYTIMES-USCENSUS"
"8/3/2021 12:00:00 AM","Howell County","Missouri","Midwest","West North Central","29091","36.774369","-91.887368 ","4569","50","26","0","8/2/2021 12:00:00 AM","2019","40117","NYTIMES-USCENSUS"
"8/3/2021 12:00:00 AM","Carroll County","Illinois","Midwest","East North Central","17015","42.0709","-89.924189 ","2064","38","8","0","8/2/2021 12:00:00 AM","2019","14305","NYTIMES-USCENSUS"
"8/3/2021 12:00:00 AM","Weakley County","Tennessee","South","East South Central","47183","36.303596","-88.721194 ","4351","69","10","0","8/2/2021 12:00:00 AM","2019","33328","NYTIMES-USCENSUS"
"8/3/2021 12:00:00 AM","Pender County","North Carolina","South","South Atlantic","37141","34.512556","-77.888106 ","5938","69","32","0","8/2/2021 12:00:00 AM","2019","63060","NYTIMES-USCENSUS"
"8/3/2021 12:00:00 AM","Lauderdale County","Mississippi","South","East South Central","28075","32.403998","-88.660449 ","8087","244","79","0","8/2/2021 12:00:00 AM","2019","74125","NYTIMES-USCENSUS"
"8/3/2021 12:00:00 AM","Quitman County","Mississippi","South","East South Central","28119","34.252833","-90.290171 ","863","19","7","0","8/2/2021 12:00:00 AM","2019","6792","NYTIMES-USCENSUS"
"8/3/2021 12:00:00 AM","Grant County","Kentucky","South","East South Central","21081","38.649167","-84.625924 ","2734","25","19","1","8/2/2021 12:00:00 AM","2019","25069","NYTIMES-USCENSUS"
"8/3/2021 12:00:00 AM","Saline County","Illinois","Midwest","East North Central","17165","37.751508","-88.545024 ","2768","73","10","0","8/2/2021 12:00:00 AM","2019","23491","NYTIMES-USCENSUS"
"8/3/2021 12:00:00 AM","Jefferson County","Kentucky","South","East South Central","21111","38.189532","-85.657624 ","85901","1348","195","1","8/2/2021 12:00:00 AM","2019","766757","NYTIMES-USCENSUS"
"8/3/2021 12:00:00 AM","Jefferson County","Illinois","Midwest","East North Central","17081","38.30078","-88.92421 ","4747","124","18","0","8/2/2021 12:00:00 AM","2019","37684","NYTIMES-USCENSUS"
"8/3/2021 12:00:00 AM","Rapides Parish","Louisiana","South","West South Central","22079","31.193204","-92.535953 ","14568","341","90","7","8/2/2021 12:00:00 AM","2019","129648","NYTIMES-USCENSUS"
"8/3/2021 12:00:00 AM","Meagher County","Montana","West","Mountain","30059","46.5857","-110.92174 ","154","7","0","0","8/2/2021 12:00:00 AM","2019","1862","NYTIMES-USCENSUS"
"8/3/2021 12:00:00 AM","Jefferson County","West Virginia","South","South Atlantic","54037","39.307398","-77.86322 ","4883","60","6","0","8/2/2021 12:00:00 AM","2019","57146","NYTIMES-USCENSUS"
"8/3/2021 12:00:00 AM","Latah County","Idaho","West","Mountain","16057","46.81892","-116.730974 ","3285","13","7","0","8/2/2021 12:00:00 AM","2019","40108","NYTIMES-USCENSUS"
"8/3/2021 12:00:00 AM","East Carroll Parish","Louisiana","South","West South Central","22035","32.73017","-91.234141 ","1205","28","3","0","8/2/2021 12:00:00 AM","2019","6861","NYTIMES-USCENSUS"
"8/3/2021 12:00:00 AM","Aransas County","Texas","South","West South Central","48007","28.122621","-96.967501 ","1468","43","14","0","8/2/2021 12:00:00 AM","2019","23510","NYTIMES-USCENSUS"
"8/3/2021 12:00:00 AM","Chaffee County","Colorado","West","Mountain","08015","38.734599","-106.300025 ","1849","25","1","0","8/2/2021 12:00:00 AM","2019","20356","NYTIMES-USCENSUS"
"8/3/2021 12:00:00 AM","Shasta County","California","West","Pacific","06089","40.760514","-122.043556 ","15015","242","13","0","8/2/2021 12:00:00 AM","2019","180080","NYTIMES-USCENSUS"
"8/3/2021 12:00:00 AM","Orange County","Indiana","Midwest","East North Central","18117","38.547381","-86.489257 ","1948","59","6","0","8/2/2021 12:00:00 AM","2019","19646","NYTIMES-USCENSUS"
"8/3/2021 12:00:00 AM","Sussex County","New Jersey","Northeast","Middle Atlantic","34037","41.137461","-74.691914 ","14346","309","16","0","8/2/2021 12:00:00 AM","2019","140488","NYTIMES-USCENSUS"
"8/3/2021 12:00:00 AM","Missoula County","Montana","West","Mountain","30063","47.027263","-113.892691 ","9732","101","51","0","8/2/2021 12:00:00 AM","2019","119600","NYTIMES-USCENSUS"
"8/3/2021 12:00:00 AM","Mason County","Washington","West","Pacific","53045","47.350832","-123.173103 ","3095","38","38","0","8/2/2021 12:00:00 AM","2019","66768","NYTIMES-USCENSUS"
"8/3/2021 12:00:00 AM","White County","Indiana","Midwest","East North Central","18181","40.75095","-86.864293 ","3419","55","4","0","8/2/2021 12:00:00 AM","2019","24102","NYTIMES-USCENSUS"
"8/3/2021 12:00:00 AM","Jefferson Davis County","Mississippi","South","East South Central","28065","31.564808","-89.827086 ","1198","34","11","0","8/2/2021 12:00:00 AM","2019","11128","NYTIMES-USCENSUS"
"8/3/2021 12:00:00 AM","Le Flore County","Oklahoma","South","West South Central","40079","34.897356","-94.695074 ","5961","68","0","0","8/2/2021 12:00:00 AM","2019","49853","NYTIMES-USCENSUS"
"8/3/2021 12:00:00 AM","Sherburne County","Minnesota","Midwest","West North Central","27141","45.453176","-93.76913 ","12216","96","21","0","8/2/2021 12:00:00 AM","2019","97238","NYTIMES-USCENSUS"
"8/3/2021 12:00:00 AM","Roberts County","Texas","South","West South Central","48393","35.838596","-100.836682 ","66","1","0","0","8/2/2021 12:00:00 AM","2019","854","NYTIMES-USCENSUS"
"8/3/2021 12:00:00 AM","Sweetwater County","Wyoming","West","Mountain","56037","41.660328","-108.875677 ","5026","45","9","1","8/2/2021 12:00:00 AM","2019","42343","NYTIMES-USCENSUS"
"8/3/2021 12:00:00 AM","Decatur County","Georgia","South","South Atlantic","13087","30.880643","-84.58389 ","3182","76","17","1","8/2/2021 12:00:00 AM","2019","26404","NYTIMES-USCENSUS"
"8/3/2021 12:00:00 AM","Torrance County","New Mexico","West","Mountain","35057","34.554978","-105.890557 ","1246","16","95","0","8/2/2021 12:00:00 AM","2019","15461","NYTIMES-USCENSUS"
"8/3/2021 12:00:00 AM","Cedar County","Nebraska","Midwest","West North Central","31027","42.60456","-97.25687 ","956","11","0","0","8/2/2021 12:00:00 AM","2019","8402","NYTIMES-USCENSUS"
"8/3/2021 12:00:00 AM","Highland County","Ohio","Midwest","East North Central","39071","39.184422","-83.601359 ","3707","68","7","0","8/2/2021 12:00:00 AM","2019","43161","NYTIMES-USCENSUS"
"8/3/2021 12:00:00 AM","Pulaski County","Kentucky","South","East South Central","21199","37.107452","-84.576969 ","7086","124","4","0","8/2/2021 12:00:00 AM","2019","64979","NYTIMES-USCENSUS"
"8/3/2021 12:00:00 AM","Bernalillo County","New Mexico","West","Mountain","35001","35.053628","-106.66908 ","61093","981","132","0","8/2/2021 12:00:00 AM","2019","679121","NYTIMES-USCENSUS"
"8/3/2021 12:00:00 AM","Vigo County","Indiana","Midwest","East North Central","18167","39.429143","-87.390375 ","12961","261","12","0","8/2/2021 12:00:00 AM","2019","107038","NYTIMES-USCENSUS"
"8/3/2021 12:00:00 AM","Waynesboro city","Virginia","South","South Atlantic","51820","38.067157","-78.90142 ","2490","39","2","1","8/2/2021 12:00:00 AM","2019","22630","NYTIMES-USCENSUS"
"8/3/2021 12:00:00 AM","Madison County","Nebraska","Midwest","West North Central","31119","41.909929","-97.606856 ","4303","44","0","0","8/2/2021 12:00:00 AM","2019","35099","NYTIMES-USCENSUS"
"8/3/2021 12:00:00 AM","Hooker County","Nebraska","Midwest","West North Central","31091","41.920317","-101.117324 ","47","3","0","0","8/2/2021 12:00:00 AM","2019","682","NYTIMES-USCENSUS"
"8/3/2021 12:00:00 AM","Valdez-Cordova Census Area","Alaska","West","Pacific","02261","61.4","-144.5","900","2","1","0","8/2/2021 12:00:00 AM","2019","9202","NYTIMES-USCENSUS"
"8/3/2021 12:00:00 AM","Richland County","Wisconsin","Midwest","East North Central","55103","43.376199","-90.435693 ","1432","17","4","0","8/2/2021 12:00:00 AM","2019","17252","NYTIMES-USCENSUS"
"8/3/2021 12:00:00 AM","Washington County","Georgia","South","South Atlantic","13303","32.971843","-82.798112 ","2253","90","29","0","8/2/2021 12:00:00 AM","2019","20374","NYTIMES-USCENSUS"
"8/3/2021 12:00:00 AM","Holmes County","Ohio","Midwest","East North Central","39075","40.565597","-81.930001 ","2735","102","1","0","8/2/2021 12:00:00 AM","2019","43960","NYTIMES-USCENSUS"
"8/3/2021 12:00:00 AM","Scott County","Arkansas","South","West South Central","05127","34.858869","-94.063641 ","1083","16","6","0","8/2/2021 12:00:00 AM","2019","10281","NYTIMES-USCENSUS"
"8/3/2021 12:00:00 AM","Nolan County","Texas","South","West South Central","48353","32.312338","-100.418108 ","1587","54","0","0","8/2/2021 12:00:00 AM","2019","14714","NYTIMES-USCENSUS"
"8/3/2021 12:00:00 AM","Holt County","Missouri","Midwest","West North Central","29087","40.095724","-95.219072 ","520","15","8","1","8/2/2021 12:00:00 AM","2019","4403","NYTIMES-USCENSUS"
"8/3/2021 12:00:00 AM","Floyd County","Georgia","South","South Atlantic","13115","34.263692","-85.213685 ","12572","242","28","0","8/2/2021 12:00:00 AM","2019","98498","NYTIMES-USCENSUS"
"8/3/2021 12:00:00 AM","Adair County","Missouri","Midwest","West North Central","29001","40.190666","-92.603592 ","2799","25","40","0","8/2/2021 12:00:00 AM","2019","25343","NYTIMES-USCENSUS"
"8/3/2021 12:00:00 AM","Clearwater County","Minnesota","Midwest","West North Central","27029","47.575873","-95.371117 ","896","17","1","0","8/2/2021 12:00:00 AM","2019","8818","NYTIMES-USCENSUS"
"8/3/2021 12:00:00 AM","Ouachita County","Arkansas","South","West South Central","05103","33.591168","-92.878413 ","2739","65","22","0","8/2/2021 12:00:00 AM","2019","23382","NYTIMES-USCENSUS"
"8/3/2021 12:00:00 AM","Carroll County","Maryland","South","South Atlantic","24013","39.563328","-77.01533 ","9653","257","3","0","8/2/2021 12:00:00 AM","2019","168447","NYTIMES-USCENSUS"
"8/3/2021 12:00:00 AM","Albemarle County","Virginia","South","South Atlantic","51003","38.024184","-78.553506 ","5978","85","7","0","8/2/2021 12:00:00 AM","2019","109330","NYTIMES-USCENSUS"
"8/3/2021 12:00:00 AM","Colfax County","Nebraska","Midwest","West North Central","31037","41.57496","-97.088945 ","1594","21","0","0","8/2/2021 12:00:00 AM","2019","10709","NYTIMES-USCENSUS"
"8/3/2021 12:00:00 AM","Pottawatomie County","Kansas","Midwest","West North Central","20149","39.382187","-96.337113 ","2173","34","0","0","8/2/2021 12:00:00 AM","2019","24383","NYTIMES-USCENSUS"
"8/3/2021 12:00:00 AM","Madison County","Arkansas","South","West South Central","05087","36.012545","-93.724053 ","1718","28","7","0","8/2/2021 12:00:00 AM","2019","16576","NYTIMES-USCENSUS"
"8/3/2021 12:00:00 AM","Leflore County","Mississippi","South","East South Central","28083","33.54979","-90.294934 ","3676","125","8","0","8/2/2021 12:00:00 AM","2019","28183","NYTIMES-USCENSUS"
"8/3/2021 12:00:00 AM","Yoakum County","Texas","South","West South Central","48501","33.162339","-102.832241 ","880","28","0","0","8/2/2021 12:00:00 AM","2019","8713","NYTIMES-USCENSUS"
"8/3/2021 12:00:00 AM","Colonial Heights city","Virginia","South","South Atlantic","51570","37.261685","-77.396804 ","1819","60","11","0","8/2/2021 12:00:00 AM","2019","17370","NYTIMES-USCENSUS"
"8/3/2021 12:00:00 AM","Vernon Parish","Louisiana","South","West South Central","22115","31.102841","-93.18833 ","3780","111","50","2","8/2/2021 12:00:00 AM","2019","47429","NYTIMES-USCENSUS"
"8/3/2021 12:00:00 AM","Champaign County","Illinois","Midwest","East North Central","17019","40.138985","-88.196975 ","21891","167","64","0","8/2/2021 12:00:00 AM","2019","209689","NYTIMES-USCENSUS"
"8/3/2021 12:00:00 AM","Dodge County","Wisconsin","Midwest","East North Central","55027","43.429628","-88.701939 ","13142","201","23","0","8/2/2021 12:00:00 AM","2019","87839","NYTIMES-USCENSUS"
"8/3/2021 12:00:00 AM","Callaway County","Missouri","Midwest","West North Central","29027","38.835547","-91.923446 ","5827","52","22","1","8/2/2021 12:00:00 AM","2019","44743","NYTIMES-USCENSUS"
"8/3/2021 12:00:00 AM","Williamson County","Texas","South","West South Central","48491","30.649082","-97.605065 ","52278","495","418","0","8/2/2021 12:00:00 AM","2019","590551","NYTIMES-USCENSUS"
"8/3/2021 12:00:00 AM","Douglas County","Kansas","Midwest","West North Central","20045","38.896417","-95.290947 ","9842","83","0","0","8/2/2021 12:00:00 AM","2019","122259","NYTIMES-USCENSUS"
"8/3/2021 12:00:00 AM","Howard County","Arkansas","South","West South Central","05061","34.083064","-93.990931 ","1810","25","12","0","8/2/2021 12:00:00 AM","2019","13202","NYTIMES-USCENSUS"
"8/3/2021 12:00:00 AM","Jones County","Texas","South","West South Central","48253","32.743709","-99.87443 ","2592","56","-1","0","8/2/2021 12:00:00 AM","2019","20083","NYTIMES-USCENSUS"
"8/3/2021 12:00:00 AM","Halifax County","Virginia","South","South Atlantic","51083","36.766461","-78.939614 ","2896","78","10","0","8/2/2021 12:00:00 AM","2019","33911","NYTIMES-USCENSUS"
"8/3/2021 12:00:00 AM","Cooke County","Texas","South","West South Central","48097","33.639196","-97.210343 ","3914","72","11","0","8/2/2021 12:00:00 AM","2019","41257","NYTIMES-USCENSUS"
"8/3/2021 12:00:00 AM","Chester County","Pennsylvania","Northeast","Middle Atlantic","42029","39.974029","-75.749751 ","41423","826","43","0","8/2/2021 12:00:00 AM","2019","524989","NYTIMES-USCENSUS"
"8/3/2021 12:00:00 AM","Midland County","Michigan","Midwest","East North Central","26111","43.648203","-84.379414 ","7679","96","24","0","8/2/2021 12:00:00 AM","2019","83156","NYTIMES-USCENSUS"
"8/3/2021 12:00:00 AM","Madison County","Kentucky","South","East South Central","21151","37.725511","-84.278362 ","10027","113","28","0","8/2/2021 12:00:00 AM","2019","92987","NYTIMES-USCENSUS"
"8/3/2021 12:00:00 AM","Lee County","Mississippi","South","East South Central","28081","34.29237","-88.682439 ","10903","180","48","1","8/2/2021 12:00:00 AM","2019","85436","NYTIMES-USCENSUS"
"8/3/2021 12:00:00 AM","Butler County","Kentucky","South","East South Central","21031","37.207013","-86.682471 ","1524","28","7","0","8/2/2021 12:00:00 AM","2019","12879","NYTIMES-USCENSUS"
"8/3/2021 12:00:00 AM","York County","South Carolina","South","South Atlantic","45091","34.970188","-81.183187 ","33724","399","81","0","8/2/2021 12:00:00 AM","2019","280979","NYTIMES-USCENSUS"
"8/3/2021 12:00:00 AM","Marshall County","Alabama","South","East South Central","01095","34.309564","-86.321668 ","13198","236","62","1","8/2/2021 12:00:00 AM","2019","96774","NYTIMES-USCENSUS"
"8/3/2021 12:00:00 AM","Clarke County","Alabama","South","East South Central","01025","31.685521","-87.818624 ","3722","63","6","0","8/2/2021 12:00:00 AM","2019","23622","NYTIMES-USCENSUS"
"8/3/2021 12:00:00 AM","Marion County","Oregon","West","Pacific","41047","44.900898","-122.57626 ","24758","333","164","0","8/2/2021 12:00:00 AM","2019","347818","NYTIMES-USCENSUS"
"8/3/2021 12:00:00 AM","Shelby County","Missouri","Midwest","West North Central","29205","39.797531","-92.088719 ","724","7","0","0","8/2/2021 12:00:00 AM","2019","5930","NYTIMES-USCENSUS"
"8/3/2021 12:00:00 AM","Suffolk city","Virginia","South","South Atlantic","51800","36.697157","-76.634781 ","8257","193","17","0","8/2/2021 12:00:00 AM","2019","92108","NYTIMES-USCENSUS"
"8/3/2021 12:00:00 AM","Marion County","Missouri","Midwest","West North Central","29127","39.807538","-91.635379 ","4158","55","10","1","8/2/2021 12:00:00 AM","2019","28530","NYTIMES-USCENSUS"
"8/3/2021 12:00:00 AM","Socorro County","New Mexico","West","Mountain","35053","33.991658","-106.939136 ","1356","61","0","0","8/2/2021 12:00:00 AM","2019","16637","NYTIMES-USCENSUS"
"8/3/2021 12:00:00 AM","Hamilton County","Texas","South","West South Central","48193","31.707342","-98.111756 ","860","29","2","0","8/2/2021 12:00:00 AM","2019","8461","NYTIMES-USCENSUS"
"8/3/2021 12:00:00 AM","Franklin County","Iowa","Midwest","West North Central","19069","42.736545","-93.271415 ","1292","23","0","0","8/2/2021 12:00:00 AM","2019","10070","NYTIMES-USCENSUS"
"8/3/2021 12:00:00 AM","Worth County","Missouri","Midwest","West North Central","29227","40.480499","-94.419198 ","199","2","0","0","8/2/2021 12:00:00 AM","2019","2013","NYTIMES-USCENSUS"
"8/3/2021 12:00:00 AM","Steele County","Minnesota","Midwest","West North Central","27147","44.015261","-93.220453 ","4032","19","10","0","8/2/2021 12:00:00 AM","2019","36649","NYTIMES-USCENSUS"
"8/3/2021 12:00:00 AM","Carbon County","Montana","West","Mountain","30009","45.224468","-109.028554 ","940","17","1","0","8/2/2021 12:00:00 AM","2019","10725","NYTIMES-USCENSUS"
"8/3/2021 12:00:00 AM","Falls Church city","Virginia","South","South Atlantic","51610","38.884722","-77.175603 ","431","8","0","0","8/2/2021 12:00:00 AM","2019","14617","NYTIMES-USCENSUS"
"8/3/2021 12:00:00 AM","San Luis Obispo County","California","West","Pacific","06079","35.388189","-120.448897 ","22934","265","10","0","8/2/2021 12:00:00 AM","2019","283111","NYTIMES-USCENSUS"
"8/3/2021 12:00:00 AM","Clinton County","Iowa","Midwest","West North Central","19045","41.898073","-90.534243 ","5658","94","0","0","8/2/2021 12:00:00 AM","2019","46429","NYTIMES-USCENSUS"
"8/3/2021 12:00:00 AM","Boone County","Kentucky","South","East South Central","21015","38.9589","-84.736371 ","15228","162","53","5","8/2/2021 12:00:00 AM","2019","133581","NYTIMES-USCENSUS"
"8/3/2021 12:00:00 AM","Taos County","New Mexico","West","Mountain","35055","36.577183","-105.638878 ","1806","56","1","0","8/2/2021 12:00:00 AM","2019","32723","NYTIMES-USCENSUS"
"8/3/2021 12:00:00 AM","Reeves County","Texas","South","West South Central","48389","31.308366","-103.712706 ","2457","45","3","0","8/2/2021 12:00:00 AM","2019","15976","NYTIMES-USCENSUS"
"8/3/2021 12:00:00 AM","Yankton County","South Dakota","Midwest","West North Central","46135","43.006603","-97.388361 ","3118","33","0","0","8/2/2021 12:00:00 AM","2019","22814","NYTIMES-USCENSUS"
"8/3/2021 12:00:00 AM","Meigs County","Ohio","Midwest","East North Central","39105","39.089807","-82.028397 ","1539","40","6","0","8/2/2021 12:00:00 AM","2019","22907","NYTIMES-USCENSUS"
"8/3/2021 12:00:00 AM","Stanton County","Kansas","Midwest","West North Central","20187","37.565932","-101.789383 ","197","6","0","0","8/2/2021 12:00:00 AM","2019","2006","NYTIMES-USCENSUS"
"8/3/2021 12:00:00 AM","Jackson County","Tennessee","South","East South Central","47087","36.35425","-85.674128 ","1393","37","4","0","8/2/2021 12:00:00 AM","2019","11786","NYTIMES-USCENSUS"
"8/3/2021 12:00:00 AM","Union County","Indiana","Midwest","East North Central","18161","39.623111","-84.925152 ","767","11","2","0","8/2/2021 12:00:00 AM","2019","7054","NYTIMES-USCENSUS"
"8/3/2021 12:00:00 AM","Perry County","Pennsylvania","Northeast","Middle Atlantic","42099","40.39778","-77.266328 ","3881","101","4","0","8/2/2021 12:00:00 AM","2019","46272","NYTIMES-USCENSUS"
"8/3/2021 12:00:00 AM","Shelby County","Kentucky","South","East South Central","21211","38.239011","-85.228247 ","4995","79","12","0","8/2/2021 12:00:00 AM","2019","49024","NYTIMES-USCENSUS"
"8/3/2021 12:00:00 AM","Seminole County","Florida","South","South Atlantic","12117","28.690065","-81.131975 ","42086","516","0","0","8/2/2021 12:00:00 AM","2019","471826","NYTIMES-USCENSUS"
"8/3/2021 12:00:00 AM","Caddo Parish","Louisiana","South","West South Central","22017","32.580106","-93.88497 ","29839","776","201","3","8/2/2021 12:00:00 AM","2019","240204","NYTIMES-USCENSUS"
"8/3/2021 12:00:00 AM","Pike County","Missouri","Midwest","West North Central","29163","39.339959","-91.171607 ","1982","28","1","0","8/2/2021 12:00:00 AM","2019","18302","NYTIMES-USCENSUS"
"8/3/2021 12:00:00 AM","Ransom County","North Dakota","Midwest","West North Central","38073","46.449276","-97.647554 ","702","17","0","0","8/2/2021 12:00:00 AM","2019","5218","NYTIMES-USCENSUS"
"8/3/2021 12:00:00 AM","Calumet County","Wisconsin","Midwest","East North Central","55015","44.07841","-88.212132 ","6640","56","11","0","8/2/2021 12:00:00 AM","2019","50089","NYTIMES-USCENSUS"
"8/3/2021 12:00:00 AM","Pennington County","Minnesota","Midwest","West North Central","27113","48.069247","-96.037725 ","1543","20","1","0","8/2/2021 12:00:00 AM","2019","14119","NYTIMES-USCENSUS"
"8/3/2021 12:00:00 AM","Madison County","Georgia","South","South Atlantic","13195","34.128526","-83.203737 ","3411","56","22","0","8/2/2021 12:00:00 AM","2019","29880","NYTIMES-USCENSUS"
"8/3/2021 12:00:00 AM","Orange County","Florida","South","South Atlantic","12095","28.514391","-81.323284 ","163417","1310","0","0","8/2/2021 12:00:00 AM","2019","1393452","NYTIMES-USCENSUS"
"8/3/2021 12:00:00 AM","Kosciusko County","Indiana","Midwest","East North Central","18085","41.244293","-85.861575 ","9872","129","12","0","8/2/2021 12:00:00 AM","2019","79456","NYTIMES-USCENSUS"
"8/3/2021 12:00:00 AM","Okaloosa County","Florida","South","South Atlantic","12091","30.614325","-86.59108 ","22795","367","0","0","8/2/2021 12:00:00 AM","2019","210738","NYTIMES-USCENSUS"
"8/3/2021 12:00:00 AM","Caledonia County","Vermont","Northeast","New England","50005","44.468791","-72.112168 ","1088","7","1","0","8/2/2021 12:00:00 AM","2019","29993","NYTIMES-USCENSUS"
"8/3/2021 12:00:00 AM","Gray County","Texas","South","West South Central","48179","35.402542","-100.812374 ","2602","58","2","0","8/2/2021 12:00:00 AM","2019","21886","NYTIMES-USCENSUS"
"8/3/2021 12:00:00 AM","Washington County","Idaho","West","Mountain","16087","44.448223","-116.797792 ","1244","22","0","0","8/2/2021 12:00:00 AM","2019","10194","NYTIMES-USCENSUS"
"8/3/2021 12:00:00 AM","Butte County","California","West","Pacific","06007","39.665336","-121.603209 ","15532","205","36","0","8/2/2021 12:00:00 AM","2019","219186","NYTIMES-USCENSUS"
"8/3/2021 12:00:00 AM","Washington County","Arkansas","South","West South Central","05143","35.978001","-94.217269 ","34480","372","189","0","8/2/2021 12:00:00 AM","2019","239187","NYTIMES-USCENSUS"
"8/3/2021 12:00:00 AM","Peach County","Georgia","South","South Atlantic","13225","32.571324","-83.831978 ","2868","70","15","0","8/2/2021 12:00:00 AM","2019","27546","NYTIMES-USCENSUS"
"8/3/2021 12:00:00 AM","Mahaska County","Iowa","Midwest","West North Central","19123","41.330797","-92.636366 ","2351","51","0","0","8/2/2021 12:00:00 AM","2019","22095","NYTIMES-USCENSUS"
"8/3/2021 12:00:00 AM","Henderson County","Illinois","Midwest","East North Central","17071","40.814471","-90.941246 ","534","23","0","0","8/2/2021 12:00:00 AM","2019","6646","NYTIMES-USCENSUS"
"8/3/2021 12:00:00 AM","Essex County","New York","Northeast","Middle Atlantic","36031","44.109601","-73.778431 ","1644","26","0","0","8/2/2021 12:00:00 AM","2019","36885","NYTIMES-USCENSUS"
"8/3/2021 12:00:00 AM","Fayette County","Iowa","Midwest","West North Central","19065","42.864122","-91.840376 ","1889","43","0","0","8/2/2021 12:00:00 AM","2019","19650","NYTIMES-USCENSUS"
"8/3/2021 12:00:00 AM","Beaver County","Pennsylvania","Northeast","Middle Atlantic","42007","40.68414","-80.350721 ","15805","393","23","1","8/2/2021 12:00:00 AM","2019","163929","NYTIMES-USCENSUS"
"8/3/2021 12:00:00 AM","Neosho County","Kansas","Midwest","West North Central","20133","37.564283","-95.315682 ","2027","36","0","0","8/2/2021 12:00:00 AM","2019","16007","NYTIMES-USCENSUS"
"8/3/2021 12:00:00 AM","Eddy County","North Dakota","Midwest","West North Central","38027","47.723436","-98.900474 ","470","6","0","0","8/2/2021 12:00:00 AM","2019","2287","NYTIMES-USCENSUS"
"8/3/2021 12:00:00 AM","Howard County","Maryland","South","South Atlantic","24027","39.252264","-76.924406 ","19669","261","16","1","8/2/2021 12:00:00 AM","2019","325690","NYTIMES-USCENSUS"
"8/3/2021 12:00:00 AM","Delaware County","Pennsylvania","Northeast","Middle Atlantic","42045","39.916685","-75.398818 ","53162","1421","70","0","8/2/2021 12:00:00 AM","2019","566747","NYTIMES-USCENSUS"
"8/3/2021 12:00:00 AM","Powhatan County","Virginia","South","South Atlantic","51145","37.549404","-77.912855 ","1985","17","5","0","8/2/2021 12:00:00 AM","2019","29652","NYTIMES-USCENSUS"
"8/3/2021 12:00:00 AM","Covington County","Mississippi","South","East South Central","28031","31.633331","-89.548897 ","3023","84","22","0","8/2/2021 12:00:00 AM","2019","18636","NYTIMES-USCENSUS"
"8/3/2021 12:00:00 AM","White County","Georgia","South","South Atlantic","13311","34.644182","-83.743 ","3376","85","16","0","8/2/2021 12:00:00 AM","2019","30798","NYTIMES-USCENSUS"
"8/3/2021 12:00:00 AM","Centre County","Pennsylvania","Northeast","Middle Atlantic","42027","40.909128","-77.847877 ","17091","228","10","0","8/2/2021 12:00:00 AM","2019","162385","NYTIMES-USCENSUS"
"8/3/2021 12:00:00 AM","Swain County","North Carolina","South","South Atlantic","37173","35.568849","-83.465614 ","1262","18","11","0","8/2/2021 12:00:00 AM","2019","14271","NYTIMES-USCENSUS"
"8/3/2021 12:00:00 AM","Moniteau County","Missouri","Midwest","West North Central","29135","38.633037","-92.583642 ","2038","33","5","0","8/2/2021 12:00:00 AM","2019","16132","NYTIMES-USCENSUS"
"8/3/2021 12:00:00 AM","Lee County","South Carolina","South","South Atlantic","45061","34.15864","-80.251209 ","2002","65","3","0","8/2/2021 12:00:00 AM","2019","16828","NYTIMES-USCENSUS"
"8/3/2021 12:00:00 AM","Piute County","Utah","West","Mountain","49031","38.335881","-112.129375 ","102","2","0","0","8/2/2021 12:00:00 AM","2019","1479","NYTIMES-USCENSUS"
"8/3/2021 12:00:00 AM","Bartow County","Georgia","South","South Atlantic","13015","34.240917","-84.838188 ","15646","242","53","0","8/2/2021 12:00:00 AM","2019","107738","NYTIMES-USCENSUS"
"8/3/2021 12:00:00 AM","Sunflower County","Mississippi","South","East South Central","28133","33.605529","-90.59509 ","3510","94","3","0","8/2/2021 12:00:00 AM","2019","25110","NYTIMES-USCENSUS"
"8/3/2021 12:00:00 AM","Nevada County","California","West","Pacific","06057","39.297508","-120.771343 ","5825","73","50","-2","8/2/2021 12:00:00 AM","2019","99755","NYTIMES-USCENSUS"
"8/3/2021 12:00:00 AM","Cumberland County","Virginia","South","South Atlantic","51049","37.520189","-78.252836 ","533","10","1","0","8/2/2021 12:00:00 AM","2019","9932","NYTIMES-USCENSUS"
"8/3/2021 12:00:00 AM","Pittsburg County","Oklahoma","South","West South Central","40121","34.92554","-95.74813 ","4856","79","0","0","8/2/2021 12:00:00 AM","2019","43654","NYTIMES-USCENSUS"
"8/3/2021 12:00:00 AM","Santa Barbara County","California","West","Pacific","06083","34.536677","-120.038364 ","37267","469","42","0","8/2/2021 12:00:00 AM","2019","446499","NYTIMES-USCENSUS"
"8/3/2021 12:00:00 AM","McKenzie County","North Dakota","Midwest","West North Central","38053","47.742475","-103.403215 ","1488","15","0","0","8/2/2021 12:00:00 AM","2019","15024","NYTIMES-USCENSUS"
"8/3/2021 12:00:00 AM","Lee County","Kentucky","South","East South Central","21129","37.608116","-83.719248 ","1320","26","2","0","8/2/2021 12:00:00 AM","2019","7403","NYTIMES-USCENSUS"
"8/3/2021 12:00:00 AM","Perry County","Illinois","Midwest","East North Central","17145","38.084381","-89.368525 ","3340","71","13","0","8/2/2021 12:00:00 AM","2019","20916","NYTIMES-USCENSUS"
"8/3/2021 12:00:00 AM","Holt County","Nebraska","Midwest","West North Central","31089","42.459287","-98.784766 ","916","15","0","0","8/2/2021 12:00:00 AM","2019","10067","NYTIMES-USCENSUS"
"8/3/2021 12:00:00 AM","Davis County","Iowa","Midwest","West North Central","19051","40.748089","-92.410345 ","885","25","0","0","8/2/2021 12:00:00 AM","2019","9000","NYTIMES-USCENSUS"
"8/3/2021 12:00:00 AM","Charles Mix County","South Dakota","Midwest","West North Central","46023","43.206185","-98.595143 ","1402","22","0","0","8/2/2021 12:00:00 AM","2019","9292","NYTIMES-USCENSUS"
"8/3/2021 12:00:00 AM","Forrest County","Mississippi","South","East South Central","28035","31.18858","-89.259447 ","9027","163","67","3","8/2/2021 12:00:00 AM","2019","74897","NYTIMES-USCENSUS"
"8/3/2021 12:00:00 AM","Beadle County","South Dakota","Midwest","West North Central","46005","44.418265","-98.279422 ","2969","40","0","0","8/2/2021 12:00:00 AM","2019","18453","NYTIMES-USCENSUS"
"8/3/2021 12:00:00 AM","Brown County","Illinois","Midwest","East North Central","17009","39.962069","-90.750309 ","817","12","3","0","8/2/2021 12:00:00 AM","2019","6578","NYTIMES-USCENSUS"
"8/3/2021 12:00:00 AM","DeSoto County","Florida","South","South Atlantic","12027","27.190581","-81.806253 ","4630","97","0","0","8/2/2021 12:00:00 AM","2019","38001","NYTIMES-USCENSUS"
"8/3/2021 12:00:00 AM","Isle of Wight County","Virginia","South","South Atlantic","51093","36.901418","-76.707569 ","3296","70","17","0","8/2/2021 12:00:00 AM","2019","37109","NYTIMES-USCENSUS"
"8/3/2021 12:00:00 AM","Wood County","West Virginia","South","South Atlantic","54107","39.211602","-81.516234 ","8095","177","14","0","8/2/2021 12:00:00 AM","2019","83518","NYTIMES-USCENSUS"
"8/3/2021 12:00:00 AM","Dent County","Missouri","Midwest","West North Central","29065","37.603072","-91.489717 ","1266","21","6","2","8/2/2021 12:00:00 AM","2019","15573","NYTIMES-USCENSUS"
"8/3/2021 12:00:00 AM","Alpena County","Michigan","Midwest","East North Central","26007","44.894954","-83.426574 ","2348","66","19","1","8/2/2021 12:00:00 AM","2019","28405","NYTIMES-USCENSUS"
"8/3/2021 12:00:00 AM","Hardin County","Texas","South","West South Central","48199","30.329648","-94.393178 ","6635","119","32","1","8/2/2021 12:00:00 AM","2019","57602","NYTIMES-USCENSUS"
"8/3/2021 12:00:00 AM","Sibley County","Minnesota","Midwest","West North Central","27143","44.575734","-94.230123 ","1481","10","2","0","8/2/2021 12:00:00 AM","2019","14865","NYTIMES-USCENSUS"
"8/3/2021 12:00:00 AM","St. James Parish","Louisiana","South","West South Central","22093","30.024777","-90.793956 ","2447","52","40","0","8/2/2021 12:00:00 AM","2019","21096","NYTIMES-USCENSUS"
"8/3/2021 12:00:00 AM","Falls County","Texas","South","West South Central","48145","31.25193","-96.934127 ","2134","33","4","0","8/2/2021 12:00:00 AM","2019","17297","NYTIMES-USCENSUS"
"8/3/2021 12:00:00 AM","Yavapai County","Arizona","West","Mountain","04025","34.631071","-112.577225 ","21070","544","44","1","8/2/2021 12:00:00 AM","2019","235099","NYTIMES-USCENSUS"
"8/3/2021 12:00:00 AM","Greene County","Georgia","South","South Atlantic","13133","33.576704","-83.166625 ","1914","62","17","0","8/2/2021 12:00:00 AM","2019","18324","NYTIMES-USCENSUS"
"8/3/2021 12:00:00 AM","Lancaster County","Pennsylvania","Northeast","Middle Atlantic","42071","40.041992","-76.250198 ","56138","1174","57","0","8/2/2021 12:00:00 AM","2019","545724","NYTIMES-USCENSUS"
"8/3/2021 12:00:00 AM","Boone County","Indiana","Midwest","East North Central","18011","40.050892","-86.469014 ","7308","109","10","0","8/2/2021 12:00:00 AM","2019","67843","NYTIMES-USCENSUS"
"8/3/2021 12:00:00 AM","Alexander County","Illinois","Midwest","East North Central","17003","37.183658","-89.349516 ","499","11","1","0","8/2/2021 12:00:00 AM","2019","5761","NYTIMES-USCENSUS"
"8/3/2021 12:00:00 AM","Shelby County","Iowa","Midwest","West North Central","19165","41.679014","-95.308917 ","1322","38","0","0","8/2/2021 12:00:00 AM","2019","11454","NYTIMES-USCENSUS"
"8/3/2021 12:00:00 AM","Nelson County","North Dakota","Midwest","West North Central","38063","47.918667","-98.204428 ","482","15","0","0","8/2/2021 12:00:00 AM","2019","2879","NYTIMES-USCENSUS"
"8/3/2021 12:00:00 AM","Windham County","Vermont","Northeast","New England","50025","42.995335","-72.721955 ","1429","15","2","0","8/2/2021 12:00:00 AM","2019","42222","NYTIMES-USCENSUS"
"8/3/2021 12:00:00 AM","Citrus County","Florida","South","South Atlantic","12017","28.850292","-82.595552 ","12753","463","0","0","8/2/2021 12:00:00 AM","2019","149657","NYTIMES-USCENSUS"
"8/3/2021 12:00:00 AM","Lee County","Iowa","Midwest","West North Central","19111","40.647588","-91.477157 ","3969","58","0","0","8/2/2021 12:00:00 AM","2019","33657","NYTIMES-USCENSUS"
"8/3/2021 12:00:00 AM","Richmond city","Virginia","South","South Atlantic","51760","37.531399","-77.476009 ","17789","281","74","0","8/2/2021 12:00:00 AM","2019","230436","NYTIMES-USCENSUS"
"8/3/2021 12:00:00 AM","Copiah County","Mississippi","South","East South Central","28029","31.866915","-90.448758 ","3308","69","10","1","8/2/2021 12:00:00 AM","2019","28065","NYTIMES-USCENSUS"
"8/3/2021 12:00:00 AM","Charlottesville city","Virginia","South","South Atlantic","51540","38.037658","-78.485381 ","4121","58","2","0","8/2/2021 12:00:00 AM","2019","47266","NYTIMES-USCENSUS"
"8/3/2021 12:00:00 AM","St. Croix County","Wisconsin","Midwest","East North Central","55109","45.028959","-92.447284 ","9963","72","18","0","8/2/2021 12:00:00 AM","2019","90687","NYTIMES-USCENSUS"
"8/3/2021 12:00:00 AM","Cabarrus County","North Carolina","South","South Atlantic","37025","35.388346","-80.552728 ","23504","268","31","0","8/2/2021 12:00:00 AM","2019","216453","NYTIMES-USCENSUS"
"8/3/2021 12:00:00 AM","Crowley County","Colorado","West","Mountain","08025","38.30618","-103.772736 ","2218","17","0","0","8/2/2021 12:00:00 AM","2019","6061","NYTIMES-USCENSUS"
"8/3/2021 12:00:00 AM","Walthall County","Mississippi","South","East South Central","28147","31.164492","-90.103431 ","1504","49","14","0","8/2/2021 12:00:00 AM","2019","14286","NYTIMES-USCENSUS"
"8/3/2021 12:00:00 AM","Orleans Parish","Louisiana","South","West South Central","22071","30.05342","-89.934502 ","36328","815","301","1","8/2/2021 12:00:00 AM","2019","390144","NYTIMES-USCENSUS"
"8/3/2021 12:00:00 AM","Gonzales County","Texas","South","West South Central","48177","29.461912","-97.49192 ","2854","59","23","0","8/2/2021 12:00:00 AM","2019","20837","NYTIMES-USCENSUS"
"8/3/2021 12:00:00 AM","Wilcox County","Alabama","South","East South Central","01131","31.990082","-87.304935 ","1323","31","0","0","8/2/2021 12:00:00 AM","2019","10373","NYTIMES-USCENSUS"
"8/3/2021 12:00:00 AM","Todd County","Minnesota","Midwest","West North Central","27153","46.066569","-94.900576 ","2905","33","5","0","8/2/2021 12:00:00 AM","2019","24664","NYTIMES-USCENSUS"
"8/3/2021 12:00:00 AM","Appling County","Georgia","South","South Atlantic","13001","31.739712","-82.290103 ","2469","72","15","0","8/2/2021 12:00:00 AM","2019","18386","NYTIMES-USCENSUS"
"8/3/2021 12:00:00 AM","DeKalb County","Tennessee","South","East South Central","47041","35.982219","-85.833596 ","2934","57","13","0","8/2/2021 12:00:00 AM","2019","20490","NYTIMES-USCENSUS"
"8/3/2021 12:00:00 AM","Titus County","Texas","South","West South Central","48449","33.214599","-94.966783 ","4359","84","13","0","8/2/2021 12:00:00 AM","2019","32750","NYTIMES-USCENSUS"
"8/3/2021 12:00:00 AM","Mineral County","Colorado","West","Mountain","08079","37.549067","-107.003236 ","101","1","1","0","8/2/2021 12:00:00 AM","2019","769","NYTIMES-USCENSUS"
"8/3/2021 12:00:00 AM","Mohave County","Arizona","West","Mountain","04015","35.717705","-113.749689 ","25672","792","89","1","8/2/2021 12:00:00 AM","2019","212181","NYTIMES-USCENSUS"
"8/3/2021 12:00:00 AM","Wapello County","Iowa","Midwest","West North Central","19179","41.031275","-92.409466 ","4402","124","0","0","8/2/2021 12:00:00 AM","2019","34969","NYTIMES-USCENSUS"
"8/3/2021 12:00:00 AM","Henry County","Missouri","Midwest","West North Central","29083","38.386491","-93.792628 ","2368","41","19","1","8/2/2021 12:00:00 AM","2019","21824","NYTIMES-USCENSUS"
"8/3/2021 12:00:00 AM","Rowan County","Kentucky","South","East South Central","21205","38.204266","-83.428079 ","2375","22","8","0","8/2/2021 12:00:00 AM","2019","24460","NYTIMES-USCENSUS"
"8/3/2021 12:00:00 AM","Coshocton County","Ohio","Midwest","East North Central","39031","40.29671","-81.930109 ","2751","61","9","0","8/2/2021 12:00:00 AM","2019","36600","NYTIMES-USCENSUS"
"8/3/2021 12:00:00 AM","Polk County","Tennessee","South","East South Central","47139","35.109437","-84.541112 ","2178","24","10","0","8/2/2021 12:00:00 AM","2019","16832","NYTIMES-USCENSUS"
"8/3/2021 12:00:00 AM","Jasper County","South Carolina","South","South Atlantic","45053","32.43059","-81.021627 ","2598","49","15","0","8/2/2021 12:00:00 AM","2019","30073","NYTIMES-USCENSUS"
"8/3/2021 12:00:00 AM","Nash County","North Carolina","South","South Atlantic","37127","35.965945","-77.987555 ","11928","202","7","0","8/2/2021 12:00:00 AM","2019","94298","NYTIMES-USCENSUS"
"8/3/2021 12:00:00 AM","Millard County","Utah","West","Mountain","49027","38.956744","-113.133092 ","1569","16","3","1","8/2/2021 12:00:00 AM","2019","13188","NYTIMES-USCENSUS"
"8/3/2021 12:00:00 AM","Dickinson County","Iowa","Midwest","West North Central","19059","43.389611","-95.196057 ","2511","45","0","0","8/2/2021 12:00:00 AM","2019","17258","NYTIMES-USCENSUS"
"8/3/2021 12:00:00 AM","Castro County","Texas","South","West South Central","48069","34.533621","-102.258786 ","1094","32","4","0","8/2/2021 12:00:00 AM","2019","7530","NYTIMES-USCENSUS"
"8/3/2021 12:00:00 AM","Dare County","North Carolina","South","South Atlantic","37055","35.606269","-75.767536 ","2419","10","10","0","8/2/2021 12:00:00 AM","2019","37009","NYTIMES-USCENSUS"
"8/3/2021 12:00:00 AM","Shiawassee County","Michigan","Midwest","East North Central","26155","42.951545","-84.146352 ","6553","110","34","0","8/2/2021 12:00:00 AM","2019","68122","NYTIMES-USCENSUS"
"8/3/2021 12:00:00 AM","Loup County","Nebraska","Midwest","West North Central","31115","41.903183","-99.509852 ","34","0","0","0","8/2/2021 12:00:00 AM","2019","664","NYTIMES-USCENSUS"
"8/3/2021 12:00:00 AM","Fergus County","Montana","West","Mountain","30027","47.221816","-109.232956 ","1163","31","7","0","8/2/2021 12:00:00 AM","2019","11050","NYTIMES-USCENSUS"
"8/3/2021 12:00:00 AM","Butler County","Missouri","Midwest","West North Central","29023","36.71518","-90.40313 ","4781","53","15","1","8/2/2021 12:00:00 AM","2019","42478","NYTIMES-USCENSUS"
"8/3/2021 12:00:00 AM","Cleburne County","Arkansas","South","West South Central","05023","35.566315","-92.05995 ","2540","74","41","0","8/2/2021 12:00:00 AM","2019","24919","NYTIMES-USCENSUS"
"8/3/2021 12:00:00 AM","Barry County","Michigan","Midwest","East North Central","26015","42.582811","-85.31455 ","6050","70","21","0","8/2/2021 12:00:00 AM","2019","61550","NYTIMES-USCENSUS"
"8/3/2021 12:00:00 AM","Harrison County","Mississippi","South","East South Central","28047","30.416536","-89.083376 ","21172","335","106","5","8/2/2021 12:00:00 AM","2019","208080","NYTIMES-USCENSUS"
"8/3/2021 12:00:00 AM","Arlington County","Virginia","South","South Atlantic","51013","38.878337","-77.100703 ","15674","258","20","0","8/2/2021 12:00:00 AM","2019","236842","NYTIMES-USCENSUS"
"8/3/2021 12:00:00 AM","Columbia County","Arkansas","South","West South Central","05027","33.223038","-93.232843 ","2603","59","9","0","8/2/2021 12:00:00 AM","2019","23457","NYTIMES-USCENSUS"
"8/3/2021 12:00:00 AM","Morris County","Texas","South","West South Central","48343","33.116466","-94.731265 ","1064","36","1","0","8/2/2021 12:00:00 AM","2019","12388","NYTIMES-USCENSUS"
"8/3/2021 12:00:00 AM","Pickens County","Alabama","South","East South Central","01107","33.2968","-88.096864 ","2477","62","20","0","8/2/2021 12:00:00 AM","2019","19930","NYTIMES-USCENSUS"
"8/3/2021 12:00:00 AM","Yamhill County","Oregon","West","Pacific","41071","45.247827","-123.316399 ","5135","82","24","1","8/2/2021 12:00:00 AM","2019","107100","NYTIMES-USCENSUS"
"8/3/2021 12:00:00 AM","Aiken County","South Carolina","South","South Atlantic","45003","33.550013","-81.632983 ","18500","226","56","0","8/2/2021 12:00:00 AM","2019","170872","NYTIMES-USCENSUS"
"8/3/2021 12:00:00 AM","Hancock County","Maine","Northeast","New England","23009","44.564906","-68.370703 ","1427","40","3","0","8/2/2021 12:00:00 AM","2019","54987","NYTIMES-USCENSUS"
"8/3/2021 12:00:00 AM","Horry County","South Carolina","South","South Atlantic","45051","33.909269","-78.976675 ","42804","597","202","0","8/2/2021 12:00:00 AM","2019","354081","NYTIMES-USCENSUS"
"8/3/2021 12:00:00 AM","Ouray County","Colorado","West","Mountain","08091","38.154731","-107.78848 ","316","4","0","0","8/2/2021 12:00:00 AM","2019","4952","NYTIMES-USCENSUS"
"8/3/2021 12:00:00 AM","Osborne County","Kansas","Midwest","West North Central","20141","39.348261","-98.767942 ","298","12","0","0","8/2/2021 12:00:00 AM","2019","3421","NYTIMES-USCENSUS"
"8/3/2021 12:00:00 AM","Grayson County","Kentucky","South","East South Central","21085","37.458577","-86.344011 ","2385","58","12","0","8/2/2021 12:00:00 AM","2019","26427","NYTIMES-USCENSUS"
"8/3/2021 12:00:00 AM","Tyler County","Texas","South","West South Central","48457","30.769295","-94.375656 ","1481","44","28","0","8/2/2021 12:00:00 AM","2019","21672","NYTIMES-USCENSUS"
"8/3/2021 12:00:00 AM","Trimble County","Kentucky","South","East South Central","21223","38.62004","-85.351208 ","747","8","6","0","8/2/2021 12:00:00 AM","2019","8471","NYTIMES-USCENSUS"
"8/3/2021 12:00:00 AM","El Paso County","Texas","South","West South Central","48141","31.76648","-106.241423 ","138390","2762","210","3","8/2/2021 12:00:00 AM","2019","839238","NYTIMES-USCENSUS"
"8/3/2021 12:00:00 AM","Comanche County","Oklahoma","South","West South Central","40031","34.662625","-98.476586 ","15129","201","0","0","8/2/2021 12:00:00 AM","2019","120749","NYTIMES-USCENSUS"
"8/3/2021 12:00:00 AM","Clay County","Georgia","South","South Atlantic","13061","31.619831","-84.992583 ","249","3","3","0","8/2/2021 12:00:00 AM","2019","2834","NYTIMES-USCENSUS"
"8/3/2021 12:00:00 AM","Fairfield County","Ohio","Midwest","East North Central","39045","39.747694","-82.626685 ","16959","207","32","0","8/2/2021 12:00:00 AM","2019","157574","NYTIMES-USCENSUS"
"8/3/2021 12:00:00 AM","Knox County","Kentucky","South","East South Central","21121","36.8885","-83.855551 ","4122","47","24","0","8/2/2021 12:00:00 AM","2019","31145","NYTIMES-USCENSUS"
"8/3/2021 12:00:00 AM","Houston County","Tennessee","South","East South Central","47083","36.285782","-87.705598 ","1162","34","4","0","8/2/2021 12:00:00 AM","2019","8201","NYTIMES-USCENSUS"
"8/3/2021 12:00:00 AM","Coffey County","Kansas","Midwest","West North Central","20031","38.23645","-95.729137 ","784","23","0","0","8/2/2021 12:00:00 AM","2019","8179","NYTIMES-USCENSUS"
"8/3/2021 12:00:00 AM","Mayes County","Oklahoma","South","West South Central","40097","36.303804","-95.235638 ","4614","75","0","0","8/2/2021 12:00:00 AM","2019","41100","NYTIMES-USCENSUS"
"8/3/2021 12:00:00 AM","Sussex County","Virginia","South","South Atlantic","51183","36.926645","-77.259732 ","1232","23","2","0","8/2/2021 12:00:00 AM","2019","11159","NYTIMES-USCENSUS"
"8/3/2021 12:00:00 AM","Allen County","Ohio","Midwest","East North Central","39003","40.771627","-84.106103 ","12124","245","12","0","8/2/2021 12:00:00 AM","2019","102351","NYTIMES-USCENSUS"
"8/3/2021 12:00:00 AM","Giles County","Virginia","South","South Atlantic","51071","37.318072","-80.698321 ","1369","24","0","0","8/2/2021 12:00:00 AM","2019","16720","NYTIMES-USCENSUS"
"8/3/2021 12:00:00 AM","Mecklenburg County","Virginia","South","South Atlantic","51117","36.687256","-78.368959 ","2466","68","17","0","8/2/2021 12:00:00 AM","2019","30587","NYTIMES-USCENSUS"
"8/3/2021 12:00:00 AM","Page County","Virginia","South","South Atlantic","51139","38.623209","-78.491872 ","2192","61","3","0","8/2/2021 12:00:00 AM","2019","23902","NYTIMES-USCENSUS"
"8/3/2021 12:00:00 AM","Webster County","Nebraska","Midwest","West North Central","31181","40.180646","-98.49859 ","423","8","0","0","8/2/2021 12:00:00 AM","2019","3487","NYTIMES-USCENSUS"
"8/3/2021 12:00:00 AM","Washington County","Illinois","Midwest","East North Central","17189","38.35314","-89.417187 ","1718","31","0","0","8/2/2021 12:00:00 AM","2019","13887","NYTIMES-USCENSUS"
"8/3/2021 12:00:00 AM","Mercer County","Ohio","Midwest","East North Central","39107","40.535333","-84.632059 ","4928","85","5","0","8/2/2021 12:00:00 AM","2019","41172","NYTIMES-USCENSUS"
"8/3/2021 12:00:00 AM","Mercer County","Pennsylvania","Northeast","Middle Atlantic","42085","41.300014","-80.252786 ","9797","267","11","0","8/2/2021 12:00:00 AM","2019","109424","NYTIMES-USCENSUS"
"8/3/2021 12:00:00 AM","Owen County","Indiana","Midwest","East North Central","18119","39.317339","-86.838845 ","2270","61","6","0","8/2/2021 12:00:00 AM","2019","20799","NYTIMES-USCENSUS"
"8/3/2021 12:00:00 AM","Park County","Montana","West","Mountain","30067","45.463081","-110.53493 ","1517","21","8","0","8/2/2021 12:00:00 AM","2019","16606","NYTIMES-USCENSUS"
"8/3/2021 12:00:00 AM","Limestone County","Alabama","South","East South Central","01083","34.810239","-86.981399 ","10816","158","66","0","8/2/2021 12:00:00 AM","2019","98915","NYTIMES-USCENSUS"
"8/3/2021 12:00:00 AM","Klamath County","Oregon","West","Pacific","41035","42.683761","-121.646168 ","4977","79","27","0","8/2/2021 12:00:00 AM","2019","68238","NYTIMES-USCENSUS"
"8/3/2021 12:00:00 AM","Phelps County","Nebraska","Midwest","West North Central","31137","40.516365","-99.406557 ","1017","10","0","0","8/2/2021 12:00:00 AM","2019","9034","NYTIMES-USCENSUS"
"8/3/2021 12:00:00 AM","Honolulu County","Hawaii","West","Pacific","15003","21.461365","-158.201974 ","31487","413","268","0","8/2/2021 12:00:00 AM","2019","974563","NYTIMES-USCENSUS"
"8/3/2021 12:00:00 AM","Cooper County","Missouri","Midwest","West North Central","29053","38.847093","-92.810069 ","2125","27","5","0","8/2/2021 12:00:00 AM","2019","17709","NYTIMES-USCENSUS"
"8/3/2021 12:00:00 AM","Hopewell city","Virginia","South","South Atlantic","51670","37.29101","-77.298944 ","2795","79","3","0","8/2/2021 12:00:00 AM","2019","22529","NYTIMES-USCENSUS"
"8/3/2021 12:00:00 AM","Warren County","Missouri","Midwest","West North Central","29219","38.761902","-91.159306 ","3560","39","7","0","8/2/2021 12:00:00 AM","2019","35649","NYTIMES-USCENSUS"
"8/3/2021 12:00:00 AM","Hays County","Texas","South","West South Central","48209","30.061225","-98.029267 ","23535","275","269","4","8/2/2021 12:00:00 AM","2019","230191","NYTIMES-USCENSUS"
"8/3/2021 12:00:00 AM","Morrow County","Oregon","West","Pacific","41049","45.425496","-119.602311 ","1243","17","5","0","8/2/2021 12:00:00 AM","2019","11603","NYTIMES-USCENSUS"
"8/3/2021 12:00:00 AM","Mitchell County","Kansas","Midwest","West North Central","20123","39.393026","-98.207362 ","579","18","0","0","8/2/2021 12:00:00 AM","2019","5979","NYTIMES-USCENSUS"
"8/3/2021 12:00:00 AM","Tattnall County","Georgia","South","South Atlantic","13267","32.043768","-82.059208 ","2607","70","26","0","8/2/2021 12:00:00 AM","2019","25286","NYTIMES-USCENSUS"
"8/3/2021 12:00:00 AM","Pend Oreille County","Washington","West","Pacific","53051","48.543825","-117.232191 ","876","9","10","0","8/2/2021 12:00:00 AM","2019","13724","NYTIMES-USCENSUS"
"8/3/2021 12:00:00 AM","Coles County","Illinois","Midwest","East North Central","17029","39.51368","-88.220782 ","5948","103","28","0","8/2/2021 12:00:00 AM","2019","50621","NYTIMES-USCENSUS"
"8/3/2021 12:00:00 AM","Teller County","Colorado","West","Mountain","08119","38.869976","-105.187365 ","2001","18","4","0","8/2/2021 12:00:00 AM","2019","25388","NYTIMES-USCENSUS"
"8/3/2021 12:00:00 AM","Wake County","North Carolina","South","South Atlantic","37183","35.789846","-78.650624 ","94757","755","910","5","8/2/2021 12:00:00 AM","2019","1111761","NYTIMES-USCENSUS"
"8/3/2021 12:00:00 AM","Cochran County","Texas","South","West South Central","48079","33.60844","-102.830449 ","340","15","0","0","8/2/2021 12:00:00 AM","2019","2853","NYTIMES-USCENSUS"
"8/3/2021 12:00:00 AM","Sullivan County","Indiana","Midwest","East North Central","18153","39.089225","-87.415843 ","2245","43","9","0","8/2/2021 12:00:00 AM","2019","20669","NYTIMES-USCENSUS"
"8/3/2021 12:00:00 AM","Bullitt County","Kentucky","South","East South Central","21029","37.969945","-85.702635 ","7852","83","30","0","8/2/2021 12:00:00 AM","2019","81676","NYTIMES-USCENSUS"
"8/3/2021 12:00:00 AM","Muhlenberg County","Kentucky","South","East South Central","21177","37.213816","-87.134092 ","3465","70","14","0","8/2/2021 12:00:00 AM","2019","30622","NYTIMES-USCENSUS"
"8/3/2021 12:00:00 AM","Curry County","New Mexico","West","Mountain","35009","34.572984","-103.346055 ","5527","87","15","0","8/2/2021 12:00:00 AM","2019","48954","NYTIMES-USCENSUS"
"8/3/2021 12:00:00 AM","Wabash County","Indiana","Midwest","East North Central","18169","40.843747","-85.795192 ","3742","84","7","0","8/2/2021 12:00:00 AM","2019","30996","NYTIMES-USCENSUS"
"8/3/2021 12:00:00 AM","White County","Illinois","Midwest","East North Central","17193","38.087326","-88.178623 ","1867","36","14","0","8/2/2021 12:00:00 AM","2019","13537","NYTIMES-USCENSUS"
"8/3/2021 12:00:00 AM","Reno County","Kansas","Midwest","West North Central","20155","37.948185","-98.078346 ","8797","142","0","-1","8/2/2021 12:00:00 AM","2019","61998","NYTIMES-USCENSUS"
"8/3/2021 12:00:00 AM","Ohio County","Kentucky","South","East South Central","21183","37.477859","-86.844871 ","2688","55","8","0","8/2/2021 12:00:00 AM","2019","23994","NYTIMES-USCENSUS"
"8/3/2021 12:00:00 AM","Isanti County","Minnesota","Midwest","West North Central","27059","45.562431","-93.296339 ","4485","67","9","0","8/2/2021 12:00:00 AM","2019","40596","NYTIMES-USCENSUS"
"8/3/2021 12:00:00 AM","Calhoun County","Texas","South","West South Central","48057","28.441719","-96.579574 ","2607","26","19","0","8/2/2021 12:00:00 AM","2019","21290","NYTIMES-USCENSUS"
"8/3/2021 12:00:00 AM","Adair County","Iowa","Midwest","West North Central","19001","41.328528","-94.478164 ","901","32","0","0","8/2/2021 12:00:00 AM","2019","7152","NYTIMES-USCENSUS"
"8/3/2021 12:00:00 AM","Clarendon County","South Carolina","South","South Atlantic","45027","33.664682","-80.217889 ","3684","114","23","0","8/2/2021 12:00:00 AM","2019","33745","NYTIMES-USCENSUS"
"8/3/2021 12:00:00 AM","Tippecanoe County","Indiana","Midwest","East North Central","18157","40.389133","-86.893554 ","23739","235","53","1","8/2/2021 12:00:00 AM","2019","195732","NYTIMES-USCENSUS"
"8/3/2021 12:00:00 AM","Cape Girardeau County","Missouri","Midwest","West North Central","29031","37.384141","-89.685658 ","9799","142","0","0","8/2/2021 12:00:00 AM","2019","78871","NYTIMES-USCENSUS"
"8/3/2021 12:00:00 AM","Van Zandt County","Texas","South","West South Central","48467","32.558787","-95.836906 ","4903","128","0","0","8/2/2021 12:00:00 AM","2019","56590","NYTIMES-USCENSUS"
"8/3/2021 12:00:00 AM","King County","Washington","West","Pacific","53033","47.490552","-121.833977 ","118747","1685","1269","1","8/2/2021 12:00:00 AM","2019","2252782","NYTIMES-USCENSUS"
"8/3/2021 12:00:00 AM","Adams County","Wisconsin","Midwest","East North Central","55001","43.973757","-89.767228 ","2002","21","1","0","8/2/2021 12:00:00 AM","2019","20220","NYTIMES-USCENSUS"
"8/3/2021 12:00:00 AM","Hamilton County","Nebraska","Midwest","West North Central","31081","40.872817","-98.022329 ","989","19","0","0","8/2/2021 12:00:00 AM","2019","9324","NYTIMES-USCENSUS"
"8/3/2021 12:00:00 AM","Baca County","Colorado","West","Mountain","08009","37.30978","-102.543741 ","331","4","0","0","8/2/2021 12:00:00 AM","2019","3581","NYTIMES-USCENSUS"
"8/3/2021 12:00:00 AM","Marinette County","Wisconsin","Midwest","East North Central","55075","45.346899","-87.991198 ","4750","75","4","0","8/2/2021 12:00:00 AM","2019","40350","NYTIMES-USCENSUS"
"8/3/2021 12:00:00 AM","Morton County","North Dakota","Midwest","West North Central","38059","46.710819","-101.298265 ","5406","102","10","0","8/2/2021 12:00:00 AM","2019","31364","NYTIMES-USCENSUS"
"8/3/2021 12:00:00 AM","Madison County","Iowa","Midwest","West North Central","19121","41.330622","-94.015184 ","1680","19","0","0","8/2/2021 12:00:00 AM","2019","16338","NYTIMES-USCENSUS"
"8/3/2021 12:00:00 AM","Benton County","Oregon","West","Pacific","41003","44.493882","-123.424664 ","3529","22","21","0","8/2/2021 12:00:00 AM","2019","93053","NYTIMES-USCENSUS"
"8/3/2021 12:00:00 AM","Barron County","Wisconsin","Midwest","East North Central","55005","45.437192","-91.852892 ","6100","86","2","0","8/2/2021 12:00:00 AM","2019","45244","NYTIMES-USCENSUS"
"8/3/2021 12:00:00 AM","Wayne County","Michigan","Midwest","East North Central","26163","42.284664","-83.261953 ","168625","5219","571","8","8/2/2021 12:00:00 AM","2019","1749343","NYTIMES-USCENSUS"
"8/3/2021 12:00:00 AM","Lawrence County","Alabama","South","East South Central","01079","34.529776","-87.321865 ","3277","100","10","0","8/2/2021 12:00:00 AM","2019","32924","NYTIMES-USCENSUS"
"8/3/2021 12:00:00 AM","Thurston County","Nebraska","Midwest","West North Central","31173","42.154061","-96.533943 ","1206","11","0","0","8/2/2021 12:00:00 AM","2019","7224","NYTIMES-USCENSUS"
"8/3/2021 12:00:00 AM","Chase County","Kansas","Midwest","West North Central","20017","38.299475","-96.594029 ","289","3","0","0","8/2/2021 12:00:00 AM","2019","2648","NYTIMES-USCENSUS"
"8/3/2021 12:00:00 AM","Perry County","Arkansas","South","West South Central","05105","34.946363","-92.926877 ","1124","13","8","0","8/2/2021 12:00:00 AM","2019","10455","NYTIMES-USCENSUS"
"8/3/2021 12:00:00 AM","York County","Maine","Northeast","New England","23031","43.426019","-70.668425 ","13872","139","38","0","8/2/2021 12:00:00 AM","2019","207641","NYTIMES-USCENSUS"
"8/3/2021 12:00:00 AM","Wood County","Wisconsin","Midwest","East North Central","55141","44.461413","-90.038825 ","7839","111","10","1","8/2/2021 12:00:00 AM","2019","72999","NYTIMES-USCENSUS"
"8/3/2021 12:00:00 AM","Wood County","Ohio","Midwest","East North Central","39173","41.360183","-83.622682 ","13411","201","8","0","8/2/2021 12:00:00 AM","2019","130817","NYTIMES-USCENSUS"
"8/3/2021 12:00:00 AM","Door County","Wisconsin","Midwest","East North Central","55029","45.093417","-87.048683 ","2878","37","7","0","8/2/2021 12:00:00 AM","2019","27668","NYTIMES-USCENSUS"
"8/3/2021 12:00:00 AM","Graves County","Kentucky","South","East South Central","21083","36.723344","-88.649897 ","4608","99","10","0","8/2/2021 12:00:00 AM","2019","37266","NYTIMES-USCENSUS"
"8/3/2021 12:00:00 AM","Taylor County","Texas","South","West South Central","48441","32.297126","-99.89043 ","16669","418","145","1","8/2/2021 12:00:00 AM","2019","138034","NYTIMES-USCENSUS"
"8/3/2021 12:00:00 AM","Calvert County","Maryland","South","South Atlantic","24009","38.522719","-76.529762 ","4338","86","0","0","8/2/2021 12:00:00 AM","2019","92525","NYTIMES-USCENSUS"
"8/3/2021 12:00:00 AM","Rockingham County","Virginia","South","South Atlantic","51165","38.507585","-78.885321 ","7062","114","4","1","8/2/2021 12:00:00 AM","2019","81948","NYTIMES-USCENSUS"
"8/3/2021 12:00:00 AM","Monroe County","West Virginia","South","South Atlantic","54063","37.554062","-80.550329 ","1245","18","0","0","8/2/2021 12:00:00 AM","2019","13275","NYTIMES-USCENSUS"
"8/3/2021 12:00:00 AM","Ness County","Kansas","Midwest","West North Central","20135","38.480437","-99.908745 ","383","16","0","0","8/2/2021 12:00:00 AM","2019","2750","NYTIMES-USCENSUS"
"8/3/2021 12:00:00 AM","Ochiltree County","Texas","South","West South Central","48357","36.278744","-100.815864 ","1234","27","2","0","8/2/2021 12:00:00 AM","2019","9836","NYTIMES-USCENSUS"
"8/3/2021 12:00:00 AM","Twin Falls County","Idaho","West","Mountain","16083","42.352309","-114.665639 ","10335","134","55","0","8/2/2021 12:00:00 AM","2019","86878","NYTIMES-USCENSUS"
"8/3/2021 12:00:00 AM","Prince Edward County","Virginia","South","South Atlantic","51147","37.224881","-78.432957 ","2209","36","1","0","8/2/2021 12:00:00 AM","2019","22802","NYTIMES-USCENSUS"
"8/3/2021 12:00:00 AM","Bolivar County","Mississippi","South","East South Central","28011","33.799139","-90.88412 ","5004","134","15","0","8/2/2021 12:00:00 AM","2019","30628","NYTIMES-USCENSUS"
"8/3/2021 12:00:00 AM","Lewis County","Idaho","West","Mountain","16061","46.236328","-116.42376 ","454","11","0","0","8/2/2021 12:00:00 AM","2019","3838","NYTIMES-USCENSUS"
"8/3/2021 12:00:00 AM","Henderson County","Texas","South","West South Central","48213","32.211633","-95.853418 ","6462","201","0","2","8/2/2021 12:00:00 AM","2019","82737","NYTIMES-USCENSUS"
"8/3/2021 12:00:00 AM","Zavala County","Texas","South","West South Central","48507","28.864652","-99.75983 ","1959","42","8","0","8/2/2021 12:00:00 AM","2019","11840","NYTIMES-USCENSUS"
"8/3/2021 12:00:00 AM","Bowie County","Texas","South","West South Central","48037","33.446065","-94.422393 ","8263","228","29","0","8/2/2021 12:00:00 AM","2019","93245","NYTIMES-USCENSUS"
"8/3/2021 12:00:00 AM","Howard County","Nebraska","Midwest","West North Central","31093","41.216851","-98.513342 ","594","10","0","0","8/2/2021 12:00:00 AM","2019","6445","NYTIMES-USCENSUS"
"8/3/2021 12:00:00 AM","Panola County","Texas","South","West South Central","48365","32.163978","-94.305156 ","2007","77","17","0","8/2/2021 12:00:00 AM","2019","23194","NYTIMES-USCENSUS"
"8/3/2021 12:00:00 AM","Lewis County","West Virginia","South","South Atlantic","54041","38.988877","-80.495477 ","1382","23","6","0","8/2/2021 12:00:00 AM","2019","15907","NYTIMES-USCENSUS"
"8/3/2021 12:00:00 AM","Taney County","Missouri","Midwest","West North Central","29213","36.649827","-93.042819 ","7647","112","31","6","8/2/2021 12:00:00 AM","2019","55928","NYTIMES-USCENSUS"
"8/3/2021 12:00:00 AM","Union County","Pennsylvania","Northeast","Middle Atlantic","42119","40.962179","-77.055475 ","6199","90","0","0","8/2/2021 12:00:00 AM","2019","44923","NYTIMES-USCENSUS"
"8/3/2021 12:00:00 AM","Burlington County","New Jersey","Northeast","Middle Atlantic","34005","39.875786","-74.663006 ","45378","887","67","1","8/2/2021 12:00:00 AM","2019","445349","NYTIMES-USCENSUS"
"8/3/2021 12:00:00 AM","Presque Isle County","Michigan","Midwest","East North Central","26141","45.252397","-83.432283 ","1066","34","3","0","8/2/2021 12:00:00 AM","2019","12592","NYTIMES-USCENSUS"
"8/3/2021 12:00:00 AM","Russell County","Virginia","South","South Atlantic","51167","36.93342","-82.095934 ","2337","40","1","0","8/2/2021 12:00:00 AM","2019","26586","NYTIMES-USCENSUS"
"8/3/2021 12:00:00 AM","Conecuh County","Alabama","South","East South Central","01035","31.430926","-86.988722 ","1221","32","0","0","8/2/2021 12:00:00 AM","2019","12067","NYTIMES-USCENSUS"
"8/3/2021 12:00:00 AM","Lincoln County","Mississippi","South","East South Central","28085","31.535216","-90.453566 ","4228","116","16","0","8/2/2021 12:00:00 AM","2019","34153","NYTIMES-USCENSUS"
"8/3/2021 12:00:00 AM","Santa Cruz County","California","West","Pacific","06087","37.012347","-122.007789 ","17631","207","37","0","8/2/2021 12:00:00 AM","2019","273213","NYTIMES-USCENSUS"
"8/3/2021 12:00:00 AM","Dallas County","Arkansas","South","West South Central","05039","33.967823","-92.653999 ","938","17","5","0","8/2/2021 12:00:00 AM","2019","7009","NYTIMES-USCENSUS"
"8/3/2021 12:00:00 AM","McDowell County","West Virginia","South","South Atlantic","54047","37.38276","-81.658204 ","1673","27","1","0","8/2/2021 12:00:00 AM","2019","17624","NYTIMES-USCENSUS"
"8/3/2021 12:00:00 AM","Chickasaw County","Mississippi","South","East South Central","28017","33.933277","-88.947558 ","2214","60","6","0","8/2/2021 12:00:00 AM","2019","17103","NYTIMES-USCENSUS"
"8/3/2021 12:00:00 AM","Hale County","Alabama","South","East South Central","01065","32.752796","-87.623061 ","2367","78","8","0","8/2/2021 12:00:00 AM","2019","14651","NYTIMES-USCENSUS"
"8/3/2021 12:00:00 AM","Bourbon County","Kansas","Midwest","West North Central","20011","37.8561","-94.850928 ","1728","29","0","0","8/2/2021 12:00:00 AM","2019","14534","NYTIMES-USCENSUS"
"8/3/2021 12:00:00 AM","Pennington County","South Dakota","Midwest","West North Central","46103","44.002349","-102.823801 ","14098","206","0","0","8/2/2021 12:00:00 AM","2019","113775","NYTIMES-USCENSUS"
"8/3/2021 12:00:00 AM","Bowman County","North Dakota","Midwest","West North Central","38011","46.110144","-103.505943 ","408","5","0","0","8/2/2021 12:00:00 AM","2019","3024","NYTIMES-USCENSUS"
"8/3/2021 12:00:00 AM","Taylor County","Florida","South","South Atlantic","12123","29.967146","-83.639573 ","2907","48","0","0","8/2/2021 12:00:00 AM","2019","21569","NYTIMES-USCENSUS"
"8/3/2021 12:00:00 AM","Mitchell County","Georgia","South","South Atlantic","13205","31.228997","-84.192038 ","2280","85","28","0","8/2/2021 12:00:00 AM","2019","21863","NYTIMES-USCENSUS"
"8/3/2021 12:00:00 AM","Douglas County","Washington","West","Pacific","53017","47.741763","-119.694622 ","3976","23","34","0","8/2/2021 12:00:00 AM","2019","43429","NYTIMES-USCENSUS"
"8/3/2021 12:00:00 AM","Willacy County","Texas","South","West South Central","48489","26.481861","-97.594731 ","3508","93","20","0","8/2/2021 12:00:00 AM","2019","21358","NYTIMES-USCENSUS"
"8/3/2021 12:00:00 AM","Grand Forks County","North Dakota","Midwest","West North Central","38035","47.926003","-97.450851 ","10778","79","8","0","8/2/2021 12:00:00 AM","2019","69451","NYTIMES-USCENSUS"
"8/3/2021 12:00:00 AM","Montmorency County","Michigan","Midwest","East North Central","26119","45.024134","-84.130107 ","632","20","5","0","8/2/2021 12:00:00 AM","2019","9328","NYTIMES-USCENSUS"
"8/3/2021 12:00:00 AM","Grant County","Washington","West","Pacific","53025","47.213633","-119.467788 ","11046","133","0","0","8/2/2021 12:00:00 AM","2019","97733","NYTIMES-USCENSUS"
"8/3/2021 12:00:00 AM","Newton County","Georgia","South","South Atlantic","13217","33.552751","-83.85136 ","11997","266","120","0","8/2/2021 12:00:00 AM","2019","111744","NYTIMES-USCENSUS"
"8/3/2021 12:00:00 AM","Plaquemines Parish","Louisiana","South","West South Central","22075","29.282447","-89.576068 ","2992","27","17","0","8/2/2021 12:00:00 AM","2019","23197","NYTIMES-USCENSUS"
"8/3/2021 12:00:00 AM","Union County","Mississippi","South","East South Central","28145","34.489533","-89.002339 ","4389","79","18","0","8/2/2021 12:00:00 AM","2019","28815","NYTIMES-USCENSUS"
"8/3/2021 12:00:00 AM","Vermilion County","Illinois","Midwest","East North Central","17183","40.186754","-87.726778 ","10383","171","34","0","8/2/2021 12:00:00 AM","2019","75758","NYTIMES-USCENSUS"
"8/3/2021 12:00:00 AM","Holmes County","Florida","South","South Atlantic","12059","30.862007","-85.815939 ","2447","49","0","0","8/2/2021 12:00:00 AM","2019","19617","NYTIMES-USCENSUS"
"8/3/2021 12:00:00 AM","Lincoln County","Wisconsin","Midwest","East North Central","55069","45.333148","-89.73224 ","3318","97","5","0","8/2/2021 12:00:00 AM","2019","27593","NYTIMES-USCENSUS"
"8/3/2021 12:00:00 AM","Crook County","Wyoming","West","Mountain","56011","44.589266","-104.567298 ","482","13","1","0","8/2/2021 12:00:00 AM","2019","7584","NYTIMES-USCENSUS"
"8/3/2021 12:00:00 AM","Avery County","North Carolina","South","South Atlantic","37011","36.07209","-81.920285 ","2197","21","1","0","8/2/2021 12:00:00 AM","2019","17557","NYTIMES-USCENSUS"
"8/3/2021 12:00:00 AM","Livingston Parish","Louisiana","South","West South Central","22063","30.440419","-90.727474 ","17813","228","137","3","8/2/2021 12:00:00 AM","2019","140789","NYTIMES-USCENSUS"
"8/3/2021 12:00:00 AM","Henderson County","North Carolina","South","South Atlantic","37089","35.336415","-82.479741 ","10788","165","14","0","8/2/2021 12:00:00 AM","2019","117417","NYTIMES-USCENSUS"
"8/3/2021 12:00:00 AM","Clatsop County","Oregon","West","Pacific","41007","46.024509","-123.705037 ","1233","10","18","0","8/2/2021 12:00:00 AM","2019","40224","NYTIMES-USCENSUS"
"8/3/2021 12:00:00 AM","Osceola County","Florida","South","South Atlantic","12097","28.059027","-81.139312 ","52011","529","0","0","8/2/2021 12:00:00 AM","2019","375751","NYTIMES-USCENSUS"
"8/3/2021 12:00:00 AM","Passaic County","New Jersey","Northeast","Middle Atlantic","34031","41.036655","-74.299408 ","74381","1948","66","0","8/2/2021 12:00:00 AM","2019","501826","NYTIMES-USCENSUS"
"8/3/2021 12:00:00 AM","Lincoln County","South Dakota","Midwest","West North Central","46083","43.27942","-96.722286 ","8751","78","0","0","8/2/2021 12:00:00 AM","2019","61128","NYTIMES-USCENSUS"
"8/3/2021 12:00:00 AM","Saratoga County","New York","Northeast","Middle Atlantic","36091","43.106135","-73.855387 ","15842","168","32","0","8/2/2021 12:00:00 AM","2019","229863","NYTIMES-USCENSUS"
"8/3/2021 12:00:00 AM","Carroll County","Iowa","Midwest","West North Central","19027","42.039502","-94.86765 ","2872","52","0","0","8/2/2021 12:00:00 AM","2019","20165","NYTIMES-USCENSUS"
"8/3/2021 12:00:00 AM","Oldham County","Texas","South","West South Central","48359","35.401921","-102.59762 ","297","4","2","0","8/2/2021 12:00:00 AM","2019","2112","NYTIMES-USCENSUS"
"8/3/2021 12:00:00 AM","Lake County","California","West","Pacific","06033","39.094802","-122.746757 ","4388","66","19","0","8/2/2021 12:00:00 AM","2019","64386","NYTIMES-USCENSUS"
"8/3/2021 12:00:00 AM","Wayne County","Nebraska","Midwest","West North Central","31179","42.210746","-97.126243 ","1178","7","0","0","8/2/2021 12:00:00 AM","2019","9385","NYTIMES-USCENSUS"
"8/3/2021 12:00:00 AM","Winston County","Mississippi","South","East South Central","28159","33.078724","-89.037391 ","2380","84","2","0","8/2/2021 12:00:00 AM","2019","17955","NYTIMES-USCENSUS"
"8/3/2021 12:00:00 AM","Hopkins County","Texas","South","West South Central","48223","33.148967","-95.565434 ","3796","114","10","0","8/2/2021 12:00:00 AM","2019","37084","NYTIMES-USCENSUS"
"8/3/2021 12:00:00 AM","Montour County","Pennsylvania","Northeast","Middle Atlantic","42093","41.029284","-76.665225 ","2027","67","10","0","8/2/2021 12:00:00 AM","2019","18230","NYTIMES-USCENSUS"
"8/3/2021 12:00:00 AM","Sevier County","Tennessee","South","East South Central","47155","35.787822","-83.5249 ","14203","179","37","0","8/2/2021 12:00:00 AM","2019","98250","NYTIMES-USCENSUS"
"8/3/2021 12:00:00 AM","Nassau County","Florida","South","South Atlantic","12089","30.605963","-81.765087 ","10715","127","0","0","8/2/2021 12:00:00 AM","2019","88625","NYTIMES-USCENSUS"
"8/3/2021 12:00:00 AM","Fulton County","Ohio","Midwest","East North Central","39051","41.597264","-84.124267 ","4432","75","14","0","8/2/2021 12:00:00 AM","2019","42126","NYTIMES-USCENSUS"
"8/3/2021 12:00:00 AM","Chatham County","North Carolina","South","South Atlantic","37037","35.704994","-79.251454 ","5013","89","33","0","8/2/2021 12:00:00 AM","2019","74470","NYTIMES-USCENSUS"
"8/3/2021 12:00:00 AM","Washington County","Vermont","Northeast","New England","50023","44.274969","-72.609444 ","1957","15","4","0","8/2/2021 12:00:00 AM","2019","58409","NYTIMES-USCENSUS"
"8/3/2021 12:00:00 AM","Alcona County","Michigan","Midwest","East North Central","26001","44.657509","-83.29458 ","747","33","2","0","8/2/2021 12:00:00 AM","2019","10405","NYTIMES-USCENSUS"
"8/3/2021 12:00:00 AM","Washita County","Oklahoma","South","West South Central","40149","35.289497","-98.991436 ","1119","23","0","0","8/2/2021 12:00:00 AM","2019","10916","NYTIMES-USCENSUS"
"8/3/2021 12:00:00 AM","Hamlin County","South Dakota","Midwest","West North Central","46057","44.680619","-97.178598 ","803","39","0","0","8/2/2021 12:00:00 AM","2019","6164","NYTIMES-USCENSUS"
"8/3/2021 12:00:00 AM","Brookings County","South Dakota","Midwest","West North Central","46011","44.376675","-96.797797 ","4250","37","0","0","8/2/2021 12:00:00 AM","2019","35077","NYTIMES-USCENSUS"
"8/3/2021 12:00:00 AM","Curry County","Oregon","West","Pacific","41015","42.466439","-124.210929 ","856","12","32","0","8/2/2021 12:00:00 AM","2019","22925","NYTIMES-USCENSUS"
"8/3/2021 12:00:00 AM","Lampasas County","Texas","South","West South Central","48281","31.196731","-98.240889 ","2432","36","10","0","8/2/2021 12:00:00 AM","2019","21428","NYTIMES-USCENSUS"
"8/3/2021 12:00:00 AM","Tom Green County","Texas","South","West South Central","48451","31.398823","-100.463788 ","18227","275","103","0","8/2/2021 12:00:00 AM","2019","119200","NYTIMES-USCENSUS"
"8/3/2021 12:00:00 AM","Washington County","Wisconsin","Midwest","East North Central","55131","43.391156","-88.232917 ","17221","203","38","0","8/2/2021 12:00:00 AM","2019","136034","NYTIMES-USCENSUS"
"8/3/2021 12:00:00 AM","Chisago County","Minnesota","Midwest","West North Central","27025","45.505444","-92.903849 ","6318","55","14","0","8/2/2021 12:00:00 AM","2019","56579","NYTIMES-USCENSUS"
"8/3/2021 12:00:00 AM","Union Parish","Louisiana","South","West South Central","22111","32.829349","-92.37565 ","2791","85","33","0","8/2/2021 12:00:00 AM","2019","22108","NYTIMES-USCENSUS"
"8/3/2021 12:00:00 AM","Bell County","Kentucky","South","East South Central","21013","36.728928","-83.680718 ","3316","58","13","0","8/2/2021 12:00:00 AM","2019","26032","NYTIMES-USCENSUS"
"8/3/2021 12:00:00 AM","Orange County","New York","Northeast","Middle Atlantic","36071","41.40241","-74.306252 ","49196","725","41","0","8/2/2021 12:00:00 AM","2019","384940","NYTIMES-USCENSUS"
"8/3/2021 12:00:00 AM","Hood County","Texas","South","West South Central","48221","32.430149","-97.831677 ","7203","139","199","0","8/2/2021 12:00:00 AM","2019","61643","NYTIMES-USCENSUS"
"8/3/2021 12:00:00 AM","Bristol County","Massachusetts","Northeast","New England","25005","41.748588","-71.088894 ","68230","1752","118","-1","8/2/2021 12:00:00 AM","2019","565217","NYTIMES-USCENSUS"
"8/3/2021 12:00:00 AM","Talbot County","Maryland","South","South Atlantic","24041","38.748349","-76.178476 ","2218","45","0","0","8/2/2021 12:00:00 AM","2019","37181","NYTIMES-USCENSUS"
"8/3/2021 12:00:00 AM","Scotland County","North Carolina","South","South Atlantic","37165","34.840023","-79.477337 ","4144","89","11","0","8/2/2021 12:00:00 AM","2019","34823","NYTIMES-USCENSUS"
"8/3/2021 12:00:00 AM","Divide County","North Dakota","Midwest","West North Central","38023","48.814754","-103.509326 ","191","2","0","0","8/2/2021 12:00:00 AM","2019","2264","NYTIMES-USCENSUS"
"8/3/2021 12:00:00 AM","Somerset County","Maryland","South","South Atlantic","24039","38.07445","-75.853323 ","2646","42","2","0","8/2/2021 12:00:00 AM","2019","25616","NYTIMES-USCENSUS"
"8/3/2021 12:00:00 AM","Fauquier County","Virginia","South","South Atlantic","51061","38.744096","-77.8215 ","4946","70","18","0","8/2/2021 12:00:00 AM","2019","71222","NYTIMES-USCENSUS"
"8/3/2021 12:00:00 AM","De Baca County","New Mexico","West","Mountain","35011","34.359273","-104.368696 ","185","2","6","0","8/2/2021 12:00:00 AM","2019","1748","NYTIMES-USCENSUS"
"8/3/2021 12:00:00 AM","Lewis County","Missouri","Midwest","West North Central","29111","40.084559","-91.728803 ","1190","21","10","0","8/2/2021 12:00:00 AM","2019","9776","NYTIMES-USCENSUS"
"8/3/2021 12:00:00 AM","Oktibbeha County","Mississippi","South","East South Central","28105","33.422313","-88.876151 ","5031","98","22","0","8/2/2021 12:00:00 AM","2019","49587","NYTIMES-USCENSUS"
"8/3/2021 12:00:00 AM","Geauga County","Ohio","Midwest","East North Central","39055","41.499322","-81.173505 ","7032","153","13","0","8/2/2021 12:00:00 AM","2019","93649","NYTIMES-USCENSUS"
"8/3/2021 12:00:00 AM","Walton County","Florida","South","South Atlantic","12131","30.571247","-86.162798 ","7801","89","0","0","8/2/2021 12:00:00 AM","2019","74071","NYTIMES-USCENSUS"
"8/3/2021 12:00:00 AM","Ingham County","Michigan","Midwest","East North Central","26065","42.603534","-84.373811 ","25337","396","108","2","8/2/2021 12:00:00 AM","2019","292406","NYTIMES-USCENSUS"
"8/3/2021 12:00:00 AM","York County","Virginia","South","South Atlantic","51199","37.220914","-76.395533 ","3971","59","12","0","8/2/2021 12:00:00 AM","2019","68280","NYTIMES-USCENSUS"
"8/3/2021 12:00:00 AM","Hempstead County","Arkansas","South","West South Central","05057","33.735953","-93.664355 ","2227","20","13","0","8/2/2021 12:00:00 AM","2019","21532","NYTIMES-USCENSUS"
"8/3/2021 12:00:00 AM","Bristol County","Rhode Island","Northeast","New England","44001","41.70684","-71.286687 ","5236","146","0","0","8/2/2021 12:00:00 AM","2019","48479","NYTIMES-USCENSUS"
"8/3/2021 12:00:00 AM","Bannock County","Idaho","West","Mountain","16005","42.692921","-112.228982 ","9109","115","29","1","8/2/2021 12:00:00 AM","2019","87808","NYTIMES-USCENSUS"
"8/3/2021 12:00:00 AM","Sevier County","Utah","West","Mountain","49041","38.746824","-111.81193 ","2368","15","1","0","8/2/2021 12:00:00 AM","2019","21620","NYTIMES-USCENSUS"
"8/3/2021 12:00:00 AM","Luna County","New Mexico","West","Mountain","35029","32.184523","-107.747191 ","3441","92","2","0","8/2/2021 12:00:00 AM","2019","23709","NYTIMES-USCENSUS"
"8/3/2021 12:00:00 AM","Darlington County","South Carolina","South","South Atlantic","45031","34.332185","-79.962115 ","8871","183","10","0","8/2/2021 12:00:00 AM","2019","66618","NYTIMES-USCENSUS"
"8/3/2021 12:00:00 AM","Union County","North Carolina","South","South Atlantic","37179","34.99182","-80.530426 ","26068","229","45","1","8/2/2021 12:00:00 AM","2019","239859","NYTIMES-USCENSUS"
"8/3/2021 12:00:00 AM","McIntosh County","Georgia","South","South Atlantic","13191","31.485629","-81.372141 ","913","16","8","0","8/2/2021 12:00:00 AM","2019","14378","NYTIMES-USCENSUS"
"8/3/2021 12:00:00 AM","Collingsworth County","Texas","South","West South Central","48087","34.963358","-100.272135 ","336","9","0","0","8/2/2021 12:00:00 AM","2019","2920","NYTIMES-USCENSUS"
"8/3/2021 12:00:00 AM","Howard County","Missouri","Midwest","West North Central","29089","39.143365","-92.695926 ","1164","9","3","0","8/2/2021 12:00:00 AM","2019","10001","NYTIMES-USCENSUS"
"8/3/2021 12:00:00 AM","Taylor County","Wisconsin","Midwest","East North Central","55119","45.211656","-90.504853 ","2154","40","1","0","8/2/2021 12:00:00 AM","2019","20343","NYTIMES-USCENSUS"
"8/3/2021 12:00:00 AM","Toombs County","Georgia","South","South Atlantic","13279","32.117753","-82.330597 ","3810","121","66","0","8/2/2021 12:00:00 AM","2019","26830","NYTIMES-USCENSUS"
"8/3/2021 12:00:00 AM","Morgan County","Utah","West","Mountain","49029","41.091027","-111.577885 ","1387","11","1","0","8/2/2021 12:00:00 AM","2019","12124","NYTIMES-USCENSUS"
"8/3/2021 12:00:00 AM","Hancock County","Tennessee","South","East South Central","47067","36.521353","-83.227493 ","651","13","1","0","8/2/2021 12:00:00 AM","2019","6620","NYTIMES-USCENSUS"
"8/3/2021 12:00:00 AM","Brown County","Kansas","Midwest","West North Central","20013","39.825931","-95.569905 ","1294","39","0","0","8/2/2021 12:00:00 AM","2019","9564","NYTIMES-USCENSUS"
"8/3/2021 12:00:00 AM","Gates County","North Carolina","South","South Atlantic","37073","36.442135","-76.702355 ","764","13","0","0","8/2/2021 12:00:00 AM","2019","11562","NYTIMES-USCENSUS"
"8/3/2021 12:00:00 AM","Buena Vista city","Virginia","South","South Atlantic","51530","37.729345","-79.358134 ","938","22","0","0","8/2/2021 12:00:00 AM","2019","6478","NYTIMES-USCENSUS"
"8/3/2021 12:00:00 AM","Pushmataha County","Oklahoma","South","West South Central","40127","34.377899","-95.408082 ","1129","22","0","0","8/2/2021 12:00:00 AM","2019","11096","NYTIMES-USCENSUS"
"8/3/2021 12:00:00 AM","Pike County","Ohio","Midwest","East North Central","39131","39.071341","-83.052911 ","2471","37","3","0","8/2/2021 12:00:00 AM","2019","27772","NYTIMES-USCENSUS"
"8/3/2021 12:00:00 AM","Schuyler County","Missouri","Midwest","West North Central","29197","40.469361","-92.519016 ","366","7","0","0","8/2/2021 12:00:00 AM","2019","4660","NYTIMES-USCENSUS"
"8/3/2021 12:00:00 AM","Webster County","Missouri","Midwest","West North Central","29225","37.280804","-92.87608 ","4872","67","10","1","8/2/2021 12:00:00 AM","2019","39592","NYTIMES-USCENSUS"
"8/3/2021 12:00:00 AM","Cleveland County","Oklahoma","South","West South Central","40027","35.206376","-97.323088 ","32212","446","0","0","8/2/2021 12:00:00 AM","2019","284014","NYTIMES-USCENSUS"
"8/3/2021 12:00:00 AM","Rush County","Indiana","Midwest","East North Central","18139","39.622362","-85.466529 ","1861","27","2","0","8/2/2021 12:00:00 AM","2019","16581","NYTIMES-USCENSUS"
"8/3/2021 12:00:00 AM","Bradley County","Tennessee","South","East South Central","47011","35.153914","-84.859414 ","15767","157","44","1","8/2/2021 12:00:00 AM","2019","108110","NYTIMES-USCENSUS"
