"monitor_date","county","state_name","region","subregion","fips","latitude","longitude","case_count_to_date","death_count_to_date","case_count","death_count","previous_monitor_date","population_year","population","source"
"1/11/2022 12:00:00 AM","Belknap County","New Hampshire","Northeast","New England","33001","43.519109","-71.425366 ","10170","149","85","0","1/10/2022 12:00:00 AM","2019","61303","NYTIMES-USCENSUS"
"1/11/2022 12:00:00 AM","Sheboygan County","Wisconsin","Midwest","East North Central","55117","43.741232","-87.731516 ","25784","209","263","2","1/10/2022 12:00:00 AM","2019","115340","NYTIMES-USCENSUS"
"1/11/2022 12:00:00 AM","Bamberg County","South Carolina","South","South Atlantic","45009","33.203021","-81.053161 ","2561","64","25","0","1/10/2022 12:00:00 AM","2019","14066","NYTIMES-USCENSUS"
"1/11/2022 12:00:00 AM","Forsyth County","Georgia","South","South Atlantic","13117","34.225143","-84.127408 ","44335","308","627","1","1/10/2022 12:00:00 AM","2019","244252","NYTIMES-USCENSUS"
"1/11/2022 12:00:00 AM","Webb County","Texas","South","West South Central","48479","27.760799","-99.340752 ","65967","990","496","1","1/10/2022 12:00:00 AM","2019","276652","NYTIMES-USCENSUS"
"1/11/2022 12:00:00 AM","St. Francis County","Arkansas","South","West South Central","05123","35.022838","-90.751506 ","5781","74","70","0","1/10/2022 12:00:00 AM","2019","24994","NYTIMES-USCENSUS"
"1/11/2022 12:00:00 AM","Mercer County","New Jersey","Northeast","Middle Atlantic","34021","40.282503","-74.703724 ","63104","1097","1092","7","1/10/2022 12:00:00 AM","2019","367430","NYTIMES-USCENSUS"
"1/11/2022 12:00:00 AM","Charleston County","South Carolina","South","South Atlantic","45019","32.800458","-79.94248 ","84332","766","724","0","1/10/2022 12:00:00 AM","2019","411406","NYTIMES-USCENSUS"
"1/11/2022 12:00:00 AM","Lincoln County","New Mexico","West","Mountain","35027","33.740841","-105.449805 ","3949","50","11","0","1/10/2022 12:00:00 AM","2019","19572","NYTIMES-USCENSUS"
"1/11/2022 12:00:00 AM","Yankton County","South Dakota","Midwest","West North Central","46135","43.006603","-97.388361 ","4808","46","66","0","1/10/2022 12:00:00 AM","2019","22814","NYTIMES-USCENSUS"
"1/11/2022 12:00:00 AM","Ashland County","Wisconsin","Midwest","East North Central","55003","46.544424","-90.679691 ","2553","28","33","0","1/10/2022 12:00:00 AM","2019","15562","NYTIMES-USCENSUS"
"1/11/2022 12:00:00 AM","Le Flore County","Oklahoma","South","West South Central","40079","34.897356","-94.695074 ","8883","94","0","0","1/10/2022 12:00:00 AM","2019","49853","NYTIMES-USCENSUS"
"1/11/2022 12:00:00 AM","Bedford County","Virginia","South","South Atlantic","51019","37.312257","-79.527223 ","12485","177","97","0","1/10/2022 12:00:00 AM","2019","78997","NYTIMES-USCENSUS"
"1/11/2022 12:00:00 AM","Beltrami County","Minnesota","Midwest","West North Central","27007","47.879508","-95.00505 ","9188","111","126","0","1/10/2022 12:00:00 AM","2019","47188","NYTIMES-USCENSUS"
"1/11/2022 12:00:00 AM","Josephine County","Oregon","West","Pacific","41033","42.386983","-123.57162 ","11771","279","75","3","1/10/2022 12:00:00 AM","2019","87487","NYTIMES-USCENSUS"
"1/11/2022 12:00:00 AM","Powhatan County","Virginia","South","South Atlantic","51145","37.549404","-77.912855 ","3846","32","50","1","1/10/2022 12:00:00 AM","2019","29652","NYTIMES-USCENSUS"
"1/11/2022 12:00:00 AM","McDonough County","Illinois","Midwest","East North Central","17109","40.455808","-90.678954 ","5241","86","34","0","1/10/2022 12:00:00 AM","2019","29682","NYTIMES-USCENSUS"
"1/11/2022 12:00:00 AM","Posey County","Indiana","Midwest","East North Central","18129","38.027614","-87.868653 ","4874","46","38","0","1/10/2022 12:00:00 AM","2019","25427","NYTIMES-USCENSUS"
"1/11/2022 12:00:00 AM","Herkimer County","New York","Northeast","Middle Atlantic","36043","43.571009","-74.841097 ","11280","164","60","1","1/10/2022 12:00:00 AM","2019","61319","NYTIMES-USCENSUS"
"1/11/2022 12:00:00 AM","Nottoway County","Virginia","South","South Atlantic","51135","37.141167","-78.053866 ","3170","72","13","0","1/10/2022 12:00:00 AM","2019","15232","NYTIMES-USCENSUS"
"1/11/2022 12:00:00 AM","Pasquotank County","North Carolina","South","South Atlantic","37139","36.265199","-76.260691 ","6422","111","40","0","1/10/2022 12:00:00 AM","2019","39824","NYTIMES-USCENSUS"
"1/11/2022 12:00:00 AM","Pinellas County","Florida","South","South Atlantic","12103","27.905342","-82.798066 ","157061","2780","0","0","1/10/2022 12:00:00 AM","2019","974996","NYTIMES-USCENSUS"
"1/11/2022 12:00:00 AM","Kootenai County","Idaho","West","Mountain","16055","47.675957","-116.695919 ","33289","499","160","0","1/10/2022 12:00:00 AM","2019","165697","NYTIMES-USCENSUS"
"1/11/2022 12:00:00 AM","Niobrara County","Wyoming","West","Mountain","56027","43.062159","-104.468373 ","513","8","3","0","1/10/2022 12:00:00 AM","2019","2356","NYTIMES-USCENSUS"
"1/11/2022 12:00:00 AM","Klickitat County","Washington","West","Pacific","53039","45.870446","-120.779305 ","2481","35","19","0","1/10/2022 12:00:00 AM","2019","22425","NYTIMES-USCENSUS"
"1/11/2022 12:00:00 AM","Worcester County","Maryland","South","South Atlantic","24047","38.222133","-75.309931 ","6861","133","51","1","1/10/2022 12:00:00 AM","2019","52276","NYTIMES-USCENSUS"
"1/11/2022 12:00:00 AM","Columbia County","Florida","South","South Atlantic","12023","30.221651","-82.623371 ","15973","320","0","0","1/10/2022 12:00:00 AM","2019","71686","NYTIMES-USCENSUS"
"1/11/2022 12:00:00 AM","Baldwin County","Georgia","South","South Atlantic","13009","33.05949","-83.255457 ","7980","204","105","0","1/10/2022 12:00:00 AM","2019","44890","NYTIMES-USCENSUS"
"1/11/2022 12:00:00 AM","Des Moines County","Iowa","Midwest","West North Central","19057","40.915339","-91.186925 ","7606","115","0","0","1/10/2022 12:00:00 AM","2019","38967","NYTIMES-USCENSUS"
"1/11/2022 12:00:00 AM","Steele County","North Dakota","Midwest","West North Central","38091","47.451062","-97.71892 ","313","2","4","0","1/10/2022 12:00:00 AM","2019","1890","NYTIMES-USCENSUS"
"1/11/2022 12:00:00 AM","Prince William County","Virginia","South","South Atlantic","51153","38.701119","-77.479579 ","79407","617","1348","1","1/10/2022 12:00:00 AM","2019","470335","NYTIMES-USCENSUS"
"1/11/2022 12:00:00 AM","Wasco County","Oregon","West","Pacific","41065","45.164536","-121.165069 ","3531","49","63","0","1/10/2022 12:00:00 AM","2019","26682","NYTIMES-USCENSUS"
"1/11/2022 12:00:00 AM","Fayette County","Illinois","Midwest","East North Central","17051","39.001125","-89.017923 ","5588","80","64","0","1/10/2022 12:00:00 AM","2019","21336","NYTIMES-USCENSUS"
"1/11/2022 12:00:00 AM","Ben Hill County","Georgia","South","South Atlantic","13017","31.740772","-83.147197 ","3530","112","52","0","1/10/2022 12:00:00 AM","2019","16700","NYTIMES-USCENSUS"
"1/11/2022 12:00:00 AM","Winkler County","Texas","South","West South Central","48495","31.832862","-103.054925 ","1466","32","3","0","1/10/2022 12:00:00 AM","2019","8010","NYTIMES-USCENSUS"
"1/11/2022 12:00:00 AM","Washington County","North Carolina","South","South Atlantic","37187","35.844713","-76.572291 ","2095","39","33","0","1/10/2022 12:00:00 AM","2019","11580","NYTIMES-USCENSUS"
"1/11/2022 12:00:00 AM","Washington County","Vermont","Northeast","New England","50023","44.274969","-72.609444 ","6024","36","0","0","1/10/2022 12:00:00 AM","2019","58409","NYTIMES-USCENSUS"
"1/11/2022 12:00:00 AM","Webster County","Iowa","Midwest","West North Central","19187","42.433579","-94.175831 ","8467","132","0","0","1/10/2022 12:00:00 AM","2019","35904","NYTIMES-USCENSUS"
"1/11/2022 12:00:00 AM","Llano County","Texas","South","West South Central","48299","30.707584","-98.68469 ","2994","86","15","0","1/10/2022 12:00:00 AM","2019","21795","NYTIMES-USCENSUS"
"1/11/2022 12:00:00 AM","Washington County","Missouri","Midwest","West North Central","29221","37.942611","-90.897018 ","4715","111","34","5","1/10/2022 12:00:00 AM","2019","24730","NYTIMES-USCENSUS"
"1/11/2022 12:00:00 AM","Rooks County","Kansas","Midwest","West North Central","20163","39.346006","-99.324492 ","1061","17","0","0","1/10/2022 12:00:00 AM","2019","4920","NYTIMES-USCENSUS"
"1/11/2022 12:00:00 AM","Haralson County","Georgia","South","South Atlantic","13143","33.795165","-85.220063 ","4556","135","61","1","1/10/2022 12:00:00 AM","2019","29792","NYTIMES-USCENSUS"
"1/11/2022 12:00:00 AM","Highlands County","Florida","South","South Atlantic","12055","27.34108","-81.342353 ","17923","570","0","0","1/10/2022 12:00:00 AM","2019","106221","NYTIMES-USCENSUS"
"1/11/2022 12:00:00 AM","Hancock County","Maine","Northeast","New England","23009","44.564906","-68.370703 ","4681","67","75","1","1/10/2022 12:00:00 AM","2019","54987","NYTIMES-USCENSUS"
"1/11/2022 12:00:00 AM","Elliott County","Kentucky","South","East South Central","21063","38.116883","-83.096116 ","1522","14","7","0","1/10/2022 12:00:00 AM","2019","7517","NYTIMES-USCENSUS"
"1/11/2022 12:00:00 AM","Adams County","Mississippi","South","East South Central","28001","31.486224","-91.351797 ","5401","125","46","0","1/10/2022 12:00:00 AM","2019","30693","NYTIMES-USCENSUS"
"1/11/2022 12:00:00 AM","Henry County","Indiana","Midwest","East North Central","18065","39.929591","-85.397363 ","10784","196","82","1","1/10/2022 12:00:00 AM","2019","47972","NYTIMES-USCENSUS"
"1/11/2022 12:00:00 AM","Nash County","North Carolina","South","South Atlantic","37127","35.965945","-77.987555 ","20267","249","224","0","1/10/2022 12:00:00 AM","2019","94298","NYTIMES-USCENSUS"
"1/11/2022 12:00:00 AM","Lyon County","Kentucky","South","East South Central","21143","37.023976","-88.083391 ","2166","31","15","0","1/10/2022 12:00:00 AM","2019","8210","NYTIMES-USCENSUS"
"1/11/2022 12:00:00 AM","Schley County","Georgia","South","South Atlantic","13249","32.263444","-84.322708 ","840","8","22","0","1/10/2022 12:00:00 AM","2019","5257","NYTIMES-USCENSUS"
"1/11/2022 12:00:00 AM","Yolo County","California","West","Pacific","06113","38.679609","-121.90275 ","27711","270","433","0","1/10/2022 12:00:00 AM","2019","220500","NYTIMES-USCENSUS"
"1/11/2022 12:00:00 AM","McLennan County","Texas","South","West South Central","48309","31.549596","-97.201511 ","48506","782","444","3","1/10/2022 12:00:00 AM","2019","256623","NYTIMES-USCENSUS"
"1/11/2022 12:00:00 AM","Cedar County","Nebraska","Midwest","West North Central","31027","42.60456","-97.25687 ","1195","11","17","0","1/10/2022 12:00:00 AM","2019","8402","NYTIMES-USCENSUS"
"1/11/2022 12:00:00 AM","Benton County","Tennessee","South","East South Central","47005","36.070948","-88.071232 ","3196","80","0","0","1/10/2022 12:00:00 AM","2019","16160","NYTIMES-USCENSUS"
"1/11/2022 12:00:00 AM","Escambia County","Florida","South","South Atlantic","12033","30.529998","-87.320322 ","60828","1110","0","0","1/10/2022 12:00:00 AM","2019","318316","NYTIMES-USCENSUS"
"1/11/2022 12:00:00 AM","Gwinnett County","Georgia","South","South Atlantic","13135","33.958756","-84.025735 ","172420","1593","1804","2","1/10/2022 12:00:00 AM","2019","936250","NYTIMES-USCENSUS"
"1/11/2022 12:00:00 AM","Wyoming County","Pennsylvania","Northeast","Middle Atlantic","42131","41.525173","-76.008731 ","4192","92","22","0","1/10/2022 12:00:00 AM","2019","26794","NYTIMES-USCENSUS"
"1/11/2022 12:00:00 AM","Union Parish","Louisiana","South","West South Central","22111","32.829349","-92.37565 ","5028","114","80","0","1/10/2022 12:00:00 AM","2019","22108","NYTIMES-USCENSUS"
"1/11/2022 12:00:00 AM","Wilcox County","Alabama","South","East South Central","01131","31.990082","-87.304935 ","2032","38","13","0","1/10/2022 12:00:00 AM","2019","10373","NYTIMES-USCENSUS"
"1/11/2022 12:00:00 AM","Walton County","Florida","South","South Atlantic","12131","30.571247","-86.162798 ","13037","174","0","0","1/10/2022 12:00:00 AM","2019","74071","NYTIMES-USCENSUS"
"1/11/2022 12:00:00 AM","Griggs County","North Dakota","Midwest","West North Central","38039","47.456334","-98.232286 ","489","2","7","0","1/10/2022 12:00:00 AM","2019","2231","NYTIMES-USCENSUS"
"1/11/2022 12:00:00 AM","Wilson County","North Carolina","South","South Atlantic","37195","35.700357","-77.921598 ","16296","244","219","0","1/10/2022 12:00:00 AM","2019","81801","NYTIMES-USCENSUS"
"1/11/2022 12:00:00 AM","Oxford County","Maine","Northeast","New England","23017","44.4945","-70.734421 ","7920","112","73","1","1/10/2022 12:00:00 AM","2019","57975","NYTIMES-USCENSUS"
"1/11/2022 12:00:00 AM","Chatham County","North Carolina","South","South Atlantic","37037","35.704994","-79.251454 ","8882","99","45","0","1/10/2022 12:00:00 AM","2019","74470","NYTIMES-USCENSUS"
"1/11/2022 12:00:00 AM","Fleming County","Kentucky","South","East South Central","21069","38.367848","-83.699205 ","2722","44","13","0","1/10/2022 12:00:00 AM","2019","14581","NYTIMES-USCENSUS"
"1/11/2022 12:00:00 AM","Fayette County","Indiana","Midwest","East North Central","18041","39.639655","-85.185032 ","5559","121","18","1","1/10/2022 12:00:00 AM","2019","23102","NYTIMES-USCENSUS"
"1/11/2022 12:00:00 AM","Kent County","Delaware","South","South Atlantic","10001","39.097088","-75.502982 ","39333","512","362","0","1/10/2022 12:00:00 AM","2019","180786","NYTIMES-USCENSUS"
"1/11/2022 12:00:00 AM","Danville city","Virginia","South","South Atlantic","51590","36.583334","-79.408071 ","8072","212","35","0","1/10/2022 12:00:00 AM","2019","40044","NYTIMES-USCENSUS"
"1/11/2022 12:00:00 AM","Bexar County","Texas","South","West South Central","48029","29.448671","-98.520147 ","387060","5389","4977","8","1/10/2022 12:00:00 AM","2019","2003554","NYTIMES-USCENSUS"
"1/11/2022 12:00:00 AM","Franklin County","Georgia","South","South Atlantic","13119","34.375266","-83.227532 ","4500","85","50","0","1/10/2022 12:00:00 AM","2019","23349","NYTIMES-USCENSUS"
"1/11/2022 12:00:00 AM","Douglas County","Illinois","Midwest","East North Central","17041","39.766078","-88.222866 ","4718","49","52","0","1/10/2022 12:00:00 AM","2019","19465","NYTIMES-USCENSUS"
"1/11/2022 12:00:00 AM","Limestone County","Alabama","South","East South Central","01083","34.810239","-86.981399 ","18803","231","159","0","1/10/2022 12:00:00 AM","2019","98915","NYTIMES-USCENSUS"
"1/11/2022 12:00:00 AM","Hale County","Texas","South","West South Central","48189","34.068436","-101.822888 ","8847","212","21","3","1/10/2022 12:00:00 AM","2019","33406","NYTIMES-USCENSUS"
"1/11/2022 12:00:00 AM","Jasper County","South Carolina","South","South Atlantic","45053","32.43059","-81.021627 ","4581","82","49","0","1/10/2022 12:00:00 AM","2019","30073","NYTIMES-USCENSUS"
"1/11/2022 12:00:00 AM","Columbia County","Wisconsin","Midwest","East North Central","55021","43.471882","-89.330472 ","11477","105","110","2","1/10/2022 12:00:00 AM","2019","57532","NYTIMES-USCENSUS"
"1/11/2022 12:00:00 AM","Lyman County","South Dakota","Midwest","West North Central","46085","43.894812","-99.841925 ","1026","12","19","0","1/10/2022 12:00:00 AM","2019","3781","NYTIMES-USCENSUS"
"1/11/2022 12:00:00 AM","Emanuel County","Georgia","South","South Atlantic","13107","32.5911","-82.299763 ","4916","144","76","0","1/10/2022 12:00:00 AM","2019","22646","NYTIMES-USCENSUS"
"1/11/2022 12:00:00 AM","McIntosh County","Georgia","South","South Atlantic","13191","31.485629","-81.372141 ","1935","33","19","0","1/10/2022 12:00:00 AM","2019","14378","NYTIMES-USCENSUS"
"1/11/2022 12:00:00 AM","DuPage County","Illinois","Midwest","East North Central","17043","41.852058","-88.086039 ","167764","1566","2075","2","1/10/2022 12:00:00 AM","2019","922921","NYTIMES-USCENSUS"
"1/11/2022 12:00:00 AM","DeKalb County","Georgia","South","South Atlantic","13089","33.770661","-84.226343 ","121580","1419","1228","2","1/10/2022 12:00:00 AM","2019","759297","NYTIMES-USCENSUS"
"1/11/2022 12:00:00 AM","Archuleta County","Colorado","West","Mountain","08007","37.202395","-107.050863 ","2264","9","32","-1","1/10/2022 12:00:00 AM","2019","14029","NYTIMES-USCENSUS"
"1/11/2022 12:00:00 AM","McIntosh County","North Dakota","Midwest","West North Central","38051","46.108682","-99.416487 ","558","9","2","0","1/10/2022 12:00:00 AM","2019","2497","NYTIMES-USCENSUS"
"1/11/2022 12:00:00 AM","Monroe County","Indiana","Midwest","East North Central","18105","39.160729","-86.52331 ","20413","242","239","1","1/10/2022 12:00:00 AM","2019","148431","NYTIMES-USCENSUS"
"1/11/2022 12:00:00 AM","Frederick County","Maryland","South","South Atlantic","24021","39.470177","-77.397636 ","37461","433","469","5","1/10/2022 12:00:00 AM","2019","259547","NYTIMES-USCENSUS"
"1/11/2022 12:00:00 AM","Yalobusha County","Mississippi","South","East South Central","28161","34.030666","-89.703807 ","3011","48","17","0","1/10/2022 12:00:00 AM","2019","12108","NYTIMES-USCENSUS"
"1/11/2022 12:00:00 AM","Randolph County","Illinois","Midwest","East North Central","17157","38.056515","-89.82121 ","7133","115","147","0","1/10/2022 12:00:00 AM","2019","31782","NYTIMES-USCENSUS"
"1/11/2022 12:00:00 AM","Dewey County","South Dakota","Midwest","West North Central","46041","45.148049","-100.837953 ","2279","35","4","0","1/10/2022 12:00:00 AM","2019","5892","NYTIMES-USCENSUS"
"1/11/2022 12:00:00 AM","Boyd County","Kentucky","South","East South Central","21019","38.360003","-82.681406 ","11230","135","68","0","1/10/2022 12:00:00 AM","2019","46718","NYTIMES-USCENSUS"
"1/11/2022 12:00:00 AM","Thurston County","Nebraska","Midwest","West North Central","31173","42.154061","-96.533943 ","1205","11","4","0","1/10/2022 12:00:00 AM","2019","7224","NYTIMES-USCENSUS"
"1/11/2022 12:00:00 AM","Decatur County","Indiana","Midwest","East North Central","18031","39.30598","-85.499831 ","5560","124","21","0","1/10/2022 12:00:00 AM","2019","26559","NYTIMES-USCENSUS"
"1/11/2022 12:00:00 AM","Wayne County","Georgia","South","South Atlantic","13305","31.547845","-81.912376 ","6274","181","42","0","1/10/2022 12:00:00 AM","2019","29927","NYTIMES-USCENSUS"
"1/11/2022 12:00:00 AM","DeSoto County","Florida","South","South Atlantic","12027","27.190581","-81.806253 ","7324","138","0","0","1/10/2022 12:00:00 AM","2019","38001","NYTIMES-USCENSUS"
"1/11/2022 12:00:00 AM","Dawes County","Nebraska","Midwest","West North Central","31045","42.713038","-103.135436 ","1190","21","2","0","1/10/2022 12:00:00 AM","2019","8589","NYTIMES-USCENSUS"
"1/11/2022 12:00:00 AM","Tioga County","Pennsylvania","Northeast","Middle Atlantic","42117","41.766859","-77.257288 ","6635","174","56","1","1/10/2022 12:00:00 AM","2019","40591","NYTIMES-USCENSUS"
"1/11/2022 12:00:00 AM","Nelson County","North Dakota","Midwest","West North Central","38063","47.918667","-98.204428 ","627","16","0","0","1/10/2022 12:00:00 AM","2019","2879","NYTIMES-USCENSUS"
"1/11/2022 12:00:00 AM","Mono County","California","West","Pacific","06051","37.915836","-118.875167 ","2448","4","25","0","1/10/2022 12:00:00 AM","2019","14444","NYTIMES-USCENSUS"
"1/11/2022 12:00:00 AM","Orleans County","New York","Northeast","Middle Atlantic","36073","43.339906","-78.207028 ","7159","104","49","0","1/10/2022 12:00:00 AM","2019","40352","NYTIMES-USCENSUS"
"1/11/2022 12:00:00 AM","Jefferson County","Colorado","West","Mountain","08059","39.579511","-105.245462 ","95851","1131","2022","6","1/10/2022 12:00:00 AM","2019","582881","NYTIMES-USCENSUS"
"1/11/2022 12:00:00 AM","Oglala Lakota County","South Dakota","Midwest","West North Central","46102","43.333393","-102.561486 ","3005","55","48","0","1/10/2022 12:00:00 AM","2019","14177","NYTIMES-USCENSUS"
"1/11/2022 12:00:00 AM","Winchester city","Virginia","South","South Atlantic","51840","39.173869","-78.176356 ","5175","59","55","1","1/10/2022 12:00:00 AM","2019","28078","NYTIMES-USCENSUS"
"1/11/2022 12:00:00 AM","Boyle County","Kentucky","South","East South Central","21021","37.618104","-84.868352 ","6267","118","47","0","1/10/2022 12:00:00 AM","2019","30060","NYTIMES-USCENSUS"
"1/11/2022 12:00:00 AM","Colfax County","Nebraska","Midwest","West North Central","31037","41.57496","-97.088945 ","2261","21","31","0","1/10/2022 12:00:00 AM","2019","10709","NYTIMES-USCENSUS"
"1/11/2022 12:00:00 AM","Island County","Washington","West","Pacific","53029","48.158554","-122.670649 ","6007","57","77","0","1/10/2022 12:00:00 AM","2019","85141","NYTIMES-USCENSUS"
"1/11/2022 12:00:00 AM","Rolette County","North Dakota","Midwest","West North Central","38079","48.768271","-99.840463 ","4114","36","65","0","1/10/2022 12:00:00 AM","2019","14176","NYTIMES-USCENSUS"
"1/11/2022 12:00:00 AM","Buchanan County","Iowa","Midwest","West North Central","19019","42.470328","-91.838666 ","3619","46","0","0","1/10/2022 12:00:00 AM","2019","21175","NYTIMES-USCENSUS"
"1/11/2022 12:00:00 AM","Clarke County","Georgia","South","South Atlantic","13059","33.952185","-83.367152 ","24860","189","330","0","1/10/2022 12:00:00 AM","2019","128331","NYTIMES-USCENSUS"
"1/11/2022 12:00:00 AM","Asotin County","Washington","West","Pacific","53003","46.181861","-117.227781 ","3320","54","2","0","1/10/2022 12:00:00 AM","2019","22582","NYTIMES-USCENSUS"
"1/11/2022 12:00:00 AM","Franklin County","Texas","South","West South Central","48159","33.175846","-95.219066 ","1563","37","13","0","1/10/2022 12:00:00 AM","2019","10725","NYTIMES-USCENSUS"
"1/11/2022 12:00:00 AM","Lincoln County","Washington","West","Pacific","53043","47.582743","-118.417692 ","1634","26","19","0","1/10/2022 12:00:00 AM","2019","10939","NYTIMES-USCENSUS"
"1/11/2022 12:00:00 AM","Blaine County","Oklahoma","South","West South Central","40011","35.877795","-98.429031 ","1722","32","0","0","1/10/2022 12:00:00 AM","2019","9429","NYTIMES-USCENSUS"
"1/11/2022 12:00:00 AM","Yellow Medicine County","Minnesota","Midwest","West North Central","27173","44.715736","-95.862756 ","2090","25","30","0","1/10/2022 12:00:00 AM","2019","9709","NYTIMES-USCENSUS"
"1/11/2022 12:00:00 AM","Sunflower County","Mississippi","South","East South Central","28133","33.605529","-90.59509 ","4991","110","13","0","1/10/2022 12:00:00 AM","2019","25110","NYTIMES-USCENSUS"
"1/11/2022 12:00:00 AM","Hamilton County","Kansas","Midwest","West North Central","20075","37.995244","-101.793689 ","376","3","0","0","1/10/2022 12:00:00 AM","2019","2539","NYTIMES-USCENSUS"
"1/11/2022 12:00:00 AM","Tom Green County","Texas","South","West South Central","48451","31.398823","-100.463788 ","31629","397","1660","1","1/10/2022 12:00:00 AM","2019","119200","NYTIMES-USCENSUS"
"1/11/2022 12:00:00 AM","Grand Forks County","North Dakota","Midwest","West North Central","38035","47.926003","-97.450851 ","16147","105","154","0","1/10/2022 12:00:00 AM","2019","69451","NYTIMES-USCENSUS"
"1/11/2022 12:00:00 AM","Power County","Idaho","West","Mountain","16077","42.694126","-112.844407 ","1165","17","2","0","1/10/2022 12:00:00 AM","2019","7681","NYTIMES-USCENSUS"
"1/11/2022 12:00:00 AM","Cass County","Minnesota","Midwest","West North Central","27021","46.951745","-94.333705 ","5550","66","87","0","1/10/2022 12:00:00 AM","2019","29779","NYTIMES-USCENSUS"
"1/11/2022 12:00:00 AM","Day County","South Dakota","Midwest","West North Central","46037","45.355161","-97.58143 ","1021","30","16","0","1/10/2022 12:00:00 AM","2019","5424","NYTIMES-USCENSUS"
"1/11/2022 12:00:00 AM","Valencia County","New Mexico","West","Mountain","35061","34.71684","-106.806582 ","14068","206","45","2","1/10/2022 12:00:00 AM","2019","76688","NYTIMES-USCENSUS"
"1/11/2022 12:00:00 AM","Jefferson Parish","Louisiana","South","West South Central","22051","29.5033","-90.036231 ","92879","1202","1009","2","1/10/2022 12:00:00 AM","2019","432493","NYTIMES-USCENSUS"
"1/11/2022 12:00:00 AM","Hardin County","Illinois","Midwest","East North Central","17069","37.517852","-88.266148 ","823","17","8","0","1/10/2022 12:00:00 AM","2019","3821","NYTIMES-USCENSUS"
"1/11/2022 12:00:00 AM","Hardin County","Kentucky","South","East South Central","21093","37.695836","-85.963183 ","23048","353","366","1","1/10/2022 12:00:00 AM","2019","110958","NYTIMES-USCENSUS"
"1/11/2022 12:00:00 AM","Cherokee County","Texas","South","West South Central","48073","31.843881","-95.156343 ","7276","230","14","0","1/10/2022 12:00:00 AM","2019","52646","NYTIMES-USCENSUS"
"1/11/2022 12:00:00 AM","Cecil County","Maryland","South","South Atlantic","24015","39.562354","-75.941585 ","12397","215","172","0","1/10/2022 12:00:00 AM","2019","102855","NYTIMES-USCENSUS"
"1/11/2022 12:00:00 AM","Montgomery County","Kansas","Midwest","West North Central","20125","37.189537","-95.742403 ","6634","128","0","0","1/10/2022 12:00:00 AM","2019","31829","NYTIMES-USCENSUS"
"1/11/2022 12:00:00 AM","Carroll County","Virginia","South","South Atlantic","51035","36.731963","-80.727831 ","5003","113","26","0","1/10/2022 12:00:00 AM","2019","29791","NYTIMES-USCENSUS"
"1/11/2022 12:00:00 AM","St. John the Baptist Parish","Louisiana","South","West South Central","22095","30.144068","-90.49096 ","8329","173","125","0","1/10/2022 12:00:00 AM","2019","42837","NYTIMES-USCENSUS"
"1/11/2022 12:00:00 AM","Charles City County","Virginia","South","South Atlantic","51036","37.361054","-77.05417 ","930","22","4","0","1/10/2022 12:00:00 AM","2019","6963","NYTIMES-USCENSUS"
"1/11/2022 12:00:00 AM","Lafayette County","Wisconsin","Midwest","East North Central","55065","42.655578","-90.130292 ","2909","18","26","0","1/10/2022 12:00:00 AM","2019","16665","NYTIMES-USCENSUS"
"1/11/2022 12:00:00 AM","Adams County","Illinois","Midwest","East North Central","17001","39.986052","-91.194961 ","17991","205","257","0","1/10/2022 12:00:00 AM","2019","65435","NYTIMES-USCENSUS"
"1/11/2022 12:00:00 AM","Grant Parish","Louisiana","South","West South Central","22043","31.597787","-92.561716 ","4307","80","58","0","1/10/2022 12:00:00 AM","2019","22389","NYTIMES-USCENSUS"
"1/11/2022 12:00:00 AM","Pondera County","Montana","West","Mountain","30073","48.228604","-112.220761 ","866","6","2","0","1/10/2022 12:00:00 AM","2019","5911","NYTIMES-USCENSUS"
"1/11/2022 12:00:00 AM","Randolph County","Arkansas","South","West South Central","05121","36.341298","-91.028441 ","3978","68","34","0","1/10/2022 12:00:00 AM","2019","17958","NYTIMES-USCENSUS"
"1/11/2022 12:00:00 AM","Pemiscot County","Missouri","Midwest","West North Central","29155","36.209916","-89.785942 ","2403","59","31","0","1/10/2022 12:00:00 AM","2019","15805","NYTIMES-USCENSUS"
"1/11/2022 12:00:00 AM","Marion County","Mississippi","South","East South Central","28091","31.230167","-89.821712 ","5070","119","40","1","1/10/2022 12:00:00 AM","2019","24573","NYTIMES-USCENSUS"
"1/11/2022 12:00:00 AM","Garfield County","Colorado","West","Mountain","08045","39.599352","-107.90978 ","11420","80","136","1","1/10/2022 12:00:00 AM","2019","60061","NYTIMES-USCENSUS"
"1/11/2022 12:00:00 AM","White County","Georgia","South","South Atlantic","13311","34.644182","-83.743 ","5624","135","88","0","1/10/2022 12:00:00 AM","2019","30798","NYTIMES-USCENSUS"
"1/11/2022 12:00:00 AM","DeWitt County","Texas","South","West South Central","48123","29.082346","-97.361654 ","3298","86","24","0","1/10/2022 12:00:00 AM","2019","20160","NYTIMES-USCENSUS"
"1/11/2022 12:00:00 AM","Clark County","Wisconsin","Midwest","East North Central","55019","44.739346","-90.609953 ","6398","110","66","1","1/10/2022 12:00:00 AM","2019","34774","NYTIMES-USCENSUS"
"1/11/2022 12:00:00 AM","Lamar County","Georgia","South","South Atlantic","13171","33.07444","-84.146689 ","4185","102","47","0","1/10/2022 12:00:00 AM","2019","19077","NYTIMES-USCENSUS"
"1/11/2022 12:00:00 AM","Seminole County","Georgia","South","South Atlantic","13253","30.93396","-84.867685 ","1720","26","23","0","1/10/2022 12:00:00 AM","2019","8090","NYTIMES-USCENSUS"
"1/11/2022 12:00:00 AM","Itawamba County","Mississippi","South","East South Central","28057","34.281075","-88.363127 ","5494","114","71","0","1/10/2022 12:00:00 AM","2019","23390","NYTIMES-USCENSUS"
"1/11/2022 12:00:00 AM","Kane County","Utah","West","Mountain","49025","37.275089","-111.815329 ","1080","13","22","0","1/10/2022 12:00:00 AM","2019","7886","NYTIMES-USCENSUS"
"1/11/2022 12:00:00 AM","Ross County","Ohio","Midwest","East North Central","39141","39.323895","-83.059538 ","14437","247","95","1","1/10/2022 12:00:00 AM","2019","76666","NYTIMES-USCENSUS"
"1/11/2022 12:00:00 AM","Crook County","Wyoming","West","Mountain","56011","44.589266","-104.567298 ","1064","22","5","0","1/10/2022 12:00:00 AM","2019","7584","NYTIMES-USCENSUS"
"1/11/2022 12:00:00 AM","Marion County","Missouri","Midwest","West North Central","29127","39.807538","-91.635379 ","6527","109","70","4","1/10/2022 12:00:00 AM","2019","28530","NYTIMES-USCENSUS"
"1/11/2022 12:00:00 AM","Ware County","Georgia","South","South Atlantic","13299","31.050881","-82.421507 ","8128","252","105","0","1/10/2022 12:00:00 AM","2019","35734","NYTIMES-USCENSUS"
"1/11/2022 12:00:00 AM","Carroll County","Arkansas","South","West South Central","05015","36.33737","-93.540972 ","4854","83","28","1","1/10/2022 12:00:00 AM","2019","28380","NYTIMES-USCENSUS"
"1/11/2022 12:00:00 AM","Stewart County","Georgia","South","South Atlantic","13259","32.073225","-84.834912 ","1789","30","18","0","1/10/2022 12:00:00 AM","2019","6621","NYTIMES-USCENSUS"
"1/11/2022 12:00:00 AM","Florence County","Wisconsin","Midwest","East North Central","55037","45.871828","-88.406988 ","844","15","15","0","1/10/2022 12:00:00 AM","2019","4295","NYTIMES-USCENSUS"
"1/11/2022 12:00:00 AM","Saline County","Kansas","Midwest","West North Central","20169","38.791804","-97.651478 ","10829","205","0","0","1/10/2022 12:00:00 AM","2019","54224","NYTIMES-USCENSUS"
"1/11/2022 12:00:00 AM","Big Horn County","Wyoming","West","Mountain","56003","44.525117","-107.994848 ","2207","60","6","2","1/10/2022 12:00:00 AM","2019","11790","NYTIMES-USCENSUS"
"1/11/2022 12:00:00 AM","Lumpkin County","Georgia","South","South Atlantic","13187","34.56814","-83.998925 ","5910","111","87","0","1/10/2022 12:00:00 AM","2019","33610","NYTIMES-USCENSUS"
"1/11/2022 12:00:00 AM","Lee County","Texas","South","West South Central","48287","30.321498","-96.976823 ","3314","54","16","0","1/10/2022 12:00:00 AM","2019","17239","NYTIMES-USCENSUS"
"1/11/2022 12:00:00 AM","Hamilton County","Nebraska","Midwest","West North Central","31081","40.872817","-98.022329 ","1692","19","12","0","1/10/2022 12:00:00 AM","2019","9324","NYTIMES-USCENSUS"
"1/11/2022 12:00:00 AM","Floyd County","Virginia","South","South Atlantic","51063","36.931433","-80.350266 ","1937","33","9","0","1/10/2022 12:00:00 AM","2019","15749","NYTIMES-USCENSUS"
"1/11/2022 12:00:00 AM","Young County","Texas","South","West South Central","48503","33.158778","-98.67839 ","3256","74","4","0","1/10/2022 12:00:00 AM","2019","18010","NYTIMES-USCENSUS"
"1/11/2022 12:00:00 AM","Anson County","North Carolina","South","South Atlantic","37007","34.974972","-80.109763 ","4681","86","26","0","1/10/2022 12:00:00 AM","2019","24446","NYTIMES-USCENSUS"
"1/11/2022 12:00:00 AM","Grand County","Colorado","West","Mountain","08049","40.113065","-106.110837 ","2885","20","11","0","1/10/2022 12:00:00 AM","2019","15734","NYTIMES-USCENSUS"
"1/11/2022 12:00:00 AM","Pembina County","North Dakota","Midwest","West North Central","38067","48.766896","-97.545405 ","1573","16","16","0","1/10/2022 12:00:00 AM","2019","6801","NYTIMES-USCENSUS"
"1/11/2022 12:00:00 AM","Fountain County","Indiana","Midwest","East North Central","18045","40.121237","-87.234872 ","4450","81","22","0","1/10/2022 12:00:00 AM","2019","16346","NYTIMES-USCENSUS"
"1/11/2022 12:00:00 AM","Marshall County","Mississippi","South","East South Central","28093","34.76619","-89.504231 ","7842","149","57","0","1/10/2022 12:00:00 AM","2019","35294","NYTIMES-USCENSUS"
"1/11/2022 12:00:00 AM","Westmoreland County","Virginia","South","South Atlantic","51193","38.109311","-76.803933 ","2562","39","28","0","1/10/2022 12:00:00 AM","2019","18015","NYTIMES-USCENSUS"
"1/11/2022 12:00:00 AM","Etowah County","Alabama","South","East South Central","01055","34.047641","-86.034263 ","22187","530","170","0","1/10/2022 12:00:00 AM","2019","102268","NYTIMES-USCENSUS"
"1/11/2022 12:00:00 AM","Jackson County","Indiana","Midwest","East North Central","18071","38.911957","-86.042516 ","9423","105","115","0","1/10/2022 12:00:00 AM","2019","44231","NYTIMES-USCENSUS"
"1/11/2022 12:00:00 AM","Jefferson County","Mississippi","South","East South Central","28063","31.733633","-91.043878 ","1131","35","16","0","1/10/2022 12:00:00 AM","2019","6990","NYTIMES-USCENSUS"
"1/11/2022 12:00:00 AM","Lake County","Minnesota","Midwest","West North Central","27075","47.517111","-91.411704 ","1538","26","27","0","1/10/2022 12:00:00 AM","2019","10641","NYTIMES-USCENSUS"
"1/11/2022 12:00:00 AM","Luzerne County","Pennsylvania","Northeast","Middle Atlantic","42079","41.173078","-75.976053 ","60718","1113","617","7","1/10/2022 12:00:00 AM","2019","317417","NYTIMES-USCENSUS"
"1/11/2022 12:00:00 AM","Boone County","Indiana","Midwest","East North Central","18011","40.050892","-86.469014 ","12388","142","123","0","1/10/2022 12:00:00 AM","2019","67843","NYTIMES-USCENSUS"
"1/11/2022 12:00:00 AM","Mineral County","West Virginia","South","South Atlantic","54057","39.404781","-78.95669 ","6103","138","60","0","1/10/2022 12:00:00 AM","2019","26868","NYTIMES-USCENSUS"
"1/11/2022 12:00:00 AM","Mercer County","Ohio","Midwest","East North Central","39107","40.535333","-84.632059 ","7974","112","14","2","1/10/2022 12:00:00 AM","2019","41172","NYTIMES-USCENSUS"
"1/11/2022 12:00:00 AM","Newberry County","South Carolina","South","South Atlantic","45071","34.289881","-81.599676 ","9216","154","64","0","1/10/2022 12:00:00 AM","2019","38440","NYTIMES-USCENSUS"
"1/11/2022 12:00:00 AM","Sarpy County","Nebraska","Midwest","West North Central","31153","41.115064","-96.109125 ","38070","207","546","0","1/10/2022 12:00:00 AM","2019","187196","NYTIMES-USCENSUS"
"1/11/2022 12:00:00 AM","Tuscaloosa County","Alabama","South","East South Central","01125","33.29022","-87.522783 ","41502","666","340","0","1/10/2022 12:00:00 AM","2019","209355","NYTIMES-USCENSUS"
"1/11/2022 12:00:00 AM","Ouachita County","Arkansas","South","West South Central","05103","33.591168","-92.878413 ","4234","91","42","0","1/10/2022 12:00:00 AM","2019","23382","NYTIMES-USCENSUS"
"1/11/2022 12:00:00 AM","Broome County","New York","Northeast","Middle Atlantic","36007","42.161977","-75.830283 ","37726","477","282","0","1/10/2022 12:00:00 AM","2019","190488","NYTIMES-USCENSUS"
"1/11/2022 12:00:00 AM","Seminole County","Oklahoma","South","West South Central","40133","35.158366","-96.602857 ","4261","106","0","0","1/10/2022 12:00:00 AM","2019","24258","NYTIMES-USCENSUS"
"1/11/2022 12:00:00 AM","Grafton County","New Hampshire","Northeast","New England","33009","43.926439","-71.842424 ","11294","48","103","0","1/10/2022 12:00:00 AM","2019","89886","NYTIMES-USCENSUS"
"1/11/2022 12:00:00 AM","Walworth County","South Dakota","Midwest","West North Central","46129","45.427605","-100.027856 ","1084","20","12","0","1/10/2022 12:00:00 AM","2019","5435","NYTIMES-USCENSUS"
"1/11/2022 12:00:00 AM","Chesterfield County","Virginia","South","South Atlantic","51041","37.378434","-77.585847 ","55728","610","769","1","1/10/2022 12:00:00 AM","2019","352802","NYTIMES-USCENSUS"
"1/11/2022 12:00:00 AM","Bowie County","Texas","South","West South Central","48037","33.446065","-94.422393 ","14640","358","90","0","1/10/2022 12:00:00 AM","2019","93245","NYTIMES-USCENSUS"
"1/11/2022 12:00:00 AM","Wheeler County","Texas","South","West South Central","48483","35.392593","-100.253107 ","911","15","4","0","1/10/2022 12:00:00 AM","2019","5056","NYTIMES-USCENSUS"
"1/11/2022 12:00:00 AM","Martin County","North Carolina","South","South Atlantic","37117","35.847301","-77.119602 ","4334","77","24","0","1/10/2022 12:00:00 AM","2019","22440","NYTIMES-USCENSUS"
"1/11/2022 12:00:00 AM","Baker County","Georgia","South","South Atlantic","13007","31.31958","-84.454881 ","426","14","7","0","1/10/2022 12:00:00 AM","2019","3038","NYTIMES-USCENSUS"
"1/11/2022 12:00:00 AM","Wasatch County","Utah","West","Mountain","49051","40.334884","-111.161568 ","8302","31","96","0","1/10/2022 12:00:00 AM","2019","34091","NYTIMES-USCENSUS"
"1/11/2022 12:00:00 AM","Cleveland County","North Carolina","South","South Atlantic","37045","35.33463","-81.557114 ","22523","326","167","0","1/10/2022 12:00:00 AM","2019","97947","NYTIMES-USCENSUS"
"1/11/2022 12:00:00 AM","Tyler County","West Virginia","South","South Atlantic","54095","39.465634","-80.877219 ","1602","26","11","0","1/10/2022 12:00:00 AM","2019","8591","NYTIMES-USCENSUS"
"1/11/2022 12:00:00 AM","Hunterdon County","New Jersey","Northeast","Middle Atlantic","34019","40.565283","-74.911969 ","20463","212","392","2","1/10/2022 12:00:00 AM","2019","124371","NYTIMES-USCENSUS"
"1/11/2022 12:00:00 AM","Coos County","Oregon","West","Pacific","41011","43.18591","-124.094133 ","7225","127","92","2","1/10/2022 12:00:00 AM","2019","64487","NYTIMES-USCENSUS"
"1/11/2022 12:00:00 AM","Gulf County","Florida","South","South Atlantic","12045","29.859238","-85.272013 ","3186","65","0","0","1/10/2022 12:00:00 AM","2019","13639","NYTIMES-USCENSUS"
"1/11/2022 12:00:00 AM","Jennings County","Indiana","Midwest","East North Central","18079","38.996229","-85.628103 ","5412","78","53","1","1/10/2022 12:00:00 AM","2019","27735","NYTIMES-USCENSUS"
"1/11/2022 12:00:00 AM","Knox County","Nebraska","Midwest","West North Central","31107","42.634404","-97.891349 ","1374","13","7","0","1/10/2022 12:00:00 AM","2019","8332","NYTIMES-USCENSUS"
"1/11/2022 12:00:00 AM","Beadle County","South Dakota","Midwest","West North Central","46005","44.418265","-98.279422 ","3944","50","27","0","1/10/2022 12:00:00 AM","2019","18453","NYTIMES-USCENSUS"
"1/11/2022 12:00:00 AM","Rutland County","Vermont","Northeast","New England","50021","43.580858","-73.038202 ","8080","41","0","0","1/10/2022 12:00:00 AM","2019","58191","NYTIMES-USCENSUS"
"1/11/2022 12:00:00 AM","Van Wert County","Ohio","Midwest","East North Central","39161","40.85552","-84.585775 ","5348","118","17","3","1/10/2022 12:00:00 AM","2019","28275","NYTIMES-USCENSUS"
"1/11/2022 12:00:00 AM","New Haven County","Connecticut","Northeast","New England","09009","41.349718","-72.900203 ","161272","2429","1897","26","1/10/2022 12:00:00 AM","2019","854757","NYTIMES-USCENSUS"
"1/11/2022 12:00:00 AM","Floyd County","Iowa","Midwest","West North Central","19067","43.052741","-92.787367 ","2850","55","0","0","1/10/2022 12:00:00 AM","2019","15642","NYTIMES-USCENSUS"
"1/11/2022 12:00:00 AM","Union County","New Mexico","West","Mountain","35059","36.488085","-103.475723 ","795","12","2","0","1/10/2022 12:00:00 AM","2019","4059","NYTIMES-USCENSUS"
"1/11/2022 12:00:00 AM","Greene County","Illinois","Midwest","East North Central","17061","39.355439","-90.387682 ","2919","53","67","0","1/10/2022 12:00:00 AM","2019","12969","NYTIMES-USCENSUS"
"1/11/2022 12:00:00 AM","Rensselaer County","New York","Northeast","Middle Atlantic","36083","42.710421","-73.513845 ","25022","223","315","1","1/10/2022 12:00:00 AM","2019","158714","NYTIMES-USCENSUS"
"1/11/2022 12:00:00 AM","Calhoun County","Georgia","South","South Atlantic","13037","31.521279","-84.62629 ","935","22","12","0","1/10/2022 12:00:00 AM","2019","6189","NYTIMES-USCENSUS"
"1/11/2022 12:00:00 AM","Logan County","Illinois","Midwest","East North Central","17107","40.129277","-89.365309 ","7294","91","90","0","1/10/2022 12:00:00 AM","2019","28618","NYTIMES-USCENSUS"
"1/11/2022 12:00:00 AM","Forest County","Pennsylvania","Northeast","Middle Atlantic","42053","41.513304","-79.249705 ","1919","33","12","0","1/10/2022 12:00:00 AM","2019","7247","NYTIMES-USCENSUS"
"1/11/2022 12:00:00 AM","Waseca County","Minnesota","Midwest","West North Central","27161","44.01846","-93.589844 ","4415","35","43","0","1/10/2022 12:00:00 AM","2019","18612","NYTIMES-USCENSUS"
"1/11/2022 12:00:00 AM","Twin Falls County","Idaho","West","Mountain","16083","42.352309","-114.665639 ","17440","252","49","0","1/10/2022 12:00:00 AM","2019","86878","NYTIMES-USCENSUS"
"1/11/2022 12:00:00 AM","Orange County","Florida","South","South Atlantic","12095","28.514391","-81.323284 ","289041","2298","0","0","1/10/2022 12:00:00 AM","2019","1393452","NYTIMES-USCENSUS"
"1/11/2022 12:00:00 AM","Columbia County","Oregon","West","Pacific","41009","45.941932","-123.081079 ","5190","65","43","0","1/10/2022 12:00:00 AM","2019","52354","NYTIMES-USCENSUS"
"1/11/2022 12:00:00 AM","Marengo County","Alabama","South","East South Central","01091","32.247591","-87.791091 ","3775","93","33","0","1/10/2022 12:00:00 AM","2019","18863","NYTIMES-USCENSUS"
"1/11/2022 12:00:00 AM","Ripley County","Indiana","Midwest","East North Central","18137","39.100226","-85.260494 ","6652","112","34","1","1/10/2022 12:00:00 AM","2019","28324","NYTIMES-USCENSUS"
"1/11/2022 12:00:00 AM","Cumberland County","North Carolina","South","South Atlantic","37051","35.050192","-78.828719 ","58000","512","461","0","1/10/2022 12:00:00 AM","2019","335509","NYTIMES-USCENSUS"
"1/11/2022 12:00:00 AM","Estill County","Kentucky","South","East South Central","21065","37.692449","-83.963983 ","2758","38","5","0","1/10/2022 12:00:00 AM","2019","14106","NYTIMES-USCENSUS"
"1/11/2022 12:00:00 AM","Union County","Indiana","Midwest","East North Central","18161","39.623111","-84.925152 ","1543","20","11","1","1/10/2022 12:00:00 AM","2019","7054","NYTIMES-USCENSUS"
"1/11/2022 12:00:00 AM","Washington County","Kansas","Midwest","West North Central","20201","39.776714","-97.095611 ","1077","17","0","0","1/10/2022 12:00:00 AM","2019","5406","NYTIMES-USCENSUS"
"1/11/2022 12:00:00 AM","Tippah County","Mississippi","South","East South Central","28139","34.763618","-88.918819 ","5582","88","55","1","1/10/2022 12:00:00 AM","2019","22015","NYTIMES-USCENSUS"
"1/11/2022 12:00:00 AM","Essex County","New York","Northeast","Middle Atlantic","36031","44.109601","-73.778431 ","4320","49","35","0","1/10/2022 12:00:00 AM","2019","36885","NYTIMES-USCENSUS"
"1/11/2022 12:00:00 AM","Iowa County","Wisconsin","Midwest","East North Central","55049","43.001021","-90.133691 ","3910","24","38","0","1/10/2022 12:00:00 AM","2019","23678","NYTIMES-USCENSUS"
"1/11/2022 12:00:00 AM","Butte County","South Dakota","Midwest","West North Central","46019","44.896226","-103.501436 ","2216","40","8","0","1/10/2022 12:00:00 AM","2019","10429","NYTIMES-USCENSUS"
"1/11/2022 12:00:00 AM","Newton County","Indiana","Midwest","East North Central","18111","40.962399","-87.402172 ","2194","61","20","1","1/10/2022 12:00:00 AM","2019","13984","NYTIMES-USCENSUS"
"1/11/2022 12:00:00 AM","Hudson County","New Jersey","Northeast","Middle Atlantic","34017","40.731375","-74.078601 ","146619","2484","2336","13","1/10/2022 12:00:00 AM","2019","672391","NYTIMES-USCENSUS"
"1/11/2022 12:00:00 AM","Mercer County","Pennsylvania","Northeast","Middle Atlantic","42085","41.300014","-80.252786 ","19865","438","141","1","1/10/2022 12:00:00 AM","2019","109424","NYTIMES-USCENSUS"
"1/11/2022 12:00:00 AM","San Patricio County","Texas","South","West South Central","48409","28.011794","-97.517157 ","8132","303","66","0","1/10/2022 12:00:00 AM","2019","66730","NYTIMES-USCENSUS"
"1/11/2022 12:00:00 AM","McHenry County","North Dakota","Midwest","West North Central","38049","48.233842","-100.633267 ","1100","28","6","0","1/10/2022 12:00:00 AM","2019","5745","NYTIMES-USCENSUS"
"1/11/2022 12:00:00 AM","Dutchess County","New York","Northeast","Middle Atlantic","36027","41.75477","-73.740041 ","54355","553","509","1","1/10/2022 12:00:00 AM","2019","294218","NYTIMES-USCENSUS"
"1/11/2022 12:00:00 AM","Lafayette County","Missouri","Midwest","West North Central","29107","39.068705","-93.802639 ","6299","99","64","2","1/10/2022 12:00:00 AM","2019","32708","NYTIMES-USCENSUS"
"1/11/2022 12:00:00 AM","Panola County","Mississippi","South","East South Central","28107","34.365205","-89.963065 ","8214","140","169","0","1/10/2022 12:00:00 AM","2019","34192","NYTIMES-USCENSUS"
"1/11/2022 12:00:00 AM","Haywood County","Tennessee","South","East South Central","47075","35.586678","-89.282691 ","4317","82","0","0","1/10/2022 12:00:00 AM","2019","17304","NYTIMES-USCENSUS"
"1/11/2022 12:00:00 AM","Brown County","South Dakota","Midwest","West North Central","46013","45.589254","-98.352175 ","8179","109","135","0","1/10/2022 12:00:00 AM","2019","38839","NYTIMES-USCENSUS"
"1/11/2022 12:00:00 AM","Santa Clara County","California","West","Pacific","06085","37.221614","-121.68954 ","208256","1972","4826","-5","1/10/2022 12:00:00 AM","2019","1927852","NYTIMES-USCENSUS"
"1/11/2022 12:00:00 AM","Ulster County","New York","Northeast","Middle Atlantic","36111","41.947212","-74.265458 ","25719","317","193","1","1/10/2022 12:00:00 AM","2019","177573","NYTIMES-USCENSUS"
"1/11/2022 12:00:00 AM","Rogers County","Oklahoma","South","West South Central","40131","36.377794","-95.601383 ","18111","316","0","0","1/10/2022 12:00:00 AM","2019","92459","NYTIMES-USCENSUS"
"1/11/2022 12:00:00 AM","Copiah County","Mississippi","South","East South Central","28029","31.866915","-90.448758 ","5496","95","44","0","1/10/2022 12:00:00 AM","2019","28065","NYTIMES-USCENSUS"
"1/11/2022 12:00:00 AM","Fauquier County","Virginia","South","South Atlantic","51061","38.744096","-77.8215 ","10461","95","127","0","1/10/2022 12:00:00 AM","2019","71222","NYTIMES-USCENSUS"
"1/11/2022 12:00:00 AM","Saline County","Nebraska","Midwest","West North Central","31151","40.516802","-97.131755 ","2986","3","36","0","1/10/2022 12:00:00 AM","2019","14224","NYTIMES-USCENSUS"
"1/11/2022 12:00:00 AM","Shelby County","Kentucky","South","East South Central","21211","38.239011","-85.228247 ","9200","130","134","0","1/10/2022 12:00:00 AM","2019","49024","NYTIMES-USCENSUS"
"1/11/2022 12:00:00 AM","Parker County","Texas","South","West South Central","48367","32.777096","-97.805905 ","27751","364","185","0","1/10/2022 12:00:00 AM","2019","142878","NYTIMES-USCENSUS"
"1/11/2022 12:00:00 AM","Steuben County","Indiana","Midwest","East North Central","18151","41.643467","-85.002405 ","7929","103","39","2","1/10/2022 12:00:00 AM","2019","34594","NYTIMES-USCENSUS"
"1/11/2022 12:00:00 AM","Blair County","Pennsylvania","Northeast","Middle Atlantic","42013","40.498683","-78.309597 ","24250","520","91","6","1/10/2022 12:00:00 AM","2019","121829","NYTIMES-USCENSUS"
"1/11/2022 12:00:00 AM","Charlotte County","Virginia","South","South Atlantic","51037","37.009042","-78.658568 ","1744","31","30","0","1/10/2022 12:00:00 AM","2019","11880","NYTIMES-USCENSUS"
"1/11/2022 12:00:00 AM","Hansford County","Texas","South","West South Central","48195","36.272847","-101.35693 ","1310","27","1","0","1/10/2022 12:00:00 AM","2019","5399","NYTIMES-USCENSUS"
"1/11/2022 12:00:00 AM","Las Animas County","Colorado","West","Mountain","08071","37.318831","-104.04411 ","2599","34","13","1","1/10/2022 12:00:00 AM","2019","14506","NYTIMES-USCENSUS"
"1/11/2022 12:00:00 AM","Desha County","Arkansas","South","West South Central","05041","33.828752","-91.244103 ","2280","35","69","-1","1/10/2022 12:00:00 AM","2019","11361","NYTIMES-USCENSUS"
"1/11/2022 12:00:00 AM","Leslie County","Kentucky","South","East South Central","21131","37.087846","-83.388617 ","2539","37","16","0","1/10/2022 12:00:00 AM","2019","9877","NYTIMES-USCENSUS"
"1/11/2022 12:00:00 AM","Avoyelles Parish","Louisiana","South","West South Central","22009","31.088503","-91.983275 ","8482","179","150","0","1/10/2022 12:00:00 AM","2019","40144","NYTIMES-USCENSUS"
"1/11/2022 12:00:00 AM","Beaufort County","North Carolina","South","South Atlantic","37013","35.482313","-76.842014 ","8621","140","34","0","1/10/2022 12:00:00 AM","2019","46994","NYTIMES-USCENSUS"
"1/11/2022 12:00:00 AM","Clark County","Indiana","Midwest","East North Central","18019","38.476217","-85.711122 ","23836","326","154","6","1/10/2022 12:00:00 AM","2019","118302","NYTIMES-USCENSUS"
"1/11/2022 12:00:00 AM","Delaware County","Iowa","Midwest","West North Central","19055","42.472937","-91.366767 ","3364","64","0","0","1/10/2022 12:00:00 AM","2019","17011","NYTIMES-USCENSUS"
"1/11/2022 12:00:00 AM","Duplin County","North Carolina","South","South Atlantic","37061","34.934403","-77.933543 ","11805","202","119","0","1/10/2022 12:00:00 AM","2019","58741","NYTIMES-USCENSUS"
"1/11/2022 12:00:00 AM","Atoka County","Oklahoma","South","West South Central","40005","34.392469","-96.036558 ","2913","40","0","0","1/10/2022 12:00:00 AM","2019","13758","NYTIMES-USCENSUS"
"1/11/2022 12:00:00 AM","Schuyler County","Missouri","Midwest","West North Central","29197","40.469361","-92.519016 ","584","23","7","1","1/10/2022 12:00:00 AM","2019","4660","NYTIMES-USCENSUS"
"1/11/2022 12:00:00 AM","Calhoun County","Texas","South","West South Central","48057","28.441719","-96.579574 ","4323","40","44","0","1/10/2022 12:00:00 AM","2019","21290","NYTIMES-USCENSUS"
"1/11/2022 12:00:00 AM","Cherokee County","South Carolina","South","South Atlantic","45021","35.049796","-81.607647 ","11570","268","45","0","1/10/2022 12:00:00 AM","2019","57300","NYTIMES-USCENSUS"
"1/11/2022 12:00:00 AM","Mississippi County","Missouri","Midwest","West North Central","29133","36.826264","-89.295929 ","2636","51","12","1","1/10/2022 12:00:00 AM","2019","13180","NYTIMES-USCENSUS"
"1/11/2022 12:00:00 AM","Tazewell County","Illinois","Midwest","East North Central","17179","40.508074","-89.51626 ","30373","429","322","1","1/10/2022 12:00:00 AM","2019","131803","NYTIMES-USCENSUS"
"1/11/2022 12:00:00 AM","Montgomery County","North Carolina","South","South Atlantic","37123","35.327548","-79.910752 ","5289","111","17","0","1/10/2022 12:00:00 AM","2019","27173","NYTIMES-USCENSUS"
"1/11/2022 12:00:00 AM","Cherokee County","North Carolina","South","South Atlantic","37039","35.13715","-84.061449 ","5383","90","60","0","1/10/2022 12:00:00 AM","2019","28612","NYTIMES-USCENSUS"
"1/11/2022 12:00:00 AM","Wayne County","Mississippi","South","East South Central","28153","31.642503","-88.678214 ","4694","73","15","0","1/10/2022 12:00:00 AM","2019","20183","NYTIMES-USCENSUS"
"1/11/2022 12:00:00 AM","Tishomingo County","Mississippi","South","East South Central","28141","34.738835","-88.234827 ","4344","99","43","0","1/10/2022 12:00:00 AM","2019","19383","NYTIMES-USCENSUS"
"1/11/2022 12:00:00 AM","White County","Tennessee","South","East South Central","47185","35.927049","-85.455785 ","6071","115","0","0","1/10/2022 12:00:00 AM","2019","27345","NYTIMES-USCENSUS"
"1/11/2022 12:00:00 AM","Harrison County","Ohio","Midwest","East North Central","39067","40.292318","-81.091565 ","2608","60","15","0","1/10/2022 12:00:00 AM","2019","15040","NYTIMES-USCENSUS"
"1/11/2022 12:00:00 AM","Carroll County","Mississippi","South","East South Central","28015","33.440795","-89.918887 ","2085","42","27","0","1/10/2022 12:00:00 AM","2019","9947","NYTIMES-USCENSUS"
"1/11/2022 12:00:00 AM","Anderson County","Tennessee","South","East South Central","47001","36.116731","-84.195418 ","14717","267","0","0","1/10/2022 12:00:00 AM","2019","76978","NYTIMES-USCENSUS"
"1/11/2022 12:00:00 AM","Toombs County","Georgia","South","South Atlantic","13279","32.117753","-82.330597 ","5901","177","82","0","1/10/2022 12:00:00 AM","2019","26830","NYTIMES-USCENSUS"
"1/11/2022 12:00:00 AM","Perry County","Tennessee","South","East South Central","47135","35.663752","-87.869326 ","1735","41","0","0","1/10/2022 12:00:00 AM","2019","8076","NYTIMES-USCENSUS"
"1/11/2022 12:00:00 AM","Plumas County","California","West","Pacific","06063","39.992295","-120.824371 ","2155","12","5","0","1/10/2022 12:00:00 AM","2019","18807","NYTIMES-USCENSUS"
"1/11/2022 12:00:00 AM","Sumter County","Florida","South","South Atlantic","12119","28.715444","-82.069952 ","16228","477","0","0","1/10/2022 12:00:00 AM","2019","132420","NYTIMES-USCENSUS"
"1/11/2022 12:00:00 AM","St. Charles Parish","Louisiana","South","West South Central","22089","29.905722","-90.357855 ","11238","129","88","0","1/10/2022 12:00:00 AM","2019","53100","NYTIMES-USCENSUS"
"1/11/2022 12:00:00 AM","Lawrence County","Arkansas","South","West South Central","05075","36.041098","-91.101153 ","3944","64","51","0","1/10/2022 12:00:00 AM","2019","16406","NYTIMES-USCENSUS"
"1/11/2022 12:00:00 AM","Crawford County","Iowa","Midwest","West North Central","19047","42.043119","-95.38909 ","3807","49","0","0","1/10/2022 12:00:00 AM","2019","16820","NYTIMES-USCENSUS"
"1/11/2022 12:00:00 AM","Scott County","Iowa","Midwest","West North Central","19163","41.642079","-90.622289 ","32506","322","0","0","1/10/2022 12:00:00 AM","2019","172943","NYTIMES-USCENSUS"
"1/11/2022 12:00:00 AM","Marathon County","Wisconsin","Midwest","East North Central","55073","44.898036","-89.757823 ","31539","416","346","12","1/10/2022 12:00:00 AM","2019","135692","NYTIMES-USCENSUS"
"1/11/2022 12:00:00 AM","Washington County","Maine","Northeast","New England","23029","44.967009","-67.609354 ","2868","41","7","0","1/10/2022 12:00:00 AM","2019","31379","NYTIMES-USCENSUS"
"1/11/2022 12:00:00 AM","Chittenden County","Vermont","Northeast","New England","50007","44.463329","-73.06941 ","18772","139","0","0","1/10/2022 12:00:00 AM","2019","163774","NYTIMES-USCENSUS"
"1/11/2022 12:00:00 AM","Goodhue County","Minnesota","Midwest","West North Central","27049","44.406178","-92.716 ","9808","112","190","0","1/10/2022 12:00:00 AM","2019","46340","NYTIMES-USCENSUS"
"1/11/2022 12:00:00 AM","Preble County","Ohio","Midwest","East North Central","39135","39.73881","-84.644758 ","7499","159","62","4","1/10/2022 12:00:00 AM","2019","40882","NYTIMES-USCENSUS"
"1/11/2022 12:00:00 AM","Wyandotte County","Kansas","Midwest","West North Central","20209","39.115384","-94.763087 ","36612","421","378","0","1/10/2022 12:00:00 AM","2019","165429","NYTIMES-USCENSUS"
"1/11/2022 12:00:00 AM","Lincoln County","Kentucky","South","East South Central","21137","37.457174","-84.658335 ","4909","108","20","0","1/10/2022 12:00:00 AM","2019","24549","NYTIMES-USCENSUS"
"1/11/2022 12:00:00 AM","Perry County","Ohio","Midwest","East North Central","39127","39.743187","-82.237952 ","6700","96","36","1","1/10/2022 12:00:00 AM","2019","36134","NYTIMES-USCENSUS"
"1/11/2022 12:00:00 AM","Garrard County","Kentucky","South","East South Central","21079","37.630162","-84.545856 ","3438","61","31","0","1/10/2022 12:00:00 AM","2019","17666","NYTIMES-USCENSUS"
"1/11/2022 12:00:00 AM","Bristol County","Massachusetts","Northeast","New England","25005","41.748588","-71.088894 ","122916","2136","1725","13","1/10/2022 12:00:00 AM","2019","565217","NYTIMES-USCENSUS"
"1/11/2022 12:00:00 AM","Washburn County","Wisconsin","Midwest","East North Central","55129","45.892489","-91.796422 ","3251","37","7","0","1/10/2022 12:00:00 AM","2019","15720","NYTIMES-USCENSUS"
"1/11/2022 12:00:00 AM","Fluvanna County","Virginia","South","South Atlantic","51065","37.830584","-78.283494 ","3601","32","26","0","1/10/2022 12:00:00 AM","2019","27270","NYTIMES-USCENSUS"
"1/11/2022 12:00:00 AM","Worth County","Georgia","South","South Atlantic","13321","31.551773","-83.84996 ","3631","97","72","1","1/10/2022 12:00:00 AM","2019","20247","NYTIMES-USCENSUS"
"1/11/2022 12:00:00 AM","King William County","Virginia","South","South Atlantic","51101","37.70826","-77.091054 ","2873","27","37","0","1/10/2022 12:00:00 AM","2019","17148","NYTIMES-USCENSUS"
"1/11/2022 12:00:00 AM","Alleghany County","Virginia","South","South Atlantic","51005","37.787905","-80.008669 ","2695","89","29","1","1/10/2022 12:00:00 AM","2019","14860","NYTIMES-USCENSUS"
"1/11/2022 12:00:00 AM","Sauk County","Wisconsin","Midwest","East North Central","55111","43.428001","-89.943318 ","12289","85","226","1","1/10/2022 12:00:00 AM","2019","64442","NYTIMES-USCENSUS"
"1/11/2022 12:00:00 AM","Tyrrell County","North Carolina","South","South Atlantic","37177","35.87042","-76.165345 ","670","7","2","0","1/10/2022 12:00:00 AM","2019","4016","NYTIMES-USCENSUS"
"1/11/2022 12:00:00 AM","Kittitas County","Washington","West","Pacific","53037","47.124441","-120.676709 ","6176","56","60","0","1/10/2022 12:00:00 AM","2019","47935","NYTIMES-USCENSUS"
"1/11/2022 12:00:00 AM","Taylor County","West Virginia","South","South Atlantic","54091","39.332478","-80.046554 ","3193","54","13","1","1/10/2022 12:00:00 AM","2019","16695","NYTIMES-USCENSUS"
"1/11/2022 12:00:00 AM","Dyer County","Tennessee","South","East South Central","47045","36.054196","-89.398306 ","8782","165","0","0","1/10/2022 12:00:00 AM","2019","37159","NYTIMES-USCENSUS"
"1/11/2022 12:00:00 AM","Travis County","Texas","South","West South Central","48453","30.239513","-97.69127 ","161650","1509","2167","0","1/10/2022 12:00:00 AM","2019","1273954","NYTIMES-USCENSUS"
"1/11/2022 12:00:00 AM","Henderson County","Illinois","Midwest","East North Central","17071","40.814471","-90.941246 ","941","24","9","0","1/10/2022 12:00:00 AM","2019","6646","NYTIMES-USCENSUS"
"1/11/2022 12:00:00 AM","Conway County","Arkansas","South","West South Central","05029","35.265702","-92.689248 ","3920","50","66","0","1/10/2022 12:00:00 AM","2019","20846","NYTIMES-USCENSUS"
"1/11/2022 12:00:00 AM","Taylor County","Georgia","South","South Atlantic","13269","32.554667","-84.251426 ","1576","42","16","0","1/10/2022 12:00:00 AM","2019","8020","NYTIMES-USCENSUS"
"1/11/2022 12:00:00 AM","Oregon County","Missouri","Midwest","West North Central","29149","36.68531","-91.401827 ","1636","27","7","0","1/10/2022 12:00:00 AM","2019","10529","NYTIMES-USCENSUS"
"1/11/2022 12:00:00 AM","Charlevoix County","Michigan","Midwest","East North Central","26029","45.618554","-85.543684 ","3853","53","0","0","1/10/2022 12:00:00 AM","2019","26143","NYTIMES-USCENSUS"
"1/11/2022 12:00:00 AM","Van Buren County","Tennessee","South","East South Central","47175","35.699234","-85.458409 ","1380","43","0","0","1/10/2022 12:00:00 AM","2019","5872","NYTIMES-USCENSUS"
"1/11/2022 12:00:00 AM","Bay County","Michigan","Midwest","East North Central","26017","43.699711","-83.978701 ","20808","493","0","0","1/10/2022 12:00:00 AM","2019","103126","NYTIMES-USCENSUS"
"1/11/2022 12:00:00 AM","Morrill County","Nebraska","Midwest","West North Central","31123","41.732204","-102.990594 ","976","16","2","0","1/10/2022 12:00:00 AM","2019","4642","NYTIMES-USCENSUS"
"1/11/2022 12:00:00 AM","Colusa County","California","West","Pacific","06011","39.177739","-122.237563 ","3501","21","8","0","1/10/2022 12:00:00 AM","2019","21547","NYTIMES-USCENSUS"
"1/11/2022 12:00:00 AM","Imperial County","California","West","Pacific","06025","33.040814","-115.3554 ","45751","810","472","0","1/10/2022 12:00:00 AM","2019","181215","NYTIMES-USCENSUS"
"1/11/2022 12:00:00 AM","Skagit County","Washington","West","Pacific","53057","48.493292","-121.81577 ","15924","156","156","0","1/10/2022 12:00:00 AM","2019","129205","NYTIMES-USCENSUS"
"1/11/2022 12:00:00 AM","Nueces County","Texas","South","West South Central","48355","27.740032","-97.516214 ","71995","1319","981","0","1/10/2022 12:00:00 AM","2019","362294","NYTIMES-USCENSUS"
"1/11/2022 12:00:00 AM","Loudoun County","Virginia","South","South Atlantic","51107","39.0812","-77.638898 ","53685","315","913","1","1/10/2022 12:00:00 AM","2019","413538","NYTIMES-USCENSUS"
"1/11/2022 12:00:00 AM","Grady County","Oklahoma","South","West South Central","40051","35.021058","-97.88689 ","9413","203","0","0","1/10/2022 12:00:00 AM","2019","55834","NYTIMES-USCENSUS"
"1/11/2022 12:00:00 AM","Cibola County","New Mexico","West","Mountain","35006","34.928272","-107.99268 ","5544","160","70","0","1/10/2022 12:00:00 AM","2019","26675","NYTIMES-USCENSUS"
"1/11/2022 12:00:00 AM","West Carroll Parish","Louisiana","South","West South Central","22123","32.79248","-91.451998 ","2408","53","18","0","1/10/2022 12:00:00 AM","2019","10830","NYTIMES-USCENSUS"
"1/11/2022 12:00:00 AM","Harrison County","Iowa","Midwest","West North Central","19085","41.688584","-95.827149 ","2749","84","0","0","1/10/2022 12:00:00 AM","2019","14049","NYTIMES-USCENSUS"
"1/11/2022 12:00:00 AM","Sumter County","Georgia","South","South Atlantic","13261","32.042266","-84.204294 ","5277","145","70","0","1/10/2022 12:00:00 AM","2019","29524","NYTIMES-USCENSUS"
"1/11/2022 12:00:00 AM","Ventura County","California","West","Pacific","06111","34.358748","-119.133145 ","131458","1217","1971","0","1/10/2022 12:00:00 AM","2019","846006","NYTIMES-USCENSUS"
"1/11/2022 12:00:00 AM","Glascock County","Georgia","South","South Atlantic","13125","33.227491","-82.606913 ","482","21","3","0","1/10/2022 12:00:00 AM","2019","2971","NYTIMES-USCENSUS"
"1/11/2022 12:00:00 AM","Southeast Fairbanks Census Area","Alaska","West","Pacific","02240","63.864997","-143.218628 ","1462","14","0","0","1/10/2022 12:00:00 AM","2019","6893","NYTIMES-USCENSUS"
"1/11/2022 12:00:00 AM","Saluda County","South Carolina","South","South Atlantic","45081","34.005278","-81.727903 ","2997","62","28","0","1/10/2022 12:00:00 AM","2019","20473","NYTIMES-USCENSUS"
"1/11/2022 12:00:00 AM","Lafourche Parish","Louisiana","South","West South Central","22057","29.491992","-90.394849 ","21140","321","211","1","1/10/2022 12:00:00 AM","2019","97614","NYTIMES-USCENSUS"
"1/11/2022 12:00:00 AM","Alcorn County","Mississippi","South","East South Central","28003","34.886569","-88.581109 ","7072","119","96","0","1/10/2022 12:00:00 AM","2019","36953","NYTIMES-USCENSUS"
"1/11/2022 12:00:00 AM","Zavala County","Texas","South","West South Central","48507","28.864652","-99.75983 ","2926","56","13","0","1/10/2022 12:00:00 AM","2019","11840","NYTIMES-USCENSUS"
"1/11/2022 12:00:00 AM","Waller County","Texas","South","West South Central","48473","30.01359","-95.982149 ","7886","89","63","0","1/10/2022 12:00:00 AM","2019","55246","NYTIMES-USCENSUS"
"1/11/2022 12:00:00 AM","Mendocino County","California","West","Pacific","06045","39.432388","-123.442881 ","9923","109","66","3","1/10/2022 12:00:00 AM","2019","86749","NYTIMES-USCENSUS"
"1/11/2022 12:00:00 AM","Larue County","Kentucky","South","East South Central","21123","37.544462","-85.696841 ","2762","57","18","0","1/10/2022 12:00:00 AM","2019","14398","NYTIMES-USCENSUS"
"1/11/2022 12:00:00 AM","Bibb County","Georgia","South","South Atlantic","13021","32.808845","-83.694194 ","31264","674","331","0","1/10/2022 12:00:00 AM","2019","153159","NYTIMES-USCENSUS"
"1/11/2022 12:00:00 AM","Johnson County","Arkansas","South","West South Central","05071","35.573359","-93.466322 ","5114","64","42","0","1/10/2022 12:00:00 AM","2019","26578","NYTIMES-USCENSUS"
"1/11/2022 12:00:00 AM","Stone County","Missouri","Midwest","West North Central","29209","36.745822","-93.457842 ","4636","101","7","1","1/10/2022 12:00:00 AM","2019","31952","NYTIMES-USCENSUS"
"1/11/2022 12:00:00 AM","Cheyenne County","Nebraska","Midwest","West North Central","31033","41.214236","-103.011929 ","1606","19","13","0","1/10/2022 12:00:00 AM","2019","8910","NYTIMES-USCENSUS"
"1/11/2022 12:00:00 AM","Jersey County","Illinois","Midwest","East North Central","17083","39.080195","-90.361385 ","4983","77","106","0","1/10/2022 12:00:00 AM","2019","21773","NYTIMES-USCENSUS"
"1/11/2022 12:00:00 AM","Alpine County","California","West","Pacific","06003","38.621783","-119.798352 ","116","0","0","0","1/10/2022 12:00:00 AM","2019","1129","NYTIMES-USCENSUS"
"1/11/2022 12:00:00 AM","Schoolcraft County","Michigan","Midwest","East North Central","26153","46.021122","-86.197029 ","1303","9","0","0","1/10/2022 12:00:00 AM","2019","8094","NYTIMES-USCENSUS"
"1/11/2022 12:00:00 AM","Sebastian County","Arkansas","South","West South Central","05131","35.196981","-94.274989 ","26213","416","373","1","1/10/2022 12:00:00 AM","2019","127827","NYTIMES-USCENSUS"
"1/11/2022 12:00:00 AM","Sabine County","Texas","South","West South Central","48403","31.3433","-93.851913 ","1040","79","7","0","1/10/2022 12:00:00 AM","2019","10542","NYTIMES-USCENSUS"
"1/11/2022 12:00:00 AM","Prince Edward County","Virginia","South","South Atlantic","51147","37.224881","-78.432957 ","3546","54","26","0","1/10/2022 12:00:00 AM","2019","22802","NYTIMES-USCENSUS"
"1/11/2022 12:00:00 AM","Lewis County","Tennessee","South","East South Central","47101","35.523244","-87.496983 ","2656","48","0","0","1/10/2022 12:00:00 AM","2019","12268","NYTIMES-USCENSUS"
"1/11/2022 12:00:00 AM","Otoe County","Nebraska","Midwest","West North Central","31131","40.637992","-96.131027 ","2617","13","17","0","1/10/2022 12:00:00 AM","2019","16012","NYTIMES-USCENSUS"
"1/11/2022 12:00:00 AM","Stanley County","South Dakota","Midwest","West North Central","46117","44.413984","-100.747822 ","553","3","6","0","1/10/2022 12:00:00 AM","2019","3098","NYTIMES-USCENSUS"
"1/11/2022 12:00:00 AM","Leavenworth County","Kansas","Midwest","West North Central","20103","39.189511","-95.038977 ","13675","152","0","0","1/10/2022 12:00:00 AM","2019","81758","NYTIMES-USCENSUS"
"1/11/2022 12:00:00 AM","East Baton Rouge Parish","Louisiana","South","West South Central","22033","30.54393","-91.093131 ","83046","1188","1983","0","1/10/2022 12:00:00 AM","2019","440059","NYTIMES-USCENSUS"
"1/11/2022 12:00:00 AM","Strafford County","New Hampshire","Northeast","New England","33017","43.293272","-71.035589 ","21136","169","205","1","1/10/2022 12:00:00 AM","2019","130633","NYTIMES-USCENSUS"
"1/11/2022 12:00:00 AM","Pulaski County","Indiana","Midwest","East North Central","18131","41.045272","-86.692538 ","2561","72","15","0","1/10/2022 12:00:00 AM","2019","12353","NYTIMES-USCENSUS"
"1/11/2022 12:00:00 AM","Harvey County","Kansas","Midwest","West North Central","20079","38.050144","-97.436706 ","6985","107","0","0","1/10/2022 12:00:00 AM","2019","34429","NYTIMES-USCENSUS"
"1/11/2022 12:00:00 AM","Custer County","Colorado","West","Mountain","08027","38.101996","-105.373512 ","520","16","3","0","1/10/2022 12:00:00 AM","2019","5068","NYTIMES-USCENSUS"
"1/11/2022 12:00:00 AM","Richmond County","North Carolina","South","South Atlantic","37153","35.004636","-79.755695 ","8881","157","84","0","1/10/2022 12:00:00 AM","2019","44829","NYTIMES-USCENSUS"
"1/11/2022 12:00:00 AM","Kershaw County","South Carolina","South","South Atlantic","45055","34.338356","-80.590885 ","15257","219","150","0","1/10/2022 12:00:00 AM","2019","66551","NYTIMES-USCENSUS"
"1/11/2022 12:00:00 AM","Kodiak Island Borough","Alaska","West","Pacific","02150","57.7044","-153.918372 ","3150","10","0","0","1/10/2022 12:00:00 AM","2019","12998","NYTIMES-USCENSUS"
"1/11/2022 12:00:00 AM","Lake County","Michigan","Midwest","East North Central","26085","43.995187","-85.8114 ","1466","31","0","0","1/10/2022 12:00:00 AM","2019","11853","NYTIMES-USCENSUS"
"1/11/2022 12:00:00 AM","Wayne County","Missouri","Midwest","West North Central","29223","37.111074","-90.453931 ","1915","37","2","0","1/10/2022 12:00:00 AM","2019","12873","NYTIMES-USCENSUS"
"1/11/2022 12:00:00 AM","Surry County","Virginia","South","South Atlantic","51181","37.119761","-76.880172 ","835","13","12","0","1/10/2022 12:00:00 AM","2019","6422","NYTIMES-USCENSUS"
"1/11/2022 12:00:00 AM","Alfalfa County","Oklahoma","South","West South Central","40003","36.729703","-98.323445 ","1452","10","0","0","1/10/2022 12:00:00 AM","2019","5702","NYTIMES-USCENSUS"
"1/11/2022 12:00:00 AM","McMinn County","Tennessee","South","East South Central","47107","35.424472","-84.619949 ","11345","198","0","0","1/10/2022 12:00:00 AM","2019","53794","NYTIMES-USCENSUS"
"1/11/2022 12:00:00 AM","Augusta County","Virginia","South","South Atlantic","51015","38.17259","-79.140975 ","13914","147","216","2","1/10/2022 12:00:00 AM","2019","75558","NYTIMES-USCENSUS"
"1/11/2022 12:00:00 AM","East Carroll Parish","Louisiana","South","West South Central","22035","32.73017","-91.234141 ","1900","33","1","0","1/10/2022 12:00:00 AM","2019","6861","NYTIMES-USCENSUS"
"1/11/2022 12:00:00 AM","Howell County","Missouri","Midwest","West North Central","29091","36.774369","-91.887368 ","6864","175","57","0","1/10/2022 12:00:00 AM","2019","40117","NYTIMES-USCENSUS"
"1/11/2022 12:00:00 AM","Dorchester County","Maryland","South","South Atlantic","24019","38.429196","-76.047433 ","6065","93","60","0","1/10/2022 12:00:00 AM","2019","31929","NYTIMES-USCENSUS"
"1/11/2022 12:00:00 AM","Caswell County","North Carolina","South","South Atlantic","37033","36.394298","-79.339609 ","3869","39","31","0","1/10/2022 12:00:00 AM","2019","22604","NYTIMES-USCENSUS"
"1/11/2022 12:00:00 AM","Franklin County","Tennessee","South","East South Central","47051","35.155926","-86.099203 ","8774","145","0","0","1/10/2022 12:00:00 AM","2019","42208","NYTIMES-USCENSUS"
"1/11/2022 12:00:00 AM","McCulloch County","Texas","South","West South Central","48307","31.205477","-99.359856 ","1041","40","15","0","1/10/2022 12:00:00 AM","2019","7984","NYTIMES-USCENSUS"
"1/11/2022 12:00:00 AM","Jay County","Indiana","Midwest","East North Central","18075","40.434956","-85.002331 ","3866","68","14","0","1/10/2022 12:00:00 AM","2019","20436","NYTIMES-USCENSUS"
"1/11/2022 12:00:00 AM","Sevier County","Arkansas","South","West South Central","05133","33.994877","-94.243279 ","4540","63","50","0","1/10/2022 12:00:00 AM","2019","17007","NYTIMES-USCENSUS"
"1/11/2022 12:00:00 AM","Otter Tail County","Minnesota","Midwest","West North Central","27111","46.405727","-95.714581 ","10812","147","76","0","1/10/2022 12:00:00 AM","2019","58746","NYTIMES-USCENSUS"
"1/11/2022 12:00:00 AM","Bleckley County","Georgia","South","South Atlantic","13023","32.435403","-83.331717 ","2722","86","39","0","1/10/2022 12:00:00 AM","2019","12873","NYTIMES-USCENSUS"
"1/11/2022 12:00:00 AM","Archer County","Texas","South","West South Central","48009","33.616305","-98.687267 ","1574","24","20","0","1/10/2022 12:00:00 AM","2019","8553","NYTIMES-USCENSUS"
"1/11/2022 12:00:00 AM","Kanawha County","West Virginia","South","South Atlantic","54039","38.328068","-81.523516 ","32504","585","182","2","1/10/2022 12:00:00 AM","2019","178124","NYTIMES-USCENSUS"
"1/11/2022 12:00:00 AM","Mahaska County","Iowa","Midwest","West North Central","19123","41.330797","-92.636366 ","4101","72","0","0","1/10/2022 12:00:00 AM","2019","22095","NYTIMES-USCENSUS"
"1/11/2022 12:00:00 AM","Passaic County","New Jersey","Northeast","Middle Atlantic","34031","41.036655","-74.299408 ","127127","2119","1599","12","1/10/2022 12:00:00 AM","2019","501826","NYTIMES-USCENSUS"
"1/11/2022 12:00:00 AM","Knox County","Kentucky","South","East South Central","21121","36.8885","-83.855551 ","8290","111","54","0","1/10/2022 12:00:00 AM","2019","31145","NYTIMES-USCENSUS"
"1/11/2022 12:00:00 AM","Maverick County","Texas","South","West South Central","48323","28.729787","-100.316678 ","15544","419","285","1","1/10/2022 12:00:00 AM","2019","58722","NYTIMES-USCENSUS"
"1/11/2022 12:00:00 AM","Sutter County","California","West","Pacific","06101","39.03619","-121.70394 ","16441","203","279","1","1/10/2022 12:00:00 AM","2019","96971","NYTIMES-USCENSUS"
"1/11/2022 12:00:00 AM","Cross County","Arkansas","South","West South Central","05037","35.285692","-90.763984 ","3551","73","79","1","1/10/2022 12:00:00 AM","2019","16419","NYTIMES-USCENSUS"
"1/11/2022 12:00:00 AM","Erie County","Ohio","Midwest","East North Central","39043","41.394143","-82.586835 ","16931","221","82","2","1/10/2022 12:00:00 AM","2019","74266","NYTIMES-USCENSUS"
"1/11/2022 12:00:00 AM","Will County","Illinois","Midwest","East North Central","17197","41.448474","-87.978456 ","137073","1349","1440","2","1/10/2022 12:00:00 AM","2019","690743","NYTIMES-USCENSUS"
"1/11/2022 12:00:00 AM","Swain County","North Carolina","South","South Atlantic","37173","35.568849","-83.465614 ","2571","32","45","0","1/10/2022 12:00:00 AM","2019","14271","NYTIMES-USCENSUS"
"1/11/2022 12:00:00 AM","Lenoir County","North Carolina","South","South Atlantic","37107","35.240066","-77.635514 ","11313","182","61","0","1/10/2022 12:00:00 AM","2019","55949","NYTIMES-USCENSUS"
"1/11/2022 12:00:00 AM","Delta County","Michigan","Midwest","East North Central","26041","45.805229","-86.901938 ","7678","138","0","0","1/10/2022 12:00:00 AM","2019","35784","NYTIMES-USCENSUS"
"1/11/2022 12:00:00 AM","Clinton County","New York","Northeast","Middle Atlantic","36019","44.752712","-73.705643 ","11771","59","116","0","1/10/2022 12:00:00 AM","2019","80485","NYTIMES-USCENSUS"
"1/11/2022 12:00:00 AM","Ohio County","Indiana","Midwest","East North Central","18115","38.940527","-84.964299 ","1090","16","14","0","1/10/2022 12:00:00 AM","2019","5875","NYTIMES-USCENSUS"
"1/11/2022 12:00:00 AM","Jefferson County","Kentucky","South","East South Central","21111","38.189532","-85.657624 ","163273","1880","1513","2","1/10/2022 12:00:00 AM","2019","766757","NYTIMES-USCENSUS"
"1/11/2022 12:00:00 AM","Randolph County","Missouri","Midwest","West North Central","29175","39.439249","-92.492959 ","4580","89","48","1","1/10/2022 12:00:00 AM","2019","24748","NYTIMES-USCENSUS"
"1/11/2022 12:00:00 AM","Richland County","Wisconsin","Midwest","East North Central","55103","43.376199","-90.435693 ","2947","38","21","0","1/10/2022 12:00:00 AM","2019","17252","NYTIMES-USCENSUS"
"1/11/2022 12:00:00 AM","Dixie County","Florida","South","South Atlantic","12029","29.552675","-83.236232 ","3094","53","0","0","1/10/2022 12:00:00 AM","2019","16826","NYTIMES-USCENSUS"
"1/11/2022 12:00:00 AM","LaSalle Parish","Louisiana","South","West South Central","22059","31.680083","-92.161596 ","3087","46","22","0","1/10/2022 12:00:00 AM","2019","14892","NYTIMES-USCENSUS"
"1/11/2022 12:00:00 AM","Petersburg city","Virginia","South","South Atlantic","51730","37.20473","-77.392368 ","6747","109","115","0","1/10/2022 12:00:00 AM","2019","31346","NYTIMES-USCENSUS"
"1/11/2022 12:00:00 AM","Woodford County","Kentucky","South","East South Central","21239","38.043103","-84.748855 ","4644","38","47","0","1/10/2022 12:00:00 AM","2019","26734","NYTIMES-USCENSUS"
"1/11/2022 12:00:00 AM","Washington County","Maryland","South","South Atlantic","24043","39.603621","-77.814671 ","28849","489","56","3","1/10/2022 12:00:00 AM","2019","151049","NYTIMES-USCENSUS"
"1/11/2022 12:00:00 AM","Harrison County","West Virginia","South","South Atlantic","54033","39.279182","-80.386498 ","14455","204","62","0","1/10/2022 12:00:00 AM","2019","67256","NYTIMES-USCENSUS"
"1/11/2022 12:00:00 AM","Fulton County","Georgia","South","South Atlantic","13121","33.790034","-84.468182 ","182536","1901","1593","2","1/10/2022 12:00:00 AM","2019","1063937","NYTIMES-USCENSUS"
"1/11/2022 12:00:00 AM","Clatsop County","Oregon","West","Pacific","41007","46.024509","-123.705037 ","3198","37","41","0","1/10/2022 12:00:00 AM","2019","40224","NYTIMES-USCENSUS"
"1/11/2022 12:00:00 AM","Kalkaska County","Michigan","Midwest","East North Central","26079","44.678881","-85.088992 ","2712","48","0","0","1/10/2022 12:00:00 AM","2019","18038","NYTIMES-USCENSUS"
"1/11/2022 12:00:00 AM","Stafford County","Virginia","South","South Atlantic","51179","38.423084","-77.458048 ","23948","119","303","0","1/10/2022 12:00:00 AM","2019","152882","NYTIMES-USCENSUS"
"1/11/2022 12:00:00 AM","Clay County","Texas","South","West South Central","48077","33.785904","-98.212917 ","1713","26","7","0","1/10/2022 12:00:00 AM","2019","10471","NYTIMES-USCENSUS"
"1/11/2022 12:00:00 AM","Platte County","Nebraska","Midwest","West North Central","31141","41.576866","-97.513467 ","6837","50","71","0","1/10/2022 12:00:00 AM","2019","33470","NYTIMES-USCENSUS"
"1/11/2022 12:00:00 AM","Edgecombe County","North Carolina","South","South Atlantic","37065","35.917077","-77.602742 ","10459","127","109","0","1/10/2022 12:00:00 AM","2019","51472","NYTIMES-USCENSUS"
"1/11/2022 12:00:00 AM","Greenville County","South Carolina","South","South Atlantic","45045","34.892645","-82.372077 ","129795","1582","1057","0","1/10/2022 12:00:00 AM","2019","523542","NYTIMES-USCENSUS"
"1/11/2022 12:00:00 AM","La Salle County","Texas","South","West South Central","48283","28.351098","-99.096774 ","1615","41","13","0","1/10/2022 12:00:00 AM","2019","7520","NYTIMES-USCENSUS"
"1/11/2022 12:00:00 AM","Flathead County","Montana","West","Mountain","30029","48.295422","-114.052059 ","22123","225","120","0","1/10/2022 12:00:00 AM","2019","103806","NYTIMES-USCENSUS"
"1/11/2022 12:00:00 AM","Carlisle County","Kentucky","South","East South Central","21039","36.85718","-88.976614 ","784","14","5","0","1/10/2022 12:00:00 AM","2019","4760","NYTIMES-USCENSUS"
"1/11/2022 12:00:00 AM","Socorro County","New Mexico","West","Mountain","35053","33.991658","-106.939136 ","2749","71","17","0","1/10/2022 12:00:00 AM","2019","16637","NYTIMES-USCENSUS"
"1/11/2022 12:00:00 AM","Hillsborough County","New Hampshire","Northeast","New England","33011","42.911532","-71.723055 ","74297","786","909","1","1/10/2022 12:00:00 AM","2019","417025","NYTIMES-USCENSUS"
"1/11/2022 12:00:00 AM","Buchanan County","Missouri","Midwest","West North Central","29021","39.660369","-94.808173 ","19352","263","0","2","1/10/2022 12:00:00 AM","2019","87364","NYTIMES-USCENSUS"
"1/11/2022 12:00:00 AM","Fayette County","Georgia","South","South Atlantic","13113","33.412717","-84.493941 ","18393","258","273","1","1/10/2022 12:00:00 AM","2019","114421","NYTIMES-USCENSUS"
"1/11/2022 12:00:00 AM","Muscogee County","Georgia","South","South Atlantic","13215","32.510197","-84.874946 ","30645","682","614","2","1/10/2022 12:00:00 AM","2019","195769","NYTIMES-USCENSUS"
"1/11/2022 12:00:00 AM","Curry County","New Mexico","West","Mountain","35009","34.572984","-103.346055 ","9608","141","64","1","1/10/2022 12:00:00 AM","2019","48954","NYTIMES-USCENSUS"
"1/11/2022 12:00:00 AM","Rabun County","Georgia","South","South Atlantic","13241","34.883934","-83.40487 ","3000","82","37","0","1/10/2022 12:00:00 AM","2019","17137","NYTIMES-USCENSUS"
"1/11/2022 12:00:00 AM","McKean County","Pennsylvania","Northeast","Middle Atlantic","42083","41.81459","-78.572463 ","6691","119","29","1","1/10/2022 12:00:00 AM","2019","40625","NYTIMES-USCENSUS"
"1/11/2022 12:00:00 AM","Pope County","Minnesota","Midwest","West North Central","27121","45.589623","-95.446705 ","2357","14","26","0","1/10/2022 12:00:00 AM","2019","11249","NYTIMES-USCENSUS"
"1/11/2022 12:00:00 AM","Plaquemines Parish","Louisiana","South","West South Central","22075","29.282447","-89.576068 ","5161","41","83","0","1/10/2022 12:00:00 AM","2019","23197","NYTIMES-USCENSUS"
"1/11/2022 12:00:00 AM","Pike County","Mississippi","South","East South Central","28113","31.177516","-90.397725 ","7096","159","65","0","1/10/2022 12:00:00 AM","2019","39288","NYTIMES-USCENSUS"
"1/11/2022 12:00:00 AM","Cass County","Iowa","Midwest","West North Central","19029","41.333824","-94.933302 ","2519","73","0","0","1/10/2022 12:00:00 AM","2019","12836","NYTIMES-USCENSUS"
"1/11/2022 12:00:00 AM","Cimarron County","Oklahoma","South","West South Central","40025","36.74839","-102.517698 ","429","0","0","0","1/10/2022 12:00:00 AM","2019","2137","NYTIMES-USCENSUS"
"1/11/2022 12:00:00 AM","Crane County","Texas","South","West South Central","48103","31.422796","-102.487774 ","1082","19","18","0","1/10/2022 12:00:00 AM","2019","4797","NYTIMES-USCENSUS"
"1/11/2022 12:00:00 AM","Noble County","Indiana","Midwest","East North Central","18113","41.404679","-85.417271 ","10793","142","64","0","1/10/2022 12:00:00 AM","2019","47744","NYTIMES-USCENSUS"
"1/11/2022 12:00:00 AM","Walworth County","Wisconsin","Midwest","East North Central","55127","42.66811","-88.541731 ","21774","230","487","1","1/10/2022 12:00:00 AM","2019","103868","NYTIMES-USCENSUS"
"1/11/2022 12:00:00 AM","Linn County","Kansas","Midwest","West North Central","20107","38.216549","-94.844932 ","2136","23","0","0","1/10/2022 12:00:00 AM","2019","9703","NYTIMES-USCENSUS"
"1/11/2022 12:00:00 AM","Flagler County","Florida","South","South Atlantic","12035","29.474891","-81.286253 ","16687","282","0","0","1/10/2022 12:00:00 AM","2019","115081","NYTIMES-USCENSUS"
"1/11/2022 12:00:00 AM","Pike County","Georgia","South","South Atlantic","13231","33.081149","-84.389462 ","4520","74","77","0","1/10/2022 12:00:00 AM","2019","18962","NYTIMES-USCENSUS"
"1/11/2022 12:00:00 AM","Big Stone County","Minnesota","Midwest","West North Central","27011","45.419925","-96.402226 ","1082","7","24","0","1/10/2022 12:00:00 AM","2019","4991","NYTIMES-USCENSUS"
"1/11/2022 12:00:00 AM","Branch County","Michigan","Midwest","East North Central","26023","41.918455","-85.066885 ","9843","170","0","0","1/10/2022 12:00:00 AM","2019","43517","NYTIMES-USCENSUS"
"1/11/2022 12:00:00 AM","Pitkin County","Colorado","West","Mountain","08097","39.217541","-106.916162 ","5226","6","36","0","1/10/2022 12:00:00 AM","2019","17767","NYTIMES-USCENSUS"
"1/11/2022 12:00:00 AM","Orleans County","Vermont","Northeast","New England","50019","44.828442","-72.25163 ","4036","31","0","0","1/10/2022 12:00:00 AM","2019","27037","NYTIMES-USCENSUS"
"1/11/2022 12:00:00 AM","Pueblo County","Colorado","West","Mountain","08101","38.162765","-104.484668 ","34724","691","569","11","1/10/2022 12:00:00 AM","2019","168424","NYTIMES-USCENSUS"
"1/11/2022 12:00:00 AM","Gilchrist County","Florida","South","South Atlantic","12041","29.723456","-82.795801 ","3340","70","0","0","1/10/2022 12:00:00 AM","2019","18582","NYTIMES-USCENSUS"
"1/11/2022 12:00:00 AM","Douglas County","Kansas","Midwest","West North Central","20045","38.896417","-95.290947 ","17690","113","0","0","1/10/2022 12:00:00 AM","2019","122259","NYTIMES-USCENSUS"
"1/11/2022 12:00:00 AM","Clinton County","Kentucky","South","East South Central","21053","36.727258","-85.136098 ","2585","41","0","0","1/10/2022 12:00:00 AM","2019","10218","NYTIMES-USCENSUS"
"1/11/2022 12:00:00 AM","Macoupin County","Illinois","Midwest","East North Central","17117","39.265914","-89.92633 ","9735","152","163","0","1/10/2022 12:00:00 AM","2019","44926","NYTIMES-USCENSUS"
"1/11/2022 12:00:00 AM","Wells County","North Dakota","Midwest","West North Central","38103","47.580851","-99.682213 ","881","11","7","0","1/10/2022 12:00:00 AM","2019","3834","NYTIMES-USCENSUS"
"1/11/2022 12:00:00 AM","Alamance County","North Carolina","South","South Atlantic","37001","36.043954","-79.400573 ","34229","376","360","0","1/10/2022 12:00:00 AM","2019","169509","NYTIMES-USCENSUS"
"1/11/2022 12:00:00 AM","Mineral County","Colorado","West","Mountain","08079","37.549067","-107.003236 ","164","1","4","0","1/10/2022 12:00:00 AM","2019","769","NYTIMES-USCENSUS"
"1/11/2022 12:00:00 AM","Hyde County","South Dakota","Midwest","West North Central","46069","44.537174","-99.472736 ","249","5","1","0","1/10/2022 12:00:00 AM","2019","1301","NYTIMES-USCENSUS"
"1/11/2022 12:00:00 AM","Catawba County","North Carolina","South","South Atlantic","37035","35.661883","-81.214906 ","34797","479","338","3","1/10/2022 12:00:00 AM","2019","159551","NYTIMES-USCENSUS"
"1/11/2022 12:00:00 AM","Bath County","Kentucky","South","East South Central","21011","38.152249","-83.737641 ","2089","34","7","0","1/10/2022 12:00:00 AM","2019","12500","NYTIMES-USCENSUS"
"1/11/2022 12:00:00 AM","Lake County","Tennessee","South","East South Central","47095","36.333905","-89.485536 ","2100","34","0","0","1/10/2022 12:00:00 AM","2019","7016","NYTIMES-USCENSUS"
"1/11/2022 12:00:00 AM","Hall County","Texas","South","West South Central","48191","34.453189","-100.576343 ","682","16","3","0","1/10/2022 12:00:00 AM","2019","2964","NYTIMES-USCENSUS"
"1/11/2022 12:00:00 AM","Ohio County","West Virginia","South","South Atlantic","54069","40.100323","-80.6199 ","8576","133","128","1","1/10/2022 12:00:00 AM","2019","41411","NYTIMES-USCENSUS"
"1/11/2022 12:00:00 AM","Warren County","Indiana","Midwest","East North Central","18171","40.352498","-87.375163 ","1630","22","19","0","1/10/2022 12:00:00 AM","2019","8265","NYTIMES-USCENSUS"
"1/11/2022 12:00:00 AM","Clay County","Mississippi","South","East South Central","28025","33.65967","-88.782468 ","3895","78","40","0","1/10/2022 12:00:00 AM","2019","19316","NYTIMES-USCENSUS"
"1/11/2022 12:00:00 AM","Blackford County","Indiana","Midwest","East North Central","18009","40.472672","-85.32373 ","2584","57","12","1","1/10/2022 12:00:00 AM","2019","11758","NYTIMES-USCENSUS"
"1/11/2022 12:00:00 AM","Union County","South Dakota","Midwest","West North Central","46127","42.831106","-96.650829 ","3317","47","49","0","1/10/2022 12:00:00 AM","2019","15932","NYTIMES-USCENSUS"
"1/11/2022 12:00:00 AM","Logan County","Nebraska","Midwest","West North Central","31113","41.542155","-100.443665 ","120","0","0","0","1/10/2022 12:00:00 AM","2019","748","NYTIMES-USCENSUS"
"1/11/2022 12:00:00 AM","Jones County","North Carolina","South","South Atlantic","37103","35.032268","-77.356195 ","1567","38","-16","0","1/10/2022 12:00:00 AM","2019","9419","NYTIMES-USCENSUS"
"1/11/2022 12:00:00 AM","Ector County","Texas","South","West South Central","48135","31.865301","-102.542507 ","30625","579","210","0","1/10/2022 12:00:00 AM","2019","166223","NYTIMES-USCENSUS"
"1/11/2022 12:00:00 AM","Santa Cruz County","Arizona","West","Mountain","04023","31.525733","-110.845228 ","11420","207","166","0","1/10/2022 12:00:00 AM","2019","46498","NYTIMES-USCENSUS"
"1/11/2022 12:00:00 AM","Caldwell County","Texas","South","West South Central","48055","29.832399","-97.628141 ","10302","159","76","0","1/10/2022 12:00:00 AM","2019","43664","NYTIMES-USCENSUS"
"1/11/2022 12:00:00 AM","Huntington County","Indiana","Midwest","East North Central","18069","40.826394","-85.478597 ","9271","140","66","1","1/10/2022 12:00:00 AM","2019","36520","NYTIMES-USCENSUS"
"1/11/2022 12:00:00 AM","Bradford County","Pennsylvania","Northeast","Middle Atlantic","42015","41.791504","-76.502123 ","11823","169","77","4","1/10/2022 12:00:00 AM","2019","60323","NYTIMES-USCENSUS"
"1/11/2022 12:00:00 AM","Suwannee County","Florida","South","South Atlantic","12121","30.189244","-82.992754 ","9851","273","0","0","1/10/2022 12:00:00 AM","2019","44417","NYTIMES-USCENSUS"
"1/11/2022 12:00:00 AM","Douglas County","Georgia","South","South Atlantic","13097","33.701242","-84.767314 ","30425","322","321","3","1/10/2022 12:00:00 AM","2019","146343","NYTIMES-USCENSUS"
"1/11/2022 12:00:00 AM","Fulton County","New York","Northeast","Middle Atlantic","36035","43.115609","-74.423678 ","9993","135","77","0","1/10/2022 12:00:00 AM","2019","53383","NYTIMES-USCENSUS"
"1/11/2022 12:00:00 AM","Carter County","Missouri","Midwest","West North Central","29035","36.944858","-90.945705 ","1215","19","12","0","1/10/2022 12:00:00 AM","2019","5982","NYTIMES-USCENSUS"
"1/11/2022 12:00:00 AM","Wyandot County","Ohio","Midwest","East North Central","39175","40.839782","-83.313681 ","4477","87","33","4","1/10/2022 12:00:00 AM","2019","21772","NYTIMES-USCENSUS"
"1/11/2022 12:00:00 AM","Saline County","Arkansas","South","West South Central","05125","34.648525","-92.674463 ","23289","265","353","0","1/10/2022 12:00:00 AM","2019","122437","NYTIMES-USCENSUS"
"1/11/2022 12:00:00 AM","Cameron County","Pennsylvania","Northeast","Middle Atlantic","42023","41.438291","-78.198323 ","680","14","7","1","1/10/2022 12:00:00 AM","2019","4447","NYTIMES-USCENSUS"
"1/11/2022 12:00:00 AM","Walker County","Alabama","South","East South Central","01127","33.791558","-87.301094 ","13484","392","87","0","1/10/2022 12:00:00 AM","2019","63521","NYTIMES-USCENSUS"
"1/11/2022 12:00:00 AM","Eaton County","Michigan","Midwest","East North Central","26045","42.58953","-84.84645 ","20369","331","0","0","1/10/2022 12:00:00 AM","2019","110268","NYTIMES-USCENSUS"
"1/11/2022 12:00:00 AM","Bingham County","Idaho","West","Mountain","16011","43.216357","-112.399206 ","7721","138","41","0","1/10/2022 12:00:00 AM","2019","46811","NYTIMES-USCENSUS"
"1/11/2022 12:00:00 AM","Morgan County","Colorado","West","Mountain","08087","40.263159","-103.81221 ","4506","127","34","0","1/10/2022 12:00:00 AM","2019","29068","NYTIMES-USCENSUS"
"1/11/2022 12:00:00 AM","Hancock County","Mississippi","South","East South Central","28045","30.391641","-89.482791 ","8963","138","86","2","1/10/2022 12:00:00 AM","2019","47632","NYTIMES-USCENSUS"
"1/11/2022 12:00:00 AM","Daviess County","Missouri","Midwest","West North Central","29061","39.962839","-93.970053 ","1362","21","4","3","1/10/2022 12:00:00 AM","2019","8278","NYTIMES-USCENSUS"
"1/11/2022 12:00:00 AM","Franklin County","Pennsylvania","Northeast","Middle Atlantic","42055","39.926772","-77.724521 ","33151","577","462","5","1/10/2022 12:00:00 AM","2019","155027","NYTIMES-USCENSUS"
"1/11/2022 12:00:00 AM","Aiken County","South Carolina","South","South Atlantic","45003","33.550013","-81.632983 ","31667","371","188","0","1/10/2022 12:00:00 AM","2019","170872","NYTIMES-USCENSUS"
"1/11/2022 12:00:00 AM","Miller County","Missouri","Midwest","West North Central","29131","38.21668","-92.429876 ","4764","105","21","1","1/10/2022 12:00:00 AM","2019","25619","NYTIMES-USCENSUS"
"1/11/2022 12:00:00 AM","Houston County","Minnesota","Midwest","West North Central","27055","43.66699","-91.501556 ","3398","18","102","0","1/10/2022 12:00:00 AM","2019","18600","NYTIMES-USCENSUS"
"1/11/2022 12:00:00 AM","Comanche County","Oklahoma","South","West South Central","40031","34.662625","-98.476586 ","22680","335","0","0","1/10/2022 12:00:00 AM","2019","120749","NYTIMES-USCENSUS"
"1/11/2022 12:00:00 AM","Gallatin County","Montana","West","Mountain","30031","45.518054","-111.163921 ","26334","107","532","0","1/10/2022 12:00:00 AM","2019","114434","NYTIMES-USCENSUS"
"1/11/2022 12:00:00 AM","Anderson County","Texas","South","West South Central","48001","31.841261","-95.661727 ","8821","211","42","1","1/10/2022 12:00:00 AM","2019","57735","NYTIMES-USCENSUS"
"1/11/2022 12:00:00 AM","Madison County","Kentucky","South","East South Central","21151","37.725511","-84.278362 ","20128","221","284","0","1/10/2022 12:00:00 AM","2019","92987","NYTIMES-USCENSUS"
"1/11/2022 12:00:00 AM","Westmoreland County","Pennsylvania","Northeast","Middle Atlantic","42129","40.311068","-79.466688 ","64784","1160","403","7","1/10/2022 12:00:00 AM","2019","348899","NYTIMES-USCENSUS"
"1/11/2022 12:00:00 AM","Lee County","Mississippi","South","East South Central","28081","34.29237","-88.682439 ","20345","253","301","0","1/10/2022 12:00:00 AM","2019","85436","NYTIMES-USCENSUS"
"1/11/2022 12:00:00 AM","St. Tammany Parish","Louisiana","South","West South Central","22103","30.410022","-89.951962 ","55677","746","749","2","1/10/2022 12:00:00 AM","2019","260419","NYTIMES-USCENSUS"
"1/11/2022 12:00:00 AM","Iberville Parish","Louisiana","South","West South Central","22047","30.270653","-91.365872 ","7134","129","114","0","1/10/2022 12:00:00 AM","2019","32511","NYTIMES-USCENSUS"
"1/11/2022 12:00:00 AM","Henry County","Alabama","South","East South Central","01067","31.516978","-85.239971 ","3543","67","30","0","1/10/2022 12:00:00 AM","2019","17205","NYTIMES-USCENSUS"
"1/11/2022 12:00:00 AM","Grayson County","Virginia","South","South Atlantic","51077","36.652229","-81.215324 ","2712","64","8","1","1/10/2022 12:00:00 AM","2019","15550","NYTIMES-USCENSUS"
"1/11/2022 12:00:00 AM","McCreary County","Kentucky","South","East South Central","21147","36.731136","-84.491052 ","4235","68","0","0","1/10/2022 12:00:00 AM","2019","17231","NYTIMES-USCENSUS"
"1/11/2022 12:00:00 AM","Osceola County","Florida","South","South Atlantic","12097","28.059027","-81.139312 ","89228","939","0","0","1/10/2022 12:00:00 AM","2019","375751","NYTIMES-USCENSUS"
"1/11/2022 12:00:00 AM","Goochland County","Virginia","South","South Atlantic","51075","37.718814","-77.917626 ","2940","35","39","0","1/10/2022 12:00:00 AM","2019","23753","NYTIMES-USCENSUS"
"1/11/2022 12:00:00 AM","Oneida County","Wisconsin","Midwest","East North Central","55085","45.716176","-89.534533 ","6892","116","95","0","1/10/2022 12:00:00 AM","2019","35595","NYTIMES-USCENSUS"
"1/11/2022 12:00:00 AM","Keokuk County","Iowa","Midwest","West North Central","19107","41.331182","-92.167721 ","1679","44","0","0","1/10/2022 12:00:00 AM","2019","10246","NYTIMES-USCENSUS"
"1/11/2022 12:00:00 AM","Carbon County","Utah","West","Mountain","49007","39.673284","-110.588484 ","3964","42","54","1","1/10/2022 12:00:00 AM","2019","20463","NYTIMES-USCENSUS"
"1/11/2022 12:00:00 AM","Houston County","Texas","South","West South Central","48225","31.323036","-95.4216 ","3214","91","37","0","1/10/2022 12:00:00 AM","2019","22968","NYTIMES-USCENSUS"
"1/11/2022 12:00:00 AM","Cleveland County","Oklahoma","South","West South Central","40027","35.206376","-97.323088 ","51360","655","0","0","1/10/2022 12:00:00 AM","2019","284014","NYTIMES-USCENSUS"
"1/11/2022 12:00:00 AM","Glasscock County","Texas","South","West South Central","48173","31.868006","-101.521494 ","175","3","1","0","1/10/2022 12:00:00 AM","2019","1409","NYTIMES-USCENSUS"
"1/11/2022 12:00:00 AM","San Juan County","Colorado","West","Mountain","08111","37.781049","-107.670257 ","161","0","13","0","1/10/2022 12:00:00 AM","2019","728","NYTIMES-USCENSUS"
"1/11/2022 12:00:00 AM","Hubbard County","Minnesota","Midwest","West North Central","27057","47.095551","-94.91329 ","3929","52","55","0","1/10/2022 12:00:00 AM","2019","21491","NYTIMES-USCENSUS"
"1/11/2022 12:00:00 AM","Sanborn County","South Dakota","Midwest","West North Central","46111","44.018942","-98.091709 ","486","4","7","0","1/10/2022 12:00:00 AM","2019","2344","NYTIMES-USCENSUS"
"1/11/2022 12:00:00 AM","Foster County","North Dakota","Midwest","West North Central","38031","47.471431","-98.872876 ","776","19","6","0","1/10/2022 12:00:00 AM","2019","3210","NYTIMES-USCENSUS"
"1/11/2022 12:00:00 AM","Carlton County","Minnesota","Midwest","West North Central","27017","46.603818","-92.671044 ","6338","81","76","0","1/10/2022 12:00:00 AM","2019","35871","NYTIMES-USCENSUS"
"1/11/2022 12:00:00 AM","Clay County","Georgia","South","South Atlantic","13061","31.619831","-84.992583 ","405","4","12","0","1/10/2022 12:00:00 AM","2019","2834","NYTIMES-USCENSUS"
"1/11/2022 12:00:00 AM","St. Clair County","Alabama","South","East South Central","01115","33.719491","-86.311327 ","19792","367","255","0","1/10/2022 12:00:00 AM","2019","89512","NYTIMES-USCENSUS"
"1/11/2022 12:00:00 AM","Johnson County","Illinois","Midwest","East North Central","17087","37.460709","-88.882131 ","2956","41","20","0","1/10/2022 12:00:00 AM","2019","12417","NYTIMES-USCENSUS"
"1/11/2022 12:00:00 AM","Ingham County","Michigan","Midwest","East North Central","26065","42.603534","-84.373811 ","47947","604","0","0","1/10/2022 12:00:00 AM","2019","292406","NYTIMES-USCENSUS"
"1/11/2022 12:00:00 AM","Hardin County","Ohio","Midwest","East North Central","39065","40.660415","-83.664077 ","5761","124","21","0","1/10/2022 12:00:00 AM","2019","31365","NYTIMES-USCENSUS"
"1/11/2022 12:00:00 AM","Amite County","Mississippi","South","East South Central","28005","31.203933","-90.795542 ","2410","59","23","0","1/10/2022 12:00:00 AM","2019","12297","NYTIMES-USCENSUS"
"1/11/2022 12:00:00 AM","Garrett County","Maryland","South","South Atlantic","24023","39.547299","-79.274619 ","4656","101","31","0","1/10/2022 12:00:00 AM","2019","29014","NYTIMES-USCENSUS"
"1/11/2022 12:00:00 AM","Beauregard Parish","Louisiana","South","West South Central","22011","30.645018","-93.340253 ","6857","129","66","0","1/10/2022 12:00:00 AM","2019","37497","NYTIMES-USCENSUS"
"1/11/2022 12:00:00 AM","Daviess County","Indiana","Midwest","East North Central","18027","38.69609","-87.076943 ","5894","126","45","0","1/10/2022 12:00:00 AM","2019","33351","NYTIMES-USCENSUS"
"1/11/2022 12:00:00 AM","Woodward County","Oklahoma","South","West South Central","40153","36.425619","-99.273661 ","4247","55","0","0","1/10/2022 12:00:00 AM","2019","20211","NYTIMES-USCENSUS"
"1/11/2022 12:00:00 AM","Hamblen County","Tennessee","South","East South Central","47063","36.218397","-83.266071 ","14315","290","0","0","1/10/2022 12:00:00 AM","2019","64934","NYTIMES-USCENSUS"
"1/11/2022 12:00:00 AM","Madison Parish","Louisiana","South","West South Central","22065","32.346878","-91.231932 ","2646","55","21","0","1/10/2022 12:00:00 AM","2019","10951","NYTIMES-USCENSUS"
"1/11/2022 12:00:00 AM","Marshall County","Tennessee","South","East South Central","47117","35.468343","-86.765865 ","7457","102","0","0","1/10/2022 12:00:00 AM","2019","34375","NYTIMES-USCENSUS"
"1/11/2022 12:00:00 AM","Warren County","New Jersey","Northeast","Middle Atlantic","34041","40.853491","-75.009498 ","20386","294","343","4","1/10/2022 12:00:00 AM","2019","105267","NYTIMES-USCENSUS"
"1/11/2022 12:00:00 AM","East Feliciana Parish","Louisiana","South","West South Central","22037","30.839784","-91.043434 ","5249","152","90","1","1/10/2022 12:00:00 AM","2019","19135","NYTIMES-USCENSUS"
"1/11/2022 12:00:00 AM","Gem County","Idaho","West","Mountain","16045","44.061473","-116.398784 ","3010","72","11","0","1/10/2022 12:00:00 AM","2019","18112","NYTIMES-USCENSUS"
"1/11/2022 12:00:00 AM","Monroe County","Iowa","Midwest","West North Central","19135","41.028847","-92.869642 ","1567","43","0","0","1/10/2022 12:00:00 AM","2019","7707","NYTIMES-USCENSUS"
"1/11/2022 12:00:00 AM","Mississippi County","Arkansas","South","West South Central","05093","35.766944","-90.052207 ","10434","164","107","0","1/10/2022 12:00:00 AM","2019","40651","NYTIMES-USCENSUS"
"1/11/2022 12:00:00 AM","Rockbridge County","Virginia","South","South Atlantic","51163","37.814517","-79.447754 ","2581","71","22","0","1/10/2022 12:00:00 AM","2019","22573","NYTIMES-USCENSUS"
"1/11/2022 12:00:00 AM","Chippewa County","Michigan","Midwest","East North Central","26033","46.321819","-84.52063 ","8938","88","0","0","1/10/2022 12:00:00 AM","2019","37349","NYTIMES-USCENSUS"
"1/11/2022 12:00:00 AM","Taylor County","Kentucky","South","East South Central","21217","37.36621","-85.328059 ","6677","105","17","0","1/10/2022 12:00:00 AM","2019","25769","NYTIMES-USCENSUS"
"1/11/2022 12:00:00 AM","Harrison County","Kentucky","South","East South Central","21097","38.444578","-84.334131 ","4331","57","28","0","1/10/2022 12:00:00 AM","2019","18886","NYTIMES-USCENSUS"
"1/11/2022 12:00:00 AM","Sagadahoc County","Maine","Northeast","New England","23023","43.916845","-69.844227 ","3156","23","43","0","1/10/2022 12:00:00 AM","2019","35856","NYTIMES-USCENSUS"
"1/11/2022 12:00:00 AM","Ringgold County","Iowa","Midwest","West North Central","19159","40.735334","-94.244251 ","887","31","0","0","1/10/2022 12:00:00 AM","2019","4894","NYTIMES-USCENSUS"
"1/11/2022 12:00:00 AM","Marshall County","Oklahoma","South","West South Central","40095","34.027007","-96.770533 ","3014","31","0","0","1/10/2022 12:00:00 AM","2019","16931","NYTIMES-USCENSUS"
"1/11/2022 12:00:00 AM","Rush County","Indiana","Midwest","East North Central","18139","39.622362","-85.466529 ","3813","36","30","0","1/10/2022 12:00:00 AM","2019","16581","NYTIMES-USCENSUS"
"1/11/2022 12:00:00 AM","Carroll County","Ohio","Midwest","East North Central","39019","40.579884","-81.090787 ","4595","98","29","0","1/10/2022 12:00:00 AM","2019","26914","NYTIMES-USCENSUS"
"1/11/2022 12:00:00 AM","Chase County","Kansas","Midwest","West North Central","20017","38.299475","-96.594029 ","500","6","0","0","1/10/2022 12:00:00 AM","2019","2648","NYTIMES-USCENSUS"
"1/11/2022 12:00:00 AM","Richland County","North Dakota","Midwest","West North Central","38077","46.265219","-96.93796 ","3135","21","28","0","1/10/2022 12:00:00 AM","2019","16177","NYTIMES-USCENSUS"
"1/11/2022 12:00:00 AM","Choctaw County","Oklahoma","South","West South Central","40023","34.027699","-95.554079 ","2883","52","0","0","1/10/2022 12:00:00 AM","2019","14672","NYTIMES-USCENSUS"
"1/11/2022 12:00:00 AM","Greer County","Oklahoma","South","West South Central","40055","34.933853","-99.552968 ","842","27","0","0","1/10/2022 12:00:00 AM","2019","5712","NYTIMES-USCENSUS"
"1/11/2022 12:00:00 AM","Bollinger County","Missouri","Midwest","West North Central","29017","37.318427","-90.024645 ","2055","36","3","0","1/10/2022 12:00:00 AM","2019","12133","NYTIMES-USCENSUS"
