"monitor_date","county","state_name","region","subregion","fips","latitude","longitude","case_count_to_date","death_count_to_date","case_count","death_count","previous_monitor_date","population_year","population","source"
"10/6/2022 12:00:00 AM","Phelps County","Missouri","Midwest","West North Central","29161","37.866326","-91.790349 ","11952","251","0","0","10/5/2022 12:00:00 AM","2019","44573","NYTIMES-USCENSUS"
"10/6/2022 12:00:00 AM","Pettis County","Missouri","Midwest","West North Central","29159","38.727367","-93.285207 ","14063","177","0","0","10/5/2022 12:00:00 AM","2019","42339","NYTIMES-USCENSUS"
"10/6/2022 12:00:00 AM","Petersburg city","Virginia","South","South Atlantic","51730","37.20473","-77.392368 ","9373","144","9","0","10/5/2022 12:00:00 AM","2019","31346","NYTIMES-USCENSUS"
"10/6/2022 12:00:00 AM","Petersburg Borough","Alaska","West","Pacific","02195","57.112458","-133.008598 ","890","6","0","0","10/5/2022 12:00:00 AM","2019","3266","NYTIMES-USCENSUS"
"10/6/2022 12:00:00 AM","Person County","North Carolina","South","South Atlantic","37145","36.38635","-78.965623 ","11438","113","0","0","10/5/2022 12:00:00 AM","2019","39490","NYTIMES-USCENSUS"
"10/6/2022 12:00:00 AM","Pershing County","Nevada","West","Mountain","32027","40.439639","-118.409477 ","2303","31","0","0","10/5/2022 12:00:00 AM","2019","6725","NYTIMES-USCENSUS"
"10/6/2022 12:00:00 AM","Perry County","Pennsylvania","Northeast","Middle Atlantic","42099","40.39778","-77.266328 ","9795","192","0","0","10/5/2022 12:00:00 AM","2019","46272","NYTIMES-USCENSUS"
"10/6/2022 12:00:00 AM","Perquimans County","North Carolina","South","South Atlantic","37143","36.180897","-76.403244 ","3256","25","0","0","10/5/2022 12:00:00 AM","2019","13463","NYTIMES-USCENSUS"
"10/6/2022 12:00:00 AM","Ontonagon County","Michigan","Midwest","East North Central","26131","46.835325","-89.276912 ","1215","43","0","0","10/5/2022 12:00:00 AM","2019","5720","NYTIMES-USCENSUS"
"10/6/2022 12:00:00 AM","Ontario County","New York","Northeast","Middle Atlantic","36069","42.856357","-77.303497 ","24205","197","25","0","10/5/2022 12:00:00 AM","2019","109777","NYTIMES-USCENSUS"
"10/6/2022 12:00:00 AM","Onslow County","North Carolina","South","South Atlantic","37133","34.763109","-77.499469 ","61812","415","0","0","10/5/2022 12:00:00 AM","2019","197938","NYTIMES-USCENSUS"
"10/6/2022 12:00:00 AM","Onondaga County","New York","Northeast","Middle Atlantic","36067","43.006516","-76.196134 ","134605","1133","159","1","10/5/2022 12:00:00 AM","2019","460528","NYTIMES-USCENSUS"
"10/6/2022 12:00:00 AM","Oneida County","New York","Northeast","Middle Atlantic","36065","43.242727","-75.434282 ","64725","835","71","1","10/5/2022 12:00:00 AM","2019","228671","NYTIMES-USCENSUS"
"10/6/2022 12:00:00 AM","Olmsted County","Minnesota","Midwest","West North Central","27109","43.999499","-92.410098 ","50019","202","213","0","10/5/2022 12:00:00 AM","2019","158293","NYTIMES-USCENSUS"
"10/6/2022 12:00:00 AM","Oliver County","North Dakota","Midwest","West North Central","38065","47.118079","-101.33142 ","361","5","0","0","10/5/2022 12:00:00 AM","2019","1959","NYTIMES-USCENSUS"
"10/6/2022 12:00:00 AM","Oldham County","Texas","South","West South Central","48359","35.401921","-102.59762 ","612","6","0","0","10/5/2022 12:00:00 AM","2019","2112","NYTIMES-USCENSUS"
"10/6/2022 12:00:00 AM","Oktibbeha County","Mississippi","South","East South Central","28105","33.422313","-88.876151 ","12904","168","0","0","10/5/2022 12:00:00 AM","2019","49587","NYTIMES-USCENSUS"
"10/6/2022 12:00:00 AM","Okmulgee County","Oklahoma","South","West South Central","40111","35.6435","-95.965947 ","10926","203","32","5","10/5/2022 12:00:00 AM","2019","38465","NYTIMES-USCENSUS"
"10/6/2022 12:00:00 AM","Oklahoma County","Oklahoma","South","West South Central","40109","35.554611","-97.409401 ","230549","2565","560","14","10/5/2022 12:00:00 AM","2019","797434","NYTIMES-USCENSUS"
"10/6/2022 12:00:00 AM","Okfuskee County","Oklahoma","South","West South Central","40107","35.466804","-96.327762 ","3981","64","7","1","10/5/2022 12:00:00 AM","2019","11993","NYTIMES-USCENSUS"
"10/6/2022 12:00:00 AM","Okeechobee County","Florida","South","South Atlantic","12093","27.385592","-80.887388 ","12009","192","0","0","10/5/2022 12:00:00 AM","2019","42168","NYTIMES-USCENSUS"
"10/6/2022 12:00:00 AM","Okanogan County","Washington","West","Pacific","53047","48.548453","-119.742235 ","9962","135","0","0","10/5/2022 12:00:00 AM","2019","42243","NYTIMES-USCENSUS"
"10/6/2022 12:00:00 AM","Okaloosa County","Florida","South","South Atlantic","12091","30.614325","-86.59108 ","59056","735","0","0","10/5/2022 12:00:00 AM","2019","210738","NYTIMES-USCENSUS"
"10/6/2022 12:00:00 AM","Ohio County","Kentucky","South","East South Central","21183","37.477859","-86.844871 ","8532","110","0","0","10/5/2022 12:00:00 AM","2019","23994","NYTIMES-USCENSUS"
"10/6/2022 12:00:00 AM","Oglethorpe County","Georgia","South","South Atlantic","13221","33.866806","-83.074081 ","3603","62","0","0","10/5/2022 12:00:00 AM","2019","15259","NYTIMES-USCENSUS"
"10/6/2022 12:00:00 AM","Ogle County","Illinois","Midwest","East North Central","17141","42.041884","-89.320176 ","16241","139","3","0","10/5/2022 12:00:00 AM","2019","50643","NYTIMES-USCENSUS"
"10/6/2022 12:00:00 AM","Oglala Lakota County","South Dakota","Midwest","West North Central","46102","43.333393","-102.561486 ","4617","61","0","0","10/5/2022 12:00:00 AM","2019","14177","NYTIMES-USCENSUS"
"10/6/2022 12:00:00 AM","Ogemaw County","Michigan","Midwest","East North Central","26129","44.33328","-84.128073 ","4794","110","0","0","10/5/2022 12:00:00 AM","2019","20997","NYTIMES-USCENSUS"
"10/6/2022 12:00:00 AM","Oconto County","Wisconsin","Midwest","East North Central","55083","44.996575","-88.206516 ","12699","126","9","0","10/5/2022 12:00:00 AM","2019","37930","NYTIMES-USCENSUS"
"10/6/2022 12:00:00 AM","Oconee County","Georgia","South","South Atlantic","13219","33.834125","-83.437728 ","9995","114","0","0","10/5/2022 12:00:00 AM","2019","40280","NYTIMES-USCENSUS"
"10/6/2022 12:00:00 AM","Ochiltree County","Texas","South","West South Central","48357","36.278744","-100.815864 ","2588","49","0","0","10/5/2022 12:00:00 AM","2019","9836","NYTIMES-USCENSUS"
"10/6/2022 12:00:00 AM","Oceana County","Michigan","Midwest","East North Central","26127","43.603954","-86.467177 ","7263","100","0","0","10/5/2022 12:00:00 AM","2019","26467","NYTIMES-USCENSUS"
"10/6/2022 12:00:00 AM","Ocean County","New Jersey","Northeast","Middle Atlantic","34029","39.865669","-74.258864 ","195384","3133","189","3","10/5/2022 12:00:00 AM","2019","607186","NYTIMES-USCENSUS"
"10/6/2022 12:00:00 AM","O'Brien County","Iowa","Midwest","West North Central","19141","43.083746","-95.625624 ","3736","73","0","0","10/5/2022 12:00:00 AM","2019","13753","NYTIMES-USCENSUS"
"10/6/2022 12:00:00 AM","Obion County","Tennessee","South","East South Central","47131","36.361892","-89.148078 ","12292","204","0","0","10/5/2022 12:00:00 AM","2019","30069","NYTIMES-USCENSUS"
"10/6/2022 12:00:00 AM","Oakland County","Michigan","Midwest","East North Central","26125","42.660452","-83.38421 ","354811","4142","0","0","10/5/2022 12:00:00 AM","2019","1257584","NYTIMES-USCENSUS"
"10/6/2022 12:00:00 AM","Nance County","Nebraska","Midwest","West North Central","31125","41.402385","-97.991408 ","837","17","0","0","10/5/2022 12:00:00 AM","2019","3519","NYTIMES-USCENSUS"
"10/6/2022 12:00:00 AM","Nacogdoches County","Texas","South","West South Central","48347","31.62056","-94.62025 ","14042","269","0","0","10/5/2022 12:00:00 AM","2019","65204","NYTIMES-USCENSUS"
"10/6/2022 12:00:00 AM","Musselshell County","Montana","West","Mountain","30065","46.505281","-108.439763 ","1032","31","0","0","10/5/2022 12:00:00 AM","2019","4633","NYTIMES-USCENSUS"
"10/6/2022 12:00:00 AM","Muskogee County","Oklahoma","South","West South Central","40101","35.617551","-95.383911 ","22825","358","88","2","10/5/2022 12:00:00 AM","2019","67997","NYTIMES-USCENSUS"
"10/6/2022 12:00:00 AM","Muskingum County","Ohio","Midwest","East North Central","39119","39.966046","-81.943506 ","29676","306","63","1","10/5/2022 12:00:00 AM","2019","86215","NYTIMES-USCENSUS"
"10/6/2022 12:00:00 AM","Muskegon County","Michigan","Midwest","East North Central","26121","43.428739","-86.420908 ","47832","681","0","0","10/5/2022 12:00:00 AM","2019","173566","NYTIMES-USCENSUS"
"10/6/2022 12:00:00 AM","Muscogee County","Georgia","South","South Atlantic","13215","32.510197","-84.874946 ","43536","882","0","0","10/5/2022 12:00:00 AM","2019","195769","NYTIMES-USCENSUS"
"10/6/2022 12:00:00 AM","Richland County","Montana","West","Mountain","30083","47.785633","-104.563408 ","2855","36","0","0","10/5/2022 12:00:00 AM","2019","10803","NYTIMES-USCENSUS"
"10/6/2022 12:00:00 AM","Richardson County","Nebraska","Midwest","West North Central","31147","40.123743","-95.718603 ","2053","31","0","0","10/5/2022 12:00:00 AM","2019","7865","NYTIMES-USCENSUS"
"10/6/2022 12:00:00 AM","Rice County","Kansas","Midwest","West North Central","20159","38.347178","-98.201415 ","2908","30","0","0","10/5/2022 12:00:00 AM","2019","9537","NYTIMES-USCENSUS"
"10/6/2022 12:00:00 AM","Rhea County","Tennessee","South","East South Central","47143","35.60059","-84.949548 ","11161","166","0","0","10/5/2022 12:00:00 AM","2019","33167","NYTIMES-USCENSUS"
"10/6/2022 12:00:00 AM","Reynolds County","Missouri","Midwest","West North Central","29179","37.366464","-90.972282 ","1316","27","0","0","10/5/2022 12:00:00 AM","2019","6270","NYTIMES-USCENSUS"
"10/6/2022 12:00:00 AM","Republic County","Kansas","Midwest","West North Central","20157","39.828906","-97.650883 ","1467","19","0","0","10/5/2022 12:00:00 AM","2019","4636","NYTIMES-USCENSUS"
"10/6/2022 12:00:00 AM","Renville County","Minnesota","Midwest","West North Central","27129","44.723697","-94.955617 ","4275","58","9","0","10/5/2022 12:00:00 AM","2019","14548","NYTIMES-USCENSUS"
"10/6/2022 12:00:00 AM","Rensselaer County","New York","Northeast","Middle Atlantic","36083","42.710421","-73.513845 ","38999","287","31","1","10/5/2022 12:00:00 AM","2019","158714","NYTIMES-USCENSUS"
"10/6/2022 12:00:00 AM","Reno County","Kansas","Midwest","West North Central","20155","37.948185","-98.078346 ","21175","262","0","0","10/5/2022 12:00:00 AM","2019","61998","NYTIMES-USCENSUS"
"10/6/2022 12:00:00 AM","Refugio County","Texas","South","West South Central","48391","28.322116","-97.162472 ","2093","39","0","0","10/5/2022 12:00:00 AM","2019","6948","NYTIMES-USCENSUS"
"10/6/2022 12:00:00 AM","Reeves County","Texas","South","West South Central","48389","31.308366","-103.712706 ","5242","75","0","0","10/5/2022 12:00:00 AM","2019","15976","NYTIMES-USCENSUS"
"10/6/2022 12:00:00 AM","Redwood County","Minnesota","Midwest","West North Central","27127","44.403536","-95.254241 ","4446","54","22","0","10/5/2022 12:00:00 AM","2019","15170","NYTIMES-USCENSUS"
"10/6/2022 12:00:00 AM","Red Willow County","Nebraska","Midwest","West North Central","31145","40.16942","-100.468576 ","2509","23","0","0","10/5/2022 12:00:00 AM","2019","10724","NYTIMES-USCENSUS"
"10/6/2022 12:00:00 AM","Red River Parish","Louisiana","South","West South Central","22081","32.101213","-93.34905 ","2420","57","3","0","10/5/2022 12:00:00 AM","2019","8442","NYTIMES-USCENSUS"
"10/6/2022 12:00:00 AM","Red River County","Texas","South","West South Central","48387","33.619625","-95.048429 ","2613","71","0","0","10/5/2022 12:00:00 AM","2019","12023","NYTIMES-USCENSUS"
"10/6/2022 12:00:00 AM","Red Lake County","Minnesota","Midwest","West North Central","27125","47.865487","-96.08718 ","1014","13","11","0","10/5/2022 12:00:00 AM","2019","4055","NYTIMES-USCENSUS"
"10/6/2022 12:00:00 AM","Reagan County","Texas","South","West South Central","48383","31.375191","-101.514395 ","941","15","0","0","10/5/2022 12:00:00 AM","2019","3849","NYTIMES-USCENSUS"
"10/6/2022 12:00:00 AM","Ray County","Missouri","Midwest","West North Central","29177","39.308401","-93.995746 ","5849","99","0","0","10/5/2022 12:00:00 AM","2019","23018","NYTIMES-USCENSUS"
"10/6/2022 12:00:00 AM","Ravalli County","Montana","West","Mountain","30081","46.077744","-114.105795 ","7935","166","0","0","10/5/2022 12:00:00 AM","2019","43806","NYTIMES-USCENSUS"
"10/6/2022 12:00:00 AM","Rappahannock County","Virginia","South","South Atlantic","51157","38.684522","-78.168824 ","1257","13","0","0","10/5/2022 12:00:00 AM","2019","7370","NYTIMES-USCENSUS"
"10/6/2022 12:00:00 AM","Rapides Parish","Louisiana","South","West South Central","22079","31.193204","-92.535953 ","37901","604","14","0","10/5/2022 12:00:00 AM","2019","129648","NYTIMES-USCENSUS"
"10/6/2022 12:00:00 AM","Plaquemines Parish","Louisiana","South","West South Central","22075","29.282447","-89.576068 ","7425","48","4","0","10/5/2022 12:00:00 AM","2019","23197","NYTIMES-USCENSUS"
"10/6/2022 12:00:00 AM","Placer County","California","West","Pacific","06061","39.062032","-120.722718 ","85192","660","195","-1","10/5/2022 12:00:00 AM","2019","398329","NYTIMES-USCENSUS"
"10/6/2022 12:00:00 AM","Piute County","Utah","West","Mountain","49031","38.335881","-112.129375 ","332","7","2","0","10/5/2022 12:00:00 AM","2019","1479","NYTIMES-USCENSUS"
"10/6/2022 12:00:00 AM","Pittsylvania County","Virginia","South","South Atlantic","51143","36.821721","-79.398502 ","17116","225","7","0","10/5/2022 12:00:00 AM","2019","60354","NYTIMES-USCENSUS"
"10/6/2022 12:00:00 AM","Pittsburg County","Oklahoma","South","West South Central","40121","34.92554","-95.74813 ","12907","224","44","1","10/5/2022 12:00:00 AM","2019","43654","NYTIMES-USCENSUS"
"10/6/2022 12:00:00 AM","Pitt County","North Carolina","South","South Atlantic","37147","35.59249","-77.372739 ","62840","276","0","0","10/5/2022 12:00:00 AM","2019","180742","NYTIMES-USCENSUS"
"10/6/2022 12:00:00 AM","Pitkin County","Colorado","West","Mountain","08097","39.217541","-106.916162 ","7833","8","6","0","10/5/2022 12:00:00 AM","2019","17767","NYTIMES-USCENSUS"
"10/6/2022 12:00:00 AM","Piscataquis County","Maine","Northeast","New England","23021","45.915639","-69.102231 ","3561","40","8","0","10/5/2022 12:00:00 AM","2019","16785","NYTIMES-USCENSUS"
"10/6/2022 12:00:00 AM","Pipestone County","Minnesota","Midwest","West North Central","27117","44.015361","-96.257015 ","2220","34","10","0","10/5/2022 12:00:00 AM","2019","9126","NYTIMES-USCENSUS"
"10/6/2022 12:00:00 AM","Pinellas County","Florida","South","South Atlantic","12103","27.905342","-82.798066 ","258739","3773","0","0","10/5/2022 12:00:00 AM","2019","974996","NYTIMES-USCENSUS"
"10/6/2022 12:00:00 AM","Pine County","Minnesota","Midwest","West North Central","27115","46.10094","-92.763094 ","8080","70","47","1","10/5/2022 12:00:00 AM","2019","29579","NYTIMES-USCENSUS"
"10/6/2022 12:00:00 AM","Pinal County","Arizona","West","Mountain","04021","32.918521","-111.36634 ","147773","1732","0","0","10/5/2022 12:00:00 AM","2019","462789","NYTIMES-USCENSUS"
"10/6/2022 12:00:00 AM","Pima County","Arizona","West","Mountain","04019","32.128038","-111.783657 ","292232","4008","0","0","10/5/2022 12:00:00 AM","2019","1047279","NYTIMES-USCENSUS"
"10/6/2022 12:00:00 AM","Pike County","Mississippi","South","East South Central","28113","31.177516","-90.397725 ","11882","192","0","0","10/5/2022 12:00:00 AM","2019","39288","NYTIMES-USCENSUS"
"10/6/2022 12:00:00 AM","Pierce County","Georgia","South","South Atlantic","13229","31.353998","-82.21037 ","6232","141","0","0","10/5/2022 12:00:00 AM","2019","19465","NYTIMES-USCENSUS"
"10/6/2022 12:00:00 AM","Pickett County","Tennessee","South","East South Central","47137","36.559364","-85.075741 ","2030","38","0","0","10/5/2022 12:00:00 AM","2019","5048","NYTIMES-USCENSUS"
"10/6/2022 12:00:00 AM","Pickens County","South Carolina","South","South Atlantic","45077","34.885368","-82.723377 ","51310","649","0","0","10/5/2022 12:00:00 AM","2019","126884","NYTIMES-USCENSUS"
"10/6/2022 12:00:00 AM","Pickaway County","Ohio","Midwest","East North Central","39129","39.648947","-83.052827 ","19864","235","63","0","10/5/2022 12:00:00 AM","2019","58457","NYTIMES-USCENSUS"
"10/6/2022 12:00:00 AM","Piatt County","Illinois","Midwest","East North Central","17147","40.009033","-88.592355 ","5129","29","1","0","10/5/2022 12:00:00 AM","2019","16344","NYTIMES-USCENSUS"
"10/6/2022 12:00:00 AM","Phillips County","Kansas","Midwest","West North Central","20147","39.784506","-99.34215 ","1546","32","0","0","10/5/2022 12:00:00 AM","2019","5234","NYTIMES-USCENSUS"
"10/6/2022 12:00:00 AM","Philadelphia County","Pennsylvania","Northeast","Middle Atlantic","42101","40.009376","-75.133346 ","364863","5307","0","0","10/5/2022 12:00:00 AM","2019","1584064","NYTIMES-USCENSUS"
"10/6/2022 12:00:00 AM","Maverick County","Texas","South","West South Central","48323","28.729787","-100.316678 ","23408","475","0","0","10/5/2022 12:00:00 AM","2019","58722","NYTIMES-USCENSUS"
"10/6/2022 12:00:00 AM","Maury County","Tennessee","South","East South Central","47119","35.615696","-87.077763 ","33078","368","0","0","10/5/2022 12:00:00 AM","2019","96387","NYTIMES-USCENSUS"
"10/6/2022 12:00:00 AM","Maui County","Hawaii","West","Pacific","15009","20.855931","-156.60155 ","43032","162","0","0","10/5/2022 12:00:00 AM","2019","167417","NYTIMES-USCENSUS"
"10/6/2022 12:00:00 AM","Mathews County","Virginia","South","South Atlantic","51115","37.425348","-76.268808 ","1841","27","3","0","10/5/2022 12:00:00 AM","2019","8834","NYTIMES-USCENSUS"
"10/6/2022 12:00:00 AM","Matanuska-Susitna Borough","Alaska","West","Pacific","02170","62.265626","-149.503993 ","39571","251","0","0","10/5/2022 12:00:00 AM","2019","108317","NYTIMES-USCENSUS"
"10/6/2022 12:00:00 AM","Matagorda County","Texas","South","West South Central","48321","28.77476","-96.001532 ","9827","184","0","0","10/5/2022 12:00:00 AM","2019","36643","NYTIMES-USCENSUS"
"10/6/2022 12:00:00 AM","Long County","Georgia","South","South Atlantic","13183","31.749563","-81.74287 ","3341","35","0","0","10/5/2022 12:00:00 AM","2019","19559","NYTIMES-USCENSUS"
"10/6/2022 12:00:00 AM","Logan County","West Virginia","South","South Atlantic","54045","37.830591","-81.940853 ","12100","199","7","2","10/5/2022 12:00:00 AM","2019","32019","NYTIMES-USCENSUS"
"10/6/2022 12:00:00 AM","Llano County","Texas","South","West South Central","48299","30.707584","-98.68469 ","4740","98","0","0","10/5/2022 12:00:00 AM","2019","21795","NYTIMES-USCENSUS"
"10/6/2022 12:00:00 AM","Livingston Parish","Louisiana","South","West South Central","22063","30.440419","-90.727474 ","41829","480","7","0","10/5/2022 12:00:00 AM","2019","140789","NYTIMES-USCENSUS"
"10/6/2022 12:00:00 AM","Livingston County","Kentucky","South","East South Central","21139","37.209517","-88.363426 ","2921","64","0","0","10/5/2022 12:00:00 AM","2019","9194","NYTIMES-USCENSUS"
"10/6/2022 12:00:00 AM","Live Oak County","Texas","South","West South Central","48297","28.351535","-98.126961 ","2330","42","0","0","10/5/2022 12:00:00 AM","2019","12207","NYTIMES-USCENSUS"
"10/6/2022 12:00:00 AM","Little River County","Arkansas","South","West South Central","05081","33.701941","-94.236287 ","3687","107","7","0","10/5/2022 12:00:00 AM","2019","12259","NYTIMES-USCENSUS"
"10/6/2022 12:00:00 AM","Litchfield County","Connecticut","Northeast","New England","09005","41.791883","-73.235404 ","38330","481","33","0","10/5/2022 12:00:00 AM","2019","180333","NYTIMES-USCENSUS"
"10/6/2022 12:00:00 AM","Lipscomb County","Texas","South","West South Central","48295","36.2802","-100.272683 ","761","17","0","0","10/5/2022 12:00:00 AM","2019","3233","NYTIMES-USCENSUS"
"10/6/2022 12:00:00 AM","Linn County","Kansas","Midwest","West North Central","20107","38.216549","-94.844932 ","3270","35","0","0","10/5/2022 12:00:00 AM","2019","9703","NYTIMES-USCENSUS"
"10/6/2022 12:00:00 AM","Lincoln Parish","Louisiana","South","West South Central","22061","32.601823","-92.662303 ","14608","155","4","0","10/5/2022 12:00:00 AM","2019","46742","NYTIMES-USCENSUS"
"10/6/2022 12:00:00 AM","Lincoln County","New Mexico","West","Mountain","35027","33.740841","-105.449805 ","6182","70","3","0","10/5/2022 12:00:00 AM","2019","19572","NYTIMES-USCENSUS"
"10/6/2022 12:00:00 AM","Limestone County","Alabama","South","East South Central","01083","34.810239","-86.981399 ","29750","307","72","1","10/5/2022 12:00:00 AM","2019","98915","NYTIMES-USCENSUS"
"10/6/2022 12:00:00 AM","Licking County","Ohio","Midwest","East North Central","39089","40.091505","-82.483435 ","49056","495","147","3","10/5/2022 12:00:00 AM","2019","176862","NYTIMES-USCENSUS"
"10/6/2022 12:00:00 AM","Liberty County","Florida","South","South Atlantic","12077","30.259849","-84.86858 ","2870","31","0","0","10/5/2022 12:00:00 AM","2019","8354","NYTIMES-USCENSUS"
"10/6/2022 12:00:00 AM","Lexington County","South Carolina","South","South Atlantic","45063","33.899246","-81.266118 ","114057","905","0","0","10/5/2022 12:00:00 AM","2019","298750","NYTIMES-USCENSUS"
"10/6/2022 12:00:00 AM","Lexington city","Virginia","South","South Atlantic","51678","37.782332","-79.44432 ","2523","34","1","0","10/5/2022 12:00:00 AM","2019","7446","NYTIMES-USCENSUS"
"10/6/2022 12:00:00 AM","Lewis County","West Virginia","South","South Atlantic","54041","38.988877","-80.495477 ","6660","93","5","0","10/5/2022 12:00:00 AM","2019","15907","NYTIMES-USCENSUS"
"10/6/2022 12:00:00 AM","Lewis and Clark County","Montana","West","Mountain","30049","47.132013","-112.373367 ","20707","194","0","0","10/5/2022 12:00:00 AM","2019","69432","NYTIMES-USCENSUS"
"10/6/2022 12:00:00 AM","Levy County","Florida","South","South Atlantic","12075","29.271854","-82.831233 ","12074","178","0","0","10/5/2022 12:00:00 AM","2019","41503","NYTIMES-USCENSUS"
"10/6/2022 12:00:00 AM","Letcher County","Kentucky","South","East South Central","21133","37.118536","-82.861251 ","8960","132","0","0","10/5/2022 12:00:00 AM","2019","21553","NYTIMES-USCENSUS"
"10/6/2022 12:00:00 AM","Leslie County","Kentucky","South","East South Central","21131","37.087846","-83.388617 ","4702","53","0","0","10/5/2022 12:00:00 AM","2019","9877","NYTIMES-USCENSUS"
"10/6/2022 12:00:00 AM","Leon County","Florida","South","South Atlantic","12073","30.45931","-84.2778 ","106276","736","0","0","10/5/2022 12:00:00 AM","2019","293582","NYTIMES-USCENSUS"
"10/6/2022 12:00:00 AM","Lenoir County","North Carolina","South","South Atlantic","37107","35.240066","-77.635514 ","18705","242","0","0","10/5/2022 12:00:00 AM","2019","55949","NYTIMES-USCENSUS"
"10/6/2022 12:00:00 AM","Lenawee County","Michigan","Midwest","East North Central","26091","41.896022","-84.074356 ","30172","349","0","0","10/5/2022 12:00:00 AM","2019","98451","NYTIMES-USCENSUS"
"10/6/2022 12:00:00 AM","Lemhi County","Idaho","West","Mountain","16059","44.928506","-113.887042 ","1665","28","0","0","10/5/2022 12:00:00 AM","2019","8027","NYTIMES-USCENSUS"
"10/6/2022 12:00:00 AM","Lehigh County","Pennsylvania","Northeast","Middle Atlantic","42077","40.614241","-75.590627 ","103169","1300","0","0","10/5/2022 12:00:00 AM","2019","369318","NYTIMES-USCENSUS"
"10/6/2022 12:00:00 AM","Leflore County","Mississippi","South","East South Central","28083","33.54979","-90.294934 ","8346","181","0","0","10/5/2022 12:00:00 AM","2019","28183","NYTIMES-USCENSUS"
"10/6/2022 12:00:00 AM","Leelanau County","Michigan","Midwest","East North Central","26089","45.146182","-86.051574 ","4173","63","0","0","10/5/2022 12:00:00 AM","2019","21761","NYTIMES-USCENSUS"
"10/6/2022 12:00:00 AM","Lee County","North Carolina","South","South Atlantic","37105","35.476336","-79.172117 ","18833","168","0","0","10/5/2022 12:00:00 AM","2019","61779","NYTIMES-USCENSUS"
"10/6/2022 12:00:00 AM","Kittitas County","Washington","West","Pacific","53037","47.124441","-120.676709 ","9946","84","0","0","10/5/2022 12:00:00 AM","2019","47935","NYTIMES-USCENSUS"
"10/6/2022 12:00:00 AM","Kitsap County","Washington","West","Pacific","53035","47.639595","-122.649634 ","49115","389","0","0","10/5/2022 12:00:00 AM","2019","271473","NYTIMES-USCENSUS"
"10/6/2022 12:00:00 AM","Kit Carson County","Colorado","West","Mountain","08063","39.30534","-102.603023 ","1804","33","0","-1","10/5/2022 12:00:00 AM","2019","7097","NYTIMES-USCENSUS"
"10/6/2022 12:00:00 AM","Kiowa County","Oklahoma","South","West South Central","40075","34.921489","-98.981617 ","2206","55","6","0","10/5/2022 12:00:00 AM","2019","8708","NYTIMES-USCENSUS"
"10/6/2022 12:00:00 AM","Kinney County","Texas","South","West South Central","48271","29.347086","-100.4177 ","805","13","0","0","10/5/2022 12:00:00 AM","2019","3667","NYTIMES-USCENSUS"
"10/6/2022 12:00:00 AM","Kingsbury County","South Dakota","Midwest","West North Central","46077","44.362969","-97.499313 ","1443","23","0","0","10/5/2022 12:00:00 AM","2019","4939","NYTIMES-USCENSUS"
"10/6/2022 12:00:00 AM","Kings County","California","West","Pacific","06031","36.072478","-119.81553 ","63568","458","95","-1","10/5/2022 12:00:00 AM","2019","152940","NYTIMES-USCENSUS"
"10/6/2022 12:00:00 AM","Muscatine County","Iowa","Midwest","West North Central","19139","41.483776","-91.118699 ","10783","132","0","0","10/5/2022 12:00:00 AM","2019","42664","NYTIMES-USCENSUS"
"10/6/2022 12:00:00 AM","Murray County","Minnesota","Midwest","West North Central","27101","44.015594","-95.761581 ","2231","20","4","0","10/5/2022 12:00:00 AM","2019","8194","NYTIMES-USCENSUS"
"10/6/2022 12:00:00 AM","Multnomah County","Oregon","West","Pacific","41051","45.547711","-122.417363 ","158691","1385","0","0","10/5/2022 12:00:00 AM","2019","812855","NYTIMES-USCENSUS"
"10/6/2022 12:00:00 AM","Muhlenberg County","Kentucky","South","East South Central","21177","37.213816","-87.134092 ","12226","128","0","0","10/5/2022 12:00:00 AM","2019","30622","NYTIMES-USCENSUS"
"10/6/2022 12:00:00 AM","Mower County","Minnesota","Midwest","West North Central","27099","43.666249","-92.759514 ","13148","78","47","2","10/5/2022 12:00:00 AM","2019","40062","NYTIMES-USCENSUS"
"10/6/2022 12:00:00 AM","Mountrail County","North Dakota","Midwest","West North Central","38061","48.210073","-102.364895 ","3636","37","0","0","10/5/2022 12:00:00 AM","2019","10545","NYTIMES-USCENSUS"
"10/6/2022 12:00:00 AM","Moultrie County","Illinois","Midwest","East North Central","17139","39.636896","-88.625726 ","4649","58","2","1","10/5/2022 12:00:00 AM","2019","14501","NYTIMES-USCENSUS"
"10/6/2022 12:00:00 AM","Motley County","Texas","South","West South Central","48345","34.057899","-100.793152 ","304","13","0","0","10/5/2022 12:00:00 AM","2019","1200","NYTIMES-USCENSUS"
"10/6/2022 12:00:00 AM","Morton County","Kansas","Midwest","West North Central","20129","37.185249","-101.809516 ","670","11","0","0","10/5/2022 12:00:00 AM","2019","2587","NYTIMES-USCENSUS"
"10/6/2022 12:00:00 AM","Morrow County","Oregon","West","Pacific","41049","45.425496","-119.602311 ","3269","37","0","0","10/5/2022 12:00:00 AM","2019","11603","NYTIMES-USCENSUS"
"10/6/2022 12:00:00 AM","Morrison County","Minnesota","Midwest","West North Central","27097","46.020484","-94.266619 ","10388","114","47","0","10/5/2022 12:00:00 AM","2019","33386","NYTIMES-USCENSUS"
"10/6/2022 12:00:00 AM","Morris County","Texas","South","West South Central","48343","33.116466","-94.731265 ","2865","75","0","0","10/5/2022 12:00:00 AM","2019","12388","NYTIMES-USCENSUS"
"10/6/2022 12:00:00 AM","Morrill County","Nebraska","Midwest","West North Central","31123","41.732204","-102.990594 ","1257","33","0","0","10/5/2022 12:00:00 AM","2019","4642","NYTIMES-USCENSUS"
"10/6/2022 12:00:00 AM","Morgan County","Missouri","Midwest","West North Central","29141","38.420806","-92.874835 ","4601","119","0","0","10/5/2022 12:00:00 AM","2019","20627","NYTIMES-USCENSUS"
"10/6/2022 12:00:00 AM","Morehouse Parish","Louisiana","South","West South Central","22067","32.820008","-91.800399 ","8139","142","0","0","10/5/2022 12:00:00 AM","2019","24874","NYTIMES-USCENSUS"
"10/6/2022 12:00:00 AM","Moore County","North Carolina","South","South Atlantic","37125","35.308272","-79.492725 ","29103","353","0","0","10/5/2022 12:00:00 AM","2019","100880","NYTIMES-USCENSUS"
"10/6/2022 12:00:00 AM","Moody County","South Dakota","Midwest","West North Central","46101","44.012429","-96.676054 ","1631","28","0","0","10/5/2022 12:00:00 AM","2019","6576","NYTIMES-USCENSUS"
"10/6/2022 12:00:00 AM","Montrose County","Colorado","West","Mountain","08085","38.407507","-108.266282 ","10629","174","6","0","10/5/2022 12:00:00 AM","2019","42758","NYTIMES-USCENSUS"
"10/6/2022 12:00:00 AM","Montour County","Pennsylvania","Northeast","Middle Atlantic","42093","41.029284","-76.665225 ","5452","94","0","0","10/5/2022 12:00:00 AM","2019","18230","NYTIMES-USCENSUS"
"10/6/2022 12:00:00 AM","Montmorency County","Michigan","Midwest","East North Central","26119","45.024134","-84.130107 ","1884","49","0","0","10/5/2022 12:00:00 AM","2019","9328","NYTIMES-USCENSUS"
"10/6/2022 12:00:00 AM","Montgomery County","Iowa","Midwest","West North Central","19137","41.021735","-95.15779 ","2450","57","0","0","10/5/2022 12:00:00 AM","2019","9917","NYTIMES-USCENSUS"
"10/6/2022 12:00:00 AM","McMinn County","Tennessee","South","East South Central","47107","35.424472","-84.619949 ","18919","276","0","0","10/5/2022 12:00:00 AM","2019","53794","NYTIMES-USCENSUS"
"10/6/2022 12:00:00 AM","McLeod County","Minnesota","Midwest","West North Central","27085","44.821657","-94.272323 ","12186","114","30","0","10/5/2022 12:00:00 AM","2019","35893","NYTIMES-USCENSUS"
"10/6/2022 12:00:00 AM","McLennan County","Texas","South","West South Central","48309","31.549596","-97.201511 ","70373","935","0","0","10/5/2022 12:00:00 AM","2019","256623","NYTIMES-USCENSUS"
"10/6/2022 12:00:00 AM","McLean County","Kentucky","South","East South Central","21149","37.526707","-87.265597 ","3071","57","0","0","10/5/2022 12:00:00 AM","2019","9207","NYTIMES-USCENSUS"
"10/6/2022 12:00:00 AM","McKinley County","New Mexico","West","Mountain","35031","35.584062","-108.253294 ","30408","629","12","1","10/5/2022 12:00:00 AM","2019","71367","NYTIMES-USCENSUS"
"10/6/2022 12:00:00 AM","McKenzie County","North Dakota","Midwest","West North Central","38053","47.742475","-103.403215 ","3512","25","0","0","10/5/2022 12:00:00 AM","2019","15024","NYTIMES-USCENSUS"
"10/6/2022 12:00:00 AM","McKean County","Pennsylvania","Northeast","Middle Atlantic","42083","41.81459","-78.572463 ","9236","157","0","0","10/5/2022 12:00:00 AM","2019","40625","NYTIMES-USCENSUS"
"10/6/2022 12:00:00 AM","McIntosh County","Georgia","South","South Atlantic","13191","31.485629","-81.372141 ","2747","39","0","0","10/5/2022 12:00:00 AM","2019","14378","NYTIMES-USCENSUS"
"10/6/2022 12:00:00 AM","McHenry County","Illinois","Midwest","East North Central","17111","42.324298","-88.452245 ","91320","525","54","0","10/5/2022 12:00:00 AM","2019","307774","NYTIMES-USCENSUS"
"10/6/2022 12:00:00 AM","McDuffie County","Georgia","South","South Atlantic","13189","33.480613","-82.479533 ","5861","109","0","0","10/5/2022 12:00:00 AM","2019","21312","NYTIMES-USCENSUS"
"10/6/2022 12:00:00 AM","McDowell County","North Carolina","South","South Atlantic","37111","35.682271","-82.048044 ","16152","183","0","0","10/5/2022 12:00:00 AM","2019","45756","NYTIMES-USCENSUS"
"10/6/2022 12:00:00 AM","McDonough County","Illinois","Midwest","East North Central","17109","40.455808","-90.678954 ","8484","116","1","0","10/5/2022 12:00:00 AM","2019","29682","NYTIMES-USCENSUS"
"10/6/2022 12:00:00 AM","McDonald County","Missouri","Midwest","West North Central","29119","36.627955","-94.343716 ","6360","81","0","0","10/5/2022 12:00:00 AM","2019","22837","NYTIMES-USCENSUS"
"10/6/2022 12:00:00 AM","McCurtain County","Oklahoma","South","West South Central","40089","34.117073","-94.766086 ","9099","168","21","0","10/5/2022 12:00:00 AM","2019","32832","NYTIMES-USCENSUS"
"10/6/2022 12:00:00 AM","McCulloch County","Texas","South","West South Central","48307","31.205477","-99.359856 ","1635","49","0","0","10/5/2022 12:00:00 AM","2019","7984","NYTIMES-USCENSUS"
"10/6/2022 12:00:00 AM","McCreary County","Kentucky","South","East South Central","21147","36.731136","-84.491052 ","7066","86","0","0","10/5/2022 12:00:00 AM","2019","17231","NYTIMES-USCENSUS"
"10/6/2022 12:00:00 AM","McCracken County","Kentucky","South","East South Central","21145","37.054111","-88.712454 ","22569","295","0","0","10/5/2022 12:00:00 AM","2019","65418","NYTIMES-USCENSUS"
"10/6/2022 12:00:00 AM","McCormick County","South Carolina","South","South Atlantic","45065","33.897599","-82.316196 ","2551","40","0","0","10/5/2022 12:00:00 AM","2019","9463","NYTIMES-USCENSUS"
"10/6/2022 12:00:00 AM","McCook County","South Dakota","Midwest","West North Central","46087","43.680416","-97.358048 ","1450","32","0","0","10/5/2022 12:00:00 AM","2019","5586","NYTIMES-USCENSUS"
"10/6/2022 12:00:00 AM","McClain County","Oklahoma","South","West South Central","40087","35.016436","-97.449803 ","13353","141","35","0","10/5/2022 12:00:00 AM","2019","40474","NYTIMES-USCENSUS"
"10/6/2022 12:00:00 AM","Mayes County","Oklahoma","South","West South Central","40097","36.303804","-95.235638 ","12099","169","40","1","10/5/2022 12:00:00 AM","2019","41100","NYTIMES-USCENSUS"
"10/6/2022 12:00:00 AM","Calhoun County","West Virginia","South","South Atlantic","54013","38.844159","-81.115478 ","2193","15","0","0","10/5/2022 12:00:00 AM","2019","7109","NYTIMES-USCENSUS"
"10/6/2022 12:00:00 AM","Calhoun County","Alabama","South","East South Central","01015","33.770516","-85.827909 ","38330","658","119","2","10/5/2022 12:00:00 AM","2019","113605","NYTIMES-USCENSUS"
"10/6/2022 12:00:00 AM","Calhoun County","Florida","South","South Atlantic","12013","30.388801","-85.197915 ","4650","103","0","0","10/5/2022 12:00:00 AM","2019","14105","NYTIMES-USCENSUS"
"10/6/2022 12:00:00 AM","Calhoun County","Georgia","South","South Atlantic","13037","31.521279","-84.62629 ","1523","24","0","0","10/5/2022 12:00:00 AM","2019","6189","NYTIMES-USCENSUS"
"10/6/2022 12:00:00 AM","Calhoun County","South Carolina","South","South Atlantic","45017","33.67478","-80.780347 ","3342","61","0","0","10/5/2022 12:00:00 AM","2019","14553","NYTIMES-USCENSUS"
"10/6/2022 12:00:00 AM","Calhoun County","Michigan","Midwest","East North Central","26025","42.24299","-85.012385 ","39948","623","0","0","10/5/2022 12:00:00 AM","2019","134159","NYTIMES-USCENSUS"
"10/6/2022 12:00:00 AM","Calhoun County","Illinois","Midwest","East North Central","17013","39.164262","-90.666295 ","1775","8","0","0","10/5/2022 12:00:00 AM","2019","4739","NYTIMES-USCENSUS"
"10/6/2022 12:00:00 AM","Calhoun County","Texas","South","West South Central","48057","28.441719","-96.579574 ","6666","52","0","0","10/5/2022 12:00:00 AM","2019","21290","NYTIMES-USCENSUS"
"10/6/2022 12:00:00 AM","Calhoun County","Iowa","Midwest","West North Central","19025","42.38617","-94.643683 ","2913","26","0","0","10/5/2022 12:00:00 AM","2019","9668","NYTIMES-USCENSUS"
"10/6/2022 12:00:00 AM","Caldwell County","North Carolina","South","South Atlantic","37027","35.966396","-81.51254 ","27355","335","0","0","10/5/2022 12:00:00 AM","2019","82178","NYTIMES-USCENSUS"
"10/6/2022 12:00:00 AM","Caldwell County","Kentucky","South","East South Central","21033","37.148642","-87.870509 ","4720","65","0","0","10/5/2022 12:00:00 AM","2019","12747","NYTIMES-USCENSUS"
"10/6/2022 12:00:00 AM","Caldwell County","Missouri","Midwest","West North Central","29025","39.658998","-93.979179 ","1935","40","0","0","10/5/2022 12:00:00 AM","2019","9020","NYTIMES-USCENSUS"
"10/6/2022 12:00:00 AM","Butte County","California","West","Pacific","06007","39.665336","-121.603209 ","48467","454","75","0","10/5/2022 12:00:00 AM","2019","219186","NYTIMES-USCENSUS"
"10/6/2022 12:00:00 AM","Butte County","South Dakota","Midwest","West North Central","46019","44.896226","-103.501436 ","3070","47","0","0","10/5/2022 12:00:00 AM","2019","10429","NYTIMES-USCENSUS"
"10/6/2022 12:00:00 AM","Atchison County","Kansas","Midwest","West North Central","20005","39.532544","-95.313397 ","4775","42","0","0","10/5/2022 12:00:00 AM","2019","16073","NYTIMES-USCENSUS"
"10/6/2022 12:00:00 AM","Ashland County","Wisconsin","Midwest","East North Central","55003","46.544424","-90.679691 ","3928","42","1","0","10/5/2022 12:00:00 AM","2019","15562","NYTIMES-USCENSUS"
"10/6/2022 12:00:00 AM","Armstrong County","Texas","South","West South Central","48011","34.964179","-101.356636 ","637","10","0","0","10/5/2022 12:00:00 AM","2019","1887","NYTIMES-USCENSUS"
"10/6/2022 12:00:00 AM","Ziebach County","South Dakota","Midwest","West North Central","46137","44.989764","-101.660827 ","695","11","0","0","10/5/2022 12:00:00 AM","2019","2756","NYTIMES-USCENSUS"
"10/6/2022 12:00:00 AM","Zavala County","Texas","South","West South Central","48507","28.864652","-99.75983 ","4406","70","0","0","10/5/2022 12:00:00 AM","2019","11840","NYTIMES-USCENSUS"
"10/6/2022 12:00:00 AM","Zapata County","Texas","South","West South Central","48505","26.996981","-99.182603 ","4244","56","0","0","10/5/2022 12:00:00 AM","2019","14179","NYTIMES-USCENSUS"
"10/6/2022 12:00:00 AM","Yuma County","Arizona","West","Mountain","04027","32.773942","-113.910905 ","67777","1209","0","0","10/5/2022 12:00:00 AM","2019","213787","NYTIMES-USCENSUS"
"10/6/2022 12:00:00 AM","Yukon-Koyukuk Census Area","Alaska","West","Pacific","02290","65.375727","-151.57785 ","1674","11","0","0","10/5/2022 12:00:00 AM","2019","5230","NYTIMES-USCENSUS"
"10/6/2022 12:00:00 AM","Yuba County","California","West","Pacific","06115","39.27013","-121.344259 ","20620","129","33","-3","10/5/2022 12:00:00 AM","2019","78668","NYTIMES-USCENSUS"
"10/6/2022 12:00:00 AM","Young County","Texas","South","West South Central","48503","33.158778","-98.67839 ","4309","96","0","0","10/5/2022 12:00:00 AM","2019","18010","NYTIMES-USCENSUS"
"10/6/2022 12:00:00 AM","York County","Virginia","South","South Atlantic","51199","37.220914","-76.395533 ","12456","118","8","0","10/5/2022 12:00:00 AM","2019","68280","NYTIMES-USCENSUS"
"10/6/2022 12:00:00 AM","Yolo County","California","West","Pacific","06113","38.679609","-121.90275 ","51804","341","143","0","10/5/2022 12:00:00 AM","2019","220500","NYTIMES-USCENSUS"
"10/6/2022 12:00:00 AM","Yoakum County","Texas","South","West South Central","48501","33.162339","-102.832241 ","1631","42","0","0","10/5/2022 12:00:00 AM","2019","8713","NYTIMES-USCENSUS"
"10/6/2022 12:00:00 AM","Yellowstone County","Montana","West","Mountain","30111","45.936987","-108.276656 ","48206","579","0","0","10/5/2022 12:00:00 AM","2019","161300","NYTIMES-USCENSUS"
"10/6/2022 12:00:00 AM","Yellow Medicine County","Minnesota","Midwest","West North Central","27173","44.715736","-95.862756 ","2868","31","9","0","10/5/2022 12:00:00 AM","2019","9709","NYTIMES-USCENSUS"
"10/6/2022 12:00:00 AM","Yell County","Arkansas","South","West South Central","05149","34.997713","-93.408303 ","7373","109","0","0","10/5/2022 12:00:00 AM","2019","21341","NYTIMES-USCENSUS"
"10/6/2022 12:00:00 AM","Yazoo County","Mississippi","South","East South Central","28163","32.765675","-90.387928 ","9432","112","0","0","10/5/2022 12:00:00 AM","2019","29690","NYTIMES-USCENSUS"
"10/6/2022 12:00:00 AM","Yavapai County","Arizona","West","Mountain","04025","34.631071","-112.577225 ","55235","1285","0","0","10/5/2022 12:00:00 AM","2019","235099","NYTIMES-USCENSUS"
"10/6/2022 12:00:00 AM","Yates County","New York","Northeast","Middle Atlantic","36123","42.638237","-77.104324 ","4152","40","6","0","10/5/2022 12:00:00 AM","2019","24913","NYTIMES-USCENSUS"
"10/6/2022 12:00:00 AM","Yankton County","South Dakota","Midwest","West North Central","46135","43.006603","-97.388361 ","6524","60","0","0","10/5/2022 12:00:00 AM","2019","22814","NYTIMES-USCENSUS"
"10/6/2022 12:00:00 AM","Yancey County","North Carolina","South","South Atlantic","37199","35.889326","-82.303954 ","6111","66","0","0","10/5/2022 12:00:00 AM","2019","18069","NYTIMES-USCENSUS"
"10/6/2022 12:00:00 AM","Yamhill County","Oregon","West","Pacific","41071","45.247827","-123.316399 ","21367","241","0","0","10/5/2022 12:00:00 AM","2019","107100","NYTIMES-USCENSUS"
"10/6/2022 12:00:00 AM","Yalobusha County","Mississippi","South","East South Central","28161","34.030666","-89.703807 ","4628","61","0","0","10/5/2022 12:00:00 AM","2019","12108","NYTIMES-USCENSUS"
"10/6/2022 12:00:00 AM","Yakima County","Washington","West","Pacific","53077","46.456558","-120.740145 ","82297","839","0","0","10/5/2022 12:00:00 AM","2019","250873","NYTIMES-USCENSUS"
"10/6/2022 12:00:00 AM","Yadkin County","North Carolina","South","South Atlantic","37197","36.158765","-80.665164 ","13693","128","0","0","10/5/2022 12:00:00 AM","2019","37667","NYTIMES-USCENSUS"
"10/6/2022 12:00:00 AM","Wythe County","Virginia","South","South Atlantic","51197","36.899867","-81.083001 ","8969","161","0","0","10/5/2022 12:00:00 AM","2019","28684","NYTIMES-USCENSUS"
"10/6/2022 12:00:00 AM","West Feliciana Parish","Louisiana","South","West South Central","22125","30.873364","-91.421776 ","3097","48","2","0","10/5/2022 12:00:00 AM","2019","15568","NYTIMES-USCENSUS"
"10/6/2022 12:00:00 AM","West Carroll Parish","Louisiana","South","West South Central","22123","32.79248","-91.451998 ","4321","71","3","0","10/5/2022 12:00:00 AM","2019","10830","NYTIMES-USCENSUS"
"10/6/2022 12:00:00 AM","West Baton Rouge Parish","Louisiana","South","West South Central","22121","30.464052","-91.309808 ","8521","93","2","0","10/5/2022 12:00:00 AM","2019","26465","NYTIMES-USCENSUS"
"10/6/2022 12:00:00 AM","Clay County","Nebraska","Midwest","West North Central","31035","40.523669","-98.050858 ","1642","32","0","0","10/5/2022 12:00:00 AM","2019","6203","NYTIMES-USCENSUS"
"10/6/2022 12:00:00 AM","Clay County","Iowa","Midwest","West North Central","19041","43.081224","-95.149875 ","4589","48","0","0","10/5/2022 12:00:00 AM","2019","16016","NYTIMES-USCENSUS"
"10/6/2022 12:00:00 AM","Clay County","Kansas","Midwest","West North Central","20027","39.344964","-97.168853 ","2247","43","0","0","10/5/2022 12:00:00 AM","2019","8002","NYTIMES-USCENSUS"
"10/6/2022 12:00:00 AM","Clay County","Illinois","Midwest","East North Central","17025","38.746819","-88.482325 ","5553","78","1","0","10/5/2022 12:00:00 AM","2019","13184","NYTIMES-USCENSUS"
"10/6/2022 12:00:00 AM","Clay County","Texas","South","West South Central","48077","33.785904","-98.212917 ","2370","40","0","0","10/5/2022 12:00:00 AM","2019","10471","NYTIMES-USCENSUS"
"10/6/2022 12:00:00 AM","Clay County","Mississippi","South","East South Central","28025","33.65967","-88.782468 ","5770","100","0","0","10/5/2022 12:00:00 AM","2019","19316","NYTIMES-USCENSUS"
"10/6/2022 12:00:00 AM","Clay County","Kentucky","South","East South Central","21051","37.164273","-83.715473 ","9144","101","0","0","10/5/2022 12:00:00 AM","2019","19901","NYTIMES-USCENSUS"
"10/6/2022 12:00:00 AM","Clay County","Alabama","South","East South Central","01027","33.2704","-85.863525 ","4745","90","1","0","10/5/2022 12:00:00 AM","2019","13235","NYTIMES-USCENSUS"
"10/6/2022 12:00:00 AM","Clay County","Missouri","Midwest","West North Central","29047","39.315551","-94.421502 ","31214","385","0","0","10/5/2022 12:00:00 AM","2019","249948","NYTIMES-USCENSUS"
"10/6/2022 12:00:00 AM","Clay County","West Virginia","South","South Atlantic","54015","38.459826","-81.081866 ","2628","50","1","0","10/5/2022 12:00:00 AM","2019","8508","NYTIMES-USCENSUS"
"10/6/2022 12:00:00 AM","Clay County","Arkansas","South","West South Central","05021","36.367302","-90.418704 ","4725","98","0","0","10/5/2022 12:00:00 AM","2019","14551","NYTIMES-USCENSUS"
"10/6/2022 12:00:00 AM","Clay County","South Dakota","Midwest","West North Central","46027","42.91615","-96.980468 ","3741","24","0","0","10/5/2022 12:00:00 AM","2019","14070","NYTIMES-USCENSUS"
"10/6/2022 12:00:00 AM","Clarke County","Alabama","South","East South Central","01025","31.685521","-87.818624 ","8037","106","10","0","10/5/2022 12:00:00 AM","2019","23622","NYTIMES-USCENSUS"
"10/6/2022 12:00:00 AM","Clarke County","Georgia","South","South Atlantic","13059","33.952185","-83.367152 ","33751","249","0","0","10/5/2022 12:00:00 AM","2019","128331","NYTIMES-USCENSUS"
"10/6/2022 12:00:00 AM","Clarke County","Mississippi","South","East South Central","28023","32.045374","-88.687976 ","4678","112","0","0","10/5/2022 12:00:00 AM","2019","15541","NYTIMES-USCENSUS"
"10/6/2022 12:00:00 AM","Clarke County","Iowa","Midwest","West North Central","19039","41.029726","-93.785259 ","2542","41","0","0","10/5/2022 12:00:00 AM","2019","9395","NYTIMES-USCENSUS"
"10/6/2022 12:00:00 AM","Clark County","Nevada","West","Mountain","32003","36.21413","-115.014398 ","641829","8991","0","0","10/5/2022 12:00:00 AM","2019","2266715","NYTIMES-USCENSUS"
"10/6/2022 12:00:00 AM","Clark County","Ohio","Midwest","East North Central","39023","39.917032","-83.783676 ","40598","603","135","2","10/5/2022 12:00:00 AM","2019","134083","NYTIMES-USCENSUS"
"10/6/2022 12:00:00 AM","Clark County","Indiana","Midwest","East North Central","18019","38.476217","-85.711122 ","37168","414","0","0","10/5/2022 12:00:00 AM","2019","118302","NYTIMES-USCENSUS"
"10/6/2022 12:00:00 AM","Clark County","Kansas","Midwest","West North Central","20025","37.233831","-99.813869 ","543","8","0","0","10/5/2022 12:00:00 AM","2019","1994","NYTIMES-USCENSUS"
"10/6/2022 12:00:00 AM","Clark County","Missouri","Midwest","West North Central","29045","40.407275","-91.729472 ","1811","41","0","0","10/5/2022 12:00:00 AM","2019","6797","NYTIMES-USCENSUS"
"10/6/2022 12:00:00 AM","Clark County","Illinois","Midwest","East North Central","17023","39.332334","-87.791683 ","5575","61","4","0","10/5/2022 12:00:00 AM","2019","15441","NYTIMES-USCENSUS"
"10/6/2022 12:00:00 AM","Clark County","Arkansas","South","West South Central","05019","34.053316","-93.176208 ","6121","88","5","0","10/5/2022 12:00:00 AM","2019","22320","NYTIMES-USCENSUS"
"10/6/2022 12:00:00 AM","Clark County","South Dakota","Midwest","West North Central","46025","44.855211","-97.724912 ","883","11","0","0","10/5/2022 12:00:00 AM","2019","3736","NYTIMES-USCENSUS"
"10/6/2022 12:00:00 AM","Clark County","Wisconsin","Midwest","East North Central","55019","44.739346","-90.609953 ","8519","127","2","0","10/5/2022 12:00:00 AM","2019","34774","NYTIMES-USCENSUS"
"10/6/2022 12:00:00 AM","Claiborne County","Tennessee","South","East South Central","47025","36.501572","-83.660698 ","10314","198","0","0","10/5/2022 12:00:00 AM","2019","31959","NYTIMES-USCENSUS"
"10/6/2022 12:00:00 AM","Christian County","Kentucky","South","East South Central","21047","36.892059","-87.492986 ","18926","227","0","0","10/5/2022 12:00:00 AM","2019","70461","NYTIMES-USCENSUS"
"10/6/2022 12:00:00 AM","Christian County","Missouri","Midwest","West North Central","29043","36.969739","-93.187614 ","23531","275","0","0","10/5/2022 12:00:00 AM","2019","88595","NYTIMES-USCENSUS"
"10/6/2022 12:00:00 AM","Choctaw County","Mississippi","South","East South Central","28019","33.345964","-89.251332 ","2693","35","0","0","10/5/2022 12:00:00 AM","2019","8210","NYTIMES-USCENSUS"
"10/6/2022 12:00:00 AM","Choctaw County","Oklahoma","South","West South Central","40023","34.027699","-95.554079 ","4755","67","23","0","10/5/2022 12:00:00 AM","2019","14672","NYTIMES-USCENSUS"
"10/6/2022 12:00:00 AM","Chippewa County","Michigan","Midwest","East North Central","26033","46.321819","-84.52063 ","12907","124","0","0","10/5/2022 12:00:00 AM","2019","37349","NYTIMES-USCENSUS"
"10/6/2022 12:00:00 AM","Chippewa County","Wisconsin","Midwest","East North Central","55017","45.069092","-91.283505 ","20968","201","5","1","10/5/2022 12:00:00 AM","2019","64658","NYTIMES-USCENSUS"
"10/6/2022 12:00:00 AM","Chickasaw County","Mississippi","South","East South Central","28017","33.933277","-88.947558 ","6575","99","0","0","10/5/2022 12:00:00 AM","2019","17103","NYTIMES-USCENSUS"
"10/6/2022 12:00:00 AM","Cheyenne County","Colorado","West","Mountain","08017","38.835646","-102.601791 ","362","11","0","0","10/5/2022 12:00:00 AM","2019","1831","NYTIMES-USCENSUS"
"10/6/2022 12:00:00 AM","Cheyenne County","Kansas","Midwest","West North Central","20023","39.789917","-101.727325 ","693","15","0","0","10/5/2022 12:00:00 AM","2019","2657","NYTIMES-USCENSUS"
"10/6/2022 12:00:00 AM","Campbell County","Wyoming","West","Mountain","56005","44.191999","-105.517014 ","13346","152","0","0","10/5/2022 12:00:00 AM","2019","46341","NYTIMES-USCENSUS"
"10/6/2022 12:00:00 AM","Campbell County","Kentucky","South","East South Central","21037","38.946981","-84.379583 ","29085","198","0","0","10/5/2022 12:00:00 AM","2019","93584","NYTIMES-USCENSUS"
"10/6/2022 12:00:00 AM","Campbell County","Tennessee","South","East South Central","47013","36.401592","-84.159249 ","14580","179","0","0","10/5/2022 12:00:00 AM","2019","39842","NYTIMES-USCENSUS"
"10/6/2022 12:00:00 AM","Campbell County","Virginia","South","South Atlantic","51031","37.210152","-79.095428 ","15914","231","25","0","10/5/2022 12:00:00 AM","2019","54885","NYTIMES-USCENSUS"
"10/6/2022 12:00:00 AM","Cameron County","Pennsylvania","Northeast","Middle Atlantic","42023","41.438291","-78.198323 ","947","21","0","0","10/5/2022 12:00:00 AM","2019","4447","NYTIMES-USCENSUS"
"10/6/2022 12:00:00 AM","Camden County","New Jersey","Northeast","Middle Atlantic","34007","39.802407","-74.961249 ","153954","1895","129","0","10/5/2022 12:00:00 AM","2019","506471","NYTIMES-USCENSUS"
"10/6/2022 12:00:00 AM","Camden County","North Carolina","South","South Atlantic","37029","36.342344","-76.162488 ","2061","10","0","0","10/5/2022 12:00:00 AM","2019","10867","NYTIMES-USCENSUS"
"10/6/2022 12:00:00 AM","Camden County","Georgia","South","South Atlantic","13039","30.913358","-81.642019 ","13239","135","0","0","10/5/2022 12:00:00 AM","2019","54666","NYTIMES-USCENSUS"
"10/6/2022 12:00:00 AM","Trempealeau County","Wisconsin","Midwest","East North Central","55121","44.30305","-91.358867 ","9423","67","6","0","10/5/2022 12:00:00 AM","2019","29649","NYTIMES-USCENSUS"
"10/6/2022 12:00:00 AM","Trego County","Kansas","Midwest","West North Central","20195","38.921302","-99.865423 ","849","13","0","0","10/5/2022 12:00:00 AM","2019","2803","NYTIMES-USCENSUS"
"10/6/2022 12:00:00 AM","Travis County","Texas","South","West South Central","48453","30.239513","-97.69127 ","275945","1793","0","0","10/5/2022 12:00:00 AM","2019","1273954","NYTIMES-USCENSUS"
"10/6/2022 12:00:00 AM","Traverse County","Minnesota","Midwest","West North Central","27155","45.769935","-96.474832 ","960","11","3","0","10/5/2022 12:00:00 AM","2019","3259","NYTIMES-USCENSUS"
"10/6/2022 12:00:00 AM","Transylvania County","North Carolina","South","South Atlantic","37175","35.210103","-82.816666 ","7636","83","0","0","10/5/2022 12:00:00 AM","2019","34385","NYTIMES-USCENSUS"
"10/6/2022 12:00:00 AM","Traill County","North Dakota","Midwest","West North Central","38097","47.446215","-97.164754 ","2342","26","0","0","10/5/2022 12:00:00 AM","2019","8036","NYTIMES-USCENSUS"
"10/6/2022 12:00:00 AM","Towns County","Georgia","South","South Atlantic","13281","34.902529","-83.732264 ","2718","118","0","0","10/5/2022 12:00:00 AM","2019","12037","NYTIMES-USCENSUS"
"10/6/2022 12:00:00 AM","Torrance County","New Mexico","West","Mountain","35057","34.554978","-105.890557 ","3544","59","2","0","10/5/2022 12:00:00 AM","2019","15461","NYTIMES-USCENSUS"
"10/6/2022 12:00:00 AM","Summit County","Ohio","Midwest","East North Central","39153","41.121847","-81.534928 ","132606","1772","388","3","10/5/2022 12:00:00 AM","2019","541013","NYTIMES-USCENSUS"
"10/6/2022 12:00:00 AM","Summers County","West Virginia","South","South Atlantic","54089","37.655999","-80.856325 ","3483","60","2","0","10/5/2022 12:00:00 AM","2019","12573","NYTIMES-USCENSUS"
"10/6/2022 12:00:00 AM","Sully County","South Dakota","Midwest","West North Central","46119","44.722325","-100.131399 ","259","3","0","0","10/5/2022 12:00:00 AM","2019","1391","NYTIMES-USCENSUS"
"10/6/2022 12:00:00 AM","Sullivan County","Tennessee","South","East South Central","47163","36.509681","-82.301336 ","54504","770","0","0","10/5/2022 12:00:00 AM","2019","158348","NYTIMES-USCENSUS"
"10/6/2022 12:00:00 AM","Suffolk County","Massachusetts","Northeast","New England","25025","42.338551","-71.018253 ","252735","2086","1020","9","10/5/2022 12:00:00 AM","2019","803907","NYTIMES-USCENSUS"
"10/6/2022 12:00:00 AM","Suffolk city","Virginia","South","South Atlantic","51800","36.697157","-76.634781 ","22602","324","13","1","10/5/2022 12:00:00 AM","2019","92108","NYTIMES-USCENSUS"
"10/6/2022 12:00:00 AM","Sublette County","Wyoming","West","Mountain","56035","42.767928","-109.91617 ","2205","28","0","0","10/5/2022 12:00:00 AM","2019","9831","NYTIMES-USCENSUS"
"10/6/2022 12:00:00 AM","Stutsman County","North Dakota","Midwest","West North Central","38093","46.972223","-98.956123 ","7853","97","0","0","10/5/2022 12:00:00 AM","2019","20704","NYTIMES-USCENSUS"
"10/6/2022 12:00:00 AM","Strafford County","New Hampshire","Northeast","New England","33017","43.293272","-71.035589 ","34616","229","0","0","10/5/2022 12:00:00 AM","2019","130633","NYTIMES-USCENSUS"
"10/6/2022 12:00:00 AM","Story County","Iowa","Midwest","West North Central","19169","42.037538","-93.466093 ","22179","95","0","0","10/5/2022 12:00:00 AM","2019","97117","NYTIMES-USCENSUS"
"10/6/2022 12:00:00 AM","Storey County","Nevada","West","Mountain","32029","39.438385","-119.524646 ","172","14","0","0","10/5/2022 12:00:00 AM","2019","4123","NYTIMES-USCENSUS"
"10/6/2022 12:00:00 AM","Stone County","Missouri","Midwest","West North Central","29209","36.745822","-93.457842 ","6526","126","0","0","10/5/2022 12:00:00 AM","2019","31952","NYTIMES-USCENSUS"
"10/6/2022 12:00:00 AM","Stokes County","North Carolina","South","South Atlantic","37169","36.393797","-80.269921 ","13766","195","0","0","10/5/2022 12:00:00 AM","2019","45591","NYTIMES-USCENSUS"
"10/6/2022 12:00:00 AM","Stoddard County","Missouri","Midwest","West North Central","29207","36.851557","-89.947481 ","6807","141","0","0","10/5/2022 12:00:00 AM","2019","29025","NYTIMES-USCENSUS"
"10/6/2022 12:00:00 AM","Stillwater County","Montana","West","Mountain","30095","45.658545","-109.381576 ","1668","32","0","0","10/5/2022 12:00:00 AM","2019","9642","NYTIMES-USCENSUS"
"10/6/2022 12:00:00 AM","Stewart County","Tennessee","South","East South Central","47161","36.458464","-87.811889 ","3595","64","0","0","10/5/2022 12:00:00 AM","2019","13715","NYTIMES-USCENSUS"
"10/6/2022 12:00:00 AM","Steuben County","New York","Northeast","Middle Atlantic","36101","42.266725","-77.385525 ","23665","262","20","0","10/5/2022 12:00:00 AM","2019","95379","NYTIMES-USCENSUS"
"10/6/2022 12:00:00 AM","Stephenson County","Illinois","Midwest","East North Central","17177","42.349726","-89.665994 ","13733","192","7","1","10/5/2022 12:00:00 AM","2019","44498","NYTIMES-USCENSUS"
"10/6/2022 12:00:00 AM","Stephens County","Texas","South","West South Central","48429","32.738052","-98.839344 ","2033","51","0","0","10/5/2022 12:00:00 AM","2019","9366","NYTIMES-USCENSUS"
"10/6/2022 12:00:00 AM","Steele County","Minnesota","Midwest","West North Central","27147","44.015261","-93.220453 ","11440","68","19","0","10/5/2022 12:00:00 AM","2019","36649","NYTIMES-USCENSUS"
"10/6/2022 12:00:00 AM","Stearns County","Minnesota","Midwest","West North Central","27145","45.555235","-94.610482 ","57644","392","204","2","10/5/2022 12:00:00 AM","2019","161075","NYTIMES-USCENSUS"
"10/6/2022 12:00:00 AM","Ste. Genevieve County","Missouri","Midwest","West North Central","29186","37.885845","-90.161531 ","4367","40","0","0","10/5/2022 12:00:00 AM","2019","17894","NYTIMES-USCENSUS"
"10/6/2022 12:00:00 AM","Staunton city","Virginia","South","South Atlantic","51790","38.157978","-79.061876 ","7224","128","0","0","10/5/2022 12:00:00 AM","2019","24932","NYTIMES-USCENSUS"
"10/6/2022 12:00:00 AM","Starr County","Texas","South","West South Central","48427","26.530903","-98.740235 ","23170","372","0","0","10/5/2022 12:00:00 AM","2019","64633","NYTIMES-USCENSUS"
"10/6/2022 12:00:00 AM","Starke County","Indiana","Midwest","East North Central","18149","41.284478","-86.644636 ","5310","107","0","0","10/5/2022 12:00:00 AM","2019","22995","NYTIMES-USCENSUS"
"10/6/2022 12:00:00 AM","Stark County","Ohio","Midwest","East North Central","39151","40.814131","-81.365667 ","91781","1770","314","0","10/5/2022 12:00:00 AM","2019","370606","NYTIMES-USCENSUS"
"10/6/2022 12:00:00 AM","Stanton County","Kansas","Midwest","West North Central","20187","37.565932","-101.789383 ","468","12","0","0","10/5/2022 12:00:00 AM","2019","2006","NYTIMES-USCENSUS"
"10/6/2022 12:00:00 AM","Ringgold County","Iowa","Midwest","West North Central","19159","40.735334","-94.244251 ","1242","37","0","0","10/5/2022 12:00:00 AM","2019","4894","NYTIMES-USCENSUS"
"10/6/2022 12:00:00 AM","Riley County","Kansas","Midwest","West North Central","20161","39.291211","-96.727489 ","15445","102","0","0","10/5/2022 12:00:00 AM","2019","74232","NYTIMES-USCENSUS"
"10/6/2022 12:00:00 AM","Richmond County","Virginia","South","South Atlantic","51159","37.942894","-76.730561 ","2796","27","1","0","10/5/2022 12:00:00 AM","2019","9023","NYTIMES-USCENSUS"
"10/6/2022 12:00:00 AM","Richmond city","Virginia","South","South Atlantic","51760","37.531399","-77.476009 ","57361","540","101","0","10/5/2022 12:00:00 AM","2019","230436","NYTIMES-USCENSUS"
"10/6/2022 12:00:00 AM","Richland Parish","Louisiana","South","West South Central","22083","32.413158","-91.748353 ","8249","104","4","0","10/5/2022 12:00:00 AM","2019","20122","NYTIMES-USCENSUS"
"10/6/2022 12:00:00 AM","Wells County","North Dakota","Midwest","West North Central","38103","47.580851","-99.682213 ","1150","12","0","0","10/5/2022 12:00:00 AM","2019","3834","NYTIMES-USCENSUS"
"10/6/2022 12:00:00 AM","Weld County","Colorado","West","Mountain","08123","40.555961","-104.383666 ","99820","741","0","0","10/5/2022 12:00:00 AM","2019","324492","NYTIMES-USCENSUS"
"10/6/2022 12:00:00 AM","Webster Parish","Louisiana","South","West South Central","22119","32.732152","-93.339825 ","13693","195","6","1","10/5/2022 12:00:00 AM","2019","38340","NYTIMES-USCENSUS"
"10/6/2022 12:00:00 AM","Weber County","Utah","West","Mountain","49057","41.270325","-111.876883 ","80735","464","142","1","10/5/2022 12:00:00 AM","2019","260213","NYTIMES-USCENSUS"
"10/6/2022 12:00:00 AM","Webb County","Texas","South","West South Central","48479","27.760799","-99.340752 ","106595","1059","0","0","10/5/2022 12:00:00 AM","2019","276652","NYTIMES-USCENSUS"
"10/6/2022 12:00:00 AM","Weakley County","Tennessee","South","East South Central","47183","36.303596","-88.721194 ","10815","170","0","0","10/5/2022 12:00:00 AM","2019","33328","NYTIMES-USCENSUS"
"10/6/2022 12:00:00 AM","Waynesboro city","Virginia","South","South Atlantic","51820","38.067157","-78.90142 ","6939","76","5","0","10/5/2022 12:00:00 AM","2019","22630","NYTIMES-USCENSUS"
"10/6/2022 12:00:00 AM","Wayne County","Missouri","Midwest","West North Central","29223","37.111074","-90.453931 ","2750","55","0","0","10/5/2022 12:00:00 AM","2019","12873","NYTIMES-USCENSUS"
"10/6/2022 12:00:00 AM","Waushara County","Wisconsin","Midwest","East North Central","55137","44.112823","-89.239786 ","7245","88","4","0","10/5/2022 12:00:00 AM","2019","24443","NYTIMES-USCENSUS"
"10/6/2022 12:00:00 AM","Waupaca County","Wisconsin","Midwest","East North Central","55135","44.478004","-88.967005 ","15409","259","8","0","10/5/2022 12:00:00 AM","2019","50990","NYTIMES-USCENSUS"
"10/6/2022 12:00:00 AM","Waukesha County","Wisconsin","Midwest","East North Central","55133","43.018368","-88.30424 ","130942","1155","77","1","10/5/2022 12:00:00 AM","2019","404198","NYTIMES-USCENSUS"
"10/6/2022 12:00:00 AM","Watonwan County","Minnesota","Midwest","West North Central","27165","43.978109","-94.613798 ","3261","24","4","0","10/5/2022 12:00:00 AM","2019","10897","NYTIMES-USCENSUS"
"10/6/2022 12:00:00 AM","Watauga County","North Carolina","South","South Atlantic","37189","36.235368","-81.709888 ","13993","78","0","0","10/5/2022 12:00:00 AM","2019","56177","NYTIMES-USCENSUS"
"10/6/2022 12:00:00 AM","Washtenaw County","Michigan","Midwest","East North Central","26161","42.252217","-83.843423 ","101926","588","136","0","10/5/2022 12:00:00 AM","2019","367601","NYTIMES-USCENSUS"
"10/6/2022 12:00:00 AM","Washoe County","Nevada","West","Mountain","32031","40.73132","-119.663269 ","122735","1273","0","0","10/5/2022 12:00:00 AM","2019","471519","NYTIMES-USCENSUS"
"10/6/2022 12:00:00 AM","Washita County","Oklahoma","South","West South Central","40149","35.289497","-98.991436 ","3021","56","13","0","10/5/2022 12:00:00 AM","2019","10916","NYTIMES-USCENSUS"
"10/6/2022 12:00:00 AM","Washington Parish","Louisiana","South","West South Central","22117","30.852144","-90.046253 ","15326","264","3","0","10/5/2022 12:00:00 AM","2019","46194","NYTIMES-USCENSUS"
"10/6/2022 12:00:00 AM","Washington County","Maine","Northeast","New England","23029","44.967009","-67.609354 ","5179","61","9","0","10/5/2022 12:00:00 AM","2019","31379","NYTIMES-USCENSUS"
"10/6/2022 12:00:00 AM","Washburn County","Wisconsin","Midwest","East North Central","55129","45.892489","-91.796422 ","4678","48","0","0","10/5/2022 12:00:00 AM","2019","15720","NYTIMES-USCENSUS"
"10/6/2022 12:00:00 AM","Washakie County","Wyoming","West","Mountain","56043","43.878831","-107.669052 ","2664","47","0","0","10/5/2022 12:00:00 AM","2019","7805","NYTIMES-USCENSUS"
"10/6/2022 12:00:00 AM","Waseca County","Minnesota","Midwest","West North Central","27161","44.01846","-93.589844 ","6088","41","21","0","10/5/2022 12:00:00 AM","2019","18612","NYTIMES-USCENSUS"
"10/6/2022 12:00:00 AM","Wasco County","Oregon","West","Pacific","41065","45.164536","-121.165069 ","6362","72","0","0","10/5/2022 12:00:00 AM","2019","26682","NYTIMES-USCENSUS"
"10/6/2022 12:00:00 AM","Wasatch County","Utah","West","Mountain","49051","40.334884","-111.161568 ","11735","37","15","0","10/5/2022 12:00:00 AM","2019","34091","NYTIMES-USCENSUS"
"10/6/2022 12:00:00 AM","Warrick County","Indiana","Midwest","East North Central","18173","38.097728","-87.272049 ","23338","249","0","0","10/5/2022 12:00:00 AM","2019","62998","NYTIMES-USCENSUS"
"10/6/2022 12:00:00 AM","Tyler County","Texas","South","West South Central","48457","30.769295","-94.375656 ","4697","88","0","0","10/5/2022 12:00:00 AM","2019","21672","NYTIMES-USCENSUS"
"10/6/2022 12:00:00 AM","Twin Falls County","Idaho","West","Mountain","16083","42.352309","-114.665639 ","27226","306","0","0","10/5/2022 12:00:00 AM","2019","86878","NYTIMES-USCENSUS"
"10/6/2022 12:00:00 AM","Twiggs County","Georgia","South","South Atlantic","13289","32.665847","-83.425879 ","1770","73","0","0","10/5/2022 12:00:00 AM","2019","8120","NYTIMES-USCENSUS"
"10/6/2022 12:00:00 AM","Tuscola County","Michigan","Midwest","East North Central","26157","43.487902","-83.436618 ","14862","297","0","0","10/5/2022 12:00:00 AM","2019","52245","NYTIMES-USCENSUS"
"10/6/2022 12:00:00 AM","Tuscarawas County","Ohio","Midwest","East North Central","39157","40.44749","-81.471105 ","23730","519","53","1","10/5/2022 12:00:00 AM","2019","91987","NYTIMES-USCENSUS"
"10/6/2022 12:00:00 AM","Tuscaloosa County","Alabama","South","East South Central","01125","33.29022","-87.522783 ","65888","824","100","2","10/5/2022 12:00:00 AM","2019","209355","NYTIMES-USCENSUS"
"10/6/2022 12:00:00 AM","Turner County","Georgia","South","South Atlantic","13287","31.7248","-83.620319 ","3015","64","0","0","10/5/2022 12:00:00 AM","2019","7985","NYTIMES-USCENSUS"
"10/6/2022 12:00:00 AM","Tuolumne County","California","West","Pacific","06109","38.021434","-119.964733 ","16761","198","0","0","10/5/2022 12:00:00 AM","2019","54478","NYTIMES-USCENSUS"
"10/6/2022 12:00:00 AM","Tunica County","Mississippi","South","East South Central","28143","34.652201","-90.37177 ","2871","48","0","0","10/5/2022 12:00:00 AM","2019","9632","NYTIMES-USCENSUS"
"10/6/2022 12:00:00 AM","Tulsa County","Oklahoma","South","West South Central","40143","36.120318","-95.941813 ","197597","2251","529","10","10/5/2022 12:00:00 AM","2019","651552","NYTIMES-USCENSUS"
"10/6/2022 12:00:00 AM","Tulare County","California","West","Pacific","06107","36.228834","-118.781055 ","158081","1531","198","0","10/5/2022 12:00:00 AM","2019","466195","NYTIMES-USCENSUS"
"10/6/2022 12:00:00 AM","Tucker County","West Virginia","South","South Atlantic","54093","39.111175","-79.559968 ","2288","38","-1","0","10/5/2022 12:00:00 AM","2019","6839","NYTIMES-USCENSUS"
"10/6/2022 12:00:00 AM","Trumbull County","Ohio","Midwest","East North Central","39155","41.306374","-80.7704 ","48862","978","150","2","10/5/2022 12:00:00 AM","2019","197974","NYTIMES-USCENSUS"
"10/6/2022 12:00:00 AM","Trousdale County","Tennessee","South","East South Central","47169","36.39303","-86.156691 ","4527","47","0","0","10/5/2022 12:00:00 AM","2019","11284","NYTIMES-USCENSUS"
"10/6/2022 12:00:00 AM","Troup County","Georgia","South","South Atlantic","13285","33.034482","-85.02836 ","17922","400","0","0","10/5/2022 12:00:00 AM","2019","69922","NYTIMES-USCENSUS"
"10/6/2022 12:00:00 AM","Tripp County","South Dakota","Midwest","West North Central","46123","43.349729","-99.876219 ","1561","26","0","0","10/5/2022 12:00:00 AM","2019","5441","NYTIMES-USCENSUS"
"10/6/2022 12:00:00 AM","Trinity County","Texas","South","West South Central","48455","31.096675","-95.151687 ","3083","75","0","0","10/5/2022 12:00:00 AM","2019","14651","NYTIMES-USCENSUS"
"10/6/2022 12:00:00 AM","Trimble County","Kentucky","South","East South Central","21223","38.62004","-85.351208 ","2511","44","0","0","10/5/2022 12:00:00 AM","2019","8471","NYTIMES-USCENSUS"
"10/6/2022 12:00:00 AM","Trigg County","Kentucky","South","East South Central","21221","36.807681","-87.858652 ","4733","47","0","0","10/5/2022 12:00:00 AM","2019","14651","NYTIMES-USCENSUS"
"10/6/2022 12:00:00 AM","Treutlen County","Georgia","South","South Atlantic","13283","32.409586","-82.570882 ","1795","68","0","0","10/5/2022 12:00:00 AM","2019","6901","NYTIMES-USCENSUS"
"10/6/2022 12:00:00 AM","Bacon County","Georgia","South","South Atlantic","13005","31.55021","-82.451433 ","4006","81","0","0","10/5/2022 12:00:00 AM","2019","11164","NYTIMES-USCENSUS"
"10/6/2022 12:00:00 AM","Baca County","Colorado","West","Mountain","08009","37.30978","-102.543741 ","982","15","1","0","10/5/2022 12:00:00 AM","2019","3581","NYTIMES-USCENSUS"
"10/6/2022 12:00:00 AM","Avoyelles Parish","Louisiana","South","West South Central","22009","31.088503","-91.983275 ","13528","215","11","0","10/5/2022 12:00:00 AM","2019","40144","NYTIMES-USCENSUS"
"10/6/2022 12:00:00 AM","Avery County","North Carolina","South","South Atlantic","37011","36.07209","-81.920285 ","5265","48","0","0","10/5/2022 12:00:00 AM","2019","17557","NYTIMES-USCENSUS"
"10/6/2022 12:00:00 AM","Autauga County","Alabama","South","East South Central","01001","32.532237","-86.64644 ","18422","228","26","1","10/5/2022 12:00:00 AM","2019","55869","NYTIMES-USCENSUS"
"10/6/2022 12:00:00 AM","Austin County","Texas","South","West South Central","48015","29.891901","-96.27017 ","6652","82","0","0","10/5/2022 12:00:00 AM","2019","30032","NYTIMES-USCENSUS"
"10/6/2022 12:00:00 AM","Aurora County","South Dakota","Midwest","West North Central","46003","43.724719","-98.577587 ","862","17","0","0","10/5/2022 12:00:00 AM","2019","2751","NYTIMES-USCENSUS"
"10/6/2022 12:00:00 AM","Augusta County","Virginia","South","South Atlantic","51015","38.17259","-79.140975 ","22656","231","5","0","10/5/2022 12:00:00 AM","2019","75558","NYTIMES-USCENSUS"
"10/6/2022 12:00:00 AM","Auglaize County","Ohio","Midwest","East North Central","39011","40.561309","-84.224018 ","13102","190","27","0","10/5/2022 12:00:00 AM","2019","45656","NYTIMES-USCENSUS"
"10/6/2022 12:00:00 AM","Audubon County","Iowa","Midwest","West North Central","19009","41.679178","-94.904312 ","1228","21","0","0","10/5/2022 12:00:00 AM","2019","5496","NYTIMES-USCENSUS"
"10/6/2022 12:00:00 AM","Audrain County","Missouri","Midwest","West North Central","29007","39.214481","-91.843418 ","6443","116","0","0","10/5/2022 12:00:00 AM","2019","25388","NYTIMES-USCENSUS"
"10/6/2022 12:00:00 AM","Attala County","Mississippi","South","East South Central","28007","33.090468","-89.588622 ","6358","119","0","0","10/5/2022 12:00:00 AM","2019","18174","NYTIMES-USCENSUS"
"10/6/2022 12:00:00 AM","Atoka County","Oklahoma","South","West South Central","40005","34.392469","-96.036558 ","4359","54","4","0","10/5/2022 12:00:00 AM","2019","13758","NYTIMES-USCENSUS"
"10/6/2022 12:00:00 AM","Atlantic County","New Jersey","Northeast","Middle Atlantic","34001","39.469355","-74.633759 ","83327","1050","77","0","10/5/2022 12:00:00 AM","2019","263670","NYTIMES-USCENSUS"
"10/6/2022 12:00:00 AM","Atkinson County","Georgia","South","South Atlantic","13003","31.296806","-82.878151 ","2407","54","0","0","10/5/2022 12:00:00 AM","2019","8165","NYTIMES-USCENSUS"
"10/6/2022 12:00:00 AM","Athens County","Ohio","Midwest","East North Central","39009","39.332755","-82.045885 ","18531","152","43","0","10/5/2022 12:00:00 AM","2019","65327","NYTIMES-USCENSUS"
"10/6/2022 12:00:00 AM","Atchison County","Missouri","Midwest","West North Central","29005","40.431846","-95.437555 ","1627","23","0","0","10/5/2022 12:00:00 AM","2019","5143","NYTIMES-USCENSUS"
"10/6/2022 12:00:00 AM","Atascosa County","Texas","South","West South Central","48013","28.891478","-98.535381 ","15220","238","0","0","10/5/2022 12:00:00 AM","2019","51153","NYTIMES-USCENSUS"
"10/6/2022 12:00:00 AM","Assumption Parish","Louisiana","South","West South Central","22007","29.9033","-91.065219 ","6399","72","1","0","10/5/2022 12:00:00 AM","2019","21891","NYTIMES-USCENSUS"
"10/6/2022 12:00:00 AM","Asotin County","Washington","West","Pacific","53003","46.181861","-117.227781 ","5173","76","0","0","10/5/2022 12:00:00 AM","2019","22582","NYTIMES-USCENSUS"
"10/6/2022 12:00:00 AM","Ashtabula County","Ohio","Midwest","East North Central","39007","41.906637","-80.745592 ","23728","445","70","0","10/5/2022 12:00:00 AM","2019","97241","NYTIMES-USCENSUS"
"10/6/2022 12:00:00 AM","Ashley County","Arkansas","South","West South Central","05003","33.190835","-91.772267 ","5881","77","1","0","10/5/2022 12:00:00 AM","2019","19657","NYTIMES-USCENSUS"
"10/6/2022 12:00:00 AM","Ashland County","Ohio","Midwest","East North Central","39005","40.843273","-82.270127 ","13994","230","46","1","10/5/2022 12:00:00 AM","2019","53484","NYTIMES-USCENSUS"
"10/6/2022 12:00:00 AM","Ashe County","North Carolina","South","South Atlantic","37009","36.443469","-81.499334 ","7122","86","0","0","10/5/2022 12:00:00 AM","2019","27203","NYTIMES-USCENSUS"
"10/6/2022 12:00:00 AM","Ascension Parish","Louisiana","South","West South Central","22005","30.206444","-90.912502 ","39953","302","9","0","10/5/2022 12:00:00 AM","2019","126604","NYTIMES-USCENSUS"
"10/6/2022 12:00:00 AM","Arthur County","Nebraska","Midwest","West North Central","31005","41.57193","-101.695917 ","33","1","0","0","10/5/2022 12:00:00 AM","2019","463","NYTIMES-USCENSUS"
"10/6/2022 12:00:00 AM","Aroostook County","Maine","Northeast","New England","23003","46.709193","-68.612409 ","16857","186","31","1","10/5/2022 12:00:00 AM","2019","67055","NYTIMES-USCENSUS"
"10/6/2022 12:00:00 AM","Armstrong County","Pennsylvania","Northeast","Middle Atlantic","42005","40.81238","-79.464129 ","17266","372","0","0","10/5/2022 12:00:00 AM","2019","64735","NYTIMES-USCENSUS"
"10/6/2022 12:00:00 AM","Arlington County","Virginia","South","South Atlantic","51013","38.878337","-77.100703 ","61217","341","36","0","10/5/2022 12:00:00 AM","2019","236842","NYTIMES-USCENSUS"
"10/6/2022 12:00:00 AM","Arkansas County","Arkansas","South","West South Central","05001","34.28957","-91.376547 ","6647","87","5","0","10/5/2022 12:00:00 AM","2019","17486","NYTIMES-USCENSUS"
"10/6/2022 12:00:00 AM","Wyoming County","Pennsylvania","Northeast","Middle Atlantic","42131","41.525173","-76.008731 ","6042","115","0","0","10/5/2022 12:00:00 AM","2019","26794","NYTIMES-USCENSUS"
"10/6/2022 12:00:00 AM","Wyoming County","New York","Northeast","Middle Atlantic","36121","42.701363","-78.228567 ","9438","88","3","0","10/5/2022 12:00:00 AM","2019","39859","NYTIMES-USCENSUS"
"10/6/2022 12:00:00 AM","Wright County","Iowa","Midwest","West North Central","19197","42.733007","-93.734735 ","3881","69","0","0","10/5/2022 12:00:00 AM","2019","12562","NYTIMES-USCENSUS"
"10/6/2022 12:00:00 AM","Wright County","Missouri","Midwest","West North Central","29229","37.267633","-92.479989 ","4364","92","0","0","10/5/2022 12:00:00 AM","2019","18289","NYTIMES-USCENSUS"
"10/6/2022 12:00:00 AM","Worth County","Iowa","Midwest","West North Central","19195","43.373491","-93.248533 ","1949","17","0","0","10/5/2022 12:00:00 AM","2019","7381","NYTIMES-USCENSUS"
"10/6/2022 12:00:00 AM","Worth County","Missouri","Midwest","West North Central","29227","40.480499","-94.419198 ","514","3","0","0","10/5/2022 12:00:00 AM","2019","2013","NYTIMES-USCENSUS"
"10/6/2022 12:00:00 AM","Williams County","North Dakota","Midwest","West North Central","38105","48.355765","-103.501333 ","11652","68","0","0","10/5/2022 12:00:00 AM","2019","37589","NYTIMES-USCENSUS"
"10/6/2022 12:00:00 AM","Wilkinson County","Georgia","South","South Atlantic","13319","32.804266","-83.175512 ","2561","63","0","0","10/5/2022 12:00:00 AM","2019","8954","NYTIMES-USCENSUS"
"10/6/2022 12:00:00 AM","Wilkes County","North Carolina","South","South Atlantic","37193","36.208883","-81.166095 ","21021","287","0","0","10/5/2022 12:00:00 AM","2019","68412","NYTIMES-USCENSUS"
"10/6/2022 12:00:00 AM","Wilcox County","Georgia","South","South Atlantic","13315","31.96272","-83.438259 ","2317","72","0","0","10/5/2022 12:00:00 AM","2019","8635","NYTIMES-USCENSUS"
"10/6/2022 12:00:00 AM","Wichita County","Texas","South","West South Central","48485","33.988212","-98.70801 ","37854","699","0","0","10/5/2022 12:00:00 AM","2019","132230","NYTIMES-USCENSUS"
"10/6/2022 12:00:00 AM","Whitley County","Indiana","Midwest","East North Central","18183","41.136426","-85.501892 ","10708","86","0","0","10/5/2022 12:00:00 AM","2019","33964","NYTIMES-USCENSUS"
"10/6/2022 12:00:00 AM","White County","Arkansas","South","West South Central","05145","35.255118","-91.753034 ","25558","319","12","0","10/5/2022 12:00:00 AM","2019","78753","NYTIMES-USCENSUS"
"10/6/2022 12:00:00 AM","Clackamas County","Oregon","West","Pacific","41005","45.160493","-122.195127 ","78536","734","0","0","10/5/2022 12:00:00 AM","2019","418187","NYTIMES-USCENSUS"
"10/6/2022 12:00:00 AM","Citrus County","Florida","South","South Atlantic","12017","28.850292","-82.595552 ","36614","1064","0","0","10/5/2022 12:00:00 AM","2019","149657","NYTIMES-USCENSUS"
"10/6/2022 12:00:00 AM","Cimarron County","Oklahoma","South","West South Central","40025","36.74839","-102.517698 ","669","8","0","1","10/5/2022 12:00:00 AM","2019","2137","NYTIMES-USCENSUS"
"10/6/2022 12:00:00 AM","Cibola County","New Mexico","West","Mountain","35006","34.928272","-107.99268 ","9440","204","4","0","10/5/2022 12:00:00 AM","2019","26675","NYTIMES-USCENSUS"
"10/6/2022 12:00:00 AM","Churchill County","Nevada","West","Mountain","32001","39.53771","-118.264166 ","7343","118","0","0","10/5/2022 12:00:00 AM","2019","24909","NYTIMES-USCENSUS"
"10/6/2022 12:00:00 AM","Christian County","Illinois","Midwest","East North Central","17021","39.545524","-89.279593 ","11972","133","9","0","10/5/2022 12:00:00 AM","2019","32304","NYTIMES-USCENSUS"
"10/6/2022 12:00:00 AM","Chowan County","North Carolina","South","South Atlantic","37041","36.128979","-76.602752 ","4796","64","0","0","10/5/2022 12:00:00 AM","2019","13943","NYTIMES-USCENSUS"
"10/6/2022 12:00:00 AM","Choctaw County","Alabama","South","East South Central","01023","31.990954","-88.248889 ","2192","38","4","0","10/5/2022 12:00:00 AM","2019","12589","NYTIMES-USCENSUS"
"10/6/2022 12:00:00 AM","Chittenden County","Vermont","Northeast","New England","50007","44.463329","-73.06941 ","37876","190","110","2","10/5/2022 12:00:00 AM","2019","163774","NYTIMES-USCENSUS"
"10/6/2022 12:00:00 AM","Chisago County","Minnesota","Midwest","West North Central","27025","45.505444","-92.903849 ","16392","124","56","0","10/5/2022 12:00:00 AM","2019","56579","NYTIMES-USCENSUS"
"10/6/2022 12:00:00 AM","Chippewa County","Minnesota","Midwest","West North Central","27023","45.028625","-95.564108 ","3545","52","34","1","10/5/2022 12:00:00 AM","2019","11800","NYTIMES-USCENSUS"
"10/6/2022 12:00:00 AM","Chilton County","Alabama","South","East South Central","01021","32.854051","-86.726607 ","12413","214","27","1","10/5/2022 12:00:00 AM","2019","44428","NYTIMES-USCENSUS"
"10/6/2022 12:00:00 AM","Childress County","Texas","South","West South Central","48075","34.524624","-100.208166 ","2820","34","0","0","10/5/2022 12:00:00 AM","2019","7306","NYTIMES-USCENSUS"
"10/6/2022 12:00:00 AM","Chicot County","Arkansas","South","West South Central","05017","33.267139","-91.297158 ","3033","61","0","1","10/5/2022 12:00:00 AM","2019","10118","NYTIMES-USCENSUS"
"10/6/2022 12:00:00 AM","Chickasaw County","Iowa","Midwest","West North Central","19037","43.059741","-92.31721 ","3002","34","0","0","10/5/2022 12:00:00 AM","2019","11933","NYTIMES-USCENSUS"
"10/6/2022 12:00:00 AM","Cheyenne County","Nebraska","Midwest","West North Central","31033","41.214236","-103.011929 ","2231","29","0","0","10/5/2022 12:00:00 AM","2019","8910","NYTIMES-USCENSUS"
"10/6/2022 12:00:00 AM","Canyon County","Idaho","West","Mountain","16027","43.625796","-116.709058 ","67537","711","0","0","10/5/2022 12:00:00 AM","2019","229849","NYTIMES-USCENSUS"
"10/6/2022 12:00:00 AM","Cannon County","Tennessee","South","East South Central","47015","35.808394","-86.062404 ","4887","70","0","0","10/5/2022 12:00:00 AM","2019","14678","NYTIMES-USCENSUS"
"10/6/2022 12:00:00 AM","Candler County","Georgia","South","South Atlantic","13043","32.40395","-82.071266 ","2500","106","0","0","10/5/2022 12:00:00 AM","2019","10803","NYTIMES-USCENSUS"
"10/6/2022 12:00:00 AM","Canadian County","Oklahoma","South","West South Central","40017","35.543354","-97.979889 ","45472","402","83","3","10/5/2022 12:00:00 AM","2019","148306","NYTIMES-USCENSUS"
"10/6/2022 12:00:00 AM","Camp County","Texas","South","West South Central","48063","32.974581","-94.979085 ","3367","77","0","0","10/5/2022 12:00:00 AM","2019","13094","NYTIMES-USCENSUS"
"10/6/2022 12:00:00 AM","Cameron Parish","Louisiana","South","West South Central","22023","29.871812","-93.164948 ","1325","10","0","0","10/5/2022 12:00:00 AM","2019","6973","NYTIMES-USCENSUS"
"10/6/2022 12:00:00 AM","Cameron County","Texas","South","West South Central","48061","26.102923","-97.478958 ","125748","2086","0","0","10/5/2022 12:00:00 AM","2019","423163","NYTIMES-USCENSUS"
"10/6/2022 12:00:00 AM","Camden County","Missouri","Midwest","West North Central","29029","38.026527","-92.765327 ","10372","190","0","0","10/5/2022 12:00:00 AM","2019","46305","NYTIMES-USCENSUS"
"10/6/2022 12:00:00 AM","Cambria County","Pennsylvania","Northeast","Middle Atlantic","42021","40.510227","-78.710477 ","40315","767","0","0","10/5/2022 12:00:00 AM","2019","130192","NYTIMES-USCENSUS"
"10/6/2022 12:00:00 AM","Camas County","Idaho","West","Mountain","16025","43.502552","-114.772135 ","169","2","0","0","10/5/2022 12:00:00 AM","2019","1106","NYTIMES-USCENSUS"
"10/6/2022 12:00:00 AM","Calvert County","Maryland","South","South Atlantic","24009","38.522719","-76.529762 ","13642","155","7","0","10/5/2022 12:00:00 AM","2019","92525","NYTIMES-USCENSUS"
"10/6/2022 12:00:00 AM","Calumet County","Wisconsin","Midwest","East North Central","55015","44.07841","-88.212132 ","16093","126","7","0","10/5/2022 12:00:00 AM","2019","50089","NYTIMES-USCENSUS"
"10/6/2022 12:00:00 AM","Calloway County","Kentucky","South","East South Central","21035","36.620978","-88.274086 ","10688","100","0","0","10/5/2022 12:00:00 AM","2019","39001","NYTIMES-USCENSUS"
"10/6/2022 12:00:00 AM","Callaway County","Missouri","Midwest","West North Central","29027","38.835547","-91.923446 ","13617","139","0","0","10/5/2022 12:00:00 AM","2019","44743","NYTIMES-USCENSUS"
"10/6/2022 12:00:00 AM","Callahan County","Texas","South","West South Central","48059","32.29315","-99.372249 ","3326","76","0","0","10/5/2022 12:00:00 AM","2019","13943","NYTIMES-USCENSUS"
"10/6/2022 12:00:00 AM","Calhoun County","Mississippi","South","East South Central","28013","33.936634","-89.337114 ","5320","76","0","0","10/5/2022 12:00:00 AM","2019","14361","NYTIMES-USCENSUS"
"10/6/2022 12:00:00 AM","Caledonia County","Vermont","Northeast","New England","50005","44.468791","-72.112168 ","6339","34","24","2","10/5/2022 12:00:00 AM","2019","29993","NYTIMES-USCENSUS"
"10/6/2022 12:00:00 AM","Caldwell Parish","Louisiana","South","West South Central","22021","32.101219","-92.114231 ","4284","55","0","0","10/5/2022 12:00:00 AM","2019","9918","NYTIMES-USCENSUS"
"10/6/2022 12:00:00 AM","Caldwell County","Texas","South","West South Central","48055","29.832399","-97.628141 ","16889","184","0","0","10/5/2022 12:00:00 AM","2019","43664","NYTIMES-USCENSUS"
"10/6/2022 12:00:00 AM","Calcasieu Parish","Louisiana","South","West South Central","22019","30.229559","-93.358015 ","63193","730","10","1","10/5/2022 12:00:00 AM","2019","203436","NYTIMES-USCENSUS"
"10/6/2022 12:00:00 AM","Calaveras County","California","West","Pacific","06009","38.191068","-120.554107 ","9053","133","14","0","10/5/2022 12:00:00 AM","2019","45905","NYTIMES-USCENSUS"
"10/6/2022 12:00:00 AM","Caddo Parish","Louisiana","South","West South Central","22017","32.580106","-93.88497 ","81806","1212","28","0","10/5/2022 12:00:00 AM","2019","240204","NYTIMES-USCENSUS"
"10/6/2022 12:00:00 AM","Caddo County","Oklahoma","South","West South Central","40015","35.16792","-98.381045 ","9401","179","14","4","10/5/2022 12:00:00 AM","2019","28762","NYTIMES-USCENSUS"
"10/6/2022 12:00:00 AM","Cache County","Utah","West","Mountain","49005","41.734117","-111.745399 ","40298","116","67","1","10/5/2022 12:00:00 AM","2019","128289","NYTIMES-USCENSUS"
"10/6/2022 12:00:00 AM","Cabell County","West Virginia","South","South Atlantic","54011","38.419578","-82.243397 ","32437","413","5","0","10/5/2022 12:00:00 AM","2019","91945","NYTIMES-USCENSUS"
"10/6/2022 12:00:00 AM","Cabarrus County","North Carolina","South","South Atlantic","37025","35.388346","-80.552728 ","66809","536","0","0","10/5/2022 12:00:00 AM","2019","216453","NYTIMES-USCENSUS"
"10/6/2022 12:00:00 AM","Butts County","Georgia","South","South Atlantic","13035","33.290355","-83.958221 ","7302","168","0","0","10/5/2022 12:00:00 AM","2019","24936","NYTIMES-USCENSUS"
"10/6/2022 12:00:00 AM","Wayne County","Pennsylvania","Northeast","Middle Atlantic","42127","41.646602","-75.292493 ","12046","182","0","0","10/5/2022 12:00:00 AM","2019","51361","NYTIMES-USCENSUS"
"10/6/2022 12:00:00 AM","Wayne County","Mississippi","South","East South Central","28153","31.642503","-88.678214 ","6674","88","0","0","10/5/2022 12:00:00 AM","2019","20183","NYTIMES-USCENSUS"
"10/6/2022 12:00:00 AM","Wayne County","Nebraska","Midwest","West North Central","31179","42.210746","-97.126243 ","2013","17","0","0","10/5/2022 12:00:00 AM","2019","9385","NYTIMES-USCENSUS"
"10/6/2022 12:00:00 AM","Wayne County","West Virginia","South","South Atlantic","54099","38.143642","-82.422666 ","11226","138","4","0","10/5/2022 12:00:00 AM","2019","39402","NYTIMES-USCENSUS"
"10/6/2022 12:00:00 AM","Wayne County","Ohio","Midwest","East North Central","39169","40.829661","-81.887194 ","26735","454","88","1","10/5/2022 12:00:00 AM","2019","115710","NYTIMES-USCENSUS"
"10/6/2022 12:00:00 AM","Wayne County","New York","Northeast","Middle Atlantic","36117","43.218114","-77.049402 ","20419","195","16","0","10/5/2022 12:00:00 AM","2019","89918","NYTIMES-USCENSUS"
"10/6/2022 12:00:00 AM","Wayne County","Tennessee","South","East South Central","47181","35.242847","-87.819843 ","6469","76","0","0","10/5/2022 12:00:00 AM","2019","16673","NYTIMES-USCENSUS"
"10/6/2022 12:00:00 AM","Washington County","Tennessee","South","East South Central","47179","36.295665","-82.495037 ","45317","523","0","0","10/5/2022 12:00:00 AM","2019","129375","NYTIMES-USCENSUS"
"10/6/2022 12:00:00 AM","Washington County","North Carolina","South","South Atlantic","37187","35.844713","-76.572291 ","3624","52","0","0","10/5/2022 12:00:00 AM","2019","11580","NYTIMES-USCENSUS"
"10/6/2022 12:00:00 AM","Washington County","Colorado","West","Mountain","08121","39.96579","-103.209744 ","1177","32","1","0","10/5/2022 12:00:00 AM","2019","4908","NYTIMES-USCENSUS"
"10/6/2022 12:00:00 AM","Washington County","Indiana","Midwest","East North Central","18175","38.600613","-86.104751 ","6696","90","0","0","10/5/2022 12:00:00 AM","2019","28036","NYTIMES-USCENSUS"
"10/6/2022 12:00:00 AM","Washington County","Texas","South","West South Central","48477","30.215075","-96.410272 ","10404","151","0","0","10/5/2022 12:00:00 AM","2019","35882","NYTIMES-USCENSUS"
"10/6/2022 12:00:00 AM","Washington County","Mississippi","South","East South Central","28151","33.273174","-90.944446 ","11754","207","0","0","10/5/2022 12:00:00 AM","2019","43909","NYTIMES-USCENSUS"
"10/6/2022 12:00:00 AM","Anderson County","Kentucky","South","East South Central","21005","38.005396","-84.986417 ","7895","76","0","0","10/5/2022 12:00:00 AM","2019","22747","NYTIMES-USCENSUS"
"10/6/2022 12:00:00 AM","Anderson County","Texas","South","West South Central","48001","31.841261","-95.661727 ","10580","251","0","0","10/5/2022 12:00:00 AM","2019","57735","NYTIMES-USCENSUS"
"10/6/2022 12:00:00 AM","Anderson County","South Carolina","South","South Atlantic","45007","34.521235","-82.638603 ","65385","1034","0","0","10/5/2022 12:00:00 AM","2019","202558","NYTIMES-USCENSUS"
"10/6/2022 12:00:00 AM","Anderson County","Kansas","Midwest","West North Central","20003","38.215114","-95.292046 ","2435","37","0","0","10/5/2022 12:00:00 AM","2019","7858","NYTIMES-USCENSUS"
"10/6/2022 12:00:00 AM","Arenac County","Michigan","Midwest","East North Central","26011","44.036833","-83.740675 ","3659","80","0","0","10/5/2022 12:00:00 AM","2019","14883","NYTIMES-USCENSUS"
"10/6/2022 12:00:00 AM","Archuleta County","Colorado","West","Mountain","08007","37.202395","-107.050863 ","3346","17","4","0","10/5/2022 12:00:00 AM","2019","14029","NYTIMES-USCENSUS"
"10/6/2022 12:00:00 AM","Archer County","Texas","South","West South Central","48009","33.616305","-98.687267 ","2511","29","0","0","10/5/2022 12:00:00 AM","2019","8553","NYTIMES-USCENSUS"
"10/6/2022 12:00:00 AM","Arapahoe County","Colorado","West","Mountain","08005","39.644554","-104.331706 ","189214","1384","79","2","10/5/2022 12:00:00 AM","2019","656590","NYTIMES-USCENSUS"
"10/6/2022 12:00:00 AM","Aransas County","Texas","South","West South Central","48007","28.122621","-96.967501 ","5218","93","0","0","10/5/2022 12:00:00 AM","2019","23510","NYTIMES-USCENSUS"
"10/6/2022 12:00:00 AM","Appomattox County","Virginia","South","South Atlantic","51011","37.370725","-78.81094 ","4550","58","3","0","10/5/2022 12:00:00 AM","2019","15911","NYTIMES-USCENSUS"
"10/6/2022 12:00:00 AM","Appling County","Georgia","South","South Atlantic","13001","31.739712","-82.290103 ","5158","135","0","0","10/5/2022 12:00:00 AM","2019","18386","NYTIMES-USCENSUS"
"10/6/2022 12:00:00 AM","Appanoose County","Iowa","Midwest","West North Central","19007","40.744249","-92.873065 ","3245","72","0","0","10/5/2022 12:00:00 AM","2019","12426","NYTIMES-USCENSUS"
"10/6/2022 12:00:00 AM","Apache County","Arizona","West","Mountain","04001","35.385084","-109.490172 ","31424","625","0","0","10/5/2022 12:00:00 AM","2019","71887","NYTIMES-USCENSUS"
"10/6/2022 12:00:00 AM","Antrim County","Michigan","Midwest","East North Central","26009","45.005455","-85.175639 ","4998","72","0","0","10/5/2022 12:00:00 AM","2019","23324","NYTIMES-USCENSUS"
"10/6/2022 12:00:00 AM","Antelope County","Nebraska","Midwest","West North Central","31003","42.183225","-98.058037 ","1206","18","0","0","10/5/2022 12:00:00 AM","2019","6298","NYTIMES-USCENSUS"
"10/6/2022 12:00:00 AM","Anson County","North Carolina","South","South Atlantic","37007","34.974972","-80.109763 ","7851","105","0","0","10/5/2022 12:00:00 AM","2019","24446","NYTIMES-USCENSUS"
"10/6/2022 12:00:00 AM","Anoka County","Minnesota","Midwest","West North Central","27003","45.27411","-93.242723 ","112480","833","375","0","10/5/2022 12:00:00 AM","2019","356921","NYTIMES-USCENSUS"
"10/6/2022 12:00:00 AM","Anne Arundel County","Maryland","South","South Atlantic","24003","38.991617","-76.560894 ","110538","1181","75","0","10/5/2022 12:00:00 AM","2019","579234","NYTIMES-USCENSUS"
"10/6/2022 12:00:00 AM","Angelina County","Texas","South","West South Central","48005","31.251896","-94.611134 ","16580","495","0","0","10/5/2022 12:00:00 AM","2019","86715","NYTIMES-USCENSUS"
"10/6/2022 12:00:00 AM","Androscoggin County","Maine","Northeast","New England","23001","44.167681","-70.207435 ","26077","302","24","0","10/5/2022 12:00:00 AM","2019","108277","NYTIMES-USCENSUS"
"10/6/2022 12:00:00 AM","Andrews County","Texas","South","West South Central","48003","32.312258","-102.640206 ","4699","73","0","0","10/5/2022 12:00:00 AM","2019","18705","NYTIMES-USCENSUS"
"10/6/2022 12:00:00 AM","Andrew County","Missouri","Midwest","West North Central","29003","39.988863","-94.803551 ","5322","61","0","0","10/5/2022 12:00:00 AM","2019","17712","NYTIMES-USCENSUS"
"10/6/2022 12:00:00 AM","Anderson County","Tennessee","South","East South Central","47001","36.116731","-84.195418 ","25985","370","0","0","10/5/2022 12:00:00 AM","2019","76978","NYTIMES-USCENSUS"
"10/6/2022 12:00:00 AM","Amite County","Mississippi","South","East South Central","28005","31.203933","-90.795542 ","3691","70","0","0","10/5/2022 12:00:00 AM","2019","12297","NYTIMES-USCENSUS"
"10/6/2022 12:00:00 AM","Amherst County","Virginia","South","South Atlantic","51009","37.629304","-79.154667 ","8645","101","5","0","10/5/2022 12:00:00 AM","2019","31605","NYTIMES-USCENSUS"
"10/6/2022 12:00:00 AM","Amelia County","Virginia","South","South Atlantic","51007","37.331927","-77.977462 ","3227","61","1","0","10/5/2022 12:00:00 AM","2019","13145","NYTIMES-USCENSUS"
"10/6/2022 12:00:00 AM","Amador County","California","West","Pacific","06005","38.443549","-120.653858 ","10921","93","11","3","10/5/2022 12:00:00 AM","2019","39752","NYTIMES-USCENSUS"
"10/6/2022 12:00:00 AM","Alpine County","California","West","Pacific","06003","38.621783","-119.798352 ","136","0","1","0","10/5/2022 12:00:00 AM","2019","1129","NYTIMES-USCENSUS"
"10/6/2022 12:00:00 AM","Alpena County","Michigan","Midwest","East North Central","26007","44.894954","-83.426574 ","6153","149","0","0","10/5/2022 12:00:00 AM","2019","28405","NYTIMES-USCENSUS"
"10/6/2022 12:00:00 AM","Allendale County","South Carolina","South","South Atlantic","45005","32.979757","-81.363265 ","2345","24","0","0","10/5/2022 12:00:00 AM","2019","8688","NYTIMES-USCENSUS"
"10/6/2022 12:00:00 AM","Allen Parish","Louisiana","South","West South Central","22003","30.652744","-92.819605 ","8799","143","1","0","10/5/2022 12:00:00 AM","2019","25627","NYTIMES-USCENSUS"
"10/6/2022 12:00:00 AM","White County","Georgia","South","South Atlantic","13311","34.644182","-83.743 ","7859","171","0","0","10/5/2022 12:00:00 AM","2019","30798","NYTIMES-USCENSUS"
"10/6/2022 12:00:00 AM","White County","Tennessee","South","East South Central","47185","35.927049","-85.455785 ","9259","137","0","0","10/5/2022 12:00:00 AM","2019","27345","NYTIMES-USCENSUS"
"10/6/2022 12:00:00 AM","White County","Illinois","Midwest","East North Central","17193","38.087326","-88.178623 ","5090","63","1","0","10/5/2022 12:00:00 AM","2019","13537","NYTIMES-USCENSUS"
"10/6/2022 12:00:00 AM","Wheeler County","Texas","South","West South Central","48483","35.392593","-100.253107 ","1272","24","0","0","10/5/2022 12:00:00 AM","2019","5056","NYTIMES-USCENSUS"
"10/6/2022 12:00:00 AM","Wheeler County","Georgia","South","South Atlantic","13309","32.105258","-82.733849 ","1529","39","0","0","10/5/2022 12:00:00 AM","2019","7855","NYTIMES-USCENSUS"
"10/6/2022 12:00:00 AM","Westmoreland County","Virginia","South","South Atlantic","51193","38.109311","-76.803933 ","3861","57","2","0","10/5/2022 12:00:00 AM","2019","18015","NYTIMES-USCENSUS"
"10/6/2022 12:00:00 AM","Vernon County","Missouri","Midwest","West North Central","29217","37.850196","-94.341597 ","5766","111","0","0","10/5/2022 12:00:00 AM","2019","20563","NYTIMES-USCENSUS"
"10/6/2022 12:00:00 AM","Van Buren County","Tennessee","South","East South Central","47175","35.699234","-85.458409 ","2102","48","0","0","10/5/2022 12:00:00 AM","2019","5872","NYTIMES-USCENSUS"
"10/6/2022 12:00:00 AM","Van Buren County","Arkansas","South","West South Central","05141","35.582953","-92.515976 ","4018","64","2","0","10/5/2022 12:00:00 AM","2019","16545","NYTIMES-USCENSUS"
"10/6/2022 12:00:00 AM","Van Buren County","Iowa","Midwest","West North Central","19177","40.754117","-91.952943 ","1573","27","0","0","10/5/2022 12:00:00 AM","2019","7044","NYTIMES-USCENSUS"
"10/6/2022 12:00:00 AM","Valley County","Idaho","West","Mountain","16085","44.85596","-115.618061 ","2993","16","0","0","10/5/2022 12:00:00 AM","2019","11392","NYTIMES-USCENSUS"
"10/6/2022 12:00:00 AM","Valley County","Nebraska","Midwest","West North Central","31175","41.564094","-98.983484 ","807","11","0","0","10/5/2022 12:00:00 AM","2019","4158","NYTIMES-USCENSUS"
"10/6/2022 12:00:00 AM","Upshur County","Texas","South","West South Central","48459","32.735349","-94.941184 ","8697","190","0","0","10/5/2022 12:00:00 AM","2019","41753","NYTIMES-USCENSUS"
"10/6/2022 12:00:00 AM","Union County","Arkansas","South","West South Central","05139","33.168219","-92.598145 ","10730","192","13","0","10/5/2022 12:00:00 AM","2019","38682","NYTIMES-USCENSUS"
"10/6/2022 12:00:00 AM","Union County","Indiana","Midwest","East North Central","18161","39.623111","-84.925152 ","2206","22","0","0","10/5/2022 12:00:00 AM","2019","7054","NYTIMES-USCENSUS"
"10/6/2022 12:00:00 AM","Union County","Pennsylvania","Northeast","Middle Atlantic","42119","40.962179","-77.055475 ","12851","157","0","0","10/5/2022 12:00:00 AM","2019","44923","NYTIMES-USCENSUS"
"10/6/2022 12:00:00 AM","Union County","North Carolina","South","South Atlantic","37179","34.99182","-80.530426 ","73516","511","0","0","10/5/2022 12:00:00 AM","2019","239859","NYTIMES-USCENSUS"
"10/6/2022 12:00:00 AM","Union County","Iowa","Midwest","West North Central","19175","41.02855","-94.245091 ","3039","54","0","0","10/5/2022 12:00:00 AM","2019","12241","NYTIMES-USCENSUS"
"10/6/2022 12:00:00 AM","Union County","Florida","South","South Atlantic","12125","30.05428","-82.366918 ","4892","122","0","0","10/5/2022 12:00:00 AM","2019","15237","NYTIMES-USCENSUS"
"10/6/2022 12:00:00 AM","Union County","Illinois","Midwest","East North Central","17181","37.485652","-89.244639 ","6375","71","2","0","10/5/2022 12:00:00 AM","2019","16653","NYTIMES-USCENSUS"
"10/6/2022 12:00:00 AM","Union County","Ohio","Midwest","East North Central","39159","40.295901","-83.367042 ","18551","111","79","1","10/5/2022 12:00:00 AM","2019","58988","NYTIMES-USCENSUS"
"10/6/2022 12:00:00 AM","Union County","Oregon","West","Pacific","41061","45.304081","-117.999149 ","5613","88","0","0","10/5/2022 12:00:00 AM","2019","26835","NYTIMES-USCENSUS"
"10/6/2022 12:00:00 AM","Union County","South Carolina","South","South Atlantic","45087","34.690397","-81.615896 ","8943","155","0","0","10/5/2022 12:00:00 AM","2019","27316","NYTIMES-USCENSUS"
"10/6/2022 12:00:00 AM","Union County","Georgia","South","South Atlantic","13291","34.833333","-83.989257 ","5750","169","0","0","10/5/2022 12:00:00 AM","2019","24511","NYTIMES-USCENSUS"
"10/6/2022 12:00:00 AM","Yuma County","Colorado","West","Mountain","08125","40.00077","-102.421649 ","2190","27","0","0","10/5/2022 12:00:00 AM","2019","10019","NYTIMES-USCENSUS"
"10/6/2022 12:00:00 AM","York County","South Carolina","South","South Atlantic","45091","34.970188","-81.183187 ","89595","701","0","0","10/5/2022 12:00:00 AM","2019","280979","NYTIMES-USCENSUS"
"10/6/2022 12:00:00 AM","York County","Pennsylvania","Northeast","Middle Atlantic","42133","39.921751","-76.728889 ","136641","1575","0","0","10/5/2022 12:00:00 AM","2019","449058","NYTIMES-USCENSUS"
"10/6/2022 12:00:00 AM","York County","Nebraska","Midwest","West North Central","31185","40.873056","-97.596742 ","4403","31","0","0","10/5/2022 12:00:00 AM","2019","13679","NYTIMES-USCENSUS"
"10/6/2022 12:00:00 AM","York County","Maine","Northeast","New England","23031","43.426019","-70.668425 ","47891","316","38","0","10/5/2022 12:00:00 AM","2019","207641","NYTIMES-USCENSUS"
"10/6/2022 12:00:00 AM","Wells County","Indiana","Midwest","East North Central","18179","40.735273","-85.212974 ","7124","137","0","0","10/5/2022 12:00:00 AM","2019","28296","NYTIMES-USCENSUS"
"10/6/2022 12:00:00 AM","Webster County","Georgia","South","South Atlantic","13307","32.046691","-84.553828 ","511","10","0","0","10/5/2022 12:00:00 AM","2019","2607","NYTIMES-USCENSUS"
"10/6/2022 12:00:00 AM","Webster County","Missouri","Midwest","West North Central","29225","37.280804","-92.87608 ","9816","158","0","0","10/5/2022 12:00:00 AM","2019","39592","NYTIMES-USCENSUS"
"10/6/2022 12:00:00 AM","Webster County","Kentucky","South","East South Central","21233","37.51946","-87.68479 ","4583","51","0","0","10/5/2022 12:00:00 AM","2019","12942","NYTIMES-USCENSUS"
"10/6/2022 12:00:00 AM","Webster County","Iowa","Midwest","West North Central","19187","42.433579","-94.175831 ","11540","174","0","0","10/5/2022 12:00:00 AM","2019","35904","NYTIMES-USCENSUS"
"10/6/2022 12:00:00 AM","Webster County","Mississippi","South","East South Central","28155","33.612061","-89.283961 ","3799","73","0","0","10/5/2022 12:00:00 AM","2019","9689","NYTIMES-USCENSUS"
"10/6/2022 12:00:00 AM","Webster County","Nebraska","Midwest","West North Central","31181","40.180646","-98.49859 ","762","13","0","0","10/5/2022 12:00:00 AM","2019","3487","NYTIMES-USCENSUS"
"10/6/2022 12:00:00 AM","Wayne County","North Carolina","South","South Atlantic","37191","35.35419","-78.00867 ","38347","433","0","0","10/5/2022 12:00:00 AM","2019","123131","NYTIMES-USCENSUS"
"10/6/2022 12:00:00 AM","Wayne County","Illinois","Midwest","East North Central","17191","38.431857","-88.43243 ","6259","90","1","0","10/5/2022 12:00:00 AM","2019","16215","NYTIMES-USCENSUS"
"10/6/2022 12:00:00 AM","Wayne County","Iowa","Midwest","West North Central","19185","40.739983","-93.332613 ","1436","33","0","0","10/5/2022 12:00:00 AM","2019","6441","NYTIMES-USCENSUS"
"10/6/2022 12:00:00 AM","Wayne County","Georgia","South","South Atlantic","13305","31.547845","-81.912376 ","8535","217","0","0","10/5/2022 12:00:00 AM","2019","29927","NYTIMES-USCENSUS"
"10/6/2022 12:00:00 AM","Wayne County","Kentucky","South","East South Central","21231","36.800772","-84.82659 ","7633","101","0","0","10/5/2022 12:00:00 AM","2019","20333","NYTIMES-USCENSUS"
"10/6/2022 12:00:00 AM","Wayne County","Indiana","Midwest","East North Central","18177","39.863091","-85.006735 ","21877","348","0","0","10/5/2022 12:00:00 AM","2019","65884","NYTIMES-USCENSUS"
"10/6/2022 12:00:00 AM","Wayne County","Michigan","Midwest","East North Central","26163","42.284664","-83.261953 ","490116","8457","0","0","10/5/2022 12:00:00 AM","2019","1749343","NYTIMES-USCENSUS"
"10/6/2022 12:00:00 AM","Humboldt County","Nevada","West","Mountain","32013","41.407914","-118.127591 ","2723","66","0","0","10/5/2022 12:00:00 AM","2019","16831","NYTIMES-USCENSUS"
"10/6/2022 12:00:00 AM","Hughes County","South Dakota","Midwest","West North Central","46065","44.384452","-99.975684 ","4801","62","0","0","10/5/2022 12:00:00 AM","2019","17526","NYTIMES-USCENSUS"
