"monitor_date","county","state_name","region","subregion","fips","latitude","longitude","case_count_to_date","death_count_to_date","case_count","death_count","previous_monitor_date","population_year","population","source"
"8/7/2022 12:00:00 AM","Butler County","Kentucky","South","East South Central","21031","37.207013","-86.682471 ","4094","55","4094","55","","2019","12879","NYTIMES-USCENSUS"
"8/7/2022 12:00:00 AM","Butler County","Ohio","Midwest","East North Central","39017","39.439747","-84.565734 ","102085","1176","102085","1176","","2019","383134","NYTIMES-USCENSUS"
"8/7/2022 12:00:00 AM","Butler County","Nebraska","Midwest","West North Central","31023","41.226072","-97.132039 ","2060","18","2060","18","","2019","8016","NYTIMES-USCENSUS"
"8/7/2022 12:00:00 AM","Butler County","Pennsylvania","Northeast","Middle Atlantic","42019","40.913847","-79.918978 ","49007","761","49007","761","","2019","187853","NYTIMES-USCENSUS"
"8/7/2022 12:00:00 AM","Butler County","Alabama","South","East South Central","01013","31.751667","-86.681969 ","5607","129","5607","129","","2019","19448","NYTIMES-USCENSUS"
"8/7/2022 12:00:00 AM","Butler County","Missouri","Midwest","West North Central","29023","36.71518","-90.40313 ","10961","178","10961","178","","2019","42478","NYTIMES-USCENSUS"
"8/7/2022 12:00:00 AM","Burke County","Georgia","South","South Atlantic","13033","33.060181","-82.000164 ","5740","114","5740","114","","2019","22383","NYTIMES-USCENSUS"
"8/7/2022 12:00:00 AM","Burke County","North Dakota","Midwest","West North Central","38013","48.786453","-102.520087 ","457","3","457","3","","2019","2115","NYTIMES-USCENSUS"
"8/7/2022 12:00:00 AM","Buffalo County","South Dakota","Midwest","West North Central","46017","44.044306","-99.203998 ","638","18","638","18","","2019","1962","NYTIMES-USCENSUS"
"8/7/2022 12:00:00 AM","Buffalo County","Nebraska","Midwest","West North Central","31019","40.855265","-99.074984 ","12932","104","12932","104","","2019","49659","NYTIMES-USCENSUS"
"8/7/2022 12:00:00 AM","Buchanan County","Virginia","South","South Atlantic","51027","37.26812","-82.038151 ","5209","128","5209","128","","2019","21004","NYTIMES-USCENSUS"
"8/7/2022 12:00:00 AM","Buchanan County","Missouri","Midwest","West North Central","29021","39.660369","-94.808173 ","26667","323","26667","323","","2019","87364","NYTIMES-USCENSUS"
"8/7/2022 12:00:00 AM","Bryan County","Oklahoma","South","West South Central","40013","33.964004","-96.265135 ","14824","138","14824","138","","2019","47995","NYTIMES-USCENSUS"
"8/7/2022 12:00:00 AM","Brunswick County","North Carolina","South","South Atlantic","37019","34.038754","-78.227765 ","35136","343","35136","343","","2019","142820","NYTIMES-USCENSUS"
"8/7/2022 12:00:00 AM","Brown County","Ohio","Midwest","East North Central","39015","38.931377","-83.866772 ","12175","186","12175","186","","2019","43432","NYTIMES-USCENSUS"
"8/7/2022 12:00:00 AM","Brown County","Kansas","Midwest","West North Central","20013","39.825931","-95.569905 ","2904","49","2904","49","","2019","9564","NYTIMES-USCENSUS"
"8/7/2022 12:00:00 AM","Brown County","Illinois","Midwest","East North Central","17009","39.962069","-90.750309 ","2568","22","2568","22","","2019","6578","NYTIMES-USCENSUS"
"8/7/2022 12:00:00 AM","Brown County","Minnesota","Midwest","West North Central","27015","44.246541","-94.733647 ","7075","81","7075","81","","2019","25008","NYTIMES-USCENSUS"
"8/7/2022 12:00:00 AM","Brown County","Texas","South","West South Central","48049","31.764137","-98.998456 ","12953","229","12953","229","","2019","37864","NYTIMES-USCENSUS"
"8/7/2022 12:00:00 AM","Brown County","Wisconsin","Midwest","East North Central","55009","44.474024","-87.99613 ","92740","574","92740","574","","2019","264542","NYTIMES-USCENSUS"
"8/7/2022 12:00:00 AM","Brown County","South Dakota","Midwest","West North Central","46013","45.589254","-98.352175 ","10860","122","10860","122","","2019","38839","NYTIMES-USCENSUS"
"8/7/2022 12:00:00 AM","Brooks County","Georgia","South","South Atlantic","13027","30.822934","-83.581905 ","3700","87","3700","87","","2019","15457","NYTIMES-USCENSUS"
"8/7/2022 12:00:00 AM","Bay County","Michigan","Midwest","East North Central","26017","43.699711","-83.978701 ","29122","607","29122","607","","2019","103126","NYTIMES-USCENSUS"
"8/7/2022 12:00:00 AM","Bath County","Kentucky","South","East South Central","21011","38.152249","-83.737641 ","3609","49","3609","49","","2019","12500","NYTIMES-USCENSUS"
"8/7/2022 12:00:00 AM","Barton County","Kansas","Midwest","West North Central","20009","38.481239","-98.767837 ","6855","107","6855","107","","2019","25779","NYTIMES-USCENSUS"
"8/7/2022 12:00:00 AM","Barry County","Missouri","Midwest","West North Central","29009","36.699376","-93.834334 ","7190","145","7190","145","","2019","35789","NYTIMES-USCENSUS"
"8/7/2022 12:00:00 AM","Barbour County","West Virginia","South","South Atlantic","54001","39.139725","-79.996947 ","5362","74","5362","74","","2019","16441","NYTIMES-USCENSUS"
"8/7/2022 12:00:00 AM","Baldwin County","Georgia","South","South Atlantic","13009","33.05949","-83.255457 ","10327","245","10327","245","","2019","44890","NYTIMES-USCENSUS"
"8/7/2022 12:00:00 AM","Baker County","Florida","South","South Atlantic","12003","30.324442","-82.302284 ","9390","143","9390","143","","2019","29210","NYTIMES-USCENSUS"
"8/7/2022 12:00:00 AM","Baker County","Georgia","South","South Atlantic","13007","31.31958","-84.454881 ","589","15","589","15","","2019","3038","NYTIMES-USCENSUS"
"8/7/2022 12:00:00 AM","Wyoming County","West Virginia","South","South Atlantic","54109","37.60366","-81.549032 ","7963","125","7963","125","","2019","20394","NYTIMES-USCENSUS"
"8/7/2022 12:00:00 AM","Wyandotte County","Kansas","Midwest","West North Central","20209","39.115384","-94.763087 ","50615","521","50615","521","","2019","165429","NYTIMES-USCENSUS"
"8/7/2022 12:00:00 AM","Wyandot County","Ohio","Midwest","East North Central","39175","40.839782","-83.313681 ","5776","105","5776","105","","2019","21772","NYTIMES-USCENSUS"
"8/7/2022 12:00:00 AM","Wright County","Missouri","Midwest","West North Central","29229","37.267633","-92.479989 ","4152","90","4152","90","","2019","18289","NYTIMES-USCENSUS"
"8/7/2022 12:00:00 AM","Worth County","Missouri","Midwest","West North Central","29227","40.480499","-94.419198 ","434","3","434","3","","2019","2013","NYTIMES-USCENSUS"
"8/7/2022 12:00:00 AM","Worcester County","Massachusetts","Northeast","New England","25027","42.311693","-71.940282 ","216420","2689","216420","2689","","2019","830622","NYTIMES-USCENSUS"
"8/7/2022 12:00:00 AM","Woodward County","Oklahoma","South","West South Central","40153","36.425619","-99.273661 ","5461","79","5461","79","","2019","20211","NYTIMES-USCENSUS"
"8/7/2022 12:00:00 AM","Woodson County","Kansas","Midwest","West North Central","20207","37.888193","-95.758469 ","880","17","880","17","","2019","3138","NYTIMES-USCENSUS"
"8/7/2022 12:00:00 AM","Woods County","Oklahoma","South","West South Central","40151","36.726984","-98.863649 ","2459","38","2459","38","","2019","8793","NYTIMES-USCENSUS"
"8/7/2022 12:00:00 AM","Woodruff County","Arkansas","South","West South Central","05147","35.192777","-91.244535 ","1947","31","1947","31","","2019","6320","NYTIMES-USCENSUS"
"8/7/2022 12:00:00 AM","Woodford County","Illinois","Midwest","East North Central","17203","40.789787","-89.210587 ","11428","127","11428","127","","2019","38459","NYTIMES-USCENSUS"
"8/7/2022 12:00:00 AM","Woodbury County","Iowa","Midwest","West North Central","19193","42.39322","-96.053296 ","30433","344","30433","344","","2019","103107","NYTIMES-USCENSUS"
"8/7/2022 12:00:00 AM","Dakota County","Minnesota","Midwest","West North Central","27037","44.670893","-93.062481 ","123700","807","123700","807","","2019","429021","NYTIMES-USCENSUS"
"8/7/2022 12:00:00 AM","Clayton County","Iowa","Midwest","West North Central","19043","42.840985","-91.323576 ","3699","74","3699","74","","2019","17549","NYTIMES-USCENSUS"
"8/7/2022 12:00:00 AM","Clay County","Florida","South","South Atlantic","12019","29.986584","-81.865036 ","60330","885","60330","885","","2019","219252","NYTIMES-USCENSUS"
"8/7/2022 12:00:00 AM","Clay County","Kansas","Midwest","West North Central","20027","39.344964","-97.168853 ","2132","38","2132","38","","2019","8002","NYTIMES-USCENSUS"
"8/7/2022 12:00:00 AM","Clay County","Nebraska","Midwest","West North Central","31035","40.523669","-98.050858 ","1596","25","1596","25","","2019","6203","NYTIMES-USCENSUS"
"8/7/2022 12:00:00 AM","Clay County","Kentucky","South","East South Central","21051","37.164273","-83.715473 ","8269","97","8269","97","","2019","19901","NYTIMES-USCENSUS"
"8/7/2022 12:00:00 AM","Clay County","Missouri","Midwest","West North Central","29047","39.315551","-94.421502 ","29864","375","29864","375","","2019","249948","NYTIMES-USCENSUS"
"8/7/2022 12:00:00 AM","Clay County","Illinois","Midwest","East North Central","17025","38.746819","-88.482325 ","5199","75","5199","75","","2019","13184","NYTIMES-USCENSUS"
"8/7/2022 12:00:00 AM","Clay County","Georgia","South","South Atlantic","13061","31.619831","-84.992583 ","566","6","566","6","","2019","2834","NYTIMES-USCENSUS"
"8/7/2022 12:00:00 AM","Clay County","Tennessee","South","East South Central","47027","36.545749","-85.545717 ","2406","52","2406","52","","2019","7615","NYTIMES-USCENSUS"
"8/7/2022 12:00:00 AM","Clay County","Alabama","South","East South Central","01027","33.2704","-85.863525 ","4474","83","4474","83","","2019","13235","NYTIMES-USCENSUS"
"8/7/2022 12:00:00 AM","Clay County","Iowa","Midwest","West North Central","19041","43.081224","-95.149875 ","4371","45","4371","45","","2019","16016","NYTIMES-USCENSUS"
"8/7/2022 12:00:00 AM","Clay County","Mississippi","South","East South Central","28025","33.65967","-88.782468 ","5440","98","5440","98","","2019","19316","NYTIMES-USCENSUS"
"8/7/2022 12:00:00 AM","Clay County","West Virginia","South","South Atlantic","54015","38.459826","-81.081866 ","2506","47","2506","47","","2019","8508","NYTIMES-USCENSUS"
"8/7/2022 12:00:00 AM","Clay County","Indiana","Midwest","East North Central","18021","39.393928","-87.115858 ","7368","94","7368","94","","2019","26225","NYTIMES-USCENSUS"
"8/7/2022 12:00:00 AM","Clay County","Minnesota","Midwest","West North Central","27027","46.898377","-96.494901 ","21431","129","21431","129","","2019","64222","NYTIMES-USCENSUS"
"8/7/2022 12:00:00 AM","Clay County","Texas","South","West South Central","48077","33.785904","-98.212917 ","2291","39","2291","39","","2019","10471","NYTIMES-USCENSUS"
"8/7/2022 12:00:00 AM","Clay County","Arkansas","South","West South Central","05021","36.367302","-90.418704 ","4502","96","4502","96","","2019","14551","NYTIMES-USCENSUS"
"8/7/2022 12:00:00 AM","Clay County","South Dakota","Midwest","West North Central","46027","42.91615","-96.980468 ","3626","23","3626","23","","2019","14070","NYTIMES-USCENSUS"
"8/7/2022 12:00:00 AM","Clarke County","Alabama","South","East South Central","01025","31.685521","-87.818624 ","7728","103","7728","103","","2019","23622","NYTIMES-USCENSUS"
"8/7/2022 12:00:00 AM","Clarke County","Virginia","South","South Atlantic","51043","39.115307","-77.990748 ","3034","51","3034","51","","2019","14619","NYTIMES-USCENSUS"
"8/7/2022 12:00:00 AM","Clarke County","Georgia","South","South Atlantic","13059","33.952185","-83.367152 ","32217","244","32217","244","","2019","128331","NYTIMES-USCENSUS"
"8/7/2022 12:00:00 AM","Clarke County","Mississippi","South","East South Central","28023","32.045374","-88.687976 ","4475","108","4475","108","","2019","15541","NYTIMES-USCENSUS"
"8/7/2022 12:00:00 AM","Clark County","South Dakota","Midwest","West North Central","46025","44.855211","-97.724912 ","848","10","848","10","","2019","3736","NYTIMES-USCENSUS"
"8/7/2022 12:00:00 AM","Clark County","Kentucky","South","East South Central","21049","37.970314","-84.145115 ","12110","73","12110","73","","2019","36263","NYTIMES-USCENSUS"
"8/7/2022 12:00:00 AM","Clark County","Indiana","Midwest","East North Central","18019","38.476217","-85.711122 ","35332","404","35332","404","","2019","118302","NYTIMES-USCENSUS"
"8/7/2022 12:00:00 AM","Clark County","Kansas","Midwest","West North Central","20025","37.233831","-99.813869 ","525","8","525","8","","2019","1994","NYTIMES-USCENSUS"
"8/7/2022 12:00:00 AM","Clark County","Missouri","Midwest","West North Central","29045","40.407275","-91.729472 ","1737","40","1737","40","","2019","6797","NYTIMES-USCENSUS"
"8/7/2022 12:00:00 AM","Clark County","Illinois","Midwest","East North Central","17023","39.332334","-87.791683 ","5283","60","5283","60","","2019","15441","NYTIMES-USCENSUS"
"8/7/2022 12:00:00 AM","Clark County","Nevada","West","Mountain","32003","36.21413","-115.014398 ","630324","8791","630324","8791","","2019","2266715","NYTIMES-USCENSUS"
"8/7/2022 12:00:00 AM","Clark County","Arkansas","South","West South Central","05019","34.053316","-93.176208 ","5873","85","5873","85","","2019","22320","NYTIMES-USCENSUS"
"8/7/2022 12:00:00 AM","Clark County","Wisconsin","Midwest","East North Central","55019","44.739346","-90.609953 ","8212","123","8212","123","","2019","34774","NYTIMES-USCENSUS"
"8/7/2022 12:00:00 AM","Clark County","Ohio","Midwest","East North Central","39023","39.917032","-83.783676 ","38191","592","38191","592","","2019","134083","NYTIMES-USCENSUS"
"8/7/2022 12:00:00 AM","Claiborne County","Tennessee","South","East South Central","47025","36.501572","-83.660698 ","9577","186","9577","186","","2019","31959","NYTIMES-USCENSUS"
"8/7/2022 12:00:00 AM","Christian County","Missouri","Midwest","West North Central","29043","36.969739","-93.187614 ","22667","268","22667","268","","2019","88595","NYTIMES-USCENSUS"
"8/7/2022 12:00:00 AM","Christian County","Illinois","Midwest","East North Central","17021","39.545524","-89.279593 ","11443","132","11443","132","","2019","32304","NYTIMES-USCENSUS"
"8/7/2022 12:00:00 AM","Choctaw County","Oklahoma","South","West South Central","40023","34.027699","-95.554079 ","4373","64","4373","64","","2019","14672","NYTIMES-USCENSUS"
"8/7/2022 12:00:00 AM","Choctaw County","Alabama","South","East South Central","01023","31.990954","-88.248889 ","2147","37","2147","37","","2019","12589","NYTIMES-USCENSUS"
"8/7/2022 12:00:00 AM","Chippewa County","Wisconsin","Midwest","East North Central","55017","45.069092","-91.283505 ","20207","195","20207","195","","2019","64658","NYTIMES-USCENSUS"
"8/7/2022 12:00:00 AM","Chippewa County","Minnesota","Midwest","West North Central","27023","45.028625","-95.564108 ","3351","49","3351","49","","2019","11800","NYTIMES-USCENSUS"
"8/7/2022 12:00:00 AM","Chickasaw County","Iowa","Midwest","West North Central","19037","43.059741","-92.31721 ","2891","33","2891","33","","2019","11933","NYTIMES-USCENSUS"
"8/7/2022 12:00:00 AM","Cheyenne County","Kansas","Midwest","West North Central","20023","39.789917","-101.727325 ","672","14","672","14","","2019","2657","NYTIMES-USCENSUS"
"8/7/2022 12:00:00 AM","Cheyenne County","Colorado","West","Mountain","08017","38.835646","-102.601791 ","345","9","345","9","","2019","1831","NYTIMES-USCENSUS"
"8/7/2022 12:00:00 AM","Butler County","Kansas","Midwest","West North Central","20015","37.773649","-96.83884 ","20283","200","20283","200","","2019","66911","NYTIMES-USCENSUS"
"8/7/2022 12:00:00 AM","Sully County","South Dakota","Midwest","West North Central","46119","44.722325","-100.131399 ","254","3","254","3","","2019","1391","NYTIMES-USCENSUS"
"8/7/2022 12:00:00 AM","Sullivan County","Tennessee","South","East South Central","47163","36.509681","-82.301336 ","49969","743","49969","743","","2019","158348","NYTIMES-USCENSUS"
"8/7/2022 12:00:00 AM","Suffolk County","New York","Northeast","Middle Atlantic","36103","40.943554","-72.692218 ","493224","4524","493224","4524","","2019","1476601","NYTIMES-USCENSUS"
"8/7/2022 12:00:00 AM","Suffolk city","Virginia","South","South Atlantic","51800","36.697157","-76.634781 ","21570","313","21570","313","","2019","92108","NYTIMES-USCENSUS"
"8/7/2022 12:00:00 AM","Sublette County","Wyoming","West","Mountain","56035","42.767928","-109.91617 ","2110","27","2110","27","","2019","9831","NYTIMES-USCENSUS"
"8/7/2022 12:00:00 AM","Stutsman County","North Dakota","Midwest","West North Central","38093","46.972223","-98.956123 ","7573","97","7573","97","","2019","20704","NYTIMES-USCENSUS"
"8/7/2022 12:00:00 AM","Strafford County","New Hampshire","Northeast","New England","33017","43.293272","-71.035589 ","33442","223","33442","223","","2019","130633","NYTIMES-USCENSUS"
"8/7/2022 12:00:00 AM","Story County","Iowa","Midwest","West North Central","19169","42.037538","-93.466093 ","21325","92","21325","92","","2019","97117","NYTIMES-USCENSUS"
"8/7/2022 12:00:00 AM","Storey County","Nevada","West","Mountain","32029","39.438385","-119.524646 ","165","14","165","14","","2019","4123","NYTIMES-USCENSUS"
"8/7/2022 12:00:00 AM","Stone County","Mississippi","South","East South Central","28131","30.790184","-89.112297 ","5954","72","5954","72","","2019","18336","NYTIMES-USCENSUS"
"8/7/2022 12:00:00 AM","Stokes County","North Carolina","South","South Atlantic","37169","36.393797","-80.269921 ","12598","186","12598","186","","2019","45591","NYTIMES-USCENSUS"
"8/7/2022 12:00:00 AM","Stoddard County","Missouri","Midwest","West North Central","29207","36.851557","-89.947481 ","6546","139","6546","139","","2019","29025","NYTIMES-USCENSUS"
"8/7/2022 12:00:00 AM","Stillwater County","Montana","West","Mountain","30095","45.658545","-109.381576 ","1615","32","1615","32","","2019","9642","NYTIMES-USCENSUS"
"8/7/2022 12:00:00 AM","Stewart County","Georgia","South","South Atlantic","13259","32.073225","-84.834912 ","2867","35","2867","35","","2019","6621","NYTIMES-USCENSUS"
"8/7/2022 12:00:00 AM","Stevens County","Minnesota","Midwest","West North Central","27149","45.593461","-95.992315 ","2935","14","2935","14","","2019","9805","NYTIMES-USCENSUS"
"8/7/2022 12:00:00 AM","Steuben County","New York","Northeast","Middle Atlantic","36101","42.266725","-77.385525 ","22681","259","22681","259","","2019","95379","NYTIMES-USCENSUS"
"8/7/2022 12:00:00 AM","Stephenson County","Illinois","Midwest","East North Central","17177","42.349726","-89.665994 ","12994","187","12994","187","","2019","44498","NYTIMES-USCENSUS"
"8/7/2022 12:00:00 AM","Stephens County","Texas","South","West South Central","48429","32.738052","-98.839344 ","1959","47","1959","47","","2019","9366","NYTIMES-USCENSUS"
"8/7/2022 12:00:00 AM","Steele County","North Dakota","Midwest","West North Central","38091","47.451062","-97.71892 ","397","2","397","2","","2019","1890","NYTIMES-USCENSUS"
"8/7/2022 12:00:00 AM","Stearns County","Minnesota","Midwest","West North Central","27145","45.555235","-94.610482 ","55272","381","55272","381","","2019","161075","NYTIMES-USCENSUS"
"8/7/2022 12:00:00 AM","Ste. Genevieve County","Missouri","Midwest","West North Central","29186","37.885845","-90.161531 ","4093","39","4093","39","","2019","17894","NYTIMES-USCENSUS"
"8/7/2022 12:00:00 AM","Staunton city","Virginia","South","South Atlantic","51790","38.157978","-79.061876 ","6553","119","6553","119","","2019","24932","NYTIMES-USCENSUS"
"8/7/2022 12:00:00 AM","Starr County","Texas","South","West South Central","48427","26.530903","-98.740235 ","21863","367","21863","367","","2019","64633","NYTIMES-USCENSUS"
"8/7/2022 12:00:00 AM","Starke County","Indiana","Midwest","East North Central","18149","41.284478","-86.644636 ","5068","102","5068","102","","2019","22995","NYTIMES-USCENSUS"
"8/7/2022 12:00:00 AM","Stark County","North Dakota","Midwest","West North Central","38089","46.817031","-102.662026 ","12416","86","12416","86","","2019","31489","NYTIMES-USCENSUS"
"8/7/2022 12:00:00 AM","Stanton County","Nebraska","Midwest","West North Central","31167","41.905045","-97.177109 ","685","11","685","11","","2019","5920","NYTIMES-USCENSUS"
"8/7/2022 12:00:00 AM","Schoolcraft County","Michigan","Midwest","East North Central","26153","46.021122","-86.197029 ","1936","16","1936","16","","2019","8094","NYTIMES-USCENSUS"
"8/7/2022 12:00:00 AM","Schoharie County","New York","Northeast","Middle Atlantic","36095","42.591294","-74.438172 ","5786","36","5786","36","","2019","30999","NYTIMES-USCENSUS"
"8/7/2022 12:00:00 AM","Schley County","Georgia","South","South Atlantic","13249","32.263444","-84.322708 ","1284","11","1284","11","","2019","5257","NYTIMES-USCENSUS"
"8/7/2022 12:00:00 AM","Schenectady County","New York","Northeast","Middle Atlantic","36093","42.817552","-74.043559 ","38899","323","38899","323","","2019","155299","NYTIMES-USCENSUS"
"8/7/2022 12:00:00 AM","Sawyer County","Wisconsin","Midwest","East North Central","55113","45.864911","-91.147133 ","5238","63","5238","63","","2019","16558","NYTIMES-USCENSUS"
"8/7/2022 12:00:00 AM","Saunders County","Nebraska","Midwest","West North Central","31155","41.223388","-96.642097 ","5248","30","5248","30","","2019","21578","NYTIMES-USCENSUS"
"8/7/2022 12:00:00 AM","Sauk County","Wisconsin","Midwest","East North Central","55111","43.428001","-89.943318 ","18244","139","18244","139","","2019","64442","NYTIMES-USCENSUS"
"8/7/2022 12:00:00 AM","Sarpy County","Nebraska","Midwest","West North Central","31153","41.115064","-96.109125 ","53752","290","53752","290","","2019","187196","NYTIMES-USCENSUS"
"8/7/2022 12:00:00 AM","Sargent County","North Dakota","Midwest","West North Central","38081","46.108204","-97.630051 ","1116","9","1116","9","","2019","3898","NYTIMES-USCENSUS"
"8/7/2022 12:00:00 AM","Saratoga County","New York","Northeast","Middle Atlantic","36091","43.106135","-73.855387 ","54708","352","54708","352","","2019","229863","NYTIMES-USCENSUS"
"8/7/2022 12:00:00 AM","Sarasota County","Florida","South","South Atlantic","12115","27.225327","-82.423714 ","106942","1737","106942","1737","","2019","433742","NYTIMES-USCENSUS"
"8/7/2022 12:00:00 AM","Santa Rosa County","Florida","South","South Atlantic","12113","30.675348","-87.018919 ","53915","642","53915","642","","2019","184313","NYTIMES-USCENSUS"
"8/7/2022 12:00:00 AM","Santa Fe County","New Mexico","West","Mountain","35049","35.514531","-105.963972 ","35747","331","35747","331","","2019","150358","NYTIMES-USCENSUS"
"8/7/2022 12:00:00 AM","Santa Cruz County","California","West","Pacific","06087","37.012347","-122.007789 ","63113","269","63113","269","","2019","273213","NYTIMES-USCENSUS"
"8/7/2022 12:00:00 AM","Santa Clara County","California","West","Pacific","06085","37.221614","-121.68954 ","430146","2386","430146","2386","","2019","1927852","NYTIMES-USCENSUS"
"8/7/2022 12:00:00 AM","Wood County","Texas","South","West South Central","48499","32.783588","-95.382166 ","8632","289","8632","289","","2019","45539","NYTIMES-USCENSUS"
"8/7/2022 12:00:00 AM","Wolfe County","Kentucky","South","East South Central","21237","37.743893","-83.49511 ","2817","29","2817","29","","2019","7157","NYTIMES-USCENSUS"
"8/7/2022 12:00:00 AM","Wise County","Virginia","South","South Atlantic","51195","36.974561","-82.62156 ","11706","203","11706","203","","2019","37383","NYTIMES-USCENSUS"
"8/7/2022 12:00:00 AM","Wirt County","West Virginia","South","South Atlantic","54105","39.020034","-81.382975 ","1562","25","1562","25","","2019","5821","NYTIMES-USCENSUS"
"8/7/2022 12:00:00 AM","Winston County","Alabama","South","East South Central","01133","34.154566","-87.365346 ","8127","134","8127","134","","2019","23629","NYTIMES-USCENSUS"
"8/7/2022 12:00:00 AM","Winona County","Minnesota","Midwest","West North Central","27169","43.981353","-91.777044 ","14306","77","14306","77","","2019","50484","NYTIMES-USCENSUS"
"8/7/2022 12:00:00 AM","Winneshiek County","Iowa","Midwest","West North Central","19191","43.292989","-91.850788 ","4157","53","4157","53","","2019","19991","NYTIMES-USCENSUS"
"8/7/2022 12:00:00 AM","Winnebago County","Wisconsin","Midwest","East North Central","55139","44.085707","-88.668149 ","57174","396","57174","396","","2019","171907","NYTIMES-USCENSUS"
"8/7/2022 12:00:00 AM","Winn Parish","Louisiana","South","West South Central","22127","31.941187","-92.641269 ","4915","65","4915","65","","2019","13904","NYTIMES-USCENSUS"
"8/7/2022 12:00:00 AM","Winkler County","Texas","South","West South Central","48495","31.832862","-103.054925 ","1955","34","1955","34","","2019","8010","NYTIMES-USCENSUS"
"8/7/2022 12:00:00 AM","Windsor County","Vermont","Northeast","New England","50027","43.572448","-72.598813 ","10603","60","10603","60","","2019","55062","NYTIMES-USCENSUS"
"8/7/2022 12:00:00 AM","Windham County","Vermont","Northeast","New England","50025","42.995335","-72.721955 ","7762","40","7762","40","","2019","42222","NYTIMES-USCENSUS"
"8/7/2022 12:00:00 AM","Winchester city","Virginia","South","South Atlantic","51840","39.173869","-78.176356 ","7052","82","7052","82","","2019","28078","NYTIMES-USCENSUS"
"8/7/2022 12:00:00 AM","Wilson County","Texas","South","West South Central","48493","29.173883","-98.086734 ","11810","160","11810","160","","2019","51070","NYTIMES-USCENSUS"
"8/7/2022 12:00:00 AM","Williamson County","Illinois","Midwest","East North Central","17199","37.730353","-88.930018 ","25285","269","25285","269","","2019","66597","NYTIMES-USCENSUS"
"8/7/2022 12:00:00 AM","Vernon County","Wisconsin","Midwest","East North Central","55123","43.599366","-90.821983 ","6814","104","6814","104","","2019","30822","NYTIMES-USCENSUS"
"8/7/2022 12:00:00 AM","Vermillion County","Indiana","Midwest","East North Central","18165","39.854045","-87.462071 ","4484","80","4484","80","","2019","15498","NYTIMES-USCENSUS"
"8/7/2022 12:00:00 AM","Vermilion Parish","Louisiana","South","West South Central","22113","29.789722","-92.291568 ","17078","230","17078","230","","2019","59511","NYTIMES-USCENSUS"
"8/7/2022 12:00:00 AM","Vermilion County","Illinois","Midwest","East North Central","17183","40.186754","-87.726778 ","31199","316","31199","316","","2019","75758","NYTIMES-USCENSUS"
"8/7/2022 12:00:00 AM","Ventura County","California","West","Pacific","06111","34.358748","-119.133145 ","214000","1537","214000","1537","","2019","846006","NYTIMES-USCENSUS"
"8/7/2022 12:00:00 AM","Venango County","Pennsylvania","Northeast","Middle Atlantic","42121","41.400714","-79.765813 ","12196","249","12196","249","","2019","50668","NYTIMES-USCENSUS"
"8/7/2022 12:00:00 AM","Vanderburgh County","Indiana","Midwest","East North Central","18163","38.02007","-87.586166 ","63140","645","63140","645","","2019","181451","NYTIMES-USCENSUS"
"8/7/2022 12:00:00 AM","Vance County","North Carolina","South","South Atlantic","37181","36.365481","-78.405434 ","13532","126","13532","126","","2019","44535","NYTIMES-USCENSUS"
"8/7/2022 12:00:00 AM","Van Zandt County","Texas","South","West South Central","48467","32.558787","-95.836906 ","11224","285","11224","285","","2019","56590","NYTIMES-USCENSUS"
"8/7/2022 12:00:00 AM","Van Wert County","Ohio","Midwest","East North Central","39161","40.85552","-84.585775 ","7212","149","7212","149","","2019","28275","NYTIMES-USCENSUS"
"8/7/2022 12:00:00 AM","Van Buren County","Iowa","Midwest","West North Central","19177","40.754117","-91.952943 ","1488","27","1488","27","","2019","7044","NYTIMES-USCENSUS"
"8/7/2022 12:00:00 AM","Valley County","Idaho","West","Mountain","16085","44.85596","-115.618061 ","2868","16","2868","16","","2019","11392","NYTIMES-USCENSUS"
"8/7/2022 12:00:00 AM","Valencia County","New Mexico","West","Mountain","35061","34.71684","-106.806582 ","21731","292","21731","292","","2019","76688","NYTIMES-USCENSUS"
"8/7/2022 12:00:00 AM","Valdez-Cordova Census Area","Alaska","West","Pacific","02261","61.4","-144.5","3458","20","3458","20","","2019","9202","NYTIMES-USCENSUS"
"8/7/2022 12:00:00 AM","Val Verde County","Texas","South","West South Central","48465","29.875285","-101.143324 ","15293","305","15293","305","","2019","49025","NYTIMES-USCENSUS"
"8/7/2022 12:00:00 AM","Uvalde County","Texas","South","West South Central","48463","29.350308","-99.768427 ","11085","146","11085","146","","2019","26741","NYTIMES-USCENSUS"
"8/7/2022 12:00:00 AM","Utah County","Utah","West","Mountain","49049","40.120425","-111.668508 ","215269","827","215269","827","","2019","636235","NYTIMES-USCENSUS"
"8/7/2022 12:00:00 AM","Upson County","Georgia","South","South Atlantic","13293","32.881837","-84.292283 ","8534","244","8534","244","","2019","26320","NYTIMES-USCENSUS"
"8/7/2022 12:00:00 AM","Upshur County","Texas","South","West South Central","48459","32.735349","-94.941184 ","8322","187","8322","187","","2019","41753","NYTIMES-USCENSUS"
"8/7/2022 12:00:00 AM","Union Parish","Louisiana","South","West South Central","22111","32.829349","-92.37565 ","7838","139","7838","139","","2019","22108","NYTIMES-USCENSUS"
"8/7/2022 12:00:00 AM","Union County","Indiana","Midwest","East North Central","18161","39.623111","-84.925152 ","2122","22","2122","22","","2019","7054","NYTIMES-USCENSUS"
"8/7/2022 12:00:00 AM","Unicoi County","Tennessee","South","East South Central","47171","36.100129","-82.418218 ","5576","97","5576","97","","2019","17883","NYTIMES-USCENSUS"
"8/7/2022 12:00:00 AM","Umatilla County","Oregon","West","Pacific","41059","45.5912","-118.73388 ","24327","238","24327","238","","2019","77950","NYTIMES-USCENSUS"
"8/7/2022 12:00:00 AM","Ulster County","New York","Northeast","Middle Atlantic","36111","41.947212","-74.265458 ","37295","381","37295","381","","2019","177573","NYTIMES-USCENSUS"
"8/7/2022 12:00:00 AM","Uintah County","Utah","West","Mountain","49047","40.125887","-109.517748 ","8837","75","8837","75","","2019","35734","NYTIMES-USCENSUS"
"8/7/2022 12:00:00 AM","Uinta County","Wyoming","West","Mountain","56041","41.284726","-110.558947 ","5991","39","5991","39","","2019","20226","NYTIMES-USCENSUS"
"8/7/2022 12:00:00 AM","Tyrrell County","North Carolina","South","South Atlantic","37177","35.87042","-76.165345 ","1078","9","1078","9","","2019","4016","NYTIMES-USCENSUS"
"8/7/2022 12:00:00 AM","Summit County","Colorado","West","Mountain","08117","39.621023","-106.137555 ","11320","14","11320","14","","2019","31011","NYTIMES-USCENSUS"
"8/7/2022 12:00:00 AM","Summers County","West Virginia","South","South Atlantic","54089","37.655999","-80.856325 ","3183","56","3183","56","","2019","12573","NYTIMES-USCENSUS"
"8/7/2022 12:00:00 AM","Montgomery County","Kentucky","South","East South Central","21173","38.038109","-83.912416 ","9680","110","9680","110","","2019","28157","NYTIMES-USCENSUS"
"8/7/2022 12:00:00 AM","Mason County","Washington","West","Pacific","53045","47.350832","-123.173103 ","14150","155","14150","155","","2019","66768","NYTIMES-USCENSUS"
"8/7/2022 12:00:00 AM","Mason County","Texas","South","West South Central","48319","30.703916","-99.237302 ","869","13","869","13","","2019","4274","NYTIMES-USCENSUS"
"8/7/2022 12:00:00 AM","Mason County","Kentucky","South","East South Central","21161","38.594137","-83.828125 ","5441","109","5441","109","","2019","17070","NYTIMES-USCENSUS"
"8/7/2022 12:00:00 AM","Mason County","Illinois","Midwest","East North Central","17125","40.236993","-89.913575 ","4325","64","4325","64","","2019","13359","NYTIMES-USCENSUS"
"8/7/2022 12:00:00 AM","Mason County","Michigan","Midwest","East North Central","26105","43.957196","-86.442937 ","7448","96","7448","96","","2019","29144","NYTIMES-USCENSUS"
"8/7/2022 12:00:00 AM","Martin County","Indiana","Midwest","East North Central","18101","38.705322","-86.801847 ","2330","25","2330","25","","2019","10255","NYTIMES-USCENSUS"
"8/7/2022 12:00:00 AM","Martin County","North Carolina","South","South Atlantic","37117","35.847301","-77.119602 ","6829","95","6829","95","","2019","22440","NYTIMES-USCENSUS"
"8/7/2022 12:00:00 AM","Martin County","Texas","South","West South Central","48317","32.30983","-101.961836 ","1305","26","1305","26","","2019","5771","NYTIMES-USCENSUS"
"8/7/2022 12:00:00 AM","Martin County","Minnesota","Midwest","West North Central","27091","43.677173","-94.547096 ","6032","65","6032","65","","2019","19683","NYTIMES-USCENSUS"
"8/7/2022 12:00:00 AM","Martin County","Kentucky","South","East South Central","21159","37.796774","-82.506623 ","3570","49","3570","49","","2019","11195","NYTIMES-USCENSUS"
"8/7/2022 12:00:00 AM","Marshall County","Iowa","Midwest","West North Central","19127","42.0417","-92.981403 ","10228","115","10228","115","","2019","39369","NYTIMES-USCENSUS"
"8/7/2022 12:00:00 AM","Marshall County","West Virginia","South","South Atlantic","54051","39.854426","-80.671794 ","10077","160","10077","160","","2019","30531","NYTIMES-USCENSUS"
"8/7/2022 12:00:00 AM","Marshall County","Alabama","South","East South Central","01095","34.309564","-86.321668 ","29159","398","29159","398","","2019","96774","NYTIMES-USCENSUS"
"8/7/2022 12:00:00 AM","Marshall County","Minnesota","Midwest","West North Central","27089","48.362728","-96.357761 ","2260","24","2260","24","","2019","9336","NYTIMES-USCENSUS"
"8/7/2022 12:00:00 AM","Marshall County","Illinois","Midwest","East North Central","17123","41.031119","-89.342371 ","3134","34","3134","34","","2019","11438","NYTIMES-USCENSUS"
"8/7/2022 12:00:00 AM","Marshall County","Indiana","Midwest","East North Central","18099","41.325003","-86.269036 ","12938","202","12938","202","","2019","46258","NYTIMES-USCENSUS"
"8/7/2022 12:00:00 AM","Marshall County","Kentucky","South","East South Central","21157","36.882017","-88.332752 ","9037","117","9037","117","","2019","31100","NYTIMES-USCENSUS"
"8/7/2022 12:00:00 AM","Marshall County","Tennessee","South","East South Central","47117","35.468343","-86.765865 ","11045","125","11045","125","","2019","34375","NYTIMES-USCENSUS"
"8/7/2022 12:00:00 AM","Marshall County","Oklahoma","South","West South Central","40095","34.027007","-96.770533 ","4955","46","4955","46","","2019","16931","NYTIMES-USCENSUS"
"8/7/2022 12:00:00 AM","Marshall County","South Dakota","Midwest","West North Central","46091","45.737044","-97.58087 ","836","14","836","14","","2019","4935","NYTIMES-USCENSUS"
"8/7/2022 12:00:00 AM","Marquette County","Wisconsin","Midwest","East North Central","55077","43.826053","-89.409095 ","4226","62","4226","62","","2019","15574","NYTIMES-USCENSUS"
"8/7/2022 12:00:00 AM","Marion County","Texas","South","West South Central","48315","32.798182","-94.356853 ","1803","60","1803","60","","2019","9854","NYTIMES-USCENSUS"
"8/7/2022 12:00:00 AM","Marion County","Ohio","Midwest","East North Central","39101","40.588034","-83.168803 ","21693","274","21693","274","","2019","65093","NYTIMES-USCENSUS"
"8/7/2022 12:00:00 AM","Marion County","Iowa","Midwest","West North Central","19125","41.331433","-93.093868 ","8050","127","8050","127","","2019","33253","NYTIMES-USCENSUS"
"8/7/2022 12:00:00 AM","Marion County","Arkansas","South","West South Central","05089","36.266664","-92.678577 ","3683","90","3683","90","","2019","16694","NYTIMES-USCENSUS"
"8/7/2022 12:00:00 AM","Marion County","West Virginia","South","South Atlantic","54049","39.505839","-80.243402 ","17297","185","17297","185","","2019","56072","NYTIMES-USCENSUS"
"8/7/2022 12:00:00 AM","Marion County","South Carolina","South","South Atlantic","45067","34.08362","-79.354001 ","9527","166","9527","166","","2019","30657","NYTIMES-USCENSUS"
"8/7/2022 12:00:00 AM","Marion County","Mississippi","South","East South Central","28091","31.230167","-89.821712 ","7679","136","7679","136","","2019","24573","NYTIMES-USCENSUS"
"8/7/2022 12:00:00 AM","Marion County","Tennessee","South","East South Central","47115","35.133422","-85.618399 ","9613","133","9613","133","","2019","28907","NYTIMES-USCENSUS"
"8/7/2022 12:00:00 AM","Marion County","Alabama","South","East South Central","01093","34.138219","-87.881551 ","8862","153","8862","153","","2019","29709","NYTIMES-USCENSUS"
"8/7/2022 12:00:00 AM","Marion County","Kentucky","South","East South Central","21155","37.552604","-85.268959 ","6966","86","6966","86","","2019","19273","NYTIMES-USCENSUS"
"8/7/2022 12:00:00 AM","Marion County","Indiana","Midwest","East North Central","18097","39.782976","-86.135794 ","244945","3049","244945","3049","","2019","964582","NYTIMES-USCENSUS"
"8/7/2022 12:00:00 AM","Marion County","Oregon","West","Pacific","41047","44.900898","-122.57626 ","79651","769","79651","769","","2019","347818","NYTIMES-USCENSUS"
"8/7/2022 12:00:00 AM","Marion County","Missouri","Midwest","West North Central","29127","39.807538","-91.635379 ","8765","126","8765","126","","2019","28530","NYTIMES-USCENSUS"
"8/7/2022 12:00:00 AM","Marion County","Kansas","Midwest","West North Central","20115","38.359647","-97.102771 ","3544","46","3544","46","","2019","11884","NYTIMES-USCENSUS"
"8/7/2022 12:00:00 AM","Marion County","Florida","South","South Atlantic","12083","29.202805","-82.0431 ","93985","2204","93985","2204","","2019","365579","NYTIMES-USCENSUS"
"8/7/2022 12:00:00 AM","Marion County","Georgia","South","South Atlantic","13197","32.359312","-84.528735 ","1677","52","1677","52","","2019","8359","NYTIMES-USCENSUS"
"8/7/2022 12:00:00 AM","Lamar County","Alabama","South","East South Central","01075","33.787085","-88.087431 ","4100","66","4100","66","","2019","13805","NYTIMES-USCENSUS"
"8/7/2022 12:00:00 AM","Lamar County","Texas","South","West South Central","48277","33.667263","-95.570348 ","13431","260","13431","260","","2019","49859","NYTIMES-USCENSUS"
"8/7/2022 12:00:00 AM","Lamar County","Georgia","South","South Atlantic","13171","33.07444","-84.146689 ","5240","116","5240","116","","2019","19077","NYTIMES-USCENSUS"
"8/7/2022 12:00:00 AM","Lake County","Colorado","West","Mountain","08065","39.205341","-106.350079 ","2071","2","2071","2","","2019","8127","NYTIMES-USCENSUS"
"8/7/2022 12:00:00 AM","Lake County","Oregon","West","Pacific","41037","42.788401","-120.38979 ","1537","30","1537","30","","2019","7869","NYTIMES-USCENSUS"
"8/7/2022 12:00:00 AM","Osceola County","Iowa","Midwest","West North Central","19143","43.378542","-95.633788 ","1428","22","1428","22","","2019","5958","NYTIMES-USCENSUS"
"8/7/2022 12:00:00 AM","Osage County","Missouri","Midwest","West North Central","29151","38.464253","-91.859504 ","3390","46","3390","46","","2019","13615","NYTIMES-USCENSUS"
"8/7/2022 12:00:00 AM","Osage County","Oklahoma","South","West South Central","40113","36.624299","-96.408112 ","11977","171","11977","171","","2019","46963","NYTIMES-USCENSUS"
"8/7/2022 12:00:00 AM","Orleans County","New York","Northeast","Middle Atlantic","36073","43.339906","-78.207028 ","9573","120","9573","120","","2019","40352","NYTIMES-USCENSUS"
"8/7/2022 12:00:00 AM","Orange County","New York","Northeast","Middle Atlantic","36071","41.40241","-74.306252 ","121749","983","121749","983","","2019","384940","NYTIMES-USCENSUS"
"8/7/2022 12:00:00 AM","Orange County","North Carolina","South","South Atlantic","37135","36.062526","-79.120034 ","33547","142","33547","142","","2019","148476","NYTIMES-USCENSUS"
"8/7/2022 12:00:00 AM","Orange County","Indiana","Midwest","East North Central","18117","38.547381","-86.489257 ","5412","99","5412","99","","2019","19646","NYTIMES-USCENSUS"
"8/7/2022 12:00:00 AM","Orange County","California","West","Pacific","06059","33.675687","-117.777207 ","699194","7235","699194","7235","","2019","3175692","NYTIMES-USCENSUS"
"8/7/2022 12:00:00 AM","Orange County","Texas","South","West South Central","48361","30.122323","-93.8941 ","16264","363","16264","363","","2019","83396","NYTIMES-USCENSUS"
"8/7/2022 12:00:00 AM","Orange County","Florida","South","South Atlantic","12095","28.514391","-81.323284 ","434463","2961","434463","2961","","2019","1393452","NYTIMES-USCENSUS"
"8/7/2022 12:00:00 AM","Orange County","Virginia","South","South Atlantic","51137","38.249326","-78.011092 ","7773","93","7773","93","","2019","37051","NYTIMES-USCENSUS"
"8/7/2022 12:00:00 AM","Murray County","Georgia","South","South Atlantic","13213","34.797097","-84.73799 ","12337","194","12337","194","","2019","40096","NYTIMES-USCENSUS"
"8/7/2022 12:00:00 AM","Murray County","Minnesota","Midwest","West North Central","27101","44.015594","-95.761581 ","2156","20","2156","20","","2019","8194","NYTIMES-USCENSUS"
"8/7/2022 12:00:00 AM","Morton County","North Dakota","Midwest","West North Central","38059","46.710819","-101.298265 ","11996","142","11996","142","","2019","31364","NYTIMES-USCENSUS"
"8/7/2022 12:00:00 AM","Morrow County","Ohio","Midwest","East North Central","39117","40.525266","-82.797729 ","8462","105","8462","105","","2019","35328","NYTIMES-USCENSUS"
"8/7/2022 12:00:00 AM","Morris County","Kansas","Midwest","West North Central","20127","38.688204","-96.651448 ","1591","30","1591","30","","2019","5620","NYTIMES-USCENSUS"
"8/7/2022 12:00:00 AM","Morris County","Texas","South","West South Central","48343","33.116466","-94.731265 ","2703","74","2703","74","","2019","12388","NYTIMES-USCENSUS"
"8/7/2022 12:00:00 AM","Morgan County","Alabama","South","East South Central","01103","34.454484","-86.846402 ","39913","524","39913","524","","2019","119679","NYTIMES-USCENSUS"
"8/7/2022 12:00:00 AM","Morgan County","West Virginia","South","South Atlantic","54065","39.557345","-78.256517 ","4579","70","4579","70","","2019","17884","NYTIMES-USCENSUS"
"8/7/2022 12:00:00 AM","Morgan County","Tennessee","South","East South Central","47129","36.138697","-84.639262 ","6587","88","6587","88","","2019","21403","NYTIMES-USCENSUS"
"8/7/2022 12:00:00 AM","Morgan County","Georgia","South","South Atlantic","13211","33.598696","-83.499435 ","4979","70","4979","70","","2019","19276","NYTIMES-USCENSUS"
"8/7/2022 12:00:00 AM","Morgan County","Illinois","Midwest","East North Central","17137","39.717668","-90.205005 ","10807","149","10807","149","","2019","33658","NYTIMES-USCENSUS"
"8/7/2022 12:00:00 AM","Morgan County","Missouri","Midwest","West North Central","29141","38.420806","-92.874835 ","4344","116","4344","116","","2019","20627","NYTIMES-USCENSUS"
"8/7/2022 12:00:00 AM","Morgan County","Kentucky","South","East South Central","21175","37.92294","-83.258944 ","5726","33","5726","33","","2019","13309","NYTIMES-USCENSUS"
"8/7/2022 12:00:00 AM","Morgan County","Colorado","West","Mountain","08087","40.263159","-103.81221 ","6292","138","6292","138","","2019","29068","NYTIMES-USCENSUS"
"8/7/2022 12:00:00 AM","Morgan County","Indiana","Midwest","East North Central","18109","39.482646","-86.447457 ","17823","291","17823","291","","2019","70489","NYTIMES-USCENSUS"
"8/7/2022 12:00:00 AM","Morgan County","Ohio","Midwest","East North Central","39115","39.624946","-81.861697 ","3615","61","3615","61","","2019","14508","NYTIMES-USCENSUS"
"8/7/2022 12:00:00 AM","Moore County","Tennessee","South","East South Central","47127","35.288888","-86.358684 ","2377","40","2377","40","","2019","6488","NYTIMES-USCENSUS"
"8/7/2022 12:00:00 AM","Moore County","Texas","South","West South Central","48341","35.835676","-101.890502 ","5960","113","5960","113","","2019","20940","NYTIMES-USCENSUS"
"8/7/2022 12:00:00 AM","Montgomery County","Maryland","South","South Atlantic","24031","39.137381","-77.203063 ","211965","2118","211965","2118","","2019","1050688","NYTIMES-USCENSUS"
"8/7/2022 12:00:00 AM","Montgomery County","Missouri","Midwest","West North Central","29139","38.935184","-91.465427 ","2739","58","2739","58","","2019","11551","NYTIMES-USCENSUS"
"8/7/2022 12:00:00 AM","Montgomery County","Illinois","Midwest","East North Central","17135","39.228068","-89.478141 ","10658","111","10658","111","","2019","28414","NYTIMES-USCENSUS"
"8/7/2022 12:00:00 AM","Montgomery County","Ohio","Midwest","East North Central","39113","39.753736","-84.290591 ","141426","2043","141426","2043","","2019","531687","NYTIMES-USCENSUS"
"8/7/2022 12:00:00 AM","Montgomery County","Iowa","Midwest","West North Central","19137","41.021735","-95.15779 ","2348","56","2348","56","","2019","9917","NYTIMES-USCENSUS"
"8/7/2022 12:00:00 AM","Montgomery County","Pennsylvania","Northeast","Middle Atlantic","42091","40.209999","-75.370201 ","176174","2407","176174","2407","","2019","830915","NYTIMES-USCENSUS"
"8/7/2022 12:00:00 AM","Montgomery County","Mississippi","South","East South Central","28097","33.500714","-89.639625 ","3232","79","3232","79","","2019","9775","NYTIMES-USCENSUS"
"8/7/2022 12:00:00 AM","Montgomery County","Tennessee","South","East South Central","47125","36.500354","-87.380887 ","54706","596","54706","596","","2019","208993","NYTIMES-USCENSUS"
"8/7/2022 12:00:00 AM","Montgomery County","Virginia","South","South Atlantic","51121","37.175538","-80.387794 ","21592","158","21592","158","","2019","98535","NYTIMES-USCENSUS"
"8/7/2022 12:00:00 AM","Montgomery County","Alabama","South","East South Central","01101","32.202881","-86.204461 ","63328","971","63328","971","","2019","226486","NYTIMES-USCENSUS"
"8/7/2022 12:00:00 AM","Montgomery County","Georgia","South","South Atlantic","13209","32.172108","-82.533349 ","2171","53","2171","53","","2019","9172","NYTIMES-USCENSUS"
"8/7/2022 12:00:00 AM","Montgomery County","North Carolina","South","South Atlantic","37123","35.327548","-79.910752 ","7865","135","7865","135","","2019","27173","NYTIMES-USCENSUS"
"8/7/2022 12:00:00 AM","Montgomery County","Indiana","Midwest","East North Central","18107","40.040296","-86.892715 ","11349","167","11349","167","","2019","38338","NYTIMES-USCENSUS"
"8/7/2022 12:00:00 AM","Montgomery County","New York","Northeast","Middle Atlantic","36057","42.900891","-74.435357 ","13401","212","13401","212","","2019","49221","NYTIMES-USCENSUS"
"8/7/2022 12:00:00 AM","Montgomery County","Texas","South","West South Central","48339","30.298801","-95.50295 ","157833","1314","157833","1314","","2019","607391","NYTIMES-USCENSUS"
"8/7/2022 12:00:00 AM","Montgomery County","Kansas","Midwest","West North Central","20125","37.189537","-95.742403 ","9959","166","9959","166","","2019","31829","NYTIMES-USCENSUS"
"8/7/2022 12:00:00 AM","Greene County","Pennsylvania","Northeast","Middle Atlantic","42059","39.847707","-80.225655 ","9200","108","9200","108","","2019","36233","NYTIMES-USCENSUS"
"8/7/2022 12:00:00 AM","Greene County","Virginia","South","South Atlantic","51079","38.297981","-78.470163 ","4505","63","4505","63","","2019","19819","NYTIMES-USCENSUS"
"8/7/2022 12:00:00 AM","Greene County","Missouri","Midwest","West North Central","29077","37.258196","-93.340641 ","77249","1070","77249","1070","","2019","293086","NYTIMES-USCENSUS"
"8/7/2022 12:00:00 AM","Greene County","Arkansas","South","West South Central","05055","36.120607","-90.566346 ","17357","182","17357","182","","2019","45325","NYTIMES-USCENSUS"
"8/7/2022 12:00:00 AM","Greene County","Indiana","Midwest","East North Central","18055","39.047147","-87.004771 ","7925","143","7925","143","","2019","31922","NYTIMES-USCENSUS"
"8/7/2022 12:00:00 AM","Green County","Kentucky","South","East South Central","21087","37.278065","-85.537925 ","4019","46","4019","46","","2019","10941","NYTIMES-USCENSUS"
"8/7/2022 12:00:00 AM","Grayson County","Texas","South","West South Central","48181","33.624524","-96.675693 ","29002","649","29002","649","","2019","136212","NYTIMES-USCENSUS"
"8/7/2022 12:00:00 AM","Grayson County","Virginia","South","South Atlantic","51077","36.652229","-81.215324 ","4490","83","4490","83","","2019","15550","NYTIMES-USCENSUS"
"8/7/2022 12:00:00 AM","Gray County","Kansas","Midwest","West North Central","20069","37.744513","-100.451716 ","1262","22","1262","22","","2019","5988","NYTIMES-USCENSUS"
"8/7/2022 12:00:00 AM","Florence County","South Carolina","South","South Atlantic","45041","34.028535","-79.710233 ","45427","648","45427","648","","2019","138293","NYTIMES-USCENSUS"
"8/7/2022 12:00:00 AM","Fillmore County","Nebraska","Midwest","West North Central","31059","40.52504","-97.596705 ","1205","13","1205","13","","2019","5462","NYTIMES-USCENSUS"
"8/7/2022 12:00:00 AM","Fayette County","Illinois","Midwest","East North Central","17051","39.001125","-89.017923 ","7729","104","7729","104","","2019","21336","NYTIMES-USCENSUS"
"8/7/2022 12:00:00 AM","Fayette County","Alabama","South","East South Central","01057","33.716157","-87.764292 ","5224","97","5224","97","","2019","16302","NYTIMES-USCENSUS"
"8/7/2022 12:00:00 AM","Fayette County","Indiana","Midwest","East North Central","18041","39.639655","-85.185032 ","7301","151","7301","151","","2019","23102","NYTIMES-USCENSUS"
"8/7/2022 12:00:00 AM","Fayette County","Texas","South","West South Central","48149","29.877886","-96.921231 ","5122","113","5122","113","","2019","25346","NYTIMES-USCENSUS"
"8/7/2022 12:00:00 AM","Fayette County","Ohio","Midwest","East North Central","39047","39.555246","-83.461893 ","8404","123","8404","123","","2019","28525","NYTIMES-USCENSUS"
"8/7/2022 12:00:00 AM","Fayette County","Kentucky","South","East South Central","21067","38.040678","-84.458272 ","107148","638","107148","638","","2019","323152","NYTIMES-USCENSUS"
"8/7/2022 12:00:00 AM","Fayette County","Georgia","South","South Atlantic","13113","33.412717","-84.493941 ","26088","336","26088","336","","2019","114421","NYTIMES-USCENSUS"
"8/7/2022 12:00:00 AM","Fayette County","Tennessee","South","East South Central","47047","35.196993","-89.413803 ","12532","191","12532","191","","2019","41133","NYTIMES-USCENSUS"
"8/7/2022 12:00:00 AM","Fayette County","West Virginia","South","South Atlantic","54019","38.030933","-81.086051 ","14712","212","14712","212","","2019","42406","NYTIMES-USCENSUS"
"8/7/2022 12:00:00 AM","Fayette County","Pennsylvania","Northeast","Middle Atlantic","42051","39.918907","-79.640119 ","33919","694","33919","694","","2019","129274","NYTIMES-USCENSUS"
"8/7/2022 12:00:00 AM","Fannin County","Texas","South","West South Central","48147","33.591161","-96.104988 ","7345","185","7345","185","","2019","35514","NYTIMES-USCENSUS"
"8/7/2022 12:00:00 AM","Fairfield County","Ohio","Midwest","East North Central","39045","39.747694","-82.626685 ","42257","437","42257","437","","2019","157574","NYTIMES-USCENSUS"
"8/7/2022 12:00:00 AM","DeKalb County","Illinois","Midwest","East North Central","17037","41.894612","-88.768991 ","27777","206","27777","206","","2019","104897","NYTIMES-USCENSUS"
"8/7/2022 12:00:00 AM","DeKalb County","Georgia","South","South Atlantic","13089","33.770661","-84.226343 ","173812","1801","173812","1801","","2019","759297","NYTIMES-USCENSUS"
"8/7/2022 12:00:00 AM","DeKalb County","Alabama","South","East South Central","01049","34.460915","-85.804021 ","20047","334","20047","334","","2019","71513","NYTIMES-USCENSUS"
"8/7/2022 12:00:00 AM","DeKalb County","Missouri","Midwest","West North Central","29063","39.894665","-94.40719 ","2340","47","2340","47","","2019","12547","NYTIMES-USCENSUS"
"8/7/2022 12:00:00 AM","DeKalb County","Indiana","Midwest","East North Central","18033","41.39676","-85.002697 ","12141","154","12141","154","","2019","43475","NYTIMES-USCENSUS"
"8/7/2022 12:00:00 AM","Decatur County","Indiana","Midwest","East North Central","18031","39.30598","-85.499831 ","7553","148","7553","148","","2019","26559","NYTIMES-USCENSUS"
"8/7/2022 12:00:00 AM","Decatur County","Iowa","Midwest","West North Central","19053","40.736379","-93.78458 ","1635","26","1635","26","","2019","7870","NYTIMES-USCENSUS"
"8/7/2022 12:00:00 AM","Decatur County","Tennessee","South","East South Central","47039","35.603136","-88.110292 ","3977","71","3977","71","","2019","11663","NYTIMES-USCENSUS"
"8/7/2022 12:00:00 AM","Dawson County","Georgia","South","South Atlantic","13085","34.442608","-84.173261 ","7615","101","7615","101","","2019","26108","NYTIMES-USCENSUS"
"8/7/2022 12:00:00 AM","Dawson County","Nebraska","Midwest","West North Central","31047","40.86784","-99.815583 ","5525","44","5525","44","","2019","23595","NYTIMES-USCENSUS"
"8/7/2022 12:00:00 AM","Dawson County","Texas","South","West South Central","48115","32.742528","-101.948771 ","3146","96","3146","96","","2019","12728","NYTIMES-USCENSUS"
"8/7/2022 12:00:00 AM","Davis County","Utah","West","Mountain","49011","41.037559","-112.201943 ","110536","418","110536","418","","2019","355481","NYTIMES-USCENSUS"
"8/7/2022 12:00:00 AM","Daviess County","Indiana","Midwest","East North Central","18027","38.69609","-87.076943 ","7957","155","7957","155","","2019","33351","NYTIMES-USCENSUS"
"8/7/2022 12:00:00 AM","Daviess County","Kentucky","South","East South Central","21059","37.731671","-87.087139 ","33904","397","33904","397","","2019","101511","NYTIMES-USCENSUS"
"8/7/2022 12:00:00 AM","Davidson County","Tennessee","South","East South Central","47037","36.169129","-86.78479 ","230959","1725","230959","1725","","2019","694144","NYTIMES-USCENSUS"
"8/7/2022 12:00:00 AM","Dallas County","Alabama","South","East South Central","01047","32.333526","-87.11436 ","9598","249","9598","249","","2019","37196","NYTIMES-USCENSUS"
"8/7/2022 12:00:00 AM","Dallas County","Arkansas","South","West South Central","05039","33.967823","-92.653999 ","1886","33","1886","33","","2019","7009","NYTIMES-USCENSUS"
"8/7/2022 12:00:00 AM","Dallas County","Missouri","Midwest","West North Central","29059","37.683583","-93.033815 ","4180","75","4180","75","","2019","16878","NYTIMES-USCENSUS"
"8/7/2022 12:00:00 AM","Dallas County","Texas","South","West South Central","48113","32.766987","-96.778424 ","627844","6832","627844","6832","","2019","2635516","NYTIMES-USCENSUS"
"8/7/2022 12:00:00 AM","Lake County","Minnesota","Midwest","West North Central","27075","47.517111","-91.411704 ","2343","30","2343","30","","2019","10641","NYTIMES-USCENSUS"
"8/7/2022 12:00:00 AM","Lake County","Montana","West","Mountain","30047","47.642901","-114.083687 ","7359","102","7359","102","","2019","30458","NYTIMES-USCENSUS"
"8/7/2022 12:00:00 AM","Lake County","Florida","South","South Atlantic","12069","28.764113","-81.712282 ","97701","1585","97701","1585","","2019","367118","NYTIMES-USCENSUS"
"8/7/2022 12:00:00 AM","Lake County","Michigan","Midwest","East North Central","26085","43.995187","-85.8114 ","2088","39","2088","39","","2019","11853","NYTIMES-USCENSUS"
"8/7/2022 12:00:00 AM","Lake County","Tennessee","South","East South Central","47095","36.333905","-89.485536 ","2865","44","2865","44","","2019","7016","NYTIMES-USCENSUS"
"8/7/2022 12:00:00 AM","Lake County","South Dakota","Midwest","West North Central","46079","44.02845","-97.123223 ","2430","28","2430","28","","2019","12797","NYTIMES-USCENSUS"
"8/7/2022 12:00:00 AM","Lake County","California","West","Pacific","06033","39.094802","-122.746757 ","13297","142","13297","142","","2019","64386","NYTIMES-USCENSUS"
"8/7/2022 12:00:00 AM","Lake County","Indiana","Midwest","East North Central","18089","41.472247","-87.374337 ","118917","1870","118917","1870","","2019","485493","NYTIMES-USCENSUS"
"8/7/2022 12:00:00 AM","Lake County","Illinois","Midwest","East North Central","17097","42.185968","-87.805939 ","182349","1504","182349","1504","","2019","696535","NYTIMES-USCENSUS"
"8/7/2022 12:00:00 AM","Lafayette County","Wisconsin","Midwest","East North Central","55065","42.655578","-90.130292 ","4016","29","4016","29","","2019","16665","NYTIMES-USCENSUS"
"8/7/2022 12:00:00 AM","Lafayette County","Florida","South","South Atlantic","12067","29.990066","-83.17851 ","2941","61","2941","61","","2019","8422","NYTIMES-USCENSUS"
"8/7/2022 12:00:00 AM","Lafayette County","Arkansas","South","West South Central","05073","33.240629","-93.611514 ","1379","30","1379","30","","2019","6624","NYTIMES-USCENSUS"
"8/7/2022 12:00:00 AM","Lafayette County","Missouri","Midwest","West North Central","29107","39.068705","-93.802639 ","8407","137","8407","137","","2019","32708","NYTIMES-USCENSUS"
"8/7/2022 12:00:00 AM","Knox County","Kentucky","South","East South Central","21121","36.8885","-83.855551 ","12524","153","12524","153","","2019","31145","NYTIMES-USCENSUS"
"8/7/2022 12:00:00 AM","Knox County","Maine","Northeast","New England","23013","44.042045","-69.038514 ","7048","41","7048","41","","2019","39772","NYTIMES-USCENSUS"
"8/7/2022 12:00:00 AM","Knox County","Illinois","Midwest","East North Central","17095","40.930945","-90.213792 ","14235","251","14235","251","","2019","49699","NYTIMES-USCENSUS"
"8/7/2022 12:00:00 AM","Knox County","Texas","South","West South Central","48275","33.61189","-99.730356 ","544","25","544","25","","2019","3664","NYTIMES-USCENSUS"
"8/7/2022 12:00:00 AM","Knox County","Indiana","Midwest","East North Central","18083","38.688391","-87.420354 ","11924","154","11924","154","","2019","36594","NYTIMES-USCENSUS"
"8/7/2022 12:00:00 AM","Knox County","Ohio","Midwest","East North Central","39083","40.40362","-82.422393 ","14628","232","14628","232","","2019","62322","NYTIMES-USCENSUS"
"8/7/2022 12:00:00 AM","Knox County","Tennessee","South","East South Central","47093","35.992726","-83.937721 ","139882","1445","139882","1445","","2019","470313","NYTIMES-USCENSUS"
"8/7/2022 12:00:00 AM","Iron County","Missouri","Midwest","West North Central","29093","37.625971","-90.699587 ","2357","46","2357","46","","2019","10125","NYTIMES-USCENSUS"
"8/7/2022 12:00:00 AM","Iron County","Michigan","Midwest","East North Central","26071","46.170254","-88.540526 ","2941","88","2941","88","","2019","11066","NYTIMES-USCENSUS"
"8/7/2022 12:00:00 AM","Iron County","Utah","West","Mountain","49021","37.909304","-113.30674 ","15628","95","15628","95","","2019","54839","NYTIMES-USCENSUS"
"8/7/2022 12:00:00 AM","Hyde County","South Dakota","Midwest","West North Central","46069","44.537174","-99.472736 ","321","8","321","8","","2019","1301","NYTIMES-USCENSUS"
"8/7/2022 12:00:00 AM","Hutchinson County","Texas","South","West South Central","48233","35.837047","-101.362746 ","7070","137","7070","137","","2019","20938","NYTIMES-USCENSUS"
"8/7/2022 12:00:00 AM","Huron County","Michigan","Midwest","East North Central","26063","43.907616","-82.857045 ","8659","149","8659","149","","2019","30981","NYTIMES-USCENSUS"
"8/7/2022 12:00:00 AM","Humphreys County","Tennessee","South","East South Central","47085","36.040822","-87.790453 ","5221","77","5221","77","","2019","18582","NYTIMES-USCENSUS"
"8/7/2022 12:00:00 AM","Humboldt County","Iowa","Midwest","West North Central","19091","42.782221","-94.202775 ","2790","38","2790","38","","2019","9558","NYTIMES-USCENSUS"
"8/7/2022 12:00:00 AM","Humboldt County","Nevada","West","Mountain","32013","41.407914","-118.127591 ","2668","58","2668","58","","2019","16831","NYTIMES-USCENSUS"
"8/7/2022 12:00:00 AM","Hughes County","Oklahoma","South","West South Central","40063","35.052934","-96.251183 ","2810","63","2810","63","","2019","13279","NYTIMES-USCENSUS"
"8/7/2022 12:00:00 AM","Guadalupe County","New Mexico","West","Mountain","35019","34.869782","-104.784968 ","1569","17","1569","17","","2019","4300","NYTIMES-USCENSUS"
"8/7/2022 12:00:00 AM","Grundy County","Missouri","Midwest","West North Central","29079","40.112541","-93.565054 ","2767","69","2767","69","","2019","9850","NYTIMES-USCENSUS"
"8/7/2022 12:00:00 AM","Grundy County","Illinois","Midwest","East North Central","17063","41.29241","-88.401054 ","14284","144","14284","144","","2019","51054","NYTIMES-USCENSUS"
"8/7/2022 12:00:00 AM","Grundy County","Iowa","Midwest","West North Central","19075","42.403339","-92.790244 ","2720","45","2720","45","","2019","12232","NYTIMES-USCENSUS"
"8/7/2022 12:00:00 AM","Greenwood County","Kansas","Midwest","West North Central","20073","37.879347","-96.241732 ","1903","26","1903","26","","2019","5982","NYTIMES-USCENSUS"
"8/7/2022 12:00:00 AM","Greene County","Tennessee","South","East South Central","47059","36.179487","-82.847523 ","23707","383","23707","383","","2019","69069","NYTIMES-USCENSUS"
"8/7/2022 12:00:00 AM","Greene County","New York","Northeast","Middle Atlantic","36039","42.279821","-74.142025 ","9774","135","9774","135","","2019","47188","NYTIMES-USCENSUS"
"8/7/2022 12:00:00 AM","Greene County","North Carolina","South","South Atlantic","37079","35.481959","-77.681688 ","6393","72","6393","72","","2019","21069","NYTIMES-USCENSUS"
"8/7/2022 12:00:00 AM","Greene County","Iowa","Midwest","West North Central","19073","42.042513","-94.388727 ","1845","23","1845","23","","2019","8888","NYTIMES-USCENSUS"
"8/7/2022 12:00:00 AM","Greene County","Mississippi","South","East South Central","28041","31.212845","-88.634811 ","3508","59","3508","59","","2019","13586","NYTIMES-USCENSUS"
"8/7/2022 12:00:00 AM","Greene County","Georgia","South","South Atlantic","13133","33.576704","-83.166625 ","4295","89","4295","89","","2019","18324","NYTIMES-USCENSUS"
"8/7/2022 12:00:00 AM","Greene County","Ohio","Midwest","East North Central","39057","39.687479","-83.894894 ","42308","519","42308","519","","2019","168937","NYTIMES-USCENSUS"
"8/7/2022 12:00:00 AM","Greene County","Illinois","Midwest","East North Central","17061","39.355439","-90.387682 ","3886","59","3886","59","","2019","12969","NYTIMES-USCENSUS"
"8/7/2022 12:00:00 AM","Faribault County","Minnesota","Midwest","West North Central","27043","43.676522","-93.947234 ","4091","54","4091","54","","2019","13653","NYTIMES-USCENSUS"
"8/7/2022 12:00:00 AM","Fannin County","Georgia","South","South Atlantic","13111","34.866543","-84.317331 ","5474","166","5474","166","","2019","26188","NYTIMES-USCENSUS"
"8/7/2022 12:00:00 AM","Falls County","Texas","South","West South Central","48145","31.25193","-96.934127 ","4033","68","4033","68","","2019","17297","NYTIMES-USCENSUS"
"8/7/2022 12:00:00 AM","Falls Church city","Virginia","South","South Atlantic","51610","38.884722","-77.175603 ","2926","17","2926","17","","2019","14617","NYTIMES-USCENSUS"
"8/7/2022 12:00:00 AM","Fall River County","South Dakota","Midwest","West North Central","46047","43.221619","-103.512609 ","2092","40","2092","40","","2019","6713","NYTIMES-USCENSUS"
"8/7/2022 12:00:00 AM","Fairfield County","Connecticut","Northeast","New England","09001","41.227413","-73.367061 ","235131","2767","235131","2767","","2019","943332","NYTIMES-USCENSUS"
"8/7/2022 12:00:00 AM","Fairfax County","Virginia","South","South Atlantic","51059","38.82952","-77.273252 ","224265","1514","224265","1514","","2019","1147532","NYTIMES-USCENSUS"
"8/7/2022 12:00:00 AM","Fairfax city","Virginia","South","South Atlantic","51600","38.853183","-77.299025 ","2302","45","2302","45","","2019","24019","NYTIMES-USCENSUS"
"8/7/2022 12:00:00 AM","Fairbanks North Star Borough","Alaska","West","Pacific","02090","64.676044","-146.548159 ","31124","147","31124","147","","2019","96849","NYTIMES-USCENSUS"
"8/7/2022 12:00:00 AM","Evans County","Georgia","South","South Atlantic","13109","32.153083","-81.890153 ","2576","64","2576","64","","2019","10654","NYTIMES-USCENSUS"
"8/7/2022 12:00:00 AM","Evangeline Parish","Louisiana","South","West South Central","22039","30.720693","-92.404086 ","9347","161","9347","161","","2019","33395","NYTIMES-USCENSUS"
"8/7/2022 12:00:00 AM","Etowah County","Alabama","South","East South Central","01055","34.047641","-86.034263 ","30473","658","30473","658","","2019","102268","NYTIMES-USCENSUS"
"8/7/2022 12:00:00 AM","Estill County","Kentucky","South","East South Central","21065","37.692449","-83.963983 ","4387","52","4387","52","","2019","14106","NYTIMES-USCENSUS"
"8/7/2022 12:00:00 AM","Del Norte County","California","West","Pacific","06015","41.749903","-123.980998 ","7564","54","7564","54","","2019","27812","NYTIMES-USCENSUS"
"8/7/2022 12:00:00 AM","DeKalb County","Tennessee","South","East South Central","47041","35.982219","-85.833596 ","6715","103","6715","103","","2019","20490","NYTIMES-USCENSUS"
"8/7/2022 12:00:00 AM","Defiance County","Ohio","Midwest","East North Central","39039","41.321679","-84.486433 ","10866","167","10866","167","","2019","38087","NYTIMES-USCENSUS"
"8/7/2022 12:00:00 AM","Deer Lodge County","Montana","West","Mountain","30023","46.094672","-113.141624 ","2832","30","2832","30","","2019","9140","NYTIMES-USCENSUS"
"8/7/2022 12:00:00 AM","Decatur County","Georgia","South","South Atlantic","13087","30.880643","-84.58389 ","7926","135","7926","135","","2019","26404","NYTIMES-USCENSUS"
"8/7/2022 12:00:00 AM","Dearborn County","Indiana","Midwest","East North Central","18029","39.140897","-84.975868 ","14499","142","14499","142","","2019","49458","NYTIMES-USCENSUS"
"8/7/2022 12:00:00 AM","Deaf Smith County","Texas","South","West South Central","48117","34.940766","-102.607564 ","5203","115","5203","115","","2019","18546","NYTIMES-USCENSUS"
"8/7/2022 12:00:00 AM","De Witt County","Illinois","Midwest","East North Central","17039","40.181499","-88.901853 ","4796","47","4796","47","","2019","15638","NYTIMES-USCENSUS"
"8/7/2022 12:00:00 AM","De Soto Parish","Louisiana","South","West South Central","22031","32.059248","-93.740797 ","8482","137","8482","137","","2019","27463","NYTIMES-USCENSUS"
"8/7/2022 12:00:00 AM","De Baca County","New Mexico","West","Mountain","35011","34.359273","-104.368696 ","634","6","634","6","","2019","1748","NYTIMES-USCENSUS"
"8/7/2022 12:00:00 AM","Day County","South Dakota","Midwest","West North Central","46037","45.355161","-97.58143 ","1342","35","1342","35","","2019","5424","NYTIMES-USCENSUS"
"8/7/2022 12:00:00 AM","Dawes County","Nebraska","Midwest","West North Central","31045","42.713038","-103.135436 ","1440","21","1440","21","","2019","8589","NYTIMES-USCENSUS"
"8/7/2022 12:00:00 AM","Davison County","South Dakota","Midwest","West North Central","46035","43.680439","-98.155868 ","6200","81","6200","81","","2019","19775","NYTIMES-USCENSUS"
"8/7/2022 12:00:00 AM","Davis County","Iowa","Midwest","West North Central","19051","40.748089","-92.410345 ","1688","34","1688","34","","2019","9000","NYTIMES-USCENSUS"
"8/7/2022 12:00:00 AM","Daviess County","Missouri","Midwest","West North Central","29061","39.962839","-93.970053 ","1843","30","1843","30","","2019","8278","NYTIMES-USCENSUS"
"8/7/2022 12:00:00 AM","Davie County","North Carolina","South","South Atlantic","37059","35.929355","-80.542552 ","12658","111","12658","111","","2019","42846","NYTIMES-USCENSUS"
"8/7/2022 12:00:00 AM","Davidson County","North Carolina","South","South Atlantic","37057","35.795131","-80.207107 ","47829","444","47829","444","","2019","167609","NYTIMES-USCENSUS"
"8/7/2022 12:00:00 AM","Dauphin County","Pennsylvania","Northeast","Middle Atlantic","42043","40.412565","-76.792634 ","64515","992","64515","992","","2019","278299","NYTIMES-USCENSUS"
"8/7/2022 12:00:00 AM","Darke County","Ohio","Midwest","East North Central","39037","40.131467","-84.621191 ","13442","242","13442","242","","2019","51113","NYTIMES-USCENSUS"
"8/7/2022 12:00:00 AM","Dare County","North Carolina","South","South Atlantic","37055","35.606269","-75.767536 ","8758","28","8758","28","","2019","37009","NYTIMES-USCENSUS"
"8/7/2022 12:00:00 AM","Danville city","Virginia","South","South Atlantic","51590","36.583334","-79.408071 ","12559","285","12559","285","","2019","40044","NYTIMES-USCENSUS"
"8/7/2022 12:00:00 AM","Dane County","Wisconsin","Midwest","East North Central","55025","43.067468","-89.417852 ","157137","546","157137","546","","2019","546695","NYTIMES-USCENSUS"
"8/7/2022 12:00:00 AM","Dallas County","Iowa","Midwest","West North Central","19049","41.68532","-94.040706 ","24938","150","24938","150","","2019","93453","NYTIMES-USCENSUS"
"8/7/2022 12:00:00 AM","Dallam County","Texas","South","West South Central","48111","36.28637","-102.59402 ","2251","43","2251","43","","2019","7287","NYTIMES-USCENSUS"
"8/7/2022 12:00:00 AM","Dale County","Alabama","South","East South Central","01045","31.430654","-85.609476 ","14477","235","14477","235","","2019","49172","NYTIMES-USCENSUS"
"8/7/2022 12:00:00 AM","Dakota County","Nebraska","Midwest","West North Central","31043","42.391624","-96.561327 ","7243","82","7243","82","","2019","20026","NYTIMES-USCENSUS"
"8/7/2022 12:00:00 AM","Hughes County","South Dakota","Midwest","West North Central","46065","44.384452","-99.975684 ","4586","60","4586","60","","2019","17526","NYTIMES-USCENSUS"
"8/7/2022 12:00:00 AM","Habersham County","Georgia","South","South Atlantic","13137","34.634392","-83.525875 ","10776","270","10776","270","","2019","45328","NYTIMES-USCENSUS"
"8/7/2022 12:00:00 AM","Gwinnett County","Georgia","South","South Atlantic","13135","33.958756","-84.025735 ","232231","1940","232231","1940","","2019","936250","NYTIMES-USCENSUS"
"8/7/2022 12:00:00 AM","Guthrie County","Iowa","Midwest","West North Central","19077","41.683573","-94.501272 ","2501","47","2501","47","","2019","10689","NYTIMES-USCENSUS"
"8/7/2022 12:00:00 AM","Gunnison County","Colorado","West","Mountain","08051","38.670499","-107.05688 ","3709","14","3709","14","","2019","17462","NYTIMES-USCENSUS"
"8/7/2022 12:00:00 AM","Gulf County","Florida","South","South Atlantic","12045","29.859238","-85.272013 ","4654","82","4654","82","","2019","13639","NYTIMES-USCENSUS"
"8/7/2022 12:00:00 AM","Guilford County","North Carolina","South","South Atlantic","37081","36.079065","-79.788665 ","136438","1272","136438","1272","","2019","537174","NYTIMES-USCENSUS"
"8/7/2022 12:00:00 AM","Guernsey County","Ohio","Midwest","East North Central","39059","40.056665","-81.497875 ","11610","156","11610","156","","2019","38875","NYTIMES-USCENSUS"
"8/7/2022 12:00:00 AM","Guadalupe County","Texas","South","West South Central","48187","29.582671","-97.948995 ","41811","406","41811","406","","2019","166847","NYTIMES-USCENSUS"
"8/7/2022 12:00:00 AM","Grundy County","Tennessee","South","East South Central","47061","35.393386","-85.710379 ","4250","75","4250","75","","2019","13427","NYTIMES-USCENSUS"
"8/7/2022 12:00:00 AM","Grimes County","Texas","South","West South Central","48185","30.543231","-95.988082 ","9303","125","9303","125","","2019","28880","NYTIMES-USCENSUS"
"8/7/2022 12:00:00 AM","Griggs County","North Dakota","Midwest","West North Central","38039","47.456334","-98.232286 ","629","2","629","2","","2019","2231","NYTIMES-USCENSUS"
"8/7/2022 12:00:00 AM","Grenada County","Mississippi","South","East South Central","28043","33.770031","-89.80274 ","5872","133","5872","133","","2019","20758","NYTIMES-USCENSUS"
"8/7/2022 12:00:00 AM","Gregory County","South Dakota","Midwest","West North Central","46053","43.175142","-99.206591 ","1109","34","1109","34","","2019","4185","NYTIMES-USCENSUS"
"8/7/2022 12:00:00 AM","Gregg County","Texas","South","West South Central","48183","32.486401","-94.816277 ","24811","696","24811","696","","2019","123945","NYTIMES-USCENSUS"
"8/7/2022 12:00:00 AM","Greer County","Oklahoma","South","West South Central","40055","34.933853","-99.552968 ","1366","38","1366","38","","2019","5712","NYTIMES-USCENSUS"
"8/7/2022 12:00:00 AM","Greenwood County","South Carolina","South","South Atlantic","45047","34.155796","-82.127876 ","23836","312","23836","312","","2019","70811","NYTIMES-USCENSUS"
"8/7/2022 12:00:00 AM","Greenville County","South Carolina","South","South Atlantic","45045","34.892645","-82.372077 ","185822","2036","185822","2036","","2019","523542","NYTIMES-USCENSUS"
"8/7/2022 12:00:00 AM","Greenup County","Kentucky","South","East South Central","21089","38.563562","-82.93382 ","13706","151","13706","151","","2019","35098","NYTIMES-USCENSUS"
"8/7/2022 12:00:00 AM","Greensville County","Virginia","South","South Atlantic","51081","36.680336","-77.560277 ","3599","41","3599","41","","2019","11336","NYTIMES-USCENSUS"
"8/7/2022 12:00:00 AM","Greenlee County","Arizona","West","Mountain","04011","33.238872","-109.242323 ","2392","39","2392","39","","2019","9498","NYTIMES-USCENSUS"
"8/7/2022 12:00:00 AM","Greene County","Alabama","South","East South Central","01063","32.844497","-87.9642 ","2056","51","2056","51","","2019","8111","NYTIMES-USCENSUS"
"8/7/2022 12:00:00 AM","Greenbrier County","West Virginia","South","South Atlantic","54025","37.924418","-80.45059 ","10950","166","10950","166","","2019","34662","NYTIMES-USCENSUS"
"8/7/2022 12:00:00 AM","Green Lake County","Wisconsin","Midwest","East North Central","55047","43.780247","-88.97038 ","5689","65","5689","65","","2019","18913","NYTIMES-USCENSUS"
"8/7/2022 12:00:00 AM","Green County","Wisconsin","Midwest","East North Central","55045","42.675522","-89.605074 ","10308","55","10308","55","","2019","36960","NYTIMES-USCENSUS"
"8/7/2022 12:00:00 AM","Greeley County","Nebraska","Midwest","West North Central","31077","41.567571","-98.530565 ","434","2","434","2","","2019","2356","NYTIMES-USCENSUS"
"8/7/2022 12:00:00 AM","Grayson County","Kentucky","South","East South Central","21085","37.458577","-86.344011 ","8687","138","8687","138","","2019","26427","NYTIMES-USCENSUS"
"8/7/2022 12:00:00 AM","Grays Harbor County","Washington","West","Pacific","53027","47.113732","-123.826735 ","18776","211","18776","211","","2019","75061","NYTIMES-USCENSUS"
"8/7/2022 12:00:00 AM","Gray County","Texas","South","West South Central","48179","35.402542","-100.812374 ","6515","128","6515","128","","2019","21886","NYTIMES-USCENSUS"
"8/7/2022 12:00:00 AM","Florence County","Wisconsin","Midwest","East North Central","55037","45.871828","-88.406988 ","1171","17","1171","17","","2019","4295","NYTIMES-USCENSUS"
"8/7/2022 12:00:00 AM","Fleming County","Kentucky","South","East South Central","21069","38.367848","-83.699205 ","4338","64","4338","64","","2019","14581","NYTIMES-USCENSUS"
"8/7/2022 12:00:00 AM","Flathead County","Montana","West","Mountain","30029","48.295422","-114.052059 ","31454","290","31454","290","","2019","103806","NYTIMES-USCENSUS"
"8/7/2022 12:00:00 AM","Flagler County","Florida","South","South Atlantic","12035","29.474891","-81.286253 ","25800","381","25800","381","","2019","115081","NYTIMES-USCENSUS"
"8/7/2022 12:00:00 AM","Fisher County","Texas","South","West South Central","48151","32.740473","-100.40312 ","650","26","650","26","","2019","3830","NYTIMES-USCENSUS"
"8/7/2022 12:00:00 AM","Finney County","Kansas","Midwest","West North Central","20055","38.049808","-100.739967 ","12331","117","12331","117","","2019","36467","NYTIMES-USCENSUS"
"8/7/2022 12:00:00 AM","Fillmore County","Minnesota","Midwest","West North Central","27045","43.679187","-92.093937 ","5246","25","5246","25","","2019","21067","NYTIMES-USCENSUS"
"8/7/2022 12:00:00 AM","Fergus County","Montana","West","Mountain","30027","47.221816","-109.232956 ","2640","58","2640","58","","2019","11050","NYTIMES-USCENSUS"
"8/7/2022 12:00:00 AM","Fentress County","Tennessee","South","East South Central","47049","36.369892","-84.937764 ","6079","130","6079","130","","2019","18523","NYTIMES-USCENSUS"
"8/7/2022 12:00:00 AM","Fayette County","Iowa","Midwest","West North Central","19065","42.864122","-91.840376 ","4411","78","4411","78","","2019","19650","NYTIMES-USCENSUS"
"8/7/2022 12:00:00 AM","Fauquier County","Virginia","South","South Atlantic","51061","38.744096","-77.8215 ","14596","152","14596","152","","2019","71222","NYTIMES-USCENSUS"
"8/7/2022 12:00:00 AM","Faulkner County","Arkansas","South","West South Central","05045","35.146548","-92.336928 ","38637","324","38637","324","","2019","126007","NYTIMES-USCENSUS"
"8/7/2022 12:00:00 AM","Faulk County","South Dakota","Midwest","West North Central","46049","45.065476","-99.153564 ","605","17","605","17","","2019","2299","NYTIMES-USCENSUS"
"8/7/2022 12:00:00 AM","Buena Vista city","Virginia","South","South Atlantic","51530","37.729345","-79.358134 ","2162","46","2162","46","","2019","6478","NYTIMES-USCENSUS"
"8/7/2022 12:00:00 AM","Bucks County","Pennsylvania","Northeast","Middle Atlantic","42017","40.336887","-75.10706 ","138415","1984","138415","1984","","2019","628270","NYTIMES-USCENSUS"
"8/7/2022 12:00:00 AM","Buckingham County","Virginia","South","South Atlantic","51029","37.573928","-78.529169 ","4457","59","4457","59","","2019","17148","NYTIMES-USCENSUS"
"8/7/2022 12:00:00 AM","Buchanan County","Iowa","Midwest","West North Central","19019","42.470328","-91.838666 ","5013","60","5013","60","","2019","21175","NYTIMES-USCENSUS"
"8/7/2022 12:00:00 AM","Bryan County","Georgia","South","South Atlantic","13029","32.017969","-81.438543 ","10011","97","10011","97","","2019","39627","NYTIMES-USCENSUS"
"8/7/2022 12:00:00 AM","Brunswick County","Virginia","South","South Atlantic","51025","36.764204","-77.861483 ","3582","48","3582","48","","2019","16231","NYTIMES-USCENSUS"
"8/7/2022 12:00:00 AM","Brule County","South Dakota","Midwest","West North Central","46015","43.729873","-99.092909 ","1527","22","1527","22","","2019","5297","NYTIMES-USCENSUS"
"8/7/2022 12:00:00 AM","Brown County","Indiana","Midwest","East North Central","18013","39.195113","-86.230121 ","2796","62","2796","62","","2019","15092","NYTIMES-USCENSUS"
"8/7/2022 12:00:00 AM","Broward County","Florida","South","South Atlantic","12011","26.193535","-80.476683 ","702243","6140","702243","6140","","2019","1952778","NYTIMES-USCENSUS"
"8/7/2022 12:00:00 AM","Broomfield County","Colorado","West","Mountain","08014","39.953593","-105.050787 ","16579","121","16579","121","","2019","70465","NYTIMES-USCENSUS"
"8/7/2022 12:00:00 AM","Broome County","New York","Northeast","Middle Atlantic","36007","42.161977","-75.830283 ","52117","537","52117","537","","2019","190488","NYTIMES-USCENSUS"
"8/7/2022 12:00:00 AM","Brookings County","South Dakota","Midwest","West North Central","46011","44.376675","-96.797797 ","8595","57","8595","57","","2019","35077","NYTIMES-USCENSUS"
"8/7/2022 12:00:00 AM","Brooke County","West Virginia","South","South Atlantic","54009","40.272645","-80.578691 ","5541","106","5541","106","","2019","21939","NYTIMES-USCENSUS"
"8/7/2022 12:00:00 AM","Bayfield County","Wisconsin","Midwest","East North Central","55007","46.634199","-91.177282 ","3934","42","3934","42","","2019","15036","NYTIMES-USCENSUS"
"8/7/2022 12:00:00 AM","Bay County","Florida","South","South Atlantic","12005","30.15914","-85.534395 ","50409","840","50409","840","","2019","174705","NYTIMES-USCENSUS"
"8/7/2022 12:00:00 AM","Baxter County","Arkansas","South","West South Central","05005","36.280268","-92.329949 ","9736","262","9736","262","","2019","41932","NYTIMES-USCENSUS"
"8/7/2022 12:00:00 AM","Bates County","Missouri","Midwest","West North Central","29013","38.257217","-94.339246 ","3954","98","3954","98","","2019","16172","NYTIMES-USCENSUS"
"8/7/2022 12:00:00 AM","Bastrop County","Texas","South","West South Central","48021","30.100772","-97.310639 ","24483","241","24483","241","","2019","88723","NYTIMES-USCENSUS"
"8/7/2022 12:00:00 AM","Bartow County","Georgia","South","South Atlantic","13015","34.240917","-84.838188 ","31751","455","31751","455","","2019","107738","NYTIMES-USCENSUS"
"8/7/2022 12:00:00 AM","Bartholomew County","Indiana","Midwest","East North Central","18005","39.205843","-85.897999 ","23627","253","23627","253","","2019","83779","NYTIMES-USCENSUS"
"8/7/2022 12:00:00 AM","Barry County","Michigan","Midwest","East North Central","26015","42.582811","-85.31455 ","15432","177","15432","177","","2019","61550","NYTIMES-USCENSUS"
"8/7/2022 12:00:00 AM","Barrow County","Georgia","South","South Atlantic","13013","33.992009","-83.712303 ","23596","264","23596","264","","2019","83240","NYTIMES-USCENSUS"
"8/7/2022 12:00:00 AM","Barron County","Wisconsin","Midwest","East North Central","55005","45.437192","-91.852892 ","14641","147","14641","147","","2019","45244","NYTIMES-USCENSUS"
"8/7/2022 12:00:00 AM","Barren County","Kentucky","South","East South Central","21009","36.962805","-85.932108 ","14211","223","14211","223","","2019","44249","NYTIMES-USCENSUS"
"8/7/2022 12:00:00 AM","Barnwell County","South Carolina","South","South Atlantic","45011","33.260552","-81.434228 ","6213","103","6213","103","","2019","20866","NYTIMES-USCENSUS"
"8/7/2022 12:00:00 AM","Barnstable County","Massachusetts","Northeast","New England","25001","41.706123","-70.164823 ","42093","624","42093","624","","2019","212990","NYTIMES-USCENSUS"
"8/7/2022 12:00:00 AM","Barnes County","North Dakota","Midwest","West North Central","38003","46.94255","-98.070195 ","3198","47","3198","47","","2019","10415","NYTIMES-USCENSUS"
"8/7/2022 12:00:00 AM","Barber County","Kansas","Midwest","West North Central","20007","37.222906","-98.685052 ","1095","9","1095","9","","2019","4427","NYTIMES-USCENSUS"
"8/7/2022 12:00:00 AM","Baraga County","Michigan","Midwest","East North Central","26013","46.695859","-88.36181 ","2433","56","2433","56","","2019","8209","NYTIMES-USCENSUS"
"8/7/2022 12:00:00 AM","Bannock County","Idaho","West","Mountain","16005","42.692921","-112.228982 ","22473","257","22473","257","","2019","87808","NYTIMES-USCENSUS"
"8/7/2022 12:00:00 AM","Banks County","Georgia","South","South Atlantic","13011","34.351922","-83.498441 ","4232","98","4232","98","","2019","19234","NYTIMES-USCENSUS"
"8/7/2022 12:00:00 AM","Bandera County","Texas","South","West South Central","48019","29.756389","-99.248285 ","3959","78","3959","78","","2019","23112","NYTIMES-USCENSUS"
"8/7/2022 12:00:00 AM","Bamberg County","South Carolina","South","South Atlantic","45009","33.203021","-81.053161 ","3835","75","3835","75","","2019","14066","NYTIMES-USCENSUS"
"8/7/2022 12:00:00 AM","Baltimore County","Maryland","South","South Atlantic","24005","39.443167","-76.616569 ","151574","2572","151574","2572","","2019","827370","NYTIMES-USCENSUS"
"8/7/2022 12:00:00 AM","Baltimore city","Maryland","South","South Atlantic","24510","39.300032","-76.610476 ","130723","1840","130723","1840","","2019","593490","NYTIMES-USCENSUS"
"8/7/2022 12:00:00 AM","Ballard County","Kentucky","South","East South Central","21007","37.051323","-89.010367 ","1579","34","1579","34","","2019","7888","NYTIMES-USCENSUS"
"8/7/2022 12:00:00 AM","Baker County","Oregon","West","Pacific","41001","44.703427","-117.691933 ","3523","53","3523","53","","2019","16124","NYTIMES-USCENSUS"
"8/7/2022 12:00:00 AM","Bailey County","Texas","South","West South Central","48017","34.067521","-102.830345 ","1667","39","1667","39","","2019","7000","NYTIMES-USCENSUS"
"8/7/2022 12:00:00 AM","Clear Creek County","Colorado","West","Mountain","08019","39.689403","-105.670783 ","1809","12","1809","12","","2019","9700","NYTIMES-USCENSUS"
"8/7/2022 12:00:00 AM","Clayton County","Georgia","South","South Atlantic","13063","33.542686","-84.355573 ","70930","1017","70930","1017","","2019","292256","NYTIMES-USCENSUS"
"8/7/2022 12:00:00 AM","Clay County","North Carolina","South","South Atlantic","37043","35.052997","-83.752264 ","2917","47","2917","47","","2019","11231","NYTIMES-USCENSUS"
"8/7/2022 12:00:00 AM","Clatsop County","Oregon","West","Pacific","41007","46.024509","-123.705037 ","5693","55","5693","55","","2019","40224","NYTIMES-USCENSUS"
"8/7/2022 12:00:00 AM","Clarke County","Iowa","Midwest","West North Central","19039","41.029726","-93.785259 ","2438","39","2438","39","","2019","9395","NYTIMES-USCENSUS"
"8/7/2022 12:00:00 AM","Clarion County","Pennsylvania","Northeast","Middle Atlantic","42031","41.198159","-79.420369 ","8834","209","8834","209","","2019","38438","NYTIMES-USCENSUS"
"8/7/2022 12:00:00 AM","Clarendon County","South Carolina","South","South Atlantic","45027","33.664682","-80.217889 ","9674","163","9674","163","","2019","33745","NYTIMES-USCENSUS"
"8/7/2022 12:00:00 AM","Clare County","Michigan","Midwest","East North Central","26035","43.991137","-84.838325 ","7297","160","7297","160","","2019","30950","NYTIMES-USCENSUS"
"8/7/2022 12:00:00 AM","Clallam County","Washington","West","Pacific","53009","48.110903","-123.88986 ","14115","162","14115","162","","2019","77331","NYTIMES-USCENSUS"
"8/7/2022 12:00:00 AM","Claiborne Parish","Louisiana","South","West South Central","22027","32.82716","-92.989728 ","3622","79","3622","79","","2019","15670","NYTIMES-USCENSUS"
"8/7/2022 12:00:00 AM","Claiborne County","Mississippi","South","East South Central","28021","31.97281","-90.915424 ","2367","46","2367","46","","2019","8988","NYTIMES-USCENSUS"
"8/7/2022 12:00:00 AM","Clackamas County","Oregon","West","Pacific","41005","45.160493","-122.195127 ","74917","700","74917","700","","2019","418187","NYTIMES-USCENSUS"
"8/7/2022 12:00:00 AM","Citrus County","Florida","South","South Atlantic","12017","28.850292","-82.595552 ","34434","1020","34434","1020","","2019","149657","NYTIMES-USCENSUS"
"8/7/2022 12:00:00 AM","Cimarron County","Oklahoma","South","West South Central","40025","36.74839","-102.517698 ","614","7","614","7","","2019","2137","NYTIMES-USCENSUS"
"8/7/2022 12:00:00 AM","Cibola County","New Mexico","West","Mountain","35006","34.928272","-107.99268 ","9122","202","9122","202","","2019","26675","NYTIMES-USCENSUS"
"8/7/2022 12:00:00 AM","Churchill County","Nevada","West","Mountain","32001","39.53771","-118.264166 ","7193","117","7193","117","","2019","24909","NYTIMES-USCENSUS"
"8/7/2022 12:00:00 AM","Christian County","Kentucky","South","East South Central","21047","36.892059","-87.492986 ","17740","215","17740","215","","2019","70461","NYTIMES-USCENSUS"
"8/7/2022 12:00:00 AM","Chowan County","North Carolina","South","South Atlantic","37041","36.128979","-76.602752 ","4593","62","4593","62","","2019","13943","NYTIMES-USCENSUS"
"8/7/2022 12:00:00 AM","Choctaw County","Mississippi","South","East South Central","28019","33.345964","-89.251332 ","2541","33","2541","33","","2019","8210","NYTIMES-USCENSUS"
"8/7/2022 12:00:00 AM","Chittenden County","Vermont","Northeast","New England","50007","44.463329","-73.06941 ","36871","182","36871","182","","2019","163774","NYTIMES-USCENSUS"
"8/7/2022 12:00:00 AM","Chisago County","Minnesota","Midwest","West North Central","27025","45.505444","-92.903849 ","15786","121","15786","121","","2019","56579","NYTIMES-USCENSUS"
"8/7/2022 12:00:00 AM","Chippewa County","Michigan","Midwest","East North Central","26033","46.321819","-84.52063 ","12408","123","12408","123","","2019","37349","NYTIMES-USCENSUS"
"8/7/2022 12:00:00 AM","Chilton County","Alabama","South","East South Central","01021","32.854051","-86.726607 ","11850","212","11850","212","","2019","44428","NYTIMES-USCENSUS"
"8/7/2022 12:00:00 AM","Childress County","Texas","South","West South Central","48075","34.524624","-100.208166 ","2777","34","2777","34","","2019","7306","NYTIMES-USCENSUS"
"8/7/2022 12:00:00 AM","Chicot County","Arkansas","South","West South Central","05017","33.267139","-91.297158 ","2904","59","2904","59","","2019","10118","NYTIMES-USCENSUS"
"8/7/2022 12:00:00 AM","Chickasaw County","Mississippi","South","East South Central","28017","33.933277","-88.947558 ","6121","97","6121","97","","2019","17103","NYTIMES-USCENSUS"
"8/7/2022 12:00:00 AM","Cheyenne County","Nebraska","Midwest","West North Central","31033","41.214236","-103.011929 ","2161","24","2161","24","","2019","8910","NYTIMES-USCENSUS"
"8/7/2022 12:00:00 AM","Butler County","Iowa","Midwest","West North Central","19023","42.734757","-92.780153 ","3448","54","3448","54","","2019","14439","NYTIMES-USCENSUS"
"8/7/2022 12:00:00 AM","Burt County","Nebraska","Midwest","West North Central","31021","41.854179","-96.337746 ","1390","17","1390","17","","2019","6459","NYTIMES-USCENSUS"
"8/7/2022 12:00:00 AM","Burnett County","Wisconsin","Midwest","East North Central","55013","45.866897","-92.37573 ","4488","45","4488","45","","2019","15414","NYTIMES-USCENSUS"
"8/7/2022 12:00:00 AM","Burnet County","Texas","South","West South Central","48053","30.78963","-98.201187 ","12222","173","12222","173","","2019","48155","NYTIMES-USCENSUS"
"8/7/2022 12:00:00 AM","Burlington County","New Jersey","Northeast","Middle Atlantic","34005","39.875786","-74.663006 ","121462","1271","121462","1271","","2019","445349","NYTIMES-USCENSUS"
"8/7/2022 12:00:00 AM","Burleson County","Texas","South","West South Central","48051","30.493487","-96.622091 ","5436","67","5436","67","","2019","18443","NYTIMES-USCENSUS"
"8/7/2022 12:00:00 AM","Burleigh County","North Dakota","Midwest","West North Central","38015","46.978829","-100.469533 ","37477","303","37477","303","","2019","95626","NYTIMES-USCENSUS"
"8/7/2022 12:00:00 AM","Burke County","North Carolina","South","South Atlantic","37023","35.746182","-81.70618 ","27325","340","27325","340","","2019","90485","NYTIMES-USCENSUS"
"8/7/2022 12:00:00 AM","Bureau County","Illinois","Midwest","East North Central","17011","41.401304","-89.528377 ","9145","142","9145","142","","2019","32628","NYTIMES-USCENSUS"
"8/7/2022 12:00:00 AM","Buncombe County","North Carolina","South","South Atlantic","37021","35.609371","-82.530423 ","61619","630","61619","630","","2019","261191","NYTIMES-USCENSUS"
"8/7/2022 12:00:00 AM","Bullock County","Alabama","South","East South Central","01011","32.101759","-85.717261 ","2631","54","2631","54","","2019","10101","NYTIMES-USCENSUS"
"8/7/2022 12:00:00 AM","Bulloch County","Georgia","South","South Atlantic","13031","32.394481","-81.741618 ","16495","269","16495","269","","2019","79608","NYTIMES-USCENSUS"
"8/7/2022 12:00:00 AM","Bullitt County","Kentucky","South","East South Central","21029","37.969945","-85.702635 ","24479","232","24479","232","","2019","81676","NYTIMES-USCENSUS"
"8/7/2022 12:00:00 AM","Buffalo County","Wisconsin","Midwest","East North Central","55011","44.385633","-91.761294 ","3834","12","3834","12","","2019","13031","NYTIMES-USCENSUS"
"8/7/2022 12:00:00 AM","Buena Vista County","Iowa","Midwest","West North Central","19021","42.741522","-95.141432 ","6543","59","6543","59","","2019","19620","NYTIMES-USCENSUS"
"8/7/2022 12:00:00 AM","Oxford County","Maine","Northeast","New England","23017","44.4945","-70.734421 ","12810","153","12810","153","","2019","57975","NYTIMES-USCENSUS"
"8/7/2022 12:00:00 AM","Owyhee County","Idaho","West","Mountain","16073","42.572851","-116.18969 ","2416","53","2416","53","","2019","11823","NYTIMES-USCENSUS"
"8/7/2022 12:00:00 AM","Owsley County","Kentucky","South","East South Central","21189","37.423622","-83.691637 ","1648","30","1648","30","","2019","4415","NYTIMES-USCENSUS"
"8/7/2022 12:00:00 AM","Owen County","Indiana","Midwest","East North Central","18119","39.317339","-86.838845 ","6357","127","6357","127","","2019","20799","NYTIMES-USCENSUS"
"8/7/2022 12:00:00 AM","Overton County","Tennessee","South","East South Central","47133","36.34485","-85.283076 ","7625","126","7625","126","","2019","22241","NYTIMES-USCENSUS"
"8/7/2022 12:00:00 AM","Outagamie County","Wisconsin","Midwest","East North Central","55087","44.418226","-88.464988 ","58997","419","58997","419","","2019","187885","NYTIMES-USCENSUS"
"8/7/2022 12:00:00 AM","Ouray County","Colorado","West","Mountain","08091","38.154731","-107.78848 ","1030","6","1030","6","","2019","4952","NYTIMES-USCENSUS"
"8/7/2022 12:00:00 AM","Ouachita Parish","Louisiana","South","West South Central","22073","32.480932","-92.151581 ","56312","767","56312","767","","2019","153279","NYTIMES-USCENSUS"
"8/7/2022 12:00:00 AM","Ouachita County","Arkansas","South","West South Central","05103","33.591168","-92.878413 ","6103","109","6103","109","","2019","23382","NYTIMES-USCENSUS"
"8/7/2022 12:00:00 AM","Otter Tail County","Minnesota","Midwest","West North Central","27111","46.405727","-95.714581 ","14635","172","14635","172","","2019","58746","NYTIMES-USCENSUS"
"8/7/2022 12:00:00 AM","Ottawa County","Oklahoma","South","West South Central","40115","36.835764","-94.802681 ","10143","127","10143","127","","2019","31127","NYTIMES-USCENSUS"
"8/7/2022 12:00:00 AM","Otsego County","New York","Northeast","Middle Atlantic","36077","42.629776","-75.028841 ","11760","97","11760","97","","2019","59493","NYTIMES-USCENSUS"
"8/7/2022 12:00:00 AM","Otoe County","Nebraska","Midwest","West North Central","31131","40.637992","-96.131027 ","3599","21","3599","21","","2019","16012","NYTIMES-USCENSUS"
"8/7/2022 12:00:00 AM","Otero County","New Mexico","West","Mountain","35035","32.615599","-105.751308 ","16970","203","16970","203","","2019","67490","NYTIMES-USCENSUS"
"8/7/2022 12:00:00 AM","Oswego County","New York","Northeast","Middle Atlantic","36075","43.461443","-76.209262 ","30306","201","30306","201","","2019","117124","NYTIMES-USCENSUS"
"8/7/2022 12:00:00 AM","Oscoda County","Michigan","Midwest","East North Central","26135","44.687257","-84.126905 ","1538","58","1538","58","","2019","8241","NYTIMES-USCENSUS"
"8/7/2022 12:00:00 AM","Osceola County","Florida","South","South Atlantic","12097","28.059027","-81.139312 ","130691","1187","130691","1187","","2019","375751","NYTIMES-USCENSUS"
"8/7/2022 12:00:00 AM","Osborne County","Kansas","Midwest","West North Central","20141","39.348261","-98.767942 ","859","19","859","19","","2019","3421","NYTIMES-USCENSUS"
"8/7/2022 12:00:00 AM","Osage County","Kansas","Midwest","West North Central","20139","38.650215","-95.708255 ","4234","61","4234","61","","2019","15949","NYTIMES-USCENSUS"
"8/7/2022 12:00:00 AM","Orleans Parish","Louisiana","South","West South Central","22071","30.05342","-89.934502 ","102669","1143","102669","1143","","2019","390144","NYTIMES-USCENSUS"
"8/7/2022 12:00:00 AM","Orleans County","Vermont","Northeast","New England","50019","44.828442","-72.25163 ","6921","38","6921","38","","2019","27037","NYTIMES-USCENSUS"
"8/7/2022 12:00:00 AM","Oregon County","Missouri","Midwest","West North Central","29149","36.68531","-91.401827 ","2155","37","2155","37","","2019","10529","NYTIMES-USCENSUS"
"8/7/2022 12:00:00 AM","Orangeburg County","South Carolina","South","South Atlantic","45075","33.436135","-80.802913 ","25952","426","25952","426","","2019","86175","NYTIMES-USCENSUS"
"8/7/2022 12:00:00 AM","Orange County","Vermont","Northeast","New England","50017","44.003349","-72.369464 ","4704","14","4704","14","","2019","28892","NYTIMES-USCENSUS"
"8/7/2022 12:00:00 AM","Nance County","Nebraska","Midwest","West North Central","31125","41.402385","-97.991408 ","809","13","809","13","","2019","3519","NYTIMES-USCENSUS"
"8/7/2022 12:00:00 AM","Nacogdoches County","Texas","South","West South Central","48347","31.62056","-94.62025 ","13368","263","13368","263","","2019","65204","NYTIMES-USCENSUS"
"8/7/2022 12:00:00 AM","Musselshell County","Montana","West","Mountain","30065","46.505281","-108.439763 ","974","31","974","31","","2019","4633","NYTIMES-USCENSUS"
"8/7/2022 12:00:00 AM","Muskogee County","Oklahoma","South","West South Central","40101","35.617551","-95.383911 ","21564","353","21564","353","","2019","67997","NYTIMES-USCENSUS"
"8/7/2022 12:00:00 AM","Muskingum County","Ohio","Midwest","East North Central","39119","39.966046","-81.943506 ","27947","296","27947","296","","2019","86215","NYTIMES-USCENSUS"
"8/7/2022 12:00:00 AM","Muskegon County","Michigan","Midwest","East North Central","26121","43.428739","-86.420908 ","45622","665","45622","665","","2019","173566","NYTIMES-USCENSUS"
"8/7/2022 12:00:00 AM","Muscogee County","Georgia","South","South Atlantic","13215","32.510197","-84.874946 ","41778","847","41778","847","","2019","195769","NYTIMES-USCENSUS"
"8/7/2022 12:00:00 AM","Muscatine County","Iowa","Midwest","West North Central","19139","41.483776","-91.118699 ","10302","132","10302","132","","2019","42664","NYTIMES-USCENSUS"
"8/7/2022 12:00:00 AM","Murray County","Oklahoma","South","West South Central","40099","34.485766","-97.071557 ","4504","79","4504","79","","2019","14073","NYTIMES-USCENSUS"
"8/7/2022 12:00:00 AM","Multnomah County","Oregon","West","Pacific","41051","45.547711","-122.417363 ","150860","1327","150860","1327","","2019","812855","NYTIMES-USCENSUS"
"8/7/2022 12:00:00 AM","Muhlenberg County","Kentucky","South","East South Central","21177","37.213816","-87.134092 ","11256","125","11256","125","","2019","30622","NYTIMES-USCENSUS"
"8/7/2022 12:00:00 AM","Mower County","Minnesota","Midwest","West North Central","27099","43.666249","-92.759514 ","12712","75","12712","75","","2019","40062","NYTIMES-USCENSUS"
"8/7/2022 12:00:00 AM","Mountrail County","North Dakota","Midwest","West North Central","38061","48.210073","-102.364895 ","3507","37","3507","37","","2019","10545","NYTIMES-USCENSUS"
"8/7/2022 12:00:00 AM","Moultrie County","Illinois","Midwest","East North Central","17139","39.636896","-88.625726 ","4449","55","4449","55","","2019","14501","NYTIMES-USCENSUS"
"8/7/2022 12:00:00 AM","Motley County","Texas","South","West South Central","48345","34.057899","-100.793152 ","300","13","300","13","","2019","1200","NYTIMES-USCENSUS"
"8/7/2022 12:00:00 AM","Morton County","Kansas","Midwest","West North Central","20129","37.185249","-101.809516 ","651","11","651","11","","2019","2587","NYTIMES-USCENSUS"
"8/7/2022 12:00:00 AM","Morrow County","Oregon","West","Pacific","41049","45.425496","-119.602311 ","3167","37","3167","37","","2019","11603","NYTIMES-USCENSUS"
"8/7/2022 12:00:00 AM","Morrison County","Minnesota","Midwest","West North Central","27097","46.020484","-94.266619 ","9924","108","9924","108","","2019","33386","NYTIMES-USCENSUS"
"8/7/2022 12:00:00 AM","Morris County","New Jersey","Northeast","Middle Atlantic","34027","40.858896","-74.547292 ","143704","1593","143704","1593","","2019","491845","NYTIMES-USCENSUS"
"8/7/2022 12:00:00 AM","Santa Barbara County","California","West","Pacific","06083","34.536677","-120.038364 ","107114","711","107114","711","","2019","446499","NYTIMES-USCENSUS"
"8/7/2022 12:00:00 AM","Sanpete County","Utah","West","Mountain","49039","39.373426","-111.576933 ","8645","56","8645","56","","2019","30939","NYTIMES-USCENSUS"
"8/7/2022 12:00:00 AM","Sanilac County","Michigan","Midwest","East North Central","26151","43.449155","-82.642815 ","9291","203","9291","203","","2019","41170","NYTIMES-USCENSUS"
"8/7/2022 12:00:00 AM","Sangamon County","Illinois","Midwest","East North Central","17167","39.756886","-89.662435 ","65887","451","65887","451","","2019","194672","NYTIMES-USCENSUS"
"8/7/2022 12:00:00 AM","Sandusky County","Ohio","Midwest","East North Central","39143","41.355319","-83.142776 ","15143","241","15143","241","","2019","58518","NYTIMES-USCENSUS"
"8/7/2022 12:00:00 AM","Sandoval County","New Mexico","West","Mountain","35043","35.685091","-106.883119 ","39684","470","39684","470","","2019","146748","NYTIMES-USCENSUS"
"8/7/2022 12:00:00 AM","Sanborn County","South Dakota","Midwest","West North Central","46111","44.018942","-98.091709 ","616","8","616","8","","2019","2344","NYTIMES-USCENSUS"
"8/7/2022 12:00:00 AM","San Saba County","Texas","South","West South Central","48411","31.155138","-98.819292 ","1325","35","1325","35","","2019","6055","NYTIMES-USCENSUS"
"8/7/2022 12:00:00 AM","San Patricio County","Texas","South","West South Central","48409","28.011794","-97.517157 ","12676","341","12676","341","","2019","66730","NYTIMES-USCENSUS"
"8/7/2022 12:00:00 AM","San Miguel County","New Mexico","West","Mountain","35047","35.476859","-104.803519 ","6824","72","6824","72","","2019","27277","NYTIMES-USCENSUS"
"8/7/2022 12:00:00 AM","San Mateo County","California","West","Pacific","06081","37.414672","-122.371546 ","171035","795","171035","795","","2019","766573","NYTIMES-USCENSUS"
"8/7/2022 12:00:00 AM","San Luis Obispo County","California","West","Pacific","06079","35.388189","-120.448897 ","67396","510","67396","510","","2019","283111","NYTIMES-USCENSUS"
"8/7/2022 12:00:00 AM","Ransom County","North Dakota","Midwest","West North Central","38073","46.449276","-97.647554 ","1631","28","1631","28","","2019","5218","NYTIMES-USCENSUS"
"8/7/2022 12:00:00 AM","Rankin County","Mississippi","South","East South Central","28121","32.267123","-89.946063 ","41253","498","41253","498","","2019","155271","NYTIMES-USCENSUS"
"8/7/2022 12:00:00 AM","Randolph County","Georgia","South","South Atlantic","13243","31.762651","-84.752311 ","1628","48","1628","48","","2019","6778","NYTIMES-USCENSUS"
"8/7/2022 12:00:00 AM","Randall County","Texas","South","West South Central","48381","34.962529","-101.895547 ","40761","525","40761","525","","2019","137713","NYTIMES-USCENSUS"
