"monitor_date","county","state_name","region","subregion","fips","latitude","longitude","case_count_to_date","death_count_to_date","case_count","death_count","previous_monitor_date","population_year","population","source"
"9/7/2021 12:00:00 AM","Monroe County","Iowa","Midwest","West North Central","19135","41.028847","-92.869642 ","1072","33","0","0","9/6/2021 12:00:00 AM","2019","7707","NYTIMES-USCENSUS"
"9/7/2021 12:00:00 AM","Lewis County","Tennessee","South","East South Central","47101","35.523244","-87.496983 ","2277","29","88","0","9/6/2021 12:00:00 AM","2019","12268","NYTIMES-USCENSUS"
"9/7/2021 12:00:00 AM","Atchison County","Kansas","Midwest","West North Central","20005","39.532544","-95.313397 ","2035","23","0","0","9/6/2021 12:00:00 AM","2019","16073","NYTIMES-USCENSUS"
"9/7/2021 12:00:00 AM","Portage County","Ohio","Midwest","East North Central","39133","41.16897","-81.196962 ","14931","223","75","3","9/6/2021 12:00:00 AM","2019","162466","NYTIMES-USCENSUS"
"9/7/2021 12:00:00 AM","Stevens County","Kansas","Midwest","West North Central","20189","37.2017","-101.317268 ","665","11","0","0","9/6/2021 12:00:00 AM","2019","5485","NYTIMES-USCENSUS"
"9/7/2021 12:00:00 AM","Pike County","Arkansas","South","West South Central","05109","34.158191","-93.658659 ","1497","32","6","2","9/6/2021 12:00:00 AM","2019","10718","NYTIMES-USCENSUS"
"9/7/2021 12:00:00 AM","Lewis County","Idaho","West","Mountain","16061","46.236328","-116.42376 ","572","12","6","0","9/6/2021 12:00:00 AM","2019","3838","NYTIMES-USCENSUS"
"9/7/2021 12:00:00 AM","Breathitt County","Kentucky","South","East South Central","21025","37.517807","-83.317158 ","1558","13","65","0","9/6/2021 12:00:00 AM","2019","12630","NYTIMES-USCENSUS"
"9/7/2021 12:00:00 AM","Dale County","Alabama","South","East South Central","01045","31.430654","-85.609476 ","7834","136","28","0","9/6/2021 12:00:00 AM","2019","49172","NYTIMES-USCENSUS"
"9/7/2021 12:00:00 AM","Monongalia County","West Virginia","South","South Atlantic","54061","39.633645","-80.059074 ","10560","98","24","0","9/6/2021 12:00:00 AM","2019","105612","NYTIMES-USCENSUS"
"9/7/2021 12:00:00 AM","Trimble County","Kentucky","South","East South Central","21223","38.62004","-85.351208 ","1011","9","27","1","9/6/2021 12:00:00 AM","2019","8471","NYTIMES-USCENSUS"
"9/7/2021 12:00:00 AM","Miller County","Arkansas","South","West South Central","05091","33.305505","-93.901502 ","5606","39","9","0","9/6/2021 12:00:00 AM","2019","43257","NYTIMES-USCENSUS"
"9/7/2021 12:00:00 AM","DeWitt County","Texas","South","West South Central","48123","29.082346","-97.361654 ","2712","66","0","1","9/6/2021 12:00:00 AM","2019","20160","NYTIMES-USCENSUS"
"9/7/2021 12:00:00 AM","Benton County","Washington","West","Pacific","53005","46.228125","-119.516659 ","25798","274","552","2","9/6/2021 12:00:00 AM","2019","204390","NYTIMES-USCENSUS"
"9/7/2021 12:00:00 AM","Cleveland County","Arkansas","South","West South Central","05025","33.893201","-92.188714 ","1289","29","1","0","9/6/2021 12:00:00 AM","2019","7956","NYTIMES-USCENSUS"
"9/7/2021 12:00:00 AM","Catoosa County","Georgia","South","South Atlantic","13047","34.900212","-85.139385 ","8424","81","202","2","9/6/2021 12:00:00 AM","2019","67580","NYTIMES-USCENSUS"
"9/7/2021 12:00:00 AM","Boone County","Illinois","Midwest","East North Central","17007","42.318983","-88.824295 ","7404","93","68","0","9/6/2021 12:00:00 AM","2019","53544","NYTIMES-USCENSUS"
"9/7/2021 12:00:00 AM","Anderson County","Tennessee","South","East South Central","47001","36.116731","-84.195418 ","10960","185","356","0","9/6/2021 12:00:00 AM","2019","76978","NYTIMES-USCENSUS"
"9/7/2021 12:00:00 AM","Ben Hill County","Georgia","South","South Atlantic","13017","31.740772","-83.147197 ","3006","87","28","0","9/6/2021 12:00:00 AM","2019","16700","NYTIMES-USCENSUS"
"9/7/2021 12:00:00 AM","Simpson County","Kentucky","South","East South Central","21213","36.740937","-86.581793 ","2615","46","41","0","9/6/2021 12:00:00 AM","2019","18572","NYTIMES-USCENSUS"
"9/7/2021 12:00:00 AM","Clay County","Mississippi","South","East South Central","28025","33.65967","-88.782468 ","2740","67","7","1","9/6/2021 12:00:00 AM","2019","19316","NYTIMES-USCENSUS"
"9/7/2021 12:00:00 AM","Floyd County","Iowa","Midwest","West North Central","19067","43.052741","-92.787367 ","1784","42","0","0","9/6/2021 12:00:00 AM","2019","15642","NYTIMES-USCENSUS"
"9/7/2021 12:00:00 AM","Jefferson County","Idaho","West","Mountain","16051","43.796965","-112.318588 ","3328","33","10","0","9/6/2021 12:00:00 AM","2019","29871","NYTIMES-USCENSUS"
"9/7/2021 12:00:00 AM","Patrick County","Virginia","South","South Atlantic","51141","36.667138","-80.286413 ","1704","47","1","0","9/6/2021 12:00:00 AM","2019","17608","NYTIMES-USCENSUS"
"9/7/2021 12:00:00 AM","Washington County","Missouri","Midwest","West North Central","29221","37.942611","-90.897018 ","3484","56","11","0","9/6/2021 12:00:00 AM","2019","24730","NYTIMES-USCENSUS"
"9/7/2021 12:00:00 AM","Sherman County","Nebraska","Midwest","West North Central","31163","41.218743","-98.972849 ","213","4","0","0","9/6/2021 12:00:00 AM","2019","3001","NYTIMES-USCENSUS"
"9/7/2021 12:00:00 AM","Wythe County","Virginia","South","South Atlantic","51197","36.899867","-81.083001 ","3469","86","4","0","9/6/2021 12:00:00 AM","2019","28684","NYTIMES-USCENSUS"
"9/7/2021 12:00:00 AM","St. Charles County","Missouri","Midwest","West North Central","29183","38.781102","-90.674915 ","56371","643","396","0","9/6/2021 12:00:00 AM","2019","402022","NYTIMES-USCENSUS"
"9/7/2021 12:00:00 AM","Blue Earth County","Minnesota","Midwest","West North Central","27013","44.03371","-94.064012 ","8282","47","19","0","9/6/2021 12:00:00 AM","2019","67653","NYTIMES-USCENSUS"
"9/7/2021 12:00:00 AM","Laurel County","Kentucky","South","East South Central","21125","37.113268","-84.119395 ","11209","87","244","0","9/6/2021 12:00:00 AM","2019","60813","NYTIMES-USCENSUS"
"9/7/2021 12:00:00 AM","Livingston County","Michigan","Midwest","East North Central","26093","42.602532","-83.911718 ","18721","207","143","1","9/6/2021 12:00:00 AM","2019","191995","NYTIMES-USCENSUS"
"9/7/2021 12:00:00 AM","Harrison County","Indiana","Midwest","East North Central","18061","38.186454","-86.103766 ","5615","82","114","0","9/6/2021 12:00:00 AM","2019","40515","NYTIMES-USCENSUS"
"9/7/2021 12:00:00 AM","Norfolk city","Virginia","South","South Atlantic","51710","36.923015","-76.244641 ","21357","288","68","0","9/6/2021 12:00:00 AM","2019","242742","NYTIMES-USCENSUS"
"9/7/2021 12:00:00 AM","Pine County","Minnesota","Midwest","West North Central","27115","46.10094","-92.763094 ","3630","23","7","0","9/6/2021 12:00:00 AM","2019","29579","NYTIMES-USCENSUS"
"9/7/2021 12:00:00 AM","Jefferson County","Illinois","Midwest","East North Central","17081","38.30078","-88.92421 ","5686","130","100","1","9/6/2021 12:00:00 AM","2019","37684","NYTIMES-USCENSUS"
"9/7/2021 12:00:00 AM","Wabash County","Indiana","Midwest","East North Central","18169","40.843747","-85.795192 ","4552","87","102","1","9/6/2021 12:00:00 AM","2019","30996","NYTIMES-USCENSUS"
"9/7/2021 12:00:00 AM","Kalkaska County","Michigan","Midwest","East North Central","26079","44.678881","-85.088992 ","1280","31","15","0","9/6/2021 12:00:00 AM","2019","18038","NYTIMES-USCENSUS"
"9/7/2021 12:00:00 AM","Bannock County","Idaho","West","Mountain","16005","42.692921","-112.228982 ","10185","127","116","2","9/6/2021 12:00:00 AM","2019","87808","NYTIMES-USCENSUS"
"9/7/2021 12:00:00 AM","Ottawa County","Ohio","Midwest","East North Central","39123","41.545495","-83.012613 ","4100","83","11","0","9/6/2021 12:00:00 AM","2019","40525","NYTIMES-USCENSUS"
"9/7/2021 12:00:00 AM","Aransas County","Texas","South","West South Central","48007","28.122621","-96.967501 ","2116","52","0","1","9/6/2021 12:00:00 AM","2019","23510","NYTIMES-USCENSUS"
"9/7/2021 12:00:00 AM","Pierce County","Georgia","South","South Atlantic","13229","31.353998","-82.21037 ","3892","73","83","1","9/6/2021 12:00:00 AM","2019","19465","NYTIMES-USCENSUS"
"9/7/2021 12:00:00 AM","Clinton County","Ohio","Midwest","East North Central","39027","39.416681","-83.804583 ","4784","72","42","0","9/6/2021 12:00:00 AM","2019","41968","NYTIMES-USCENSUS"
"9/7/2021 12:00:00 AM","Wood County","Ohio","Midwest","East North Central","39173","41.360183","-83.622682 ","14542","206","73","0","9/6/2021 12:00:00 AM","2019","130817","NYTIMES-USCENSUS"
"9/7/2021 12:00:00 AM","Hardin County","Kentucky","South","East South Central","21093","37.695836","-85.963183 ","14418","194","428","1","9/6/2021 12:00:00 AM","2019","110958","NYTIMES-USCENSUS"
"9/7/2021 12:00:00 AM","Union County","South Dakota","Midwest","West North Central","46127","42.831106","-96.650829 ","2358","43","5","0","9/6/2021 12:00:00 AM","2019","15932","NYTIMES-USCENSUS"
"9/7/2021 12:00:00 AM","Greeley County","Nebraska","Midwest","West North Central","31077","41.567571","-98.530565 ","226","1","0","0","9/6/2021 12:00:00 AM","2019","2356","NYTIMES-USCENSUS"
"9/7/2021 12:00:00 AM","Jackson County","Michigan","Midwest","East North Central","26075","42.248474","-84.420868 ","22605","336","140","0","9/6/2021 12:00:00 AM","2019","158510","NYTIMES-USCENSUS"
"9/7/2021 12:00:00 AM","Beadle County","South Dakota","Midwest","West North Central","46005","44.418265","-98.279422 ","3039","42","4","0","9/6/2021 12:00:00 AM","2019","18453","NYTIMES-USCENSUS"
"9/7/2021 12:00:00 AM","Marion County","Oregon","West","Pacific","41047","44.900898","-122.57626 ","30304","364","601","3","9/6/2021 12:00:00 AM","2019","347818","NYTIMES-USCENSUS"
"9/7/2021 12:00:00 AM","Morgan County","Utah","West","Mountain","49029","41.091027","-111.577885 ","1496","11","21","0","9/6/2021 12:00:00 AM","2019","12124","NYTIMES-USCENSUS"
"9/7/2021 12:00:00 AM","Pierce County","Nebraska","Midwest","West North Central","31139","42.271413","-97.610992 ","734","21","0","0","9/6/2021 12:00:00 AM","2019","7148","NYTIMES-USCENSUS"
"9/7/2021 12:00:00 AM","Bond County","Illinois","Midwest","East North Central","17005","38.885924","-89.436592 ","2353","29","12","0","9/6/2021 12:00:00 AM","2019","16426","NYTIMES-USCENSUS"
"9/7/2021 12:00:00 AM","Grant County","Indiana","Midwest","East North Central","18053","40.515758","-85.654946 ","8840","198","102","2","9/6/2021 12:00:00 AM","2019","65769","NYTIMES-USCENSUS"
"9/7/2021 12:00:00 AM","Wood County","West Virginia","South","South Atlantic","54107","39.211602","-81.516234 ","9710","184","63","0","9/6/2021 12:00:00 AM","2019","83518","NYTIMES-USCENSUS"
"9/7/2021 12:00:00 AM","Dodge County","Minnesota","Midwest","West North Central","27039","44.020706","-92.869353 ","2273","3","8","0","9/6/2021 12:00:00 AM","2019","20934","NYTIMES-USCENSUS"
"9/7/2021 12:00:00 AM","Durham County","North Carolina","South","South Atlantic","37063","36.033828","-78.878125 ","30929","244","77","0","9/6/2021 12:00:00 AM","2019","321488","NYTIMES-USCENSUS"
"9/7/2021 12:00:00 AM","Colfax County","New Mexico","West","Mountain","35007","36.612964","-104.64011 ","1144","47","15","0","9/6/2021 12:00:00 AM","2019","11941","NYTIMES-USCENSUS"
"9/7/2021 12:00:00 AM","Woodward County","Oklahoma","South","West South Central","40153","36.425619","-99.273661 ","3321","38","0","0","9/6/2021 12:00:00 AM","2019","20211","NYTIMES-USCENSUS"
"9/7/2021 12:00:00 AM","Sullivan County","Tennessee","South","East South Central","47163","36.509681","-82.301336 ","22410","354","752","6","9/6/2021 12:00:00 AM","2019","158348","NYTIMES-USCENSUS"
"9/7/2021 12:00:00 AM","St. Francis County","Arkansas","South","West South Central","05123","35.022838","-90.751506 ","4367","53","9","1","9/6/2021 12:00:00 AM","2019","24994","NYTIMES-USCENSUS"
"9/7/2021 12:00:00 AM","Carbon County","Montana","West","Mountain","30009","45.224468","-109.028554 ","1017","19","-1","0","9/6/2021 12:00:00 AM","2019","10725","NYTIMES-USCENSUS"
"9/7/2021 12:00:00 AM","Hughes County","Oklahoma","South","West South Central","40063","35.052934","-96.251183 ","1464","30","0","0","9/6/2021 12:00:00 AM","2019","13279","NYTIMES-USCENSUS"
"9/7/2021 12:00:00 AM","Grant County","South Dakota","Midwest","West North Central","46051","45.172637","-96.772261 ","1139","42","5","0","9/6/2021 12:00:00 AM","2019","7052","NYTIMES-USCENSUS"
"9/7/2021 12:00:00 AM","Craig County","Virginia","South","South Atlantic","51045","37.473603","-80.231051 ","421","6","4","0","9/6/2021 12:00:00 AM","2019","5131","NYTIMES-USCENSUS"
"9/7/2021 12:00:00 AM","Antelope County","Nebraska","Midwest","West North Central","31003","42.183225","-98.058037 ","622","8","0","0","9/6/2021 12:00:00 AM","2019","6298","NYTIMES-USCENSUS"
"9/7/2021 12:00:00 AM","Appomattox County","Virginia","South","South Atlantic","51011","37.370725","-78.81094 ","1937","29","3","0","9/6/2021 12:00:00 AM","2019","15911","NYTIMES-USCENSUS"
"9/7/2021 12:00:00 AM","Camden County","North Carolina","South","South Atlantic","37029","36.342344","-76.162488 ","828","7","9","0","9/6/2021 12:00:00 AM","2019","10867","NYTIMES-USCENSUS"
"9/7/2021 12:00:00 AM","Weber County","Utah","West","Mountain","49057","41.270325","-111.876883 ","35729","246","72","1","9/6/2021 12:00:00 AM","2019","260213","NYTIMES-USCENSUS"
"9/7/2021 12:00:00 AM","Kanabec County","Minnesota","Midwest","West North Central","27065","45.94776","-93.297788 ","1589","29","3","0","9/6/2021 12:00:00 AM","2019","16337","NYTIMES-USCENSUS"
"9/7/2021 12:00:00 AM","Monroe County","Arkansas","South","West South Central","05095","34.679512","-91.20331 ","1103","21","0","0","9/6/2021 12:00:00 AM","2019","6701","NYTIMES-USCENSUS"
"9/7/2021 12:00:00 AM","Mobile County","Alabama","South","East South Central","01097","30.684572","-88.196568 ","65716","1075","167","4","9/6/2021 12:00:00 AM","2019","413210","NYTIMES-USCENSUS"
"9/7/2021 12:00:00 AM","Wirt County","West Virginia","South","South Atlantic","54105","39.020034","-81.382975 ","575","4","5","0","9/6/2021 12:00:00 AM","2019","5821","NYTIMES-USCENSUS"
"9/7/2021 12:00:00 AM","Custer County","Oklahoma","South","West South Central","40039","35.645601","-98.997386 ","4471","106","0","0","9/6/2021 12:00:00 AM","2019","29003","NYTIMES-USCENSUS"
"9/7/2021 12:00:00 AM","Surry County","North Carolina","South","South Atlantic","37171","36.415416","-80.686463 ","10277","191","243","1","9/6/2021 12:00:00 AM","2019","71783","NYTIMES-USCENSUS"
"9/7/2021 12:00:00 AM","York County","Maine","Northeast","New England","23031","43.426019","-70.668425 ","14956","143","0","0","9/6/2021 12:00:00 AM","2019","207641","NYTIMES-USCENSUS"
"9/7/2021 12:00:00 AM","Forest County","Wisconsin","Midwest","East North Central","55041","45.666881","-88.773326 ","1183","28","1","0","9/6/2021 12:00:00 AM","2019","9004","NYTIMES-USCENSUS"
"9/7/2021 12:00:00 AM","Snohomish County","Washington","West","Pacific","53061","48.054913","-121.765038 ","52887","656","919","1","9/6/2021 12:00:00 AM","2019","822083","NYTIMES-USCENSUS"
"9/7/2021 12:00:00 AM","Hall County","Texas","South","West South Central","48191","34.453189","-100.576343 ","515","15","0","0","9/6/2021 12:00:00 AM","2019","2964","NYTIMES-USCENSUS"
"9/7/2021 12:00:00 AM","Mecklenburg County","North Carolina","South","South Atlantic","37119","35.246862","-80.833832 ","139478","1067","1827","6","9/6/2021 12:00:00 AM","2019","1110356","NYTIMES-USCENSUS"
"9/7/2021 12:00:00 AM","Rockcastle County","Kentucky","South","East South Central","21203","37.36105","-84.314368 ","2368","25","137","0","9/6/2021 12:00:00 AM","2019","16695","NYTIMES-USCENSUS"
"9/7/2021 12:00:00 AM","Mecklenburg County","Virginia","South","South Atlantic","51117","36.687256","-78.368959 ","2816","71","8","0","9/6/2021 12:00:00 AM","2019","30587","NYTIMES-USCENSUS"
"9/7/2021 12:00:00 AM","Breckinridge County","Kentucky","South","East South Central","21027","37.777988","-86.432919 ","2183","20","64","0","9/6/2021 12:00:00 AM","2019","20477","NYTIMES-USCENSUS"
"9/7/2021 12:00:00 AM","Larimer County","Colorado","West","Mountain","08069","40.658093","-105.486764 ","32510","263","88","0","9/6/2021 12:00:00 AM","2019","356899","NYTIMES-USCENSUS"
"9/7/2021 12:00:00 AM","Clark County","Illinois","Midwest","East North Central","17023","39.332334","-87.791683 ","2284","44","47","0","9/6/2021 12:00:00 AM","2019","15441","NYTIMES-USCENSUS"
"9/7/2021 12:00:00 AM","Union County","New Mexico","West","Mountain","35059","36.488085","-103.475723 ","452","10","3","0","9/6/2021 12:00:00 AM","2019","4059","NYTIMES-USCENSUS"
"9/7/2021 12:00:00 AM","Donley County","Texas","South","West South Central","48129","34.955036","-100.815846 ","459","16","0","0","9/6/2021 12:00:00 AM","2019","3278","NYTIMES-USCENSUS"
"9/7/2021 12:00:00 AM","Caddo County","Oklahoma","South","West South Central","40015","35.16792","-98.381045 ","4525","99","0","0","9/6/2021 12:00:00 AM","2019","28762","NYTIMES-USCENSUS"
"9/7/2021 12:00:00 AM","Tompkins County","New York","Northeast","Middle Atlantic","36109","42.453006","-76.473483 ","5471","56","18","0","9/6/2021 12:00:00 AM","2019","102180","NYTIMES-USCENSUS"
"9/7/2021 12:00:00 AM","Gillespie County","Texas","South","West South Central","48171","30.325093","-98.94185 ","3107","64","0","0","9/6/2021 12:00:00 AM","2019","26988","NYTIMES-USCENSUS"
"9/7/2021 12:00:00 AM","Gilmer County","West Virginia","South","South Atlantic","54021","38.915867","-80.849413 ","1048","7","7","0","9/6/2021 12:00:00 AM","2019","7823","NYTIMES-USCENSUS"
"9/7/2021 12:00:00 AM","Washington County","Ohio","Midwest","East North Central","39167","39.450676","-81.490636 ","6189","111","58","0","9/6/2021 12:00:00 AM","2019","59911","NYTIMES-USCENSUS"
"9/7/2021 12:00:00 AM","Brazoria County","Texas","South","West South Central","48039","29.167817","-95.434647 ","50854","649","0","0","9/6/2021 12:00:00 AM","2019","374264","NYTIMES-USCENSUS"
"9/7/2021 12:00:00 AM","Walsh County","North Dakota","Midwest","West North Central","38099","48.376979","-97.72223 ","2033","27","2","0","9/6/2021 12:00:00 AM","2019","10641","NYTIMES-USCENSUS"
"9/7/2021 12:00:00 AM","St. James Parish","Louisiana","South","West South Central","22093","30.024777","-90.793956 ","3239","61","22","0","9/6/2021 12:00:00 AM","2019","21096","NYTIMES-USCENSUS"
"9/7/2021 12:00:00 AM","Routt County","Colorado","West","Mountain","08107","40.483664","-106.987702 ","2758","21","11","0","9/6/2021 12:00:00 AM","2019","25638","NYTIMES-USCENSUS"
"9/7/2021 12:00:00 AM","Edmunds County","South Dakota","Midwest","West North Central","46045","45.41168","-99.205362 ","527","14","0","0","9/6/2021 12:00:00 AM","2019","3829","NYTIMES-USCENSUS"
"9/7/2021 12:00:00 AM","Wells County","North Dakota","Midwest","West North Central","38103","47.580851","-99.682213 ","477","8","1","0","9/6/2021 12:00:00 AM","2019","3834","NYTIMES-USCENSUS"
"9/7/2021 12:00:00 AM","Hockley County","Texas","South","West South Central","48219","33.605932","-102.343398 ","3672","117","0","0","9/6/2021 12:00:00 AM","2019","23021","NYTIMES-USCENSUS"
"9/7/2021 12:00:00 AM","Warren County","Indiana","Midwest","East North Central","18171","40.352498","-87.375163 ","1061","18","18","0","9/6/2021 12:00:00 AM","2019","8265","NYTIMES-USCENSUS"
"9/7/2021 12:00:00 AM","Windham County","Vermont","Northeast","New England","50025","42.995335","-72.721955 ","1691","16","13","0","9/6/2021 12:00:00 AM","2019","42222","NYTIMES-USCENSUS"
"9/7/2021 12:00:00 AM","Cheyenne County","Nebraska","Midwest","West North Central","31033","41.214236","-103.011929 ","983","19","0","0","9/6/2021 12:00:00 AM","2019","8910","NYTIMES-USCENSUS"
"9/7/2021 12:00:00 AM","Pike County","Ohio","Midwest","East North Central","39131","39.071341","-83.052911 ","3299","38","27","0","9/6/2021 12:00:00 AM","2019","27772","NYTIMES-USCENSUS"
"9/7/2021 12:00:00 AM","Piscataquis County","Maine","Northeast","New England","23021","45.915639","-69.102231 ","813","7","0","0","9/6/2021 12:00:00 AM","2019","16785","NYTIMES-USCENSUS"
"9/7/2021 12:00:00 AM","Lee County","Iowa","Midwest","West North Central","19111","40.647588","-91.477157 ","4752","69","0","0","9/6/2021 12:00:00 AM","2019","33657","NYTIMES-USCENSUS"
"9/7/2021 12:00:00 AM","Forsyth County","Georgia","South","South Atlantic","13117","34.225143","-84.127408 ","29687","220","571","0","9/6/2021 12:00:00 AM","2019","244252","NYTIMES-USCENSUS"
"9/7/2021 12:00:00 AM","Westmoreland County","Pennsylvania","Northeast","Middle Atlantic","42129","40.311068","-79.466688 ","37406","804","65","0","9/6/2021 12:00:00 AM","2019","348899","NYTIMES-USCENSUS"
"9/7/2021 12:00:00 AM","Franklin County","Massachusetts","Northeast","New England","25011","42.584504","-72.591792 ","2873","115","34","0","9/6/2021 12:00:00 AM","2019","70180","NYTIMES-USCENSUS"
"9/7/2021 12:00:00 AM","Mercer County","West Virginia","South","South Atlantic","54055","37.403448","-81.106456 ","6422","132","33","0","9/6/2021 12:00:00 AM","2019","58758","NYTIMES-USCENSUS"
"9/7/2021 12:00:00 AM","Stutsman County","North Dakota","Midwest","West North Central","38093","46.972223","-98.956123 ","3739","82","2","0","9/6/2021 12:00:00 AM","2019","20704","NYTIMES-USCENSUS"
"9/7/2021 12:00:00 AM","Sweetwater County","Wyoming","West","Mountain","56037","41.660328","-108.875677 ","5929","51","138","2","9/6/2021 12:00:00 AM","2019","42343","NYTIMES-USCENSUS"
"9/7/2021 12:00:00 AM","Cerro Gordo County","Iowa","Midwest","West North Central","19033","43.074975","-93.250965 ","5996","100","0","0","9/6/2021 12:00:00 AM","2019","42450","NYTIMES-USCENSUS"
"9/7/2021 12:00:00 AM","Scotland County","North Carolina","South","South Atlantic","37165","34.840023","-79.477337 ","4902","97","92","0","9/6/2021 12:00:00 AM","2019","34823","NYTIMES-USCENSUS"
"9/7/2021 12:00:00 AM","Knox County","Indiana","Midwest","East North Central","18083","38.688391","-87.420354 ","5176","97","61","1","9/6/2021 12:00:00 AM","2019","36594","NYTIMES-USCENSUS"
"9/7/2021 12:00:00 AM","Gunnison County","Colorado","West","Mountain","08051","38.670499","-107.05688 ","1609","8","8","0","9/6/2021 12:00:00 AM","2019","17462","NYTIMES-USCENSUS"
"9/7/2021 12:00:00 AM","Jackson County","Illinois","Midwest","East North Central","17077","37.786096","-89.381212 ","7150","85","145","0","9/6/2021 12:00:00 AM","2019","56750","NYTIMES-USCENSUS"
"9/7/2021 12:00:00 AM","Mason County","Illinois","Midwest","East North Central","17125","40.236993","-89.913575 ","1891","50","2","0","9/6/2021 12:00:00 AM","2019","13359","NYTIMES-USCENSUS"
"9/7/2021 12:00:00 AM","Montezuma County","Colorado","West","Mountain","08083","37.338025","-108.595786 ","2430","30","1","0","9/6/2021 12:00:00 AM","2019","26183","NYTIMES-USCENSUS"
"9/7/2021 12:00:00 AM","Cherokee County","Kansas","Midwest","West North Central","20021","37.169392","-94.845698 ","3343","70","0","0","9/6/2021 12:00:00 AM","2019","19939","NYTIMES-USCENSUS"
"9/7/2021 12:00:00 AM","Lehigh County","Pennsylvania","Northeast","Middle Atlantic","42077","40.614241","-75.590627 ","43391","883","47","0","9/6/2021 12:00:00 AM","2019","369318","NYTIMES-USCENSUS"
"9/7/2021 12:00:00 AM","Woods County","Oklahoma","South","West South Central","40151","36.726984","-98.863649 ","1437","19","0","0","9/6/2021 12:00:00 AM","2019","8793","NYTIMES-USCENSUS"
"9/7/2021 12:00:00 AM","Lake County","Illinois","Midwest","East North Central","17097","42.185968","-87.805939 ","74910","1117","587","3","9/6/2021 12:00:00 AM","2019","696535","NYTIMES-USCENSUS"
"9/7/2021 12:00:00 AM","Chase County","Kansas","Midwest","West North Central","20017","38.299475","-96.594029 ","303","3","0","0","9/6/2021 12:00:00 AM","2019","2648","NYTIMES-USCENSUS"
"9/7/2021 12:00:00 AM","Buchanan County","Missouri","Midwest","West North Central","29021","39.660369","-94.808173 ","14315","212","118","3","9/6/2021 12:00:00 AM","2019","87364","NYTIMES-USCENSUS"
"9/7/2021 12:00:00 AM","Chattooga County","Georgia","South","South Atlantic","13055","34.474178","-85.345289 ","3862","78","128","1","9/6/2021 12:00:00 AM","2019","24789","NYTIMES-USCENSUS"
"9/7/2021 12:00:00 AM","Hopkins County","Texas","South","West South Central","48223","33.148967","-95.565434 ","4567","126","26","0","9/6/2021 12:00:00 AM","2019","37084","NYTIMES-USCENSUS"
"9/7/2021 12:00:00 AM","Camden County","Georgia","South","South Atlantic","13039","30.913358","-81.642019 ","6700","71","128","3","9/6/2021 12:00:00 AM","2019","54666","NYTIMES-USCENSUS"
"9/7/2021 12:00:00 AM","Lafayette Parish","Louisiana","South","West South Central","22055","30.206507","-92.06417 ","36023","363","354","0","9/6/2021 12:00:00 AM","2019","244390","NYTIMES-USCENSUS"
"9/7/2021 12:00:00 AM","Ray County","Missouri","Midwest","West North Central","29177","39.308401","-93.995746 ","2580","39","5","0","9/6/2021 12:00:00 AM","2019","23018","NYTIMES-USCENSUS"
"9/7/2021 12:00:00 AM","York County","Pennsylvania","Northeast","Middle Atlantic","42133","39.921751","-76.728889 ","51588","855","182","0","9/6/2021 12:00:00 AM","2019","449058","NYTIMES-USCENSUS"
"9/7/2021 12:00:00 AM","Powell County","Kentucky","South","East South Central","21197","37.809907","-83.831354 ","1877","15","70","0","9/6/2021 12:00:00 AM","2019","12359","NYTIMES-USCENSUS"
"9/7/2021 12:00:00 AM","Walthall County","Mississippi","South","East South Central","28147","31.164492","-90.103431 ","1955","54","1","0","9/6/2021 12:00:00 AM","2019","14286","NYTIMES-USCENSUS"
"9/7/2021 12:00:00 AM","Orangeburg County","South Carolina","South","South Atlantic","45075","33.436135","-80.802913 ","12637","276","83","0","9/6/2021 12:00:00 AM","2019","86175","NYTIMES-USCENSUS"
"9/7/2021 12:00:00 AM","Alachua County","Florida","South","South Atlantic","12001","29.67574","-82.357221 ","35315","285","0","0","9/6/2021 12:00:00 AM","2019","269043","NYTIMES-USCENSUS"
"9/7/2021 12:00:00 AM","Prince George's County","Maryland","South","South Atlantic","24033","38.829278","-76.848188 ","93036","1634","141","2","9/6/2021 12:00:00 AM","2019","909327","NYTIMES-USCENSUS"
"9/7/2021 12:00:00 AM","Payne County","Oklahoma","South","West South Central","40119","36.079225","-96.975255 ","10420","79","0","0","9/6/2021 12:00:00 AM","2019","81784","NYTIMES-USCENSUS"
"9/7/2021 12:00:00 AM","Holt County","Nebraska","Midwest","West North Central","31089","42.459287","-98.784766 ","916","15","0","0","9/6/2021 12:00:00 AM","2019","10067","NYTIMES-USCENSUS"
"9/7/2021 12:00:00 AM","Pickens County","Georgia","South","South Atlantic","13227","34.456746","-84.490351 ","4676","88","82","5","9/6/2021 12:00:00 AM","2019","32591","NYTIMES-USCENSUS"
"9/7/2021 12:00:00 AM","Moore County","Tennessee","South","East South Central","47127","35.288888","-86.358684 ","1251","19","32","0","9/6/2021 12:00:00 AM","2019","6488","NYTIMES-USCENSUS"
"9/7/2021 12:00:00 AM","Lee County","Alabama","South","East South Central","01081","32.604064","-85.353048 ","20827","195","92","0","9/6/2021 12:00:00 AM","2019","164542","NYTIMES-USCENSUS"
"9/7/2021 12:00:00 AM","Lorain County","Ohio","Midwest","East North Central","39093","41.438805","-82.179722 ","29089","521","140","0","9/6/2021 12:00:00 AM","2019","309833","NYTIMES-USCENSUS"
"9/7/2021 12:00:00 AM","Houston County","Georgia","South","South Atlantic","13153","32.458287","-83.662522 ","21636","288","623","4","9/6/2021 12:00:00 AM","2019","157863","NYTIMES-USCENSUS"
"9/7/2021 12:00:00 AM","Brookings County","South Dakota","Midwest","West North Central","46011","44.376675","-96.797797 ","4550","37","9","0","9/6/2021 12:00:00 AM","2019","35077","NYTIMES-USCENSUS"
"9/7/2021 12:00:00 AM","Hartley County","Texas","South","West South Central","48205","35.840244","-102.610047 ","747","2","0","0","9/6/2021 12:00:00 AM","2019","5576","NYTIMES-USCENSUS"
"9/7/2021 12:00:00 AM","Abbeville County","South Carolina","South","South Atlantic","45001","34.229041","-82.454058 ","3172","43","27","0","9/6/2021 12:00:00 AM","2019","24527","NYTIMES-USCENSUS"
"9/7/2021 12:00:00 AM","Bossier Parish","Louisiana","South","West South Central","22015","32.698481","-93.626561 ","19952","353","314","2","9/6/2021 12:00:00 AM","2019","127039","NYTIMES-USCENSUS"
"9/7/2021 12:00:00 AM","Washington County","Colorado","West","Mountain","08121","39.96579","-103.209744 ","490","14","0","0","9/6/2021 12:00:00 AM","2019","4908","NYTIMES-USCENSUS"
"9/7/2021 12:00:00 AM","Cumberland County","North Carolina","South","South Atlantic","37051","35.050192","-78.828719 ","38637","396","542","3","9/6/2021 12:00:00 AM","2019","335509","NYTIMES-USCENSUS"
"9/7/2021 12:00:00 AM","Jefferson County","Mississippi","South","East South Central","28063","31.733633","-91.043878 ","847","32","1","0","9/6/2021 12:00:00 AM","2019","6990","NYTIMES-USCENSUS"
"9/7/2021 12:00:00 AM","Crittenden County","Arkansas","South","West South Central","05035","35.197559","-90.30512 ","7827","112","8","1","9/6/2021 12:00:00 AM","2019","47955","NYTIMES-USCENSUS"
"9/7/2021 12:00:00 AM","Crawford County","Illinois","Midwest","East North Central","17033","39.002787","-87.760619 ","2816","44","23","0","9/6/2021 12:00:00 AM","2019","18667","NYTIMES-USCENSUS"
"9/7/2021 12:00:00 AM","Greensville County","Virginia","South","South Atlantic","51081","36.680336","-77.560277 ","1701","26","1","0","9/6/2021 12:00:00 AM","2019","11336","NYTIMES-USCENSUS"
"9/7/2021 12:00:00 AM","Perquimans County","North Carolina","South","South Atlantic","37143","36.180897","-76.403244 ","1265","11","47","0","9/6/2021 12:00:00 AM","2019","13463","NYTIMES-USCENSUS"
"9/7/2021 12:00:00 AM","Gadsden County","Florida","South","South Atlantic","12039","30.578687","-84.612607 ","7915","99","0","0","9/6/2021 12:00:00 AM","2019","45660","NYTIMES-USCENSUS"
"9/7/2021 12:00:00 AM","Hardin County","Illinois","Midwest","East North Central","17069","37.517852","-88.266148 ","539","12","9","0","9/6/2021 12:00:00 AM","2019","3821","NYTIMES-USCENSUS"
"9/7/2021 12:00:00 AM","Harlan County","Kentucky","South","East South Central","21095","36.859223","-83.221497 ","3910","100","105","2","9/6/2021 12:00:00 AM","2019","26010","NYTIMES-USCENSUS"
"9/7/2021 12:00:00 AM","Mason County","Kentucky","South","East South Central","21161","38.594137","-83.828125 ","2144","44","12","0","9/6/2021 12:00:00 AM","2019","17070","NYTIMES-USCENSUS"
"9/7/2021 12:00:00 AM","Washakie County","Wyoming","West","Mountain","56043","43.878831","-107.669052 ","1086","27","7","0","9/6/2021 12:00:00 AM","2019","7805","NYTIMES-USCENSUS"
"9/7/2021 12:00:00 AM","Paulding County","Georgia","South","South Atlantic","13223","33.92103","-84.867169 ","22463","256","562","0","9/6/2021 12:00:00 AM","2019","168667","NYTIMES-USCENSUS"
"9/7/2021 12:00:00 AM","Oswego County","New York","Northeast","Middle Atlantic","36075","43.461443","-76.209262 ","8819","97","34","0","9/6/2021 12:00:00 AM","2019","117124","NYTIMES-USCENSUS"
"9/7/2021 12:00:00 AM","Madison County","North Carolina","South","South Atlantic","37115","35.864206","-82.712631 ","2180","45","101","1","9/6/2021 12:00:00 AM","2019","21755","NYTIMES-USCENSUS"
"9/7/2021 12:00:00 AM","Collingsworth County","Texas","South","West South Central","48087","34.963358","-100.272135 ","351","9","0","0","9/6/2021 12:00:00 AM","2019","2920","NYTIMES-USCENSUS"
"9/7/2021 12:00:00 AM","Greene County","New York","Northeast","Middle Atlantic","36039","42.279821","-74.142025 ","3761","82","8","0","9/6/2021 12:00:00 AM","2019","47188","NYTIMES-USCENSUS"
"9/7/2021 12:00:00 AM","Summit County","Ohio","Midwest","East North Central","39153","41.121847","-81.534928 ","53261","1037","212","2","9/6/2021 12:00:00 AM","2019","541013","NYTIMES-USCENSUS"
"9/7/2021 12:00:00 AM","Andrews County","Texas","South","West South Central","48003","32.312258","-102.640206 ","2280","49","0","0","9/6/2021 12:00:00 AM","2019","18705","NYTIMES-USCENSUS"
"9/7/2021 12:00:00 AM","Adair County","Kentucky","South","East South Central","21001","37.105559","-85.28138 ","2623","61","0","0","9/6/2021 12:00:00 AM","2019","19202","NYTIMES-USCENSUS"
"9/7/2021 12:00:00 AM","Cayuga County","New York","Northeast","Middle Atlantic","36011","43.008546","-76.574587 ","7378","98","35","0","9/6/2021 12:00:00 AM","2019","76576","NYTIMES-USCENSUS"
"9/7/2021 12:00:00 AM","Carter County","Missouri","Midwest","West North Central","29035","36.944858","-90.945705 ","930","12","1","0","9/6/2021 12:00:00 AM","2019","5982","NYTIMES-USCENSUS"
"9/7/2021 12:00:00 AM","Stark County","North Dakota","Midwest","West North Central","38089","46.817031","-102.662026 ","5637","52","10","0","9/6/2021 12:00:00 AM","2019","31489","NYTIMES-USCENSUS"
"9/7/2021 12:00:00 AM","Charlottesville city","Virginia","South","South Atlantic","51540","38.037658","-78.485381 ","4611","58","12","0","9/6/2021 12:00:00 AM","2019","47266","NYTIMES-USCENSUS"
"9/7/2021 12:00:00 AM","Benton County","Arkansas","South","West South Central","05007","36.337819","-94.256298 ","38482","529","61","2","9/6/2021 12:00:00 AM","2019","279141","NYTIMES-USCENSUS"
"9/7/2021 12:00:00 AM","Chase County","Nebraska","Midwest","West North Central","31029","40.53039","-101.694192 ","477","5","0","0","9/6/2021 12:00:00 AM","2019","3924","NYTIMES-USCENSUS"
"9/7/2021 12:00:00 AM","Haskell County","Texas","South","West South Central","48207","33.175964","-99.730774 ","493","29","0","1","9/6/2021 12:00:00 AM","2019","5658","NYTIMES-USCENSUS"
"9/7/2021 12:00:00 AM","Avery County","North Carolina","South","South Atlantic","37011","36.07209","-81.920285 ","2377","23","30","1","9/6/2021 12:00:00 AM","2019","17557","NYTIMES-USCENSUS"
"9/7/2021 12:00:00 AM","Morgan County","Missouri","Midwest","West North Central","29141","38.420806","-92.874835 ","2387","53","5","0","9/6/2021 12:00:00 AM","2019","20627","NYTIMES-USCENSUS"
"9/7/2021 12:00:00 AM","Runnels County","Texas","South","West South Central","48399","31.845119","-99.982715 ","1526","48","0","0","9/6/2021 12:00:00 AM","2019","10264","NYTIMES-USCENSUS"
"9/7/2021 12:00:00 AM","Oneida County","New York","Northeast","Middle Atlantic","36065","43.242727","-75.434282 ","24556","524","65","1","9/6/2021 12:00:00 AM","2019","228671","NYTIMES-USCENSUS"
"9/7/2021 12:00:00 AM","Smith County","Mississippi","South","East South Central","28129","32.019029","-89.494876 ","2331","44","0","0","9/6/2021 12:00:00 AM","2019","15916","NYTIMES-USCENSUS"
"9/7/2021 12:00:00 AM","Lincoln County","Minnesota","Midwest","West North Central","27081","44.408238","-96.272032 ","614","4","1","0","9/6/2021 12:00:00 AM","2019","5639","NYTIMES-USCENSUS"
"9/7/2021 12:00:00 AM","DeKalb County","Georgia","South","South Atlantic","13089","33.770661","-84.226343 ","82208","1129","1237","8","9/6/2021 12:00:00 AM","2019","759297","NYTIMES-USCENSUS"
"9/7/2021 12:00:00 AM","Love County","Oklahoma","South","West South Central","40085","33.957804","-97.245093 ","1802","26","0","0","9/6/2021 12:00:00 AM","2019","10253","NYTIMES-USCENSUS"
"9/7/2021 12:00:00 AM","East Baton Rouge Parish","Louisiana","South","West South Central","22033","30.54393","-91.093131 ","59876","1041","282","3","9/6/2021 12:00:00 AM","2019","440059","NYTIMES-USCENSUS"
"9/7/2021 12:00:00 AM","Mercer County","Pennsylvania","Northeast","Middle Atlantic","42085","41.300014","-80.252786 ","10694","274","27","0","9/6/2021 12:00:00 AM","2019","109424","NYTIMES-USCENSUS"
"9/7/2021 12:00:00 AM","Pendleton County","West Virginia","South","South Atlantic","54071","38.67445","-79.340617 ","890","12","2","0","9/6/2021 12:00:00 AM","2019","6969","NYTIMES-USCENSUS"
"9/7/2021 12:00:00 AM","Moore County","North Carolina","South","South Atlantic","37125","35.308272","-79.492725 ","11619","218","213","0","9/6/2021 12:00:00 AM","2019","100880","NYTIMES-USCENSUS"
"9/7/2021 12:00:00 AM","Montour County","Pennsylvania","Northeast","Middle Atlantic","42093","41.029284","-76.665225 ","2121","67","1","0","9/6/2021 12:00:00 AM","2019","18230","NYTIMES-USCENSUS"
"9/7/2021 12:00:00 AM","Fergus County","Montana","West","Mountain","30027","47.221816","-109.232956 ","1295","31","7","0","9/6/2021 12:00:00 AM","2019","11050","NYTIMES-USCENSUS"
"9/7/2021 12:00:00 AM","Ketchikan Gateway Borough","Alaska","West","Pacific","02130","55.449938","-131.106685 ","1195","2","48","0","9/6/2021 12:00:00 AM","2019","13901","NYTIMES-USCENSUS"
"9/7/2021 12:00:00 AM","Chesterfield County","South Carolina","South","South Atlantic","45025","34.637018","-80.159227 ","6095","121","33","1","9/6/2021 12:00:00 AM","2019","45650","NYTIMES-USCENSUS"
"9/7/2021 12:00:00 AM","Sampson County","North Carolina","South","South Atlantic","37163","34.989298","-78.371261 ","9977","120","105","0","9/6/2021 12:00:00 AM","2019","63531","NYTIMES-USCENSUS"
"9/7/2021 12:00:00 AM","Sequoyah County","Oklahoma","South","West South Central","40135","35.502435","-94.750757 ","5702","64","0","0","9/6/2021 12:00:00 AM","2019","41569","NYTIMES-USCENSUS"
"9/7/2021 12:00:00 AM","Moody County","South Dakota","Midwest","West North Central","46101","44.012429","-96.676054 ","707","20","1","0","9/6/2021 12:00:00 AM","2019","6576","NYTIMES-USCENSUS"
"9/7/2021 12:00:00 AM","Johnson County","Kentucky","South","East South Central","21115","37.847756","-82.830121 ","2935","39","64","0","9/6/2021 12:00:00 AM","2019","22188","NYTIMES-USCENSUS"
"9/7/2021 12:00:00 AM","Worth County","Missouri","Midwest","West North Central","29227","40.480499","-94.419198 ","204","2","0","0","9/6/2021 12:00:00 AM","2019","2013","NYTIMES-USCENSUS"
"9/7/2021 12:00:00 AM","Franklin Parish","Louisiana","South","West South Central","22041","32.139076","-91.672371 ","3916","126","24","1","9/6/2021 12:00:00 AM","2019","20015","NYTIMES-USCENSUS"
"9/7/2021 12:00:00 AM","Atlantic County","New Jersey","Northeast","Middle Atlantic","34001","39.469355","-74.633759 ","35010","711","32","0","9/6/2021 12:00:00 AM","2019","263670","NYTIMES-USCENSUS"
"9/7/2021 12:00:00 AM","Marshall County","South Dakota","Midwest","West North Central","46091","45.737044","-97.58087 ","392","6","0","0","9/6/2021 12:00:00 AM","2019","4935","NYTIMES-USCENSUS"
"9/7/2021 12:00:00 AM","Stephenson County","Illinois","Midwest","East North Central","17177","42.349726","-89.665994 ","5220","106","35","0","9/6/2021 12:00:00 AM","2019","44498","NYTIMES-USCENSUS"
"9/7/2021 12:00:00 AM","Lafayette County","Mississippi","South","East South Central","28071","34.353078","-89.485385 ","7732","131","11","0","9/6/2021 12:00:00 AM","2019","54019","NYTIMES-USCENSUS"
"9/7/2021 12:00:00 AM","Dixon County","Nebraska","Midwest","West North Central","31051","42.485086","-96.855784 ","698","9","0","0","9/6/2021 12:00:00 AM","2019","5636","NYTIMES-USCENSUS"
"9/7/2021 12:00:00 AM","Palo Alto County","Iowa","Midwest","West North Central","19147","43.075337","-94.669055 ","1217","24","0","0","9/6/2021 12:00:00 AM","2019","8886","NYTIMES-USCENSUS"
"9/7/2021 12:00:00 AM","Sussex County","Virginia","South","South Atlantic","51183","36.926645","-77.259732 ","1348","23","1","0","9/6/2021 12:00:00 AM","2019","11159","NYTIMES-USCENSUS"
"9/7/2021 12:00:00 AM","St. Tammany Parish","Louisiana","South","West South Central","22103","30.410022","-89.951962 ","40740","636","349","10","9/6/2021 12:00:00 AM","2019","260419","NYTIMES-USCENSUS"
"9/7/2021 12:00:00 AM","Baraga County","Michigan","Midwest","East North Central","26013","46.695859","-88.36181 ","1076","42","14","1","9/6/2021 12:00:00 AM","2019","8209","NYTIMES-USCENSUS"
"9/7/2021 12:00:00 AM","Yuma County","Arizona","West","Mountain","04027","32.773942","-113.910905 ","39746","870","37","3","9/6/2021 12:00:00 AM","2019","213787","NYTIMES-USCENSUS"
"9/7/2021 12:00:00 AM","Lafayette County","Florida","South","South Atlantic","12067","29.990066","-83.17851 ","2080","26","0","0","9/6/2021 12:00:00 AM","2019","8422","NYTIMES-USCENSUS"
"9/7/2021 12:00:00 AM","Pike County","Illinois","Midwest","East North Central","17149","39.625106","-90.889034 ","2426","58","17","0","9/6/2021 12:00:00 AM","2019","15561","NYTIMES-USCENSUS"
"9/7/2021 12:00:00 AM","Currituck County","North Carolina","South","South Atlantic","37053","36.372174","-75.941224 ","2089","19","64","0","9/6/2021 12:00:00 AM","2019","27763","NYTIMES-USCENSUS"
"9/7/2021 12:00:00 AM","Becker County","Minnesota","Midwest","West North Central","27005","46.937629","-95.741757 ","4112","58","13","0","9/6/2021 12:00:00 AM","2019","34423","NYTIMES-USCENSUS"
"9/7/2021 12:00:00 AM","Torrance County","New Mexico","West","Mountain","35057","34.554978","-105.890557 ","1460","16","28","0","9/6/2021 12:00:00 AM","2019","15461","NYTIMES-USCENSUS"
"9/7/2021 12:00:00 AM","Cleburne County","Arkansas","South","West South Central","05023","35.566315","-92.05995 ","3256","83","3","1","9/6/2021 12:00:00 AM","2019","24919","NYTIMES-USCENSUS"
"9/7/2021 12:00:00 AM","Accomack County","Virginia","South","South Atlantic","51001","37.765944","-75.757807 ","3442","57","6","0","9/6/2021 12:00:00 AM","2019","32316","NYTIMES-USCENSUS"
"9/7/2021 12:00:00 AM","McCreary County","Kentucky","South","East South Central","21147","36.731136","-84.491052 ","2631","35","0","0","9/6/2021 12:00:00 AM","2019","17231","NYTIMES-USCENSUS"
"9/7/2021 12:00:00 AM","Highlands County","Florida","South","South Atlantic","12055","27.34108","-81.342353 ","13565","366","0","0","9/6/2021 12:00:00 AM","2019","106221","NYTIMES-USCENSUS"
"9/7/2021 12:00:00 AM","Poquoson city","Virginia","South","South Atlantic","51735","37.12836","-76.303534 ","1054","18","11","0","9/6/2021 12:00:00 AM","2019","12271","NYTIMES-USCENSUS"
"9/7/2021 12:00:00 AM","Randolph County","Illinois","Midwest","East North Central","17157","38.056515","-89.82121 ","5043","98","29","0","9/6/2021 12:00:00 AM","2019","31782","NYTIMES-USCENSUS"
"9/7/2021 12:00:00 AM","Taylor County","Texas","South","West South Central","48441","32.297126","-99.89043 ","19315","444","0","1","9/6/2021 12:00:00 AM","2019","138034","NYTIMES-USCENSUS"
"9/7/2021 12:00:00 AM","Jackson County","Missouri","Midwest","West North Central","29095","39.005364","-94.343211 ","50870","571","976","12","9/6/2021 12:00:00 AM","2019","703011","NYTIMES-USCENSUS"
"9/7/2021 12:00:00 AM","Tattnall County","Georgia","South","South Atlantic","13267","32.043768","-82.059208 ","3516","83","65","0","9/6/2021 12:00:00 AM","2019","25286","NYTIMES-USCENSUS"
"9/7/2021 12:00:00 AM","Lancaster County","Pennsylvania","Northeast","Middle Atlantic","42071","40.041992","-76.250198 ","60700","1197","128","0","9/6/2021 12:00:00 AM","2019","545724","NYTIMES-USCENSUS"
"9/7/2021 12:00:00 AM","Madison County","Virginia","South","South Atlantic","51113","38.412059","-78.276961 ","752","17","6","0","9/6/2021 12:00:00 AM","2019","13261","NYTIMES-USCENSUS"
"9/7/2021 12:00:00 AM","Valley County","Nebraska","Midwest","West North Central","31175","41.564094","-98.983484 ","344","2","0","0","9/6/2021 12:00:00 AM","2019","4158","NYTIMES-USCENSUS"
"9/7/2021 12:00:00 AM","Union County","Ohio","Midwest","East North Central","39159","40.295901","-83.367042 ","6689","49","15","0","9/6/2021 12:00:00 AM","2019","58988","NYTIMES-USCENSUS"
"9/7/2021 12:00:00 AM","Washington County","Pennsylvania","Northeast","Middle Atlantic","42125","40.200005","-80.252132 ","19888","321","45","0","9/6/2021 12:00:00 AM","2019","206865","NYTIMES-USCENSUS"
"9/7/2021 12:00:00 AM","Rockingham County","Virginia","South","South Atlantic","51165","38.507585","-78.885321 ","7838","116","20","0","9/6/2021 12:00:00 AM","2019","81948","NYTIMES-USCENSUS"
"9/7/2021 12:00:00 AM","Rogers County","Oklahoma","South","West South Central","40131","36.377794","-95.601383 ","13647","214","0","0","9/6/2021 12:00:00 AM","2019","92459","NYTIMES-USCENSUS"
"9/7/2021 12:00:00 AM","Lapeer County","Michigan","Midwest","East North Central","26087","43.088633","-83.224325 ","10403","224","41","2","9/6/2021 12:00:00 AM","2019","87607","NYTIMES-USCENSUS"
"9/7/2021 12:00:00 AM","Newport County","Rhode Island","Northeast","New England","44005","41.501045","-71.283063 ","7732","33","0","0","9/6/2021 12:00:00 AM","2019","82082","NYTIMES-USCENSUS"
"9/7/2021 12:00:00 AM","Radford city","Virginia","South","South Atlantic","51750","37.120119","-80.559147 ","2572","29","2","0","9/6/2021 12:00:00 AM","2019","18249","NYTIMES-USCENSUS"
"9/7/2021 12:00:00 AM","Gregg County","Texas","South","West South Central","48183","32.486401","-94.816277 ","15523","411","0","1","9/6/2021 12:00:00 AM","2019","123945","NYTIMES-USCENSUS"
"9/7/2021 12:00:00 AM","Buffalo County","Nebraska","Midwest","West North Central","31019","40.855265","-99.074984 ","6004","57","0","0","9/6/2021 12:00:00 AM","2019","49659","NYTIMES-USCENSUS"
"9/7/2021 12:00:00 AM","Garfield County","Oklahoma","South","West South Central","40047","36.378132","-97.788741 ","8610","144","0","0","9/6/2021 12:00:00 AM","2019","61056","NYTIMES-USCENSUS"
"9/7/2021 12:00:00 AM","Sibley County","Minnesota","Midwest","West North Central","27143","44.575734","-94.230123 ","1665","10","7","0","9/6/2021 12:00:00 AM","2019","14865","NYTIMES-USCENSUS"
"9/7/2021 12:00:00 AM","Putnam County","Indiana","Midwest","East North Central","18133","39.665548","-86.853373 ","5014","68","141","0","9/6/2021 12:00:00 AM","2019","37576","NYTIMES-USCENSUS"
"9/7/2021 12:00:00 AM","Luna County","New Mexico","West","Mountain","35029","32.184523","-107.747191 ","3662","92","18","0","9/6/2021 12:00:00 AM","2019","23709","NYTIMES-USCENSUS"
"9/7/2021 12:00:00 AM","Portsmouth city","Virginia","South","South Atlantic","51740","36.859339","-76.356973 ","10819","211","47","0","9/6/2021 12:00:00 AM","2019","94398","NYTIMES-USCENSUS"
"9/7/2021 12:00:00 AM","Fairfax County","Virginia","South","South Atlantic","51059","38.82952","-77.273252 ","84056","1140","111","0","9/6/2021 12:00:00 AM","2019","1147532","NYTIMES-USCENSUS"
"9/7/2021 12:00:00 AM","Union County","New Jersey","Northeast","Middle Atlantic","34039","40.659871","-74.308696 ","76120","2011","24","1","9/6/2021 12:00:00 AM","2019","556341","NYTIMES-USCENSUS"
"9/7/2021 12:00:00 AM","Clinton County","Iowa","Midwest","West North Central","19045","41.898073","-90.534243 ","5961","95","0","0","9/6/2021 12:00:00 AM","2019","46429","NYTIMES-USCENSUS"
"9/7/2021 12:00:00 AM","Oregon County","Missouri","Midwest","West North Central","29149","36.68531","-91.401827 ","1199","7","0","0","9/6/2021 12:00:00 AM","2019","10529","NYTIMES-USCENSUS"
"9/7/2021 12:00:00 AM","Estill County","Kentucky","South","East South Central","21065","37.692449","-83.963983 ","1698","12","67","0","9/6/2021 12:00:00 AM","2019","14106","NYTIMES-USCENSUS"
"9/7/2021 12:00:00 AM","Wicomico County","Maryland","South","South Atlantic","24045","38.36737","-75.632083 ","9161","187","39","0","9/6/2021 12:00:00 AM","2019","103609","NYTIMES-USCENSUS"
"9/7/2021 12:00:00 AM","Crawford County","Arkansas","South","West South Central","05033","35.583011","-94.236219 ","9384","146","33","2","9/6/2021 12:00:00 AM","2019","63257","NYTIMES-USCENSUS"
"9/7/2021 12:00:00 AM","Isabella County","Michigan","Midwest","East North Central","26073","43.645233","-84.839424 ","6793","102","72","0","9/6/2021 12:00:00 AM","2019","69872","NYTIMES-USCENSUS"
"9/7/2021 12:00:00 AM","Hand County","South Dakota","Midwest","West North Central","46059","44.546713","-99.004575 ","368","6","0","0","9/6/2021 12:00:00 AM","2019","3191","NYTIMES-USCENSUS"
"9/7/2021 12:00:00 AM","Marshall County","Alabama","South","East South Central","01095","34.309564","-86.321668 ","16291","249","59","0","9/6/2021 12:00:00 AM","2019","96774","NYTIMES-USCENSUS"
"9/7/2021 12:00:00 AM","San Augustine County","Texas","South","West South Central","48405","31.382449","-94.16318 ","735","32","0","0","9/6/2021 12:00:00 AM","2019","8237","NYTIMES-USCENSUS"
"9/7/2021 12:00:00 AM","Pratt County","Kansas","Midwest","West North Central","20151","37.647594","-98.74012 ","1037","26","11","0","9/6/2021 12:00:00 AM","2019","9164","NYTIMES-USCENSUS"
"9/7/2021 12:00:00 AM","Fort Bend County","Texas","South","West South Central","48157","29.526602","-95.771015 ","86304","817","533","10","9/6/2021 12:00:00 AM","2019","811688","NYTIMES-USCENSUS"
"9/7/2021 12:00:00 AM","Sarasota County","Florida","South","South Atlantic","12115","27.225327","-82.423714 ","49079","844","0","0","9/6/2021 12:00:00 AM","2019","433742","NYTIMES-USCENSUS"
"9/7/2021 12:00:00 AM","Macon County","North Carolina","South","South Atlantic","37113","35.152959","-83.421901 ","3972","45","103","0","9/6/2021 12:00:00 AM","2019","35858","NYTIMES-USCENSUS"
"9/7/2021 12:00:00 AM","Baker County","Florida","South","South Atlantic","12003","30.324442","-82.302284 ","5579","62","0","0","9/6/2021 12:00:00 AM","2019","29210","NYTIMES-USCENSUS"
"9/7/2021 12:00:00 AM","Franklin County","Alabama","South","East South Central","01059","34.441989","-87.842814 ","5387","90","23","0","9/6/2021 12:00:00 AM","2019","31362","NYTIMES-USCENSUS"
"9/7/2021 12:00:00 AM","Neshoba County","Mississippi","South","East South Central","28099","32.752518","-89.119274 ","6181","192","8","1","9/6/2021 12:00:00 AM","2019","29118","NYTIMES-USCENSUS"
"9/7/2021 12:00:00 AM","Tyler County","West Virginia","South","South Atlantic","54095","39.465634","-80.877219 ","1010","13","8","0","9/6/2021 12:00:00 AM","2019","8591","NYTIMES-USCENSUS"
"9/7/2021 12:00:00 AM","Lipscomb County","Texas","South","West South Central","48295","36.2802","-100.272683 ","363","12","0","0","9/6/2021 12:00:00 AM","2019","3233","NYTIMES-USCENSUS"
"9/7/2021 12:00:00 AM","Laurens County","Georgia","South","South Atlantic","13175","32.39322","-82.926317 ","8139","193","267","3","9/6/2021 12:00:00 AM","2019","47546","NYTIMES-USCENSUS"
"9/7/2021 12:00:00 AM","Madison County","Missouri","Midwest","West North Central","29123","37.474481","-90.343413 ","2051","18","7","0","9/6/2021 12:00:00 AM","2019","12088","NYTIMES-USCENSUS"
"9/7/2021 12:00:00 AM","Johnson County","Nebraska","Midwest","West North Central","31097","40.394955","-96.265264 ","656","10","0","0","9/6/2021 12:00:00 AM","2019","5071","NYTIMES-USCENSUS"
"9/7/2021 12:00:00 AM","Colleton County","South Carolina","South","South Atlantic","45029","32.835018","-80.655244 ","5097","155","20","0","9/6/2021 12:00:00 AM","2019","37677","NYTIMES-USCENSUS"
"9/7/2021 12:00:00 AM","Miller County","Georgia","South","South Atlantic","13201","31.162931","-84.730398 ","1117","14","12","0","9/6/2021 12:00:00 AM","2019","5718","NYTIMES-USCENSUS"
"9/7/2021 12:00:00 AM","Polk County","Georgia","South","South Atlantic","13233","33.996015","-85.188338 ","7469","110","196","4","9/6/2021 12:00:00 AM","2019","42613","NYTIMES-USCENSUS"
"9/7/2021 12:00:00 AM","Grafton County","New Hampshire","Northeast","New England","33009","43.926439","-71.842424 ","4676","30","44","0","9/6/2021 12:00:00 AM","2019","89886","NYTIMES-USCENSUS"
"9/7/2021 12:00:00 AM","Marshall County","Kentucky","South","East South Central","21157","36.882017","-88.332752 ","4331","70","115","1","9/6/2021 12:00:00 AM","2019","31100","NYTIMES-USCENSUS"
"9/7/2021 12:00:00 AM","Petersburg city","Virginia","South","South Atlantic","51730","37.20473","-77.392368 ","4575","93","10","0","9/6/2021 12:00:00 AM","2019","31346","NYTIMES-USCENSUS"
"9/7/2021 12:00:00 AM","Eagle County","Colorado","West","Mountain","08037","39.626992","-106.695169 ","7445","29","15","0","9/6/2021 12:00:00 AM","2019","55127","NYTIMES-USCENSUS"
"9/7/2021 12:00:00 AM","McLennan County","Texas","South","West South Central","48309","31.549596","-97.201511 ","35596","553","0","0","9/6/2021 12:00:00 AM","2019","256623","NYTIMES-USCENSUS"
"9/7/2021 12:00:00 AM","Teton County","Wyoming","West","Mountain","56039","44.048662","-110.426087 ","4568","11","66","0","9/6/2021 12:00:00 AM","2019","23464","NYTIMES-USCENSUS"
"9/7/2021 12:00:00 AM","Lake County","Florida","South","South Atlantic","12069","28.764113","-81.712282 ","47510","663","0","0","9/6/2021 12:00:00 AM","2019","367118","NYTIMES-USCENSUS"
"9/7/2021 12:00:00 AM","Pocahontas County","West Virginia","South","South Atlantic","54075","38.332606","-80.010121 ","848","15","5","0","9/6/2021 12:00:00 AM","2019","8247","NYTIMES-USCENSUS"
"9/7/2021 12:00:00 AM","Middlesex County","Massachusetts","Northeast","New England","25017","42.481718","-71.394916 ","146251","3821","960","3","9/6/2021 12:00:00 AM","2019","1611699","NYTIMES-USCENSUS"
"9/7/2021 12:00:00 AM","Newton County","Mississippi","South","East South Central","28101","32.40197","-89.118412 ","3453","68","4","0","9/6/2021 12:00:00 AM","2019","21018","NYTIMES-USCENSUS"
"9/7/2021 12:00:00 AM","La Plata County","Colorado","West","Mountain","08067","37.287367","-107.839718 ","4788","47","3","0","9/6/2021 12:00:00 AM","2019","56221","NYTIMES-USCENSUS"
"9/7/2021 12:00:00 AM","Republic County","Kansas","Midwest","West North Central","20157","39.828906","-97.650883 ","750","15","0","0","9/6/2021 12:00:00 AM","2019","4636","NYTIMES-USCENSUS"
"9/7/2021 12:00:00 AM","Pembina County","North Dakota","Midwest","West North Central","38067","48.766896","-97.545405 ","906","11","3","0","9/6/2021 12:00:00 AM","2019","6801","NYTIMES-USCENSUS"
"9/7/2021 12:00:00 AM","Montgomery County","Indiana","Midwest","East North Central","18107","40.040296","-86.892715 ","5407","99","86","1","9/6/2021 12:00:00 AM","2019","38338","NYTIMES-USCENSUS"
"9/7/2021 12:00:00 AM","Ontonagon County","Michigan","Midwest","East North Central","26131","46.835325","-89.276912 ","536","22","1","0","9/6/2021 12:00:00 AM","2019","5720","NYTIMES-USCENSUS"
"9/7/2021 12:00:00 AM","Caldwell County","Missouri","Midwest","West North Central","29025","39.658998","-93.979179 ","1054","18","1","0","9/6/2021 12:00:00 AM","2019","9020","NYTIMES-USCENSUS"
"9/7/2021 12:00:00 AM","Calhoun County","Iowa","Midwest","West North Central","19025","42.38617","-94.643683 ","1552","13","0","0","9/6/2021 12:00:00 AM","2019","9668","NYTIMES-USCENSUS"
"9/7/2021 12:00:00 AM","Kenosha County","Wisconsin","Midwest","East North Central","55059","42.585882","-87.876398 ","20758","343","37","0","9/6/2021 12:00:00 AM","2019","169561","NYTIMES-USCENSUS"
"9/7/2021 12:00:00 AM","Sheridan County","Nebraska","Midwest","West North Central","31161","42.512289","-102.36828 ","547","21","0","0","9/6/2021 12:00:00 AM","2019","5246","NYTIMES-USCENSUS"
"9/7/2021 12:00:00 AM","Muskingum County","Ohio","Midwest","East North Central","39119","39.966046","-81.943506 ","10729","144","27","2","9/6/2021 12:00:00 AM","2019","86215","NYTIMES-USCENSUS"
"9/7/2021 12:00:00 AM","Franklin County","Arkansas","South","West South Central","05047","35.508558","-93.887665 ","2437","46","8","0","9/6/2021 12:00:00 AM","2019","17715","NYTIMES-USCENSUS"
"9/7/2021 12:00:00 AM","Rensselaer County","New York","Northeast","Middle Atlantic","36083","42.710421","-73.513845 ","12667","154","25","1","9/6/2021 12:00:00 AM","2019","158714","NYTIMES-USCENSUS"
"9/7/2021 12:00:00 AM","Tuscaloosa County","Alabama","South","East South Central","01125","33.29022","-87.522783 ","31248","487","79","0","9/6/2021 12:00:00 AM","2019","209355","NYTIMES-USCENSUS"
"9/7/2021 12:00:00 AM","Boone County","West Virginia","South","South Atlantic","54005","38.022814","-81.713538 ","2602","37","16","0","9/6/2021 12:00:00 AM","2019","21457","NYTIMES-USCENSUS"
"9/7/2021 12:00:00 AM","Stanton County","Kansas","Midwest","West North Central","20187","37.565932","-101.789383 ","236","6","0","0","9/6/2021 12:00:00 AM","2019","2006","NYTIMES-USCENSUS"
"9/7/2021 12:00:00 AM","Denton County","Texas","South","West South Central","48121","33.205132","-97.12114 ","91622","845","1052","4","9/6/2021 12:00:00 AM","2019","887207","NYTIMES-USCENSUS"
"9/7/2021 12:00:00 AM","East Feliciana Parish","Louisiana","South","West South Central","22037","30.839784","-91.043434 ","4321","131","7","0","9/6/2021 12:00:00 AM","2019","19135","NYTIMES-USCENSUS"
"9/7/2021 12:00:00 AM","Sequatchie County","Tennessee","South","East South Central","47153","35.372336","-85.410082 ","2503","30","149","0","9/6/2021 12:00:00 AM","2019","15026","NYTIMES-USCENSUS"
"9/7/2021 12:00:00 AM","Culpeper County","Virginia","South","South Atlantic","51047","38.48593","-77.956476 ","5411","70","3","0","9/6/2021 12:00:00 AM","2019","52605","NYTIMES-USCENSUS"
"9/7/2021 12:00:00 AM","Cook County","Illinois","Midwest","East North Central","17031","41.894294","-87.645455 ","599101","11371","3240","20","9/6/2021 12:00:00 AM","2019","5150233","NYTIMES-USCENSUS"
"9/7/2021 12:00:00 AM","Fayette County","Georgia","South","South Atlantic","13113","33.412717","-84.493941 ","11856","188","161","1","9/6/2021 12:00:00 AM","2019","114421","NYTIMES-USCENSUS"
"9/7/2021 12:00:00 AM","Hamilton County","Kansas","Midwest","West North Central","20075","37.995244","-101.793689 ","230","1","0","0","9/6/2021 12:00:00 AM","2019","2539","NYTIMES-USCENSUS"
"9/7/2021 12:00:00 AM","Cleveland County","North Carolina","South","South Atlantic","37045","35.33463","-81.557114 ","15107","252","392","1","9/6/2021 12:00:00 AM","2019","97947","NYTIMES-USCENSUS"
"9/7/2021 12:00:00 AM","Morton County","North Dakota","Midwest","West North Central","38059","46.710819","-101.298265 ","5795","102","13","0","9/6/2021 12:00:00 AM","2019","31364","NYTIMES-USCENSUS"
"9/7/2021 12:00:00 AM","Keith County","Nebraska","Midwest","West North Central","31101","41.194245","-101.644449 ","713","10","0","0","9/6/2021 12:00:00 AM","2019","8034","NYTIMES-USCENSUS"
"9/7/2021 12:00:00 AM","Wagoner County","Oklahoma","South","West South Central","40145","35.963388","-95.514201 ","10671","147","0","0","9/6/2021 12:00:00 AM","2019","81289","NYTIMES-USCENSUS"
"9/7/2021 12:00:00 AM","Thurston County","Nebraska","Midwest","West North Central","31173","42.154061","-96.533943 ","1206","11","0","0","9/6/2021 12:00:00 AM","2019","7224","NYTIMES-USCENSUS"
"9/7/2021 12:00:00 AM","Orange County","Vermont","Northeast","New England","50017","44.003349","-72.369464 ","955","3","4","0","9/6/2021 12:00:00 AM","2019","28892","NYTIMES-USCENSUS"
"9/7/2021 12:00:00 AM","Sullivan County","New Hampshire","Northeast","New England","33019","43.361188","-72.222084 ","2140","29","22","0","9/6/2021 12:00:00 AM","2019","43146","NYTIMES-USCENSUS"
"9/7/2021 12:00:00 AM","Lake County","Montana","West","Mountain","30047","47.642901","-114.083687 ","2536","43","26","0","9/6/2021 12:00:00 AM","2019","30458","NYTIMES-USCENSUS"
"9/7/2021 12:00:00 AM","Bienville Parish","Louisiana","South","West South Central","22013","32.340952","-93.041151 ","2259","87","29","0","9/6/2021 12:00:00 AM","2019","13241","NYTIMES-USCENSUS"
"9/7/2021 12:00:00 AM","New London County","Connecticut","Northeast","New England","09011","41.472652","-72.108634 ","24985","456","194","0","9/6/2021 12:00:00 AM","2019","265206","NYTIMES-USCENSUS"
"9/7/2021 12:00:00 AM","Randolph County","Indiana","Midwest","East North Central","18135","40.164079","-85.00579 ","2891","86","45","1","9/6/2021 12:00:00 AM","2019","24665","NYTIMES-USCENSUS"
"9/7/2021 12:00:00 AM","Duplin County","North Carolina","South","South Atlantic","37061","34.934403","-77.933543 ","8484","154","147","0","9/6/2021 12:00:00 AM","2019","58741","NYTIMES-USCENSUS"
"9/7/2021 12:00:00 AM","Wilson County","Kansas","Midwest","West North Central","20205","37.558515","-95.745175 ","1276","26","0","0","9/6/2021 12:00:00 AM","2019","8525","NYTIMES-USCENSUS"
"9/7/2021 12:00:00 AM","Humphreys County","Mississippi","South","East South Central","28053","33.130996","-90.523421 ","1185","35","0","0","9/6/2021 12:00:00 AM","2019","8064","NYTIMES-USCENSUS"
"9/7/2021 12:00:00 AM","Rockbridge County","Virginia","South","South Atlantic","51163","37.814517","-79.447754 ","1751","49","5","0","9/6/2021 12:00:00 AM","2019","22573","NYTIMES-USCENSUS"
"9/7/2021 12:00:00 AM","Levy County","Florida","South","South Atlantic","12075","29.271854","-82.831233 ","6081","56","0","0","9/6/2021 12:00:00 AM","2019","41503","NYTIMES-USCENSUS"
"9/7/2021 12:00:00 AM","Yankton County","South Dakota","Midwest","West North Central","46135","43.006603","-97.388361 ","3236","34","6","1","9/6/2021 12:00:00 AM","2019","22814","NYTIMES-USCENSUS"
"9/7/2021 12:00:00 AM","Beauregard Parish","Louisiana","South","West South Central","22011","30.645018","-93.340253 ","5258","100","115","1","9/6/2021 12:00:00 AM","2019","37497","NYTIMES-USCENSUS"
"9/7/2021 12:00:00 AM","Cameron County","Texas","South","West South Central","48061","26.102923","-97.478958 ","60138","1793","0","0","9/6/2021 12:00:00 AM","2019","423163","NYTIMES-USCENSUS"
"9/7/2021 12:00:00 AM","Camden County","Missouri","Midwest","West North Central","29029","38.026527","-92.765327 ","5731","114","20","0","9/6/2021 12:00:00 AM","2019","46305","NYTIMES-USCENSUS"
"9/7/2021 12:00:00 AM","Allen County","Indiana","Midwest","East North Central","18003","41.091909","-85.071791 ","50515","751","765","2","9/6/2021 12:00:00 AM","2019","379299","NYTIMES-USCENSUS"
"9/7/2021 12:00:00 AM","Chippewa County","Minnesota","Midwest","West North Central","27023","45.028625","-95.564108 ","1656","39","3","0","9/6/2021 12:00:00 AM","2019","11800","NYTIMES-USCENSUS"
"9/7/2021 12:00:00 AM","Concho County","Texas","South","West South Central","48095","31.318883","-99.863649 ","666","9","2","0","9/6/2021 12:00:00 AM","2019","2726","NYTIMES-USCENSUS"
"9/7/2021 12:00:00 AM","Lewis County","Missouri","Midwest","West North Central","29111","40.084559","-91.728803 ","1468","21","0","0","9/6/2021 12:00:00 AM","2019","9776","NYTIMES-USCENSUS"
"9/7/2021 12:00:00 AM","Calcasieu Parish","Louisiana","South","West South Central","22019","30.229559","-93.358015 ","31201","519","262","1","9/6/2021 12:00:00 AM","2019","203436","NYTIMES-USCENSUS"
"9/7/2021 12:00:00 AM","Hendricks County","Indiana","Midwest","East North Central","18063","39.768963","-86.509908 ","20988","353","337","0","9/6/2021 12:00:00 AM","2019","170311","NYTIMES-USCENSUS"
"9/7/2021 12:00:00 AM","Roane County","West Virginia","South","South Atlantic","54087","38.74295","-81.354494 ","915","11","11","0","9/6/2021 12:00:00 AM","2019","13688","NYTIMES-USCENSUS"
"9/7/2021 12:00:00 AM","Marshall County","Mississippi","South","East South Central","28093","34.76619","-89.504231 ","5671","115","6","0","9/6/2021 12:00:00 AM","2019","35294","NYTIMES-USCENSUS"
"9/7/2021 12:00:00 AM","Otter Tail County","Minnesota","Midwest","West North Central","27111","46.405727","-95.714581 ","6409","89","24","0","9/6/2021 12:00:00 AM","2019","58746","NYTIMES-USCENSUS"
"9/7/2021 12:00:00 AM","Morehouse Parish","Louisiana","South","West South Central","22067","32.820008","-91.800399 ","4149","94","24","0","9/6/2021 12:00:00 AM","2019","24874","NYTIMES-USCENSUS"
"9/7/2021 12:00:00 AM","Orange County","North Carolina","South","South Atlantic","37135","36.062526","-79.120034 ","10301","102","216","0","9/6/2021 12:00:00 AM","2019","148476","NYTIMES-USCENSUS"
"9/7/2021 12:00:00 AM","Hot Springs County","Wyoming","West","Mountain","56017","43.720209","-108.435076 ","697","4","34","0","9/6/2021 12:00:00 AM","2019","4413","NYTIMES-USCENSUS"
"9/7/2021 12:00:00 AM","Elbert County","Colorado","West","Mountain","08039","39.315157","-104.114076 ","2173","17","12","0","9/6/2021 12:00:00 AM","2019","26729","NYTIMES-USCENSUS"
"9/7/2021 12:00:00 AM","Oklahoma County","Oklahoma","South","West South Central","40109","35.554611","-97.409401 ","103199","1379","0","0","9/6/2021 12:00:00 AM","2019","797434","NYTIMES-USCENSUS"
"9/7/2021 12:00:00 AM","Rutherford County","Tennessee","South","East South Central","47149","35.843369","-86.417213 ","54545","475","2135","0","9/6/2021 12:00:00 AM","2019","332285","NYTIMES-USCENSUS"
"9/7/2021 12:00:00 AM","Washington County","Utah","West","Mountain","49053","37.262531","-113.4878 ","25228","231","273","7","9/6/2021 12:00:00 AM","2019","177556","NYTIMES-USCENSUS"
"9/7/2021 12:00:00 AM","Taos County","New Mexico","West","Mountain","35055","36.577183","-105.638878 ","2086","56","45","0","9/6/2021 12:00:00 AM","2019","32723","NYTIMES-USCENSUS"
"9/7/2021 12:00:00 AM","New Haven County","Connecticut","Northeast","New England","09009","41.349718","-72.900203 ","99629","2168","426","1","9/6/2021 12:00:00 AM","2019","854757","NYTIMES-USCENSUS"
"9/7/2021 12:00:00 AM","Marion County","Iowa","Midwest","West North Central","19125","41.331433","-93.093868 ","4168","81","0","0","9/6/2021 12:00:00 AM","2019","33253","NYTIMES-USCENSUS"
"9/7/2021 12:00:00 AM","Ritchie County","West Virginia","South","South Atlantic","54085","39.177112","-81.066317 ","954","11","17","0","9/6/2021 12:00:00 AM","2019","9554","NYTIMES-USCENSUS"
"9/7/2021 12:00:00 AM","Waller County","Texas","South","West South Central","48473","30.01359","-95.982149 ","5488","58","16","1","9/6/2021 12:00:00 AM","2019","55246","NYTIMES-USCENSUS"
"9/7/2021 12:00:00 AM","Dawson County","Nebraska","Midwest","West North Central","31047","40.86784","-99.815583 ","2989","31","0","0","9/6/2021 12:00:00 AM","2019","23595","NYTIMES-USCENSUS"
"9/7/2021 12:00:00 AM","Haralson County","Georgia","South","South Atlantic","13143","33.795165","-85.220063 ","3397","94","76","0","9/6/2021 12:00:00 AM","2019","29792","NYTIMES-USCENSUS"
"9/7/2021 12:00:00 AM","Kleberg County","Texas","South","West South Central","48273","27.438735","-97.66062 ","3897","106","0","0","9/6/2021 12:00:00 AM","2019","30680","NYTIMES-USCENSUS"
"9/7/2021 12:00:00 AM","Washington County","Florida","South","South Atlantic","12133","30.602102","-85.655805 ","4124","52","0","0","9/6/2021 12:00:00 AM","2019","25473","NYTIMES-USCENSUS"
"9/7/2021 12:00:00 AM","Moniteau County","Missouri","Midwest","West North Central","29135","38.633037","-92.583642 ","2387","36","0","0","9/6/2021 12:00:00 AM","2019","16132","NYTIMES-USCENSUS"
"9/7/2021 12:00:00 AM","Collier County","Florida","South","South Atlantic","12021","26.118786","-81.400955 ","50730","551","0","0","9/6/2021 12:00:00 AM","2019","384902","NYTIMES-USCENSUS"
"9/7/2021 12:00:00 AM","Chester County","Pennsylvania","Northeast","Middle Atlantic","42029","39.974029","-75.749751 ","44583","839","88","0","9/6/2021 12:00:00 AM","2019","524989","NYTIMES-USCENSUS"
"9/7/2021 12:00:00 AM","Ramsey County","Minnesota","Midwest","West North Central","27123","45.015204","-93.099965 ","56935","932","142","2","9/6/2021 12:00:00 AM","2019","550321","NYTIMES-USCENSUS"
"9/7/2021 12:00:00 AM","Presidio County","Texas","South","West South Central","48377","30.005891","-104.261619 ","875","25","1","0","9/6/2021 12:00:00 AM","2019","6704","NYTIMES-USCENSUS"
"9/7/2021 12:00:00 AM","Jasper County","Texas","South","West South Central","48241","30.752932","-94.022294 ","3483","113","0","0","9/6/2021 12:00:00 AM","2019","35529","NYTIMES-USCENSUS"
"9/7/2021 12:00:00 AM","Allendale County","South Carolina","South","South Atlantic","45005","32.979757","-81.363265 ","1231","16","10","0","9/6/2021 12:00:00 AM","2019","8688","NYTIMES-USCENSUS"
"9/7/2021 12:00:00 AM","Mahoning County","Ohio","Midwest","East North Central","39099","41.01088","-80.770396 ","24945","626","106","1","9/6/2021 12:00:00 AM","2019","228683","NYTIMES-USCENSUS"
"9/7/2021 12:00:00 AM","Hartford County","Connecticut","Northeast","New England","09003","41.806053","-72.732916 ","91956","2476","385","0","9/6/2021 12:00:00 AM","2019","891720","NYTIMES-USCENSUS"
"9/7/2021 12:00:00 AM","St. Helena Parish","Louisiana","South","West South Central","22091","30.822539","-90.708307 ","1242","12","2","0","9/6/2021 12:00:00 AM","2019","10132","NYTIMES-USCENSUS"
"9/7/2021 12:00:00 AM","Monroe County","New York","Northeast","Middle Atlantic","36055","43.250347","-77.700518 ","75371","1141","111","4","9/6/2021 12:00:00 AM","2019","741770","NYTIMES-USCENSUS"
"9/7/2021 12:00:00 AM","Lane County","Kansas","Midwest","West North Central","20101","38.481286","-100.466185 ","143","7","0","0","9/6/2021 12:00:00 AM","2019","1535","NYTIMES-USCENSUS"
"9/7/2021 12:00:00 AM","McCulloch County","Texas","South","West South Central","48307","31.205477","-99.359856 ","771","22","7","0","9/6/2021 12:00:00 AM","2019","7984","NYTIMES-USCENSUS"
"9/7/2021 12:00:00 AM","Floyd County","Virginia","South","South Atlantic","51063","36.931433","-80.350266 ","1102","23","5","0","9/6/2021 12:00:00 AM","2019","15749","NYTIMES-USCENSUS"
"9/7/2021 12:00:00 AM","Caribou County","Idaho","West","Mountain","16029","42.786072","-111.544273 ","799","12","12","0","9/6/2021 12:00:00 AM","2019","7155","NYTIMES-USCENSUS"
"9/7/2021 12:00:00 AM","McLean County","Illinois","Midwest","East North Central","17113","40.494559","-88.844539 ","20944","237","135","1","9/6/2021 12:00:00 AM","2019","171517","NYTIMES-USCENSUS"
"9/7/2021 12:00:00 AM","Manistee County","Michigan","Midwest","East North Central","26101","44.245268","-86.327537 ","2160","28","13","0","9/6/2021 12:00:00 AM","2019","24558","NYTIMES-USCENSUS"
"9/7/2021 12:00:00 AM","Grant County","Kentucky","South","East South Central","21081","38.649167","-84.625924 ","3367","27","87","0","9/6/2021 12:00:00 AM","2019","25069","NYTIMES-USCENSUS"
"9/7/2021 12:00:00 AM","Henry County","Tennessee","South","East South Central","47079","36.325295","-88.300288 ","4774","76","167","0","9/6/2021 12:00:00 AM","2019","32345","NYTIMES-USCENSUS"
"9/7/2021 12:00:00 AM","Columbia County","Oregon","West","Pacific","41009","45.941932","-123.081079 ","2975","37","97","2","9/6/2021 12:00:00 AM","2019","52354","NYTIMES-USCENSUS"
"9/7/2021 12:00:00 AM","Fannin County","Texas","South","West South Central","48147","33.591161","-96.104988 ","4038","120","0","0","9/6/2021 12:00:00 AM","2019","35514","NYTIMES-USCENSUS"
"9/7/2021 12:00:00 AM","Okeechobee County","Florida","South","South Atlantic","12093","27.385592","-80.887388 ","6416","89","0","0","9/6/2021 12:00:00 AM","2019","42168","NYTIMES-USCENSUS"
"9/7/2021 12:00:00 AM","Pender County","North Carolina","South","South Atlantic","37141","34.512556","-77.888106 ","7513","80","179","0","9/6/2021 12:00:00 AM","2019","63060","NYTIMES-USCENSUS"
"9/7/2021 12:00:00 AM","Henderson County","Kentucky","South","East South Central","21101","37.792542","-87.572577 ","6869","88","144","1","9/6/2021 12:00:00 AM","2019","45210","NYTIMES-USCENSUS"
"9/7/2021 12:00:00 AM","Letcher County","Kentucky","South","East South Central","21133","37.118536","-82.861251 ","2867","52","75","0","9/6/2021 12:00:00 AM","2019","21553","NYTIMES-USCENSUS"
"9/7/2021 12:00:00 AM","Milwaukee County","Wisconsin","Midwest","East North Central","55079","42.912643","-87.862312 ","133457","1490","142","0","9/6/2021 12:00:00 AM","2019","945726","NYTIMES-USCENSUS"
"9/7/2021 12:00:00 AM","Warren County","Virginia","South","South Atlantic","51187","38.908221","-78.207594 ","3826","65","12","0","9/6/2021 12:00:00 AM","2019","40164","NYTIMES-USCENSUS"
"9/7/2021 12:00:00 AM","Webster County","Mississippi","South","East South Central","28155","33.612061","-89.283961 ","1823","38","3","0","9/6/2021 12:00:00 AM","2019","9689","NYTIMES-USCENSUS"
"9/7/2021 12:00:00 AM","McKenzie County","North Dakota","Midwest","West North Central","38053","47.742475","-103.403215 ","1774","15","25","0","9/6/2021 12:00:00 AM","2019","15024","NYTIMES-USCENSUS"
"9/7/2021 12:00:00 AM","Labette County","Kansas","Midwest","West North Central","20099","37.191468","-95.297473 ","3346","56","0","0","9/6/2021 12:00:00 AM","2019","19618","NYTIMES-USCENSUS"
"9/7/2021 12:00:00 AM","Santa Cruz County","California","West","Pacific","06087","37.012347","-122.007789 ","19634","210","27","0","9/6/2021 12:00:00 AM","2019","273213","NYTIMES-USCENSUS"
"9/7/2021 12:00:00 AM","Park County","Montana","West","Mountain","30067","45.463081","-110.53493 ","1692","24","29","0","9/6/2021 12:00:00 AM","2019","16606","NYTIMES-USCENSUS"
"9/7/2021 12:00:00 AM","Stone County","Arkansas","South","West South Central","05137","35.857001","-92.140482 ","1486","38","1","1","9/6/2021 12:00:00 AM","2019","12506","NYTIMES-USCENSUS"
"9/7/2021 12:00:00 AM","Penobscot County","Maine","Northeast","New England","23019","45.409284","-68.666616 ","8003","114","0","0","9/6/2021 12:00:00 AM","2019","152148","NYTIMES-USCENSUS"
"9/7/2021 12:00:00 AM","Benzie County","Michigan","Midwest","East North Central","26019","44.636844","-86.231999 ","1373","38","9","0","9/6/2021 12:00:00 AM","2019","17766","NYTIMES-USCENSUS"
"9/7/2021 12:00:00 AM","Montgomery County","Illinois","Midwest","East North Central","17135","39.228068","-89.478141 ","4410","81","58","0","9/6/2021 12:00:00 AM","2019","28414","NYTIMES-USCENSUS"
"9/7/2021 12:00:00 AM","Wayne County","Illinois","Midwest","East North Central","17191","38.431857","-88.43243 ","2471","56","51","1","9/6/2021 12:00:00 AM","2019","16215","NYTIMES-USCENSUS"
"9/7/2021 12:00:00 AM","Branch County","Michigan","Midwest","East North Central","26023","41.918455","-85.066885 ","6475","126","48","0","9/6/2021 12:00:00 AM","2019","43517","NYTIMES-USCENSUS"
"9/7/2021 12:00:00 AM","Clay County","Kansas","Midwest","West North Central","20027","39.344964","-97.168853 ","988","31","0","0","9/6/2021 12:00:00 AM","2019","8002","NYTIMES-USCENSUS"
"9/7/2021 12:00:00 AM","Slope County","North Dakota","Midwest","West North Central","38087","46.445834","-103.462462 ","32","0","0","0","9/6/2021 12:00:00 AM","2019","750","NYTIMES-USCENSUS"
"9/7/2021 12:00:00 AM","Sumter County","South Carolina","South","South Atlantic","45085","33.91614","-80.382376 ","13924","241","45","0","9/6/2021 12:00:00 AM","2019","106721","NYTIMES-USCENSUS"
"9/7/2021 12:00:00 AM","Todd County","South Dakota","Midwest","West North Central","46121","43.208794","-100.707664 ","1328","33","2","0","9/6/2021 12:00:00 AM","2019","10177","NYTIMES-USCENSUS"
"9/7/2021 12:00:00 AM","Nevada County","Arkansas","South","West South Central","05099","33.666699","-93.305072 ","1133","29","1","0","9/6/2021 12:00:00 AM","2019","8252","NYTIMES-USCENSUS"
"9/7/2021 12:00:00 AM","Nacogdoches County","Texas","South","West South Central","48347","31.62056","-94.62025 ","6478","184","60","0","9/6/2021 12:00:00 AM","2019","65204","NYTIMES-USCENSUS"
"9/7/2021 12:00:00 AM","Mercer County","Ohio","Midwest","East North Central","39107","40.535333","-84.632059 ","5275","86","21","0","9/6/2021 12:00:00 AM","2019","41172","NYTIMES-USCENSUS"
"9/7/2021 12:00:00 AM","Osceola County","Iowa","Midwest","West North Central","19143","43.378542","-95.633788 ","822","17","0","0","9/6/2021 12:00:00 AM","2019","5958","NYTIMES-USCENSUS"
"9/7/2021 12:00:00 AM","Harvey County","Kansas","Midwest","West North Central","20079","38.050144","-97.436706 ","4243","74","0","0","9/6/2021 12:00:00 AM","2019","34429","NYTIMES-USCENSUS"
"9/7/2021 12:00:00 AM","Lowndes County","Alabama","South","East South Central","01085","32.147888","-86.650586 ","1633","55","1","0","9/6/2021 12:00:00 AM","2019","9726","NYTIMES-USCENSUS"
"9/7/2021 12:00:00 AM","Clatsop County","Oregon","West","Pacific","41007","46.024509","-123.705037 ","1940","21","27","0","9/6/2021 12:00:00 AM","2019","40224","NYTIMES-USCENSUS"
"9/7/2021 12:00:00 AM","Ozaukee County","Wisconsin","Midwest","East North Central","55089","43.501845","-87.847567 ","10514","111","41","0","9/6/2021 12:00:00 AM","2019","89221","NYTIMES-USCENSUS"
"9/7/2021 12:00:00 AM","Marengo County","Alabama","South","East South Central","01091","32.247591","-87.791091 ","3082","74","6","0","9/6/2021 12:00:00 AM","2019","18863","NYTIMES-USCENSUS"
"9/7/2021 12:00:00 AM","Chippewa County","Michigan","Midwest","East North Central","26033","46.321819","-84.52063 ","5869","50","19","0","9/6/2021 12:00:00 AM","2019","37349","NYTIMES-USCENSUS"
"9/7/2021 12:00:00 AM","Cheshire County","New Hampshire","Northeast","New England","33005","42.92546","-72.248183 ","4469","42","68","2","9/6/2021 12:00:00 AM","2019","76085","NYTIMES-USCENSUS"
"9/7/2021 12:00:00 AM","Bottineau County","North Dakota","Midwest","West North Central","38009","48.794412","-100.831257 ","781","20","1","0","9/6/2021 12:00:00 AM","2019","6282","NYTIMES-USCENSUS"
"9/7/2021 12:00:00 AM","Grand County","Utah","West","Mountain","49019","38.974326","-109.57345 ","1223","4","34","0","9/6/2021 12:00:00 AM","2019","9754","NYTIMES-USCENSUS"
"9/7/2021 12:00:00 AM","Flagler County","Florida","South","South Atlantic","12035","29.474891","-81.286253 ","12826","114","0","0","9/6/2021 12:00:00 AM","2019","115081","NYTIMES-USCENSUS"
"9/7/2021 12:00:00 AM","Henderson County","North Carolina","South","South Atlantic","37089","35.336415","-82.479741 ","12941","168","185","1","9/6/2021 12:00:00 AM","2019","117417","NYTIMES-USCENSUS"
"9/7/2021 12:00:00 AM","Blount County","Alabama","South","East South Central","01009","33.977358","-86.56644 ","8951","146","52","0","9/6/2021 12:00:00 AM","2019","57826","NYTIMES-USCENSUS"
"9/7/2021 12:00:00 AM","Modoc County","California","West","Pacific","06049","41.592918","-120.71837 ","627","8","0","0","9/6/2021 12:00:00 AM","2019","8841","NYTIMES-USCENSUS"
"9/7/2021 12:00:00 AM","Baxter County","Arkansas","South","West South Central","05005","36.280268","-92.329949 ","5464","155","3","1","9/6/2021 12:00:00 AM","2019","41932","NYTIMES-USCENSUS"
"9/7/2021 12:00:00 AM","Crawford County","Iowa","Midwest","West North Central","19047","42.043119","-95.38909 ","3077","43","0","0","9/6/2021 12:00:00 AM","2019","16820","NYTIMES-USCENSUS"
"9/7/2021 12:00:00 AM","Keokuk County","Iowa","Midwest","West North Central","19107","41.331182","-92.167721 ","1083","32","0","0","9/6/2021 12:00:00 AM","2019","10246","NYTIMES-USCENSUS"
"9/7/2021 12:00:00 AM","Dutchess County","New York","Northeast","Middle Atlantic","36027","41.75477","-73.740041 ","32529","473","46","0","9/6/2021 12:00:00 AM","2019","294218","NYTIMES-USCENSUS"
"9/7/2021 12:00:00 AM","Beaufort County","North Carolina","South","South Atlantic","37013","35.482313","-76.842014 ","5796","108","217","1","9/6/2021 12:00:00 AM","2019","46994","NYTIMES-USCENSUS"
"9/7/2021 12:00:00 AM","Cloud County","Kansas","Midwest","West North Central","20029","39.487329","-97.64139 ","1152","25","0","0","9/6/2021 12:00:00 AM","2019","8786","NYTIMES-USCENSUS"
"9/7/2021 12:00:00 AM","Dougherty County","Georgia","South","South Atlantic","13095","31.532588","-84.20904 ","10789","342","350","0","9/6/2021 12:00:00 AM","2019","87956","NYTIMES-USCENSUS"
"9/7/2021 12:00:00 AM","Van Buren County","Tennessee","South","East South Central","47175","35.699234","-85.458409 ","1021","24","29","0","9/6/2021 12:00:00 AM","2019","5872","NYTIMES-USCENSUS"
"9/7/2021 12:00:00 AM","Harrison County","Mississippi","South","East South Central","28047","30.416536","-89.083376 ","30728","430","62","3","9/6/2021 12:00:00 AM","2019","208080","NYTIMES-USCENSUS"
"9/7/2021 12:00:00 AM","Jefferson County","Georgia","South","South Atlantic","13163","33.058176","-82.420004 ","2417","70","25","0","9/6/2021 12:00:00 AM","2019","15362","NYTIMES-USCENSUS"
"9/7/2021 12:00:00 AM","Bingham County","Idaho","West","Mountain","16011","43.216357","-112.399206 ","5361","79","43","0","9/6/2021 12:00:00 AM","2019","46811","NYTIMES-USCENSUS"
"9/7/2021 12:00:00 AM","Butts County","Georgia","South","South Atlantic","13035","33.290355","-83.958221 ","4151","92","84","0","9/6/2021 12:00:00 AM","2019","24936","NYTIMES-USCENSUS"
"9/7/2021 12:00:00 AM","Fayette County","Pennsylvania","Northeast","Middle Atlantic","42051","39.918907","-79.640119 ","14352","336","20","0","9/6/2021 12:00:00 AM","2019","129274","NYTIMES-USCENSUS"
"9/7/2021 12:00:00 AM","Sierra County","California","West","Pacific","06091","39.576925","-120.521993 ","124","0","0","0","9/6/2021 12:00:00 AM","2019","3005","NYTIMES-USCENSUS"
"9/7/2021 12:00:00 AM","Dinwiddie County","Virginia","South","South Atlantic","51053","37.073498","-77.635492 ","2602","46","13","0","9/6/2021 12:00:00 AM","2019","28544","NYTIMES-USCENSUS"
"9/7/2021 12:00:00 AM","Auglaize County","Ohio","Midwest","East North Central","39011","40.561309","-84.224018 ","5519","87","15","0","9/6/2021 12:00:00 AM","2019","45656","NYTIMES-USCENSUS"
"9/7/2021 12:00:00 AM","Montgomery County","Pennsylvania","Northeast","Middle Atlantic","42091","40.209999","-75.370201 ","76751","1760","122","1","9/6/2021 12:00:00 AM","2019","830915","NYTIMES-USCENSUS"
"9/7/2021 12:00:00 AM","Pawnee County","Oklahoma","South","West South Central","40117","36.313704","-96.696669 ","2307","55","0","0","9/6/2021 12:00:00 AM","2019","16376","NYTIMES-USCENSUS"
"9/7/2021 12:00:00 AM","Chaffee County","Colorado","West","Mountain","08015","38.734599","-106.300025 ","1970","26","3","0","9/6/2021 12:00:00 AM","2019","20356","NYTIMES-USCENSUS"
"9/7/2021 12:00:00 AM","Kemper County","Mississippi","South","East South Central","28069","32.750136","-88.625631 ","1321","36","0","1","9/6/2021 12:00:00 AM","2019","9742","NYTIMES-USCENSUS"
"9/7/2021 12:00:00 AM","Mecosta County","Michigan","Midwest","East North Central","26107","43.635295","-85.332751 ","3476","39","44","0","9/6/2021 12:00:00 AM","2019","43453","NYTIMES-USCENSUS"
"9/7/2021 12:00:00 AM","Lynchburg city","Virginia","South","South Atlantic","51680","37.399016","-79.195458 ","8994","158","48","1","9/6/2021 12:00:00 AM","2019","82168","NYTIMES-USCENSUS"
"9/7/2021 12:00:00 AM","Scott County","Tennessee","South","East South Central","47151","36.435234","-84.50352 ","3984","51","141","0","9/6/2021 12:00:00 AM","2019","22068","NYTIMES-USCENSUS"
"9/7/2021 12:00:00 AM","Washington County","Maryland","South","South Atlantic","24043","39.603621","-77.814671 ","16210","348","6","0","9/6/2021 12:00:00 AM","2019","151049","NYTIMES-USCENSUS"
"9/7/2021 12:00:00 AM","Bradford County","Pennsylvania","Northeast","Middle Atlantic","42015","41.791504","-76.502123 ","6420","100","16","0","9/6/2021 12:00:00 AM","2019","60323","NYTIMES-USCENSUS"
"9/7/2021 12:00:00 AM","McDowell County","West Virginia","South","South Atlantic","54047","37.38276","-81.658204 ","2040","28","7","0","9/6/2021 12:00:00 AM","2019","17624","NYTIMES-USCENSUS"
"9/7/2021 12:00:00 AM","Polk County","Oregon","West","Pacific","41053","44.900372","-123.39864 ","5671","64","73","0","9/6/2021 12:00:00 AM","2019","86085","NYTIMES-USCENSUS"
"9/7/2021 12:00:00 AM","Wells County","Indiana","Midwest","East North Central","18179","40.735273","-85.212974 ","3621","84","57","0","9/6/2021 12:00:00 AM","2019","28296","NYTIMES-USCENSUS"
"9/7/2021 12:00:00 AM","Willacy County","Texas","South","West South Central","48489","26.481861","-97.594731 ","4248","100","0","0","9/6/2021 12:00:00 AM","2019","21358","NYTIMES-USCENSUS"
"9/7/2021 12:00:00 AM","Lincoln County","Nevada","West","Mountain","32017","37.634605","-114.863037 ","436","3","0","0","9/6/2021 12:00:00 AM","2019","5183","NYTIMES-USCENSUS"
"9/7/2021 12:00:00 AM","Gates County","North Carolina","South","South Atlantic","37073","36.442135","-76.702355 ","873","14","10","0","9/6/2021 12:00:00 AM","2019","11562","NYTIMES-USCENSUS"
"9/7/2021 12:00:00 AM","Twin Falls County","Idaho","West","Mountain","16083","42.352309","-114.665639 ","12424","154","166","5","9/6/2021 12:00:00 AM","2019","86878","NYTIMES-USCENSUS"
"9/7/2021 12:00:00 AM","Hall County","Nebraska","Midwest","West North Central","31079","40.866027","-98.502664 ","7926","120","0","0","9/6/2021 12:00:00 AM","2019","61353","NYTIMES-USCENSUS"
"9/7/2021 12:00:00 AM","Franklin County","Kansas","Midwest","West North Central","20059","38.558019","-95.278962 ","3212","50","0","0","9/6/2021 12:00:00 AM","2019","25544","NYTIMES-USCENSUS"
"9/7/2021 12:00:00 AM","Trempealeau County","Wisconsin","Midwest","East North Central","55121","44.30305","-91.358867 ","4092","49","18","0","9/6/2021 12:00:00 AM","2019","29649","NYTIMES-USCENSUS"
"9/7/2021 12:00:00 AM","Copiah County","Mississippi","South","East South Central","28029","31.866915","-90.448758 ","4022","79","2","0","9/6/2021 12:00:00 AM","2019","28065","NYTIMES-USCENSUS"
"9/7/2021 12:00:00 AM","Jackson County","Texas","South","West South Central","48239","28.959802","-96.58908 ","2349","37","0","0","9/6/2021 12:00:00 AM","2019","14760","NYTIMES-USCENSUS"
"9/7/2021 12:00:00 AM","San Mateo County","California","West","Pacific","06081","37.414672","-122.371546 ","50886","600","50","0","9/6/2021 12:00:00 AM","2019","766573","NYTIMES-USCENSUS"
"9/7/2021 12:00:00 AM","Washoe County","Nevada","West","Mountain","32031","40.73132","-119.663269 ","55902","757","807","5","9/6/2021 12:00:00 AM","2019","471519","NYTIMES-USCENSUS"
"9/7/2021 12:00:00 AM","Kandiyohi County","Minnesota","Midwest","West North Central","27067","45.152714","-95.004981 ","7245","88","17","0","9/6/2021 12:00:00 AM","2019","43199","NYTIMES-USCENSUS"
"9/7/2021 12:00:00 AM","Madison County","Mississippi","South","East South Central","28089","32.63437","-90.03416 ","13625","259","18","0","9/6/2021 12:00:00 AM","2019","106272","NYTIMES-USCENSUS"
"9/7/2021 12:00:00 AM","Chariton County","Missouri","Midwest","West North Central","29041","39.517968","-92.96162 ","942","8","2","0","9/6/2021 12:00:00 AM","2019","7426","NYTIMES-USCENSUS"
"9/7/2021 12:00:00 AM","Fayette County","Alabama","South","East South Central","01057","33.716157","-87.764292 ","2571","66","12","0","9/6/2021 12:00:00 AM","2019","16302","NYTIMES-USCENSUS"
"9/7/2021 12:00:00 AM","Smith County","Tennessee","South","East South Central","47159","36.256645","-85.941915 ","3615","41","132","0","9/6/2021 12:00:00 AM","2019","20157","NYTIMES-USCENSUS"
"9/7/2021 12:00:00 AM","Highland County","Virginia","South","South Atlantic","51091","38.366243","-79.564472 ","129","1","0","0","9/6/2021 12:00:00 AM","2019","2190","NYTIMES-USCENSUS"
"9/7/2021 12:00:00 AM","Hamblen County","Tennessee","South","East South Central","47063","36.218397","-83.266071 ","11441","182","407","0","9/6/2021 12:00:00 AM","2019","64934","NYTIMES-USCENSUS"
"9/7/2021 12:00:00 AM","Benton County","Tennessee","South","East South Central","47005","36.070948","-88.071232 ","2229","44","107","1","9/6/2021 12:00:00 AM","2019","16160","NYTIMES-USCENSUS"
"9/7/2021 12:00:00 AM","Eau Claire County","Wisconsin","Midwest","East North Central","55035","44.726355","-91.286414 ","13479","127","1","0","9/6/2021 12:00:00 AM","2019","104646","NYTIMES-USCENSUS"
"9/7/2021 12:00:00 AM","Taylor County","Kentucky","South","East South Central","21217","37.36621","-85.328059 ","4331","63","12","0","9/6/2021 12:00:00 AM","2019","25769","NYTIMES-USCENSUS"
"9/7/2021 12:00:00 AM","Hughes County","South Dakota","Midwest","West North Central","46065","44.384452","-99.975684 ","2647","43","4","0","9/6/2021 12:00:00 AM","2019","17526","NYTIMES-USCENSUS"
"9/7/2021 12:00:00 AM","Sherman County","Texas","South","West South Central","48421","36.278593","-101.899265 ","273","12","0","0","9/6/2021 12:00:00 AM","2019","3022","NYTIMES-USCENSUS"
"9/7/2021 12:00:00 AM","Henry County","Ohio","Midwest","East North Central","39069","41.331584","-84.0689 ","3017","68","8","0","9/6/2021 12:00:00 AM","2019","27006","NYTIMES-USCENSUS"
"9/7/2021 12:00:00 AM","Saline County","Missouri","Midwest","West North Central","29195","39.13584","-93.204164 ","3570","43","4","0","9/6/2021 12:00:00 AM","2019","22761","NYTIMES-USCENSUS"
"9/7/2021 12:00:00 AM","Washington County","Minnesota","Midwest","West North Central","27163","45.037929","-92.890117 ","29690","306","81","1","9/6/2021 12:00:00 AM","2019","262440","NYTIMES-USCENSUS"
"9/7/2021 12:00:00 AM","Jones County","North Carolina","South","South Atlantic","37103","35.032268","-77.356195 ","1082","29","29","0","9/6/2021 12:00:00 AM","2019","9419","NYTIMES-USCENSUS"
"9/7/2021 12:00:00 AM","Mason County","Texas","South","West South Central","48319","30.703916","-99.237302 ","471","6","2","0","9/6/2021 12:00:00 AM","2019","4274","NYTIMES-USCENSUS"
"9/7/2021 12:00:00 AM","Lincoln County","Missouri","Midwest","West North Central","29113","39.062255","-90.962916 ","7891","55","24","0","9/6/2021 12:00:00 AM","2019","59013","NYTIMES-USCENSUS"
"9/7/2021 12:00:00 AM","DeKalb County","Tennessee","South","East South Central","47041","35.982219","-85.833596 ","3670","59","135","0","9/6/2021 12:00:00 AM","2019","20490","NYTIMES-USCENSUS"
"9/7/2021 12:00:00 AM","Karnes County","Texas","South","West South Central","48255","28.908996","-97.852205 ","3362","41","0","0","9/6/2021 12:00:00 AM","2019","15601","NYTIMES-USCENSUS"
"9/7/2021 12:00:00 AM","Hernando County","Florida","South","South Atlantic","12053","28.555995","-82.525969 ","25084","482","0","0","9/6/2021 12:00:00 AM","2019","193920","NYTIMES-USCENSUS"
"9/7/2021 12:00:00 AM","Watauga County","North Carolina","South","South Atlantic","37189","36.235368","-81.709888 ","5754","34","119","0","9/6/2021 12:00:00 AM","2019","56177","NYTIMES-USCENSUS"
"9/7/2021 12:00:00 AM","Boyd County","Nebraska","Midwest","West North Central","31015","42.894448","-98.773022 ","207","3","0","0","9/6/2021 12:00:00 AM","2019","1919","NYTIMES-USCENSUS"
"9/7/2021 12:00:00 AM","Barren County","Kentucky","South","East South Central","21009","36.962805","-85.932108 ","6283","109","224","0","9/6/2021 12:00:00 AM","2019","44249","NYTIMES-USCENSUS"
"9/7/2021 12:00:00 AM","Grand Traverse County","Michigan","Midwest","East North Central","26055","44.718688","-85.553848 ","7172","104","67","0","9/6/2021 12:00:00 AM","2019","93088","NYTIMES-USCENSUS"
"9/7/2021 12:00:00 AM","Hennepin County","Minnesota","Midwest","West North Central","27053","45.006121","-93.475228 ","136379","1843","390","4","9/6/2021 12:00:00 AM","2019","1265843","NYTIMES-USCENSUS"
"9/7/2021 12:00:00 AM","Howard County","Arkansas","South","West South Central","05061","34.083064","-93.990931 ","2182","28","3","0","9/6/2021 12:00:00 AM","2019","13202","NYTIMES-USCENSUS"
"9/7/2021 12:00:00 AM","Delaware County","Ohio","Midwest","East North Central","39041","40.278941","-83.007462 ","21004","140","41","0","9/6/2021 12:00:00 AM","2019","209177","NYTIMES-USCENSUS"
"9/7/2021 12:00:00 AM","La Crosse County","Wisconsin","Midwest","East North Central","55063","43.908222","-91.111758 ","14920","96","4","0","9/6/2021 12:00:00 AM","2019","118016","NYTIMES-USCENSUS"
"9/7/2021 12:00:00 AM","Tulsa County","Oklahoma","South","West South Central","40143","36.120318","-95.941813 ","93253","1273","0","0","9/6/2021 12:00:00 AM","2019","651552","NYTIMES-USCENSUS"
"9/7/2021 12:00:00 AM","Pike County","Missouri","Midwest","West North Central","29163","39.339959","-91.171607 ","2284","31","1","0","9/6/2021 12:00:00 AM","2019","18302","NYTIMES-USCENSUS"
"9/7/2021 12:00:00 AM","Sullivan County","New York","Northeast","Middle Atlantic","36105","41.719993","-74.771577 ","7480","79","16","0","9/6/2021 12:00:00 AM","2019","75432","NYTIMES-USCENSUS"
"9/7/2021 12:00:00 AM","Tuolumne County","California","West","Pacific","06109","38.021434","-119.964733 ","5879","94","9","0","9/6/2021 12:00:00 AM","2019","54478","NYTIMES-USCENSUS"
"9/7/2021 12:00:00 AM","Rock County","Wisconsin","Midwest","East North Central","55105","42.66988","-89.075284 ","20047","219","24","0","9/6/2021 12:00:00 AM","2019","163354","NYTIMES-USCENSUS"
"9/7/2021 12:00:00 AM","Logan County","Ohio","Midwest","East North Central","39091","40.387553","-83.766343 ","4675","80","15","1","9/6/2021 12:00:00 AM","2019","45672","NYTIMES-USCENSUS"
"9/7/2021 12:00:00 AM","Oliver County","North Dakota","Midwest","West North Central","38065","47.118079","-101.33142 ","165","3","0","0","9/6/2021 12:00:00 AM","2019","1959","NYTIMES-USCENSUS"
"9/7/2021 12:00:00 AM","Giles County","Virginia","South","South Atlantic","51071","37.318072","-80.698321 ","1615","24","8","0","9/6/2021 12:00:00 AM","2019","16720","NYTIMES-USCENSUS"
"9/7/2021 12:00:00 AM","Potter County","Pennsylvania","Northeast","Middle Atlantic","42105","41.748587","-77.894436 ","1331","27","2","0","9/6/2021 12:00:00 AM","2019","16526","NYTIMES-USCENSUS"
"9/7/2021 12:00:00 AM","Madison County","Iowa","Midwest","West North Central","19121","41.330622","-94.015184 ","1849","19","0","0","9/6/2021 12:00:00 AM","2019","16338","NYTIMES-USCENSUS"
"9/7/2021 12:00:00 AM","Okaloosa County","Florida","South","South Atlantic","12091","30.614325","-86.59108 ","30451","367","0","0","9/6/2021 12:00:00 AM","2019","210738","NYTIMES-USCENSUS"
"9/7/2021 12:00:00 AM","Sharp County","Arkansas","South","West South Central","05135","36.173399","-91.471069 ","2386","58","3","0","9/6/2021 12:00:00 AM","2019","17442","NYTIMES-USCENSUS"
"9/7/2021 12:00:00 AM","Alamance County","North Carolina","South","South Atlantic","37001","36.043954","-79.400573 ","22485","299","394","1","9/6/2021 12:00:00 AM","2019","169509","NYTIMES-USCENSUS"
"9/7/2021 12:00:00 AM","Adams County","Colorado","West","Mountain","08001","39.874325","-104.331872 ","68663","809","174","2","9/6/2021 12:00:00 AM","2019","517421","NYTIMES-USCENSUS"
"9/7/2021 12:00:00 AM","Evangeline Parish","Louisiana","South","West South Central","22039","30.720693","-92.404086 ","5307","111","34","1","9/6/2021 12:00:00 AM","2019","33395","NYTIMES-USCENSUS"
"9/7/2021 12:00:00 AM","Golden Valley County","Montana","West","Mountain","30037","46.380624","-109.174586 ","61","2","0","0","9/6/2021 12:00:00 AM","2019","821","NYTIMES-USCENSUS"
"9/7/2021 12:00:00 AM","Baldwin County","Georgia","South","South Atlantic","13009","33.05949","-83.255457 ","6078","152","126","4","9/6/2021 12:00:00 AM","2019","44890","NYTIMES-USCENSUS"
"9/7/2021 12:00:00 AM","Cumberland County","New Jersey","Northeast","Middle Atlantic","34011","39.328434","-75.121628 ","18677","449","1","1","9/6/2021 12:00:00 AM","2019","149527","NYTIMES-USCENSUS"
"9/7/2021 12:00:00 AM","Franklin County","Washington","West","Pacific","53021","46.537502","-118.903891 ","17142","143","370","0","9/6/2021 12:00:00 AM","2019","95222","NYTIMES-USCENSUS"
"9/7/2021 12:00:00 AM","Stone County","Missouri","Midwest","West North Central","29209","36.745822","-93.457842 ","3658","62","1","0","9/6/2021 12:00:00 AM","2019","31952","NYTIMES-USCENSUS"
"9/7/2021 12:00:00 AM","Daviess County","Indiana","Midwest","East North Central","18027","38.69609","-87.076943 ","3760","104","77","0","9/6/2021 12:00:00 AM","2019","33351","NYTIMES-USCENSUS"
"9/7/2021 12:00:00 AM","Jefferson County","Indiana","Midwest","East North Central","18077","38.783604","-85.44009 ","4338","91","103","0","9/6/2021 12:00:00 AM","2019","32308","NYTIMES-USCENSUS"
"9/7/2021 12:00:00 AM","Decatur County","Georgia","South","South Atlantic","13087","30.880643","-84.58389 ","4163","83","84","1","9/6/2021 12:00:00 AM","2019","26404","NYTIMES-USCENSUS"
"9/7/2021 12:00:00 AM","San Jacinto County","Texas","South","West South Central","48407","30.574388","-95.163136 ","2338","43","44","0","9/6/2021 12:00:00 AM","2019","28859","NYTIMES-USCENSUS"
"9/7/2021 12:00:00 AM","Grays Harbor County","Washington","West","Pacific","53027","47.113732","-123.826735 ","6140","92","149","0","9/6/2021 12:00:00 AM","2019","75061","NYTIMES-USCENSUS"
"9/7/2021 12:00:00 AM","Dickens County","Texas","South","West South Central","48125","33.615363","-100.787617 ","230","10","0","0","9/6/2021 12:00:00 AM","2019","2211","NYTIMES-USCENSUS"
"9/7/2021 12:00:00 AM","Pipestone County","Minnesota","Midwest","West North Central","27117","44.015361","-96.257015 ","1211","26","1","0","9/6/2021 12:00:00 AM","2019","9126","NYTIMES-USCENSUS"
"9/7/2021 12:00:00 AM","Alexandria city","Virginia","South","South Atlantic","51510","38.819251","-77.08367 ","12994","142","15","0","9/6/2021 12:00:00 AM","2019","159428","NYTIMES-USCENSUS"
"9/7/2021 12:00:00 AM","Sagadahoc County","Maine","Northeast","New England","23023","43.916845","-69.844227 ","1595","12","0","0","9/6/2021 12:00:00 AM","2019","35856","NYTIMES-USCENSUS"
"9/7/2021 12:00:00 AM","Webster County","Kentucky","South","East South Central","21233","37.51946","-87.68479 ","2055","28","44","0","9/6/2021 12:00:00 AM","2019","12942","NYTIMES-USCENSUS"
"9/7/2021 12:00:00 AM","Long County","Georgia","South","South Atlantic","13183","31.749563","-81.74287 ","1494","14","44","0","9/6/2021 12:00:00 AM","2019","19559","NYTIMES-USCENSUS"
"9/7/2021 12:00:00 AM","Maui County","Hawaii","West","Pacific","15009","20.855931","-156.60155 ","8332","77","38","0","9/6/2021 12:00:00 AM","2019","167417","NYTIMES-USCENSUS"
"9/7/2021 12:00:00 AM","DeSoto County","Florida","South","South Atlantic","12027","27.190581","-81.806253 ","6031","97","0","0","9/6/2021 12:00:00 AM","2019","38001","NYTIMES-USCENSUS"
"9/7/2021 12:00:00 AM","Acadia Parish","Louisiana","South","West South Central","22001","30.291497","-92.411037 ","9691","229","87","0","9/6/2021 12:00:00 AM","2019","62045","NYTIMES-USCENSUS"
"9/7/2021 12:00:00 AM","Evans County","Georgia","South","South Atlantic","13109","32.153083","-81.890153 ","1485","39","17","0","9/6/2021 12:00:00 AM","2019","10654","NYTIMES-USCENSUS"
"9/7/2021 12:00:00 AM","Sevier County","Arkansas","South","West South Central","05133","33.994877","-94.243279 ","3429","31","3","0","9/6/2021 12:00:00 AM","2019","17007","NYTIMES-USCENSUS"
"9/7/2021 12:00:00 AM","Bristol city","Virginia","South","South Atlantic","51520","36.616954","-82.157564 ","1912","41","0","0","9/6/2021 12:00:00 AM","2019","16762","NYTIMES-USCENSUS"
"9/7/2021 12:00:00 AM","Wise County","Texas","South","West South Central","48497","33.219095","-97.653997 ","9393","148","0","0","9/6/2021 12:00:00 AM","2019","69984","NYTIMES-USCENSUS"
"9/7/2021 12:00:00 AM","Lubbock County","Texas","South","West South Central","48303","33.611469","-101.819944 ","59284","851","399","3","9/6/2021 12:00:00 AM","2019","310569","NYTIMES-USCENSUS"
"9/7/2021 12:00:00 AM","Fayette County","Kentucky","South","East South Central","21067","38.040678","-84.458272 ","44346","338","525","3","9/6/2021 12:00:00 AM","2019","323152","NYTIMES-USCENSUS"
"9/7/2021 12:00:00 AM","Pickens County","South Carolina","South","South Atlantic","45077","34.885368","-82.723377 ","23842","337","73","0","9/6/2021 12:00:00 AM","2019","126884","NYTIMES-USCENSUS"
"9/7/2021 12:00:00 AM","Todd County","Minnesota","Midwest","West North Central","27153","46.066569","-94.900576 ","3089","34","11","0","9/6/2021 12:00:00 AM","2019","24664","NYTIMES-USCENSUS"
"9/7/2021 12:00:00 AM","Gray County","Texas","South","West South Central","48179","35.402542","-100.812374 ","2984","63","0","0","9/6/2021 12:00:00 AM","2019","21886","NYTIMES-USCENSUS"
"9/7/2021 12:00:00 AM","Kershaw County","South Carolina","South","South Atlantic","45055","34.338356","-80.590885 ","10206","164","36","0","9/6/2021 12:00:00 AM","2019","66551","NYTIMES-USCENSUS"
"9/7/2021 12:00:00 AM","Bates County","Missouri","Midwest","West North Central","29013","38.257217","-94.339246 ","1955","37","2","0","9/6/2021 12:00:00 AM","2019","16172","NYTIMES-USCENSUS"
"9/7/2021 12:00:00 AM","Trousdale County","Tennessee","South","East South Central","47169","36.39303","-86.156691 ","2861","22","48","0","9/6/2021 12:00:00 AM","2019","11284","NYTIMES-USCENSUS"
"9/7/2021 12:00:00 AM","Crawford County","Georgia","South","South Atlantic","13079","32.709428","-83.979187 ","968","26","26","1","9/6/2021 12:00:00 AM","2019","12404","NYTIMES-USCENSUS"
"9/7/2021 12:00:00 AM","Dickinson County","Iowa","Midwest","West North Central","19059","43.389611","-95.196057 ","2605","46","0","0","9/6/2021 12:00:00 AM","2019","17258","NYTIMES-USCENSUS"
"9/7/2021 12:00:00 AM","Lebanon County","Pennsylvania","Northeast","Middle Atlantic","42075","40.371448","-76.464819 ","17528","305","45","0","9/6/2021 12:00:00 AM","2019","141793","NYTIMES-USCENSUS"
"9/7/2021 12:00:00 AM","Lawrence County","Illinois","Midwest","East North Central","17101","38.718954","-87.730221 ","2801","38","29","0","9/6/2021 12:00:00 AM","2019","15678","NYTIMES-USCENSUS"
"9/7/2021 12:00:00 AM","Baker County","Oregon","West","Pacific","41001","44.703427","-117.691933 ","1489","19","33","0","9/6/2021 12:00:00 AM","2019","16124","NYTIMES-USCENSUS"
"9/7/2021 12:00:00 AM","Whitley County","Kentucky","South","East South Central","21235","36.758024","-84.144648 ","6364","66","217","1","9/6/2021 12:00:00 AM","2019","36264","NYTIMES-USCENSUS"
"9/7/2021 12:00:00 AM","Colquitt County","Georgia","South","South Atlantic","13071","31.189707","-83.769773 ","6895","138","169","3","9/6/2021 12:00:00 AM","2019","45600","NYTIMES-USCENSUS"
"9/7/2021 12:00:00 AM","Perry County","Illinois","Midwest","East North Central","17145","38.084381","-89.368525 ","3964","78","59","0","9/6/2021 12:00:00 AM","2019","20916","NYTIMES-USCENSUS"
