"monitor_date","county","state_name","region","subregion","fips","latitude","longitude","case_count_to_date","death_count_to_date","case_count","death_count","previous_monitor_date","population_year","population","source"
"12/29/2021 12:00:00 AM","Grant County","Oregon","West","Pacific","41023","44.496326","-119.014057 ","1166","17","11","0","12/28/2021 12:00:00 AM","2019","7199","NYTIMES-USCENSUS"
"12/29/2021 12:00:00 AM","San Francisco County","California","West","Pacific","06075","37.727239","-123.032229 ","64833","682","825","0","12/28/2021 12:00:00 AM","2019","881549","NYTIMES-USCENSUS"
"12/29/2021 12:00:00 AM","Warren County","Pennsylvania","Northeast","Middle Atlantic","42123","41.834298","-79.298182 ","5585","179","29","1","12/28/2021 12:00:00 AM","2019","39191","NYTIMES-USCENSUS"
"12/29/2021 12:00:00 AM","Wayne County","North Carolina","South","South Atlantic","37191","35.35419","-78.00867 ","18515","332","25","0","12/28/2021 12:00:00 AM","2019","123131","NYTIMES-USCENSUS"
"12/29/2021 12:00:00 AM","Boone County","Indiana","Midwest","East North Central","18011","40.050892","-86.469014 ","10921","137","104","0","12/28/2021 12:00:00 AM","2019","67843","NYTIMES-USCENSUS"
"12/29/2021 12:00:00 AM","Perry County","Alabama","South","East South Central","01105","32.639005","-87.293827 ","1437","41","6","0","12/28/2021 12:00:00 AM","2019","8923","NYTIMES-USCENSUS"
"12/29/2021 12:00:00 AM","Harrison County","Texas","South","West South Central","48203","32.547991","-94.374434 ","9512","189","5","1","12/28/2021 12:00:00 AM","2019","66553","NYTIMES-USCENSUS"
"12/29/2021 12:00:00 AM","Fond du Lac County","Wisconsin","Midwest","East North Central","55039","43.754722","-88.493284 ","22569","198","158","-1","12/28/2021 12:00:00 AM","2019","103403","NYTIMES-USCENSUS"
"12/29/2021 12:00:00 AM","Turner County","South Dakota","Midwest","West North Central","46125","43.30867","-97.150185 ","1536","62","7","0","12/28/2021 12:00:00 AM","2019","8384","NYTIMES-USCENSUS"
"12/29/2021 12:00:00 AM","Ellsworth County","Kansas","Midwest","West North Central","20053","38.700845","-98.205355 ","1602","31","11","0","12/28/2021 12:00:00 AM","2019","6102","NYTIMES-USCENSUS"
"12/29/2021 12:00:00 AM","Fayette County","Illinois","Midwest","East North Central","17051","39.001125","-89.017923 ","5105","75","20","0","12/28/2021 12:00:00 AM","2019","21336","NYTIMES-USCENSUS"
"12/29/2021 12:00:00 AM","Santa Barbara County","California","West","Pacific","06083","34.536677","-120.038364 ","50309","568","284","0","12/28/2021 12:00:00 AM","2019","446499","NYTIMES-USCENSUS"
"12/29/2021 12:00:00 AM","Lexington city","Virginia","South","South Atlantic","51678","37.782332","-79.44432 ","1707","38","7","0","12/28/2021 12:00:00 AM","2019","7446","NYTIMES-USCENSUS"
"12/29/2021 12:00:00 AM","Finney County","Kansas","Midwest","West North Central","20055","38.049808","-100.739967 ","8634","99","39","0","12/28/2021 12:00:00 AM","2019","36467","NYTIMES-USCENSUS"
"12/29/2021 12:00:00 AM","Transylvania County","North Carolina","South","South Atlantic","37175","35.210103","-82.816666 ","4433","53","21","0","12/28/2021 12:00:00 AM","2019","34385","NYTIMES-USCENSUS"
"12/29/2021 12:00:00 AM","Montgomery County","Mississippi","South","East South Central","28097","33.500714","-89.639625 ","1913","57","20","0","12/28/2021 12:00:00 AM","2019","9775","NYTIMES-USCENSUS"
"12/29/2021 12:00:00 AM","Kane County","Utah","West","Mountain","49025","37.275089","-111.815329 ","1029","12","4","0","12/28/2021 12:00:00 AM","2019","7886","NYTIMES-USCENSUS"
"12/29/2021 12:00:00 AM","Madison County","Illinois","Midwest","East North Central","17119","38.82712","-89.900227 ","47733","722","308","1","12/28/2021 12:00:00 AM","2019","262966","NYTIMES-USCENSUS"
"12/29/2021 12:00:00 AM","Wright County","Missouri","Midwest","West North Central","29229","37.267633","-92.479989 ","2893","67","9","0","12/28/2021 12:00:00 AM","2019","18289","NYTIMES-USCENSUS"
"12/29/2021 12:00:00 AM","Belknap County","New Hampshire","Northeast","New England","33001","43.519109","-71.425366 ","9188","145","43","0","12/28/2021 12:00:00 AM","2019","61303","NYTIMES-USCENSUS"
"12/29/2021 12:00:00 AM","Okanogan County","Washington","West","Pacific","53047","48.548453","-119.742235 ","5757","106","4","0","12/28/2021 12:00:00 AM","2019","42243","NYTIMES-USCENSUS"
"12/29/2021 12:00:00 AM","Montgomery County","Arkansas","South","West South Central","05097","34.545656","-93.664153 ","1188","51","0","0","12/28/2021 12:00:00 AM","2019","8986","NYTIMES-USCENSUS"
"12/29/2021 12:00:00 AM","Santa Cruz County","Arizona","West","Mountain","04023","31.525733","-110.845228 ","10385","206","16","0","12/28/2021 12:00:00 AM","2019","46498","NYTIMES-USCENSUS"
"12/29/2021 12:00:00 AM","Barnstable County","Massachusetts","Northeast","New England","25001","41.706123","-70.164823 ","24105","556","260","2","12/28/2021 12:00:00 AM","2019","212990","NYTIMES-USCENSUS"
"12/29/2021 12:00:00 AM","Spencer County","Indiana","Midwest","East North Central","18147","38.009697","-87.010375 ","3924","56","7","0","12/28/2021 12:00:00 AM","2019","20277","NYTIMES-USCENSUS"
"12/29/2021 12:00:00 AM","Pierce County","North Dakota","Midwest","West North Central","38069","48.238883","-99.966497 ","849","29","5","0","12/28/2021 12:00:00 AM","2019","3975","NYTIMES-USCENSUS"
"12/29/2021 12:00:00 AM","Pulaski County","Virginia","South","South Atlantic","51155","37.063385","-80.713444 ","4769","105","20","0","12/28/2021 12:00:00 AM","2019","34027","NYTIMES-USCENSUS"
"12/29/2021 12:00:00 AM","Nance County","Nebraska","Midwest","West North Central","31125","41.402385","-97.991408 ","615","10","0","0","12/28/2021 12:00:00 AM","2019","3519","NYTIMES-USCENSUS"
"12/29/2021 12:00:00 AM","Benton County","Iowa","Midwest","West North Central","19011","42.092547","-92.05763 ","4626","63","96","1","12/28/2021 12:00:00 AM","2019","25645","NYTIMES-USCENSUS"
"12/29/2021 12:00:00 AM","Belmont County","Ohio","Midwest","East North Central","39013","40.017682","-80.967727 ","11338","244","83","0","12/28/2021 12:00:00 AM","2019","67006","NYTIMES-USCENSUS"
"12/29/2021 12:00:00 AM","Strafford County","New Hampshire","Northeast","New England","33017","43.293272","-71.035589 ","19047","164","146","2","12/28/2021 12:00:00 AM","2019","130633","NYTIMES-USCENSUS"
"12/29/2021 12:00:00 AM","Mason County","Kentucky","South","East South Central","21161","38.594137","-83.828125 ","3045","81","13","0","12/28/2021 12:00:00 AM","2019","17070","NYTIMES-USCENSUS"
"12/29/2021 12:00:00 AM","Clallam County","Washington","West","Pacific","53009","48.110903","-123.88986 ","6079","83","85","0","12/28/2021 12:00:00 AM","2019","77331","NYTIMES-USCENSUS"
"12/29/2021 12:00:00 AM","Unicoi County","Tennessee","South","East South Central","47171","36.100129","-82.418218 ","3398","79","8","0","12/28/2021 12:00:00 AM","2019","17883","NYTIMES-USCENSUS"
"12/29/2021 12:00:00 AM","Jackson County","Iowa","Midwest","West North Central","19097","42.164226","-90.574582 ","3705","52","72","3","12/28/2021 12:00:00 AM","2019","19439","NYTIMES-USCENSUS"
"12/29/2021 12:00:00 AM","Ramsey County","North Dakota","Midwest","West North Central","38071","48.266163","-98.739031 ","2611","43","10","1","12/28/2021 12:00:00 AM","2019","11519","NYTIMES-USCENSUS"
"12/29/2021 12:00:00 AM","Blount County","Tennessee","South","East South Central","47009","35.688185","-83.922973 ","25719","324","137","1","12/28/2021 12:00:00 AM","2019","133088","NYTIMES-USCENSUS"
"12/29/2021 12:00:00 AM","Ward County","Texas","South","West South Central","48475","31.513069","-103.105113 ","2072","35","5","0","12/28/2021 12:00:00 AM","2019","11998","NYTIMES-USCENSUS"
"12/29/2021 12:00:00 AM","Refugio County","Texas","South","West South Central","48391","28.322116","-97.162472 ","1217","31","5","0","12/28/2021 12:00:00 AM","2019","6948","NYTIMES-USCENSUS"
"12/29/2021 12:00:00 AM","Calhoun County","Illinois","Midwest","East North Central","17013","39.164262","-90.666295 ","971","7","9","0","12/28/2021 12:00:00 AM","2019","4739","NYTIMES-USCENSUS"
"12/29/2021 12:00:00 AM","Garza County","Texas","South","West South Central","48169","33.183792","-101.301134 ","765","25","2","0","12/28/2021 12:00:00 AM","2019","6229","NYTIMES-USCENSUS"
"12/29/2021 12:00:00 AM","Carroll County","Virginia","South","South Atlantic","51035","36.731963","-80.727831 ","4684","112","17","0","12/28/2021 12:00:00 AM","2019","29791","NYTIMES-USCENSUS"
"12/29/2021 12:00:00 AM","Meriwether County","Georgia","South","South Atlantic","13199","33.029267","-84.667058 ","3267","121","56","0","12/28/2021 12:00:00 AM","2019","21167","NYTIMES-USCENSUS"
"12/29/2021 12:00:00 AM","Greenlee County","Arizona","West","Mountain","04011","33.238872","-109.242323 ","1476","27","11","0","12/28/2021 12:00:00 AM","2019","9498","NYTIMES-USCENSUS"
"12/29/2021 12:00:00 AM","Jefferson County","Ohio","Midwest","East North Central","39081","40.399384","-80.763527 ","10667","248","98","0","12/28/2021 12:00:00 AM","2019","65325","NYTIMES-USCENSUS"
"12/29/2021 12:00:00 AM","Catahoula Parish","Louisiana","South","West South Central","22025","31.666517","-91.846703 ","1861","48","7","0","12/28/2021 12:00:00 AM","2019","9494","NYTIMES-USCENSUS"
"12/29/2021 12:00:00 AM","Leslie County","Kentucky","South","East South Central","21131","37.087846","-83.388617 ","2451","37","12","0","12/28/2021 12:00:00 AM","2019","9877","NYTIMES-USCENSUS"
"12/29/2021 12:00:00 AM","Clark County","Wisconsin","Midwest","East North Central","55019","44.739346","-90.609953 ","5992","106","18","0","12/28/2021 12:00:00 AM","2019","34774","NYTIMES-USCENSUS"
"12/29/2021 12:00:00 AM","Garland County","Arkansas","South","West South Central","05051","34.578852","-93.146932 ","16674","421","42","1","12/28/2021 12:00:00 AM","2019","99386","NYTIMES-USCENSUS"
"12/29/2021 12:00:00 AM","Bon Homme County","South Dakota","Midwest","West North Central","46009","42.985799","-97.884199 ","1851","31","13","0","12/28/2021 12:00:00 AM","2019","6901","NYTIMES-USCENSUS"
"12/29/2021 12:00:00 AM","Jackson County","Illinois","Midwest","East North Central","17077","37.786096","-89.381212 ","9354","112","72","0","12/28/2021 12:00:00 AM","2019","56750","NYTIMES-USCENSUS"
"12/29/2021 12:00:00 AM","Adams County","Colorado","West","Mountain","08001","39.874325","-104.331872 ","93504","1093","816","15","12/28/2021 12:00:00 AM","2019","517421","NYTIMES-USCENSUS"
"12/29/2021 12:00:00 AM","Milwaukee County","Wisconsin","Midwest","East North Central","55079","42.912643","-87.862312 ","181850","1806","1934","1","12/28/2021 12:00:00 AM","2019","945726","NYTIMES-USCENSUS"
"12/29/2021 12:00:00 AM","Caddo County","Oklahoma","South","West South Central","40015","35.16792","-98.381045 ","5640","137","51","0","12/28/2021 12:00:00 AM","2019","28762","NYTIMES-USCENSUS"
"12/29/2021 12:00:00 AM","Cabarrus County","North Carolina","South","South Atlantic","37025","35.388346","-80.552728 ","37133","375","124","1","12/28/2021 12:00:00 AM","2019","216453","NYTIMES-USCENSUS"
"12/29/2021 12:00:00 AM","Niobrara County","Wyoming","West","Mountain","56027","43.062159","-104.468373 ","500","8","0","0","12/28/2021 12:00:00 AM","2019","2356","NYTIMES-USCENSUS"
"12/29/2021 12:00:00 AM","Butler County","Alabama","South","East South Central","01013","31.751667","-86.681969 ","3558","102","23","0","12/28/2021 12:00:00 AM","2019","19448","NYTIMES-USCENSUS"
"12/29/2021 12:00:00 AM","Boundary County","Idaho","West","Mountain","16021","48.773131","-116.524668 ","1743","50","1","0","12/28/2021 12:00:00 AM","2019","12245","NYTIMES-USCENSUS"
"12/29/2021 12:00:00 AM","Washington County","Vermont","Northeast","New England","50023","44.274969","-72.609444 ","5121","32","32","0","12/28/2021 12:00:00 AM","2019","58409","NYTIMES-USCENSUS"
"12/29/2021 12:00:00 AM","New Castle County","Delaware","South","South Atlantic","10003","39.575915","-75.644132 ","98819","1111","582","4","12/28/2021 12:00:00 AM","2019","558753","NYTIMES-USCENSUS"
"12/29/2021 12:00:00 AM","Johnson County","Wyoming","West","Mountain","56019","44.044048","-106.588541 ","1389","17","1","0","12/28/2021 12:00:00 AM","2019","8445","NYTIMES-USCENSUS"
"12/29/2021 12:00:00 AM","Emporia city","Virginia","South","South Atlantic","51595","36.696182","-77.535975 ","859","46","1","0","12/28/2021 12:00:00 AM","2019","5346","NYTIMES-USCENSUS"
"12/29/2021 12:00:00 AM","Parke County","Indiana","Midwest","East North Central","18121","39.77425","-87.19695 ","2695","36","10","0","12/28/2021 12:00:00 AM","2019","16937","NYTIMES-USCENSUS"
"12/29/2021 12:00:00 AM","Clay County","Arkansas","South","West South Central","05021","36.367302","-90.418704 ","2947","77","6","0","12/28/2021 12:00:00 AM","2019","14551","NYTIMES-USCENSUS"
"12/29/2021 12:00:00 AM","Henderson County","Tennessee","South","East South Central","47077","35.653994","-88.387674 ","6073","118","21","0","12/28/2021 12:00:00 AM","2019","28117","NYTIMES-USCENSUS"
"12/29/2021 12:00:00 AM","Yakima County","Washington","West","Pacific","53077","46.456558","-120.740145 ","48164","655","144","0","12/28/2021 12:00:00 AM","2019","250873","NYTIMES-USCENSUS"
"12/29/2021 12:00:00 AM","Brooks County","Georgia","South","South Atlantic","13027","30.822934","-83.581905 ","2479","75","6","0","12/28/2021 12:00:00 AM","2019","15457","NYTIMES-USCENSUS"
"12/29/2021 12:00:00 AM","Benton County","Washington","West","Pacific","53005","46.228125","-119.516659 ","33213","398","78","0","12/28/2021 12:00:00 AM","2019","204390","NYTIMES-USCENSUS"
"12/29/2021 12:00:00 AM","Pike County","Georgia","South","South Atlantic","13231","33.081149","-84.389462 ","4056","74","21","0","12/28/2021 12:00:00 AM","2019","18962","NYTIMES-USCENSUS"
"12/29/2021 12:00:00 AM","Taney County","Missouri","Midwest","West North Central","29213","36.649827","-93.042819 ","9960","178","26","0","12/28/2021 12:00:00 AM","2019","55928","NYTIMES-USCENSUS"
"12/29/2021 12:00:00 AM","Accomack County","Virginia","South","South Atlantic","51001","37.765944","-75.757807 ","4463","83","17","0","12/28/2021 12:00:00 AM","2019","32316","NYTIMES-USCENSUS"
"12/29/2021 12:00:00 AM","Madison County","Tennessee","South","East South Central","47113","35.606056","-88.833424 ","19150","361","205","1","12/28/2021 12:00:00 AM","2019","97984","NYTIMES-USCENSUS"
"12/29/2021 12:00:00 AM","Marathon County","Wisconsin","Midwest","East North Central","55073","44.898036","-89.757823 ","28405","391","126","2","12/28/2021 12:00:00 AM","2019","135692","NYTIMES-USCENSUS"
"12/29/2021 12:00:00 AM","Socorro County","New Mexico","West","Mountain","35053","33.991658","-106.939136 ","2535","69","10","0","12/28/2021 12:00:00 AM","2019","16637","NYTIMES-USCENSUS"
"12/29/2021 12:00:00 AM","Graham County","Arizona","West","Mountain","04009","32.931828","-109.87831 ","8943","157","4","1","12/28/2021 12:00:00 AM","2019","38837","NYTIMES-USCENSUS"
"12/29/2021 12:00:00 AM","Gasconade County","Missouri","Midwest","West North Central","29073","38.441183","-91.50578 ","2531","87","10","0","12/28/2021 12:00:00 AM","2019","14706","NYTIMES-USCENSUS"
"12/29/2021 12:00:00 AM","Aroostook County","Maine","Northeast","New England","23003","46.709193","-68.612409 ","7189","102","88","1","12/28/2021 12:00:00 AM","2019","67055","NYTIMES-USCENSUS"
"12/29/2021 12:00:00 AM","Clay County","Indiana","Midwest","East North Central","18021","39.393928","-87.115858 ","5051","68","7","1","12/28/2021 12:00:00 AM","2019","26225","NYTIMES-USCENSUS"
"12/29/2021 12:00:00 AM","Shawnee County","Kansas","Midwest","West North Central","20177","39.041805","-95.755664 ","31041","491","486","3","12/28/2021 12:00:00 AM","2019","176875","NYTIMES-USCENSUS"
"12/29/2021 12:00:00 AM","Napa County","California","West","Pacific","06055","38.5071","-122.325904 ","14269","107","48","0","12/28/2021 12:00:00 AM","2019","137744","NYTIMES-USCENSUS"
"12/29/2021 12:00:00 AM","Butler County","Kansas","Midwest","West North Central","20015","37.773649","-96.83884 ","12935","146","195","0","12/28/2021 12:00:00 AM","2019","66911","NYTIMES-USCENSUS"
"12/29/2021 12:00:00 AM","Marinette County","Wisconsin","Midwest","East North Central","55075","45.346899","-87.991198 ","8851","95","84","0","12/28/2021 12:00:00 AM","2019","40350","NYTIMES-USCENSUS"
"12/29/2021 12:00:00 AM","Alexandria city","Virginia","South","South Atlantic","51510","38.819251","-77.08367 ","18319","161","237","0","12/28/2021 12:00:00 AM","2019","159428","NYTIMES-USCENSUS"
"12/29/2021 12:00:00 AM","Lucas County","Iowa","Midwest","West North Central","19117","41.033344","-93.331467 ","1367","29","23","1","12/28/2021 12:00:00 AM","2019","8600","NYTIMES-USCENSUS"
"12/29/2021 12:00:00 AM","San Benito County","California","West","Pacific","06069","36.611651","-121.085811 ","8370","79","37","0","12/28/2021 12:00:00 AM","2019","62808","NYTIMES-USCENSUS"
"12/29/2021 12:00:00 AM","Big Horn County","Montana","West","Mountain","30003","45.407868","-107.518162 ","3460","84","0","0","12/28/2021 12:00:00 AM","2019","13319","NYTIMES-USCENSUS"
"12/29/2021 12:00:00 AM","Dougherty County","Georgia","South","South Atlantic","13095","31.532588","-84.20904 ","12960","431","157","1","12/28/2021 12:00:00 AM","2019","87956","NYTIMES-USCENSUS"
"12/29/2021 12:00:00 AM","Buncombe County","North Carolina","South","South Atlantic","37021","35.609371","-82.530423 ","32462","460","155","0","12/28/2021 12:00:00 AM","2019","261191","NYTIMES-USCENSUS"
"12/29/2021 12:00:00 AM","Humphreys County","Tennessee","South","East South Central","47085","36.040822","-87.790453 ","3501","59","24","0","12/28/2021 12:00:00 AM","2019","18582","NYTIMES-USCENSUS"
"12/29/2021 12:00:00 AM","Elliott County","Kentucky","South","East South Central","21063","38.116883","-83.096116 ","1486","13","1","0","12/28/2021 12:00:00 AM","2019","7517","NYTIMES-USCENSUS"
"12/29/2021 12:00:00 AM","Bledsoe County","Tennessee","South","East South Central","47007","35.593561","-85.20591 ","3643","37","6","0","12/28/2021 12:00:00 AM","2019","15064","NYTIMES-USCENSUS"
"12/29/2021 12:00:00 AM","Newton County","Georgia","South","South Atlantic","13217","33.552751","-83.85136 ","18609","372","226","0","12/28/2021 12:00:00 AM","2019","111744","NYTIMES-USCENSUS"
"12/29/2021 12:00:00 AM","Edmonson County","Kentucky","South","East South Central","21061","37.227514","-86.218015 ","1748","34","9","0","12/28/2021 12:00:00 AM","2019","12150","NYTIMES-USCENSUS"
"12/29/2021 12:00:00 AM","Fresno County","California","West","Pacific","06019","36.761006","-119.655019 ","161993","2365","161","1","12/28/2021 12:00:00 AM","2019","999101","NYTIMES-USCENSUS"
"12/29/2021 12:00:00 AM","Knox County","Tennessee","South","East South Central","47093","35.992726","-83.937721 ","84850","1064","352","1","12/28/2021 12:00:00 AM","2019","470313","NYTIMES-USCENSUS"
"12/29/2021 12:00:00 AM","Waukesha County","Wisconsin","Midwest","East North Central","55133","43.018368","-88.30424 ","76845","839","428","2","12/28/2021 12:00:00 AM","2019","404198","NYTIMES-USCENSUS"
"12/29/2021 12:00:00 AM","Vilas County","Wisconsin","Midwest","East North Central","55125","46.049848","-89.501254 ","3669","70","11","0","12/28/2021 12:00:00 AM","2019","22195","NYTIMES-USCENSUS"
"12/29/2021 12:00:00 AM","Benewah County","Idaho","West","Mountain","16009","47.218451","-116.633541 ","1761","30","22","0","12/28/2021 12:00:00 AM","2019","9298","NYTIMES-USCENSUS"
"12/29/2021 12:00:00 AM","Schley County","Georgia","South","South Atlantic","13249","32.263444","-84.322708 ","745","8","7","0","12/28/2021 12:00:00 AM","2019","5257","NYTIMES-USCENSUS"
"12/29/2021 12:00:00 AM","Camas County","Idaho","West","Mountain","16025","43.502552","-114.772135 ","109","1","0","0","12/28/2021 12:00:00 AM","2019","1106","NYTIMES-USCENSUS"
"12/29/2021 12:00:00 AM","Union County","Iowa","Midwest","West North Central","19175","41.02855","-94.245091 ","2207","44","49","0","12/28/2021 12:00:00 AM","2019","12241","NYTIMES-USCENSUS"
"12/29/2021 12:00:00 AM","Cleveland County","Oklahoma","South","West South Central","40027","35.206376","-97.323088 ","47093","643","544","2","12/28/2021 12:00:00 AM","2019","284014","NYTIMES-USCENSUS"
"12/29/2021 12:00:00 AM","Clark County","Kentucky","South","East South Central","21049","37.970314","-84.145115 ","6300","48","60","0","12/28/2021 12:00:00 AM","2019","36263","NYTIMES-USCENSUS"
"12/29/2021 12:00:00 AM","Lee County","North Carolina","South","South Atlantic","37105","35.476336","-79.172117 ","10157","119","62","0","12/28/2021 12:00:00 AM","2019","61779","NYTIMES-USCENSUS"
"12/29/2021 12:00:00 AM","Carter County","Missouri","Midwest","West North Central","29035","36.944858","-90.945705 ","1182","19","3","0","12/28/2021 12:00:00 AM","2019","5982","NYTIMES-USCENSUS"
"12/29/2021 12:00:00 AM","Monroe County","Florida","South","South Atlantic","12087","25.58612","-81.022603 ","11404","99","0","0","12/28/2021 12:00:00 AM","2019","74228","NYTIMES-USCENSUS"
"12/29/2021 12:00:00 AM","Calhoun County","South Carolina","South","South Atlantic","45017","33.67478","-80.780347 ","1829","53","23","0","12/28/2021 12:00:00 AM","2019","14553","NYTIMES-USCENSUS"
"12/29/2021 12:00:00 AM","Wilson County","North Carolina","South","South Atlantic","37195","35.700357","-77.921598 ","14060","243","26","0","12/28/2021 12:00:00 AM","2019","81801","NYTIMES-USCENSUS"
"12/29/2021 12:00:00 AM","Kay County","Oklahoma","South","West South Central","40071","36.814885","-97.143862 ","8465","172","180","0","12/28/2021 12:00:00 AM","2019","43538","NYTIMES-USCENSUS"
"12/29/2021 12:00:00 AM","Riley County","Kansas","Midwest","West North Central","20161","39.291211","-96.727489 ","9009","66","148","1","12/28/2021 12:00:00 AM","2019","74232","NYTIMES-USCENSUS"
"12/29/2021 12:00:00 AM","Hill County","Texas","South","West South Central","48217","31.982681","-97.130668 ","6032","174","5","0","12/28/2021 12:00:00 AM","2019","36649","NYTIMES-USCENSUS"
"12/29/2021 12:00:00 AM","Delaware County","Oklahoma","South","West South Central","40041","36.393437","-94.808189 ","7926","168","77","0","12/28/2021 12:00:00 AM","2019","43009","NYTIMES-USCENSUS"
"12/29/2021 12:00:00 AM","Logan County","Nebraska","Midwest","West North Central","31113","41.542155","-100.443665 ","120","0","0","0","12/28/2021 12:00:00 AM","2019","748","NYTIMES-USCENSUS"
"12/29/2021 12:00:00 AM","Caldwell County","Kentucky","South","East South Central","21033","37.148642","-87.870509 ","2701","53","18","0","12/28/2021 12:00:00 AM","2019","12747","NYTIMES-USCENSUS"
"12/29/2021 12:00:00 AM","Ashtabula County","Ohio","Midwest","East North Central","39007","41.906637","-80.745592 ","15189","298","137","0","12/28/2021 12:00:00 AM","2019","97241","NYTIMES-USCENSUS"
"12/29/2021 12:00:00 AM","Johnson County","Illinois","Midwest","East North Central","17087","37.460709","-88.882131 ","2692","39","14","0","12/28/2021 12:00:00 AM","2019","12417","NYTIMES-USCENSUS"
"12/29/2021 12:00:00 AM","Davidson County","Tennessee","South","East South Central","47037","36.169129","-86.78479 ","145386","1382","5325","5","12/28/2021 12:00:00 AM","2019","694144","NYTIMES-USCENSUS"
"12/29/2021 12:00:00 AM","Manatee County","Florida","South","South Atlantic","12081","27.475556","-82.393144 ","66861","1227","0","2","12/28/2021 12:00:00 AM","2019","403253","NYTIMES-USCENSUS"
"12/29/2021 12:00:00 AM","Pennington County","South Dakota","Midwest","West North Central","46103","44.002349","-102.823801 ","23801","280","110","0","12/28/2021 12:00:00 AM","2019","113775","NYTIMES-USCENSUS"
"12/29/2021 12:00:00 AM","Lewis County","Kentucky","South","East South Central","21135","38.535047","-83.370143 ","3111","68","37","0","12/28/2021 12:00:00 AM","2019","13275","NYTIMES-USCENSUS"
"12/29/2021 12:00:00 AM","Orleans County","New York","Northeast","Middle Atlantic","36073","43.339906","-78.207028 ","6387","103","41","0","12/28/2021 12:00:00 AM","2019","40352","NYTIMES-USCENSUS"
"12/29/2021 12:00:00 AM","Douglas County","Nebraska","Midwest","West North Central","31055","41.297091","-96.154066 ","102077","906","722","3","12/28/2021 12:00:00 AM","2019","571327","NYTIMES-USCENSUS"
"12/29/2021 12:00:00 AM","Calhoun County","West Virginia","South","South Atlantic","54013","38.844159","-81.115478 ","1214","9","4","0","12/28/2021 12:00:00 AM","2019","7109","NYTIMES-USCENSUS"
"12/29/2021 12:00:00 AM","Hamilton County","Iowa","Midwest","West North Central","19079","42.390789","-93.70913 ","2776","60","31","0","12/28/2021 12:00:00 AM","2019","14773","NYTIMES-USCENSUS"
"12/29/2021 12:00:00 AM","Laurens County","South Carolina","South","South Atlantic","45059","34.483676","-82.005498 ","12510","245","122","1","12/28/2021 12:00:00 AM","2019","67493","NYTIMES-USCENSUS"
"12/29/2021 12:00:00 AM","Stevens County","Washington","West","Pacific","53065","48.388728","-117.854455 ","5644","113","11","3","12/28/2021 12:00:00 AM","2019","45723","NYTIMES-USCENSUS"
"12/29/2021 12:00:00 AM","Schuyler County","Illinois","Midwest","East North Central","17169","40.156905","-90.613464 ","1297","26","19","0","12/28/2021 12:00:00 AM","2019","6768","NYTIMES-USCENSUS"
"12/29/2021 12:00:00 AM","Jones County","North Carolina","South","South Atlantic","37103","35.032268","-77.356195 ","1426","37","7","0","12/28/2021 12:00:00 AM","2019","9419","NYTIMES-USCENSUS"
"12/29/2021 12:00:00 AM","Mecklenburg County","North Carolina","South","South Atlantic","37119","35.246862","-80.833832 ","176994","1314","1439","0","12/28/2021 12:00:00 AM","2019","1110356","NYTIMES-USCENSUS"
"12/29/2021 12:00:00 AM","Barry County","Missouri","Midwest","West North Central","29009","36.699376","-93.834334 ","4918","97","10","0","12/28/2021 12:00:00 AM","2019","35789","NYTIMES-USCENSUS"
"12/29/2021 12:00:00 AM","Brevard County","Florida","South","South Atlantic","12009","28.298311","-80.700333 ","83648","1784","0","6","12/28/2021 12:00:00 AM","2019","601942","NYTIMES-USCENSUS"
"12/29/2021 12:00:00 AM","Prince William County","Virginia","South","South Atlantic","51153","38.701119","-77.479579 ","65360","616","1178","1","12/28/2021 12:00:00 AM","2019","470335","NYTIMES-USCENSUS"
"12/29/2021 12:00:00 AM","Stillwater County","Montana","West","Mountain","30095","45.658545","-109.381576 ","1245","29","0","0","12/28/2021 12:00:00 AM","2019","9642","NYTIMES-USCENSUS"
"12/29/2021 12:00:00 AM","Fannin County","Georgia","South","South Atlantic","13111","34.866543","-84.317331 ","4043","118","21","1","12/28/2021 12:00:00 AM","2019","26188","NYTIMES-USCENSUS"
"12/29/2021 12:00:00 AM","Henderson County","Texas","South","West South Central","48213","32.211633","-95.853418 ","10241","354","17","0","12/28/2021 12:00:00 AM","2019","82737","NYTIMES-USCENSUS"
"12/29/2021 12:00:00 AM","Waupaca County","Wisconsin","Midwest","East North Central","55135","44.478004","-88.967005 ","10308","216","72","0","12/28/2021 12:00:00 AM","2019","50990","NYTIMES-USCENSUS"
"12/29/2021 12:00:00 AM","Stephens County","Oklahoma","South","West South Central","40137","34.481361","-97.855607 ","8217","156","96","2","12/28/2021 12:00:00 AM","2019","43143","NYTIMES-USCENSUS"
"12/29/2021 12:00:00 AM","Iroquois County","Illinois","Midwest","East North Central","17075","40.748867","-87.833601 ","5372","92","33","0","12/28/2021 12:00:00 AM","2019","27114","NYTIMES-USCENSUS"
"12/29/2021 12:00:00 AM","Comanche County","Kansas","Midwest","West North Central","20033","37.181442","-99.251293 ","360","13","1","0","12/28/2021 12:00:00 AM","2019","1700","NYTIMES-USCENSUS"
"12/29/2021 12:00:00 AM","Montgomery County","Pennsylvania","Northeast","Middle Atlantic","42091","40.209999","-75.370201 ","107409","1991","1057","12","12/28/2021 12:00:00 AM","2019","830915","NYTIMES-USCENSUS"
"12/29/2021 12:00:00 AM","Cumberland County","Maine","Northeast","New England","23005","43.808348","-70.330375 ","27868","271","187","3","12/28/2021 12:00:00 AM","2019","295003","NYTIMES-USCENSUS"
"12/29/2021 12:00:00 AM","Jewell County","Kansas","Midwest","West North Central","20089","39.777005","-98.222619 ","627","11","-1","0","12/28/2021 12:00:00 AM","2019","2879","NYTIMES-USCENSUS"
"12/29/2021 12:00:00 AM","Greer County","Oklahoma","South","West South Central","40055","34.933853","-99.552968 ","840","27","16","0","12/28/2021 12:00:00 AM","2019","5712","NYTIMES-USCENSUS"
"12/29/2021 12:00:00 AM","Windsor County","Vermont","Northeast","New England","50027","43.572448","-72.598813 ","4967","44","27","1","12/28/2021 12:00:00 AM","2019","55062","NYTIMES-USCENSUS"
"12/29/2021 12:00:00 AM","Guernsey County","Ohio","Midwest","East North Central","39059","40.056665","-81.497875 ","7716","98","40","0","12/28/2021 12:00:00 AM","2019","38875","NYTIMES-USCENSUS"
"12/29/2021 12:00:00 AM","Haywood County","North Carolina","South","South Atlantic","37087","35.558882","-82.981307 ","8454","157","61","0","12/28/2021 12:00:00 AM","2019","62317","NYTIMES-USCENSUS"
"12/29/2021 12:00:00 AM","Collin County","Texas","South","West South Central","48085","33.194494","-96.579428 ","140361","1216","457","4","12/28/2021 12:00:00 AM","2019","1034730","NYTIMES-USCENSUS"
"12/29/2021 12:00:00 AM","Chemung County","New York","Northeast","Middle Atlantic","36015","42.148697","-76.752471 ","14790","193","133","1","12/28/2021 12:00:00 AM","2019","83456","NYTIMES-USCENSUS"
"12/29/2021 12:00:00 AM","Polk County","Texas","South","West South Central","48373","30.784553","-94.837338 ","6077","220","10","0","12/28/2021 12:00:00 AM","2019","51353","NYTIMES-USCENSUS"
"12/29/2021 12:00:00 AM","Effingham County","Illinois","Midwest","East North Central","17049","39.047945","-88.592849 ","7883","124","41","0","12/28/2021 12:00:00 AM","2019","34008","NYTIMES-USCENSUS"
"12/29/2021 12:00:00 AM","Union County","Georgia","South","South Atlantic","13291","34.833333","-83.989257 ","3769","132","3","0","12/28/2021 12:00:00 AM","2019","24511","NYTIMES-USCENSUS"
"12/29/2021 12:00:00 AM","Beaufort County","South Carolina","South","South Atlantic","45013","32.358112","-80.689422 ","28549","324","364","3","12/28/2021 12:00:00 AM","2019","192122","NYTIMES-USCENSUS"
"12/29/2021 12:00:00 AM","Cortland County","New York","Northeast","Middle Atlantic","36023","42.594039","-76.07624 ","7075","91","51","0","12/28/2021 12:00:00 AM","2019","47581","NYTIMES-USCENSUS"
"12/29/2021 12:00:00 AM","Vernon County","Wisconsin","Midwest","East North Central","55123","43.599366","-90.821983 ","4077","74","14","0","12/28/2021 12:00:00 AM","2019","30822","NYTIMES-USCENSUS"
"12/29/2021 12:00:00 AM","Ziebach County","South Dakota","Midwest","West North Central","46137","44.989764","-101.660827 ","487","11","0","0","12/28/2021 12:00:00 AM","2019","2756","NYTIMES-USCENSUS"
"12/29/2021 12:00:00 AM","Moore County","North Carolina","South","South Atlantic","37125","35.308272","-79.492725 ","14977","258","98","0","12/28/2021 12:00:00 AM","2019","100880","NYTIMES-USCENSUS"
"12/29/2021 12:00:00 AM","Terrell County","Georgia","South","South Atlantic","13273","31.777191","-84.439446 ","1312","58","12","0","12/28/2021 12:00:00 AM","2019","8531","NYTIMES-USCENSUS"
"12/29/2021 12:00:00 AM","Randolph County","West Virginia","South","South Atlantic","54083","38.781095","-79.867788 ","5900","64","27","0","12/28/2021 12:00:00 AM","2019","28695","NYTIMES-USCENSUS"
"12/29/2021 12:00:00 AM","Ellis County","Texas","South","West South Central","48139","32.346878","-96.79694 ","35408","491","54","1","12/28/2021 12:00:00 AM","2019","184826","NYTIMES-USCENSUS"
"12/29/2021 12:00:00 AM","Crawford County","Missouri","Midwest","West North Central","29055","37.966559","-91.313936 ","4130","78","20","0","12/28/2021 12:00:00 AM","2019","23920","NYTIMES-USCENSUS"
"12/29/2021 12:00:00 AM","Sullivan County","Pennsylvania","Northeast","Middle Atlantic","42113","41.439285","-76.511717 ","790","28","4","0","12/28/2021 12:00:00 AM","2019","6066","NYTIMES-USCENSUS"
"12/29/2021 12:00:00 AM","Routt County","Colorado","West","Mountain","08107","40.483664","-106.987702 ","4219","24","71","0","12/28/2021 12:00:00 AM","2019","25638","NYTIMES-USCENSUS"
"12/29/2021 12:00:00 AM","Santa Cruz County","California","West","Pacific","06087","37.012347","-122.007789 ","23663","228","57","0","12/28/2021 12:00:00 AM","2019","273213","NYTIMES-USCENSUS"
"12/29/2021 12:00:00 AM","Crook County","Oregon","West","Pacific","41013","44.163054","-120.371585 ","3624","60","24","0","12/28/2021 12:00:00 AM","2019","24404","NYTIMES-USCENSUS"
"12/29/2021 12:00:00 AM","Kiowa County","Kansas","Midwest","West North Central","20097","37.561231","-99.286539 ","467","7","6","0","12/28/2021 12:00:00 AM","2019","2475","NYTIMES-USCENSUS"
"12/29/2021 12:00:00 AM","Powell County","Kentucky","South","East South Central","21197","37.809907","-83.831354 ","3131","28","28","0","12/28/2021 12:00:00 AM","2019","12359","NYTIMES-USCENSUS"
"12/29/2021 12:00:00 AM","Dallam County","Texas","South","West South Central","48111","36.28637","-102.59402 ","1414","32","10","0","12/28/2021 12:00:00 AM","2019","7287","NYTIMES-USCENSUS"
"12/29/2021 12:00:00 AM","Juneau City and Borough","Alaska","West","Pacific","02110","58.37291","-134.178445 ","4448","13","78","0","12/28/2021 12:00:00 AM","2019","31974","NYTIMES-USCENSUS"
"12/29/2021 12:00:00 AM","Morton County","Kansas","Midwest","West North Central","20129","37.185249","-101.809516 ","487","10","5","0","12/28/2021 12:00:00 AM","2019","2587","NYTIMES-USCENSUS"
"12/29/2021 12:00:00 AM","Long County","Georgia","South","South Atlantic","13183","31.749563","-81.74287 ","1818","29","4","0","12/28/2021 12:00:00 AM","2019","19559","NYTIMES-USCENSUS"
"12/29/2021 12:00:00 AM","Keokuk County","Iowa","Midwest","West North Central","19107","41.331182","-92.167721 ","1636","42","19","1","12/28/2021 12:00:00 AM","2019","10246","NYTIMES-USCENSUS"
"12/29/2021 12:00:00 AM","Donley County","Texas","South","West South Central","48129","34.955036","-100.815846 ","727","18","5","0","12/28/2021 12:00:00 AM","2019","3278","NYTIMES-USCENSUS"
"12/29/2021 12:00:00 AM","Williams County","Ohio","Midwest","East North Central","39171","41.564959","-84.584324 ","7055","114","27","0","12/28/2021 12:00:00 AM","2019","36692","NYTIMES-USCENSUS"
"12/29/2021 12:00:00 AM","Zapata County","Texas","South","West South Central","48505","26.996981","-99.182603 ","2285","46","1","0","12/28/2021 12:00:00 AM","2019","14179","NYTIMES-USCENSUS"
"12/29/2021 12:00:00 AM","Evangeline Parish","Louisiana","South","West South Central","22039","30.720693","-92.404086 ","6088","144","53","0","12/28/2021 12:00:00 AM","2019","33395","NYTIMES-USCENSUS"
"12/29/2021 12:00:00 AM","Grainger County","Tennessee","South","East South Central","47057","36.277509","-83.509546 ","4771","91","15","0","12/28/2021 12:00:00 AM","2019","23320","NYTIMES-USCENSUS"
"12/29/2021 12:00:00 AM","Pulaski County","Missouri","Midwest","West North Central","29169","37.824835","-92.207022 ","5860","100","9","0","12/28/2021 12:00:00 AM","2019","52607","NYTIMES-USCENSUS"
"12/29/2021 12:00:00 AM","Bradford County","Florida","South","South Atlantic","12007","29.952386","-82.166698 ","5388","128","0","0","12/28/2021 12:00:00 AM","2019","28201","NYTIMES-USCENSUS"
"12/29/2021 12:00:00 AM","Arapahoe County","Colorado","West","Mountain","08005","39.644554","-104.331706 ","100933","1067","1570","7","12/28/2021 12:00:00 AM","2019","656590","NYTIMES-USCENSUS"
"12/29/2021 12:00:00 AM","Winnebago County","Iowa","Midwest","West North Central","19189","43.378124","-93.743488 ","2432","41","25","0","12/28/2021 12:00:00 AM","2019","10354","NYTIMES-USCENSUS"
"12/29/2021 12:00:00 AM","Rockingham County","North Carolina","South","South Atlantic","37157","36.381806","-79.782754 ","14133","220","42","0","12/28/2021 12:00:00 AM","2019","91010","NYTIMES-USCENSUS"
"12/29/2021 12:00:00 AM","Douglas County","Wisconsin","Midwest","East North Central","55031","46.463218","-91.892477 ","8077","71","17","0","12/28/2021 12:00:00 AM","2019","43150","NYTIMES-USCENSUS"
"12/29/2021 12:00:00 AM","Gage County","Nebraska","Midwest","West North Central","31067","40.255234","-96.683453 ","2837","20","6","0","12/28/2021 12:00:00 AM","2019","21513","NYTIMES-USCENSUS"
"12/29/2021 12:00:00 AM","Dorchester County","Maryland","South","South Atlantic","24019","38.429196","-76.047433 ","5029","91","22","2","12/28/2021 12:00:00 AM","2019","31929","NYTIMES-USCENSUS"
"12/29/2021 12:00:00 AM","Decatur County","Georgia","South","South Atlantic","13087","30.880643","-84.58389 ","4949","110","10","0","12/28/2021 12:00:00 AM","2019","26404","NYTIMES-USCENSUS"
"12/29/2021 12:00:00 AM","Garfield County","Oklahoma","South","West South Central","40047","36.378132","-97.788741 ","10966","220","76","1","12/28/2021 12:00:00 AM","2019","61056","NYTIMES-USCENSUS"
"12/29/2021 12:00:00 AM","Presque Isle County","Michigan","Midwest","East North Central","26141","45.252397","-83.432283 ","1738","51","6","1","12/28/2021 12:00:00 AM","2019","12592","NYTIMES-USCENSUS"
"12/29/2021 12:00:00 AM","Richmond County","North Carolina","South","South Atlantic","37153","35.004636","-79.755695 ","7802","151","29","0","12/28/2021 12:00:00 AM","2019","44829","NYTIMES-USCENSUS"
"12/29/2021 12:00:00 AM","Dawes County","Nebraska","Midwest","West North Central","31045","42.713038","-103.135436 ","1151","21","2","0","12/28/2021 12:00:00 AM","2019","8589","NYTIMES-USCENSUS"
"12/29/2021 12:00:00 AM","Seminole County","Florida","South","South Atlantic","12117","28.690065","-81.131975 ","65665","900","0","0","12/28/2021 12:00:00 AM","2019","471826","NYTIMES-USCENSUS"
"12/29/2021 12:00:00 AM","Stanislaus County","California","West","Pacific","06099","37.562316","-121.002831 ","94829","1468","177","4","12/28/2021 12:00:00 AM","2019","550660","NYTIMES-USCENSUS"
"12/29/2021 12:00:00 AM","Jefferson County","Missouri","Midwest","West North Central","29099","38.25763","-90.543681 ","39035","459","257","0","12/28/2021 12:00:00 AM","2019","225081","NYTIMES-USCENSUS"
"12/29/2021 12:00:00 AM","Pierce County","Washington","West","Pacific","53053","47.051413","-122.15324 ","110255","1011","789","2","12/28/2021 12:00:00 AM","2019","904980","NYTIMES-USCENSUS"
"12/29/2021 12:00:00 AM","Marion County","Kansas","Midwest","West North Central","20115","38.359647","-97.102771 ","2226","35","28","0","12/28/2021 12:00:00 AM","2019","11884","NYTIMES-USCENSUS"
"12/29/2021 12:00:00 AM","Jefferson County","Mississippi","South","East South Central","28063","31.733633","-91.043878 ","990","35","4","0","12/28/2021 12:00:00 AM","2019","6990","NYTIMES-USCENSUS"
"12/29/2021 12:00:00 AM","Mohave County","Arizona","West","Mountain","04015","35.717705","-113.749689 ","38716","1173","140","1","12/28/2021 12:00:00 AM","2019","212181","NYTIMES-USCENSUS"
"12/29/2021 12:00:00 AM","Matagorda County","Texas","South","West South Central","48321","28.77476","-96.001532 ","6298","162","8","0","12/28/2021 12:00:00 AM","2019","36643","NYTIMES-USCENSUS"
"12/29/2021 12:00:00 AM","Roberts County","Texas","South","West South Central","48393","35.838596","-100.836682 ","120","1","3","0","12/28/2021 12:00:00 AM","2019","854","NYTIMES-USCENSUS"
"12/29/2021 12:00:00 AM","Gregg County","Texas","South","West South Central","48183","32.486401","-94.816277 ","19663","586","14","0","12/28/2021 12:00:00 AM","2019","123945","NYTIMES-USCENSUS"
"12/29/2021 12:00:00 AM","Sangamon County","Illinois","Midwest","East North Central","17167","39.756886","-89.662435 ","32716","350","353","1","12/28/2021 12:00:00 AM","2019","194672","NYTIMES-USCENSUS"
"12/29/2021 12:00:00 AM","Scott County","Tennessee","South","East South Central","47151","36.435234","-84.50352 ","6051","89","30","0","12/28/2021 12:00:00 AM","2019","22068","NYTIMES-USCENSUS"
"12/29/2021 12:00:00 AM","Lapeer County","Michigan","Midwest","East North Central","26087","43.088633","-83.224325 ","16093","338","133","10","12/28/2021 12:00:00 AM","2019","87607","NYTIMES-USCENSUS"
"12/29/2021 12:00:00 AM","Cullman County","Alabama","South","East South Central","01043","34.131923","-86.869267 ","16816","310","91","1","12/28/2021 12:00:00 AM","2019","83768","NYTIMES-USCENSUS"
"12/29/2021 12:00:00 AM","Colleton County","South Carolina","South","South Atlantic","45029","32.835018","-80.655244 ","5894","192","45","0","12/28/2021 12:00:00 AM","2019","37677","NYTIMES-USCENSUS"
"12/29/2021 12:00:00 AM","Miller County","Arkansas","South","West South Central","05091","33.305505","-93.901502 ","6854","152","11","0","12/28/2021 12:00:00 AM","2019","43257","NYTIMES-USCENSUS"
"12/29/2021 12:00:00 AM","Johnson County","Nebraska","Midwest","West North Central","31097","40.394955","-96.265264 ","765","10","0","0","12/28/2021 12:00:00 AM","2019","5071","NYTIMES-USCENSUS"
"12/29/2021 12:00:00 AM","Orange County","Virginia","South","South Atlantic","51137","38.249326","-78.011092 ","4553","69","58","0","12/28/2021 12:00:00 AM","2019","37051","NYTIMES-USCENSUS"
"12/29/2021 12:00:00 AM","Davison County","South Dakota","Midwest","West North Central","46035","43.680439","-98.155868 ","4518","73","29","0","12/28/2021 12:00:00 AM","2019","19775","NYTIMES-USCENSUS"
"12/29/2021 12:00:00 AM","Marshall County","South Dakota","Midwest","West North Central","46091","45.737044","-97.58087 ","563","8","6","0","12/28/2021 12:00:00 AM","2019","4935","NYTIMES-USCENSUS"
"12/29/2021 12:00:00 AM","Marion County","Indiana","Midwest","East North Central","18097","39.782976","-86.135794 ","160894","2440","1436","3","12/28/2021 12:00:00 AM","2019","964582","NYTIMES-USCENSUS"
"12/29/2021 12:00:00 AM","Pratt County","Kansas","Midwest","West North Central","20151","37.647594","-98.74012 ","1480","29","20","0","12/28/2021 12:00:00 AM","2019","9164","NYTIMES-USCENSUS"
"12/29/2021 12:00:00 AM","Stone County","Arkansas","South","West South Central","05137","35.857001","-92.140482 ","2034","48","6","0","12/28/2021 12:00:00 AM","2019","12506","NYTIMES-USCENSUS"
"12/29/2021 12:00:00 AM","Lawrence County","Arkansas","South","West South Central","05075","36.041098","-91.101153 ","3672","63","16","0","12/28/2021 12:00:00 AM","2019","16406","NYTIMES-USCENSUS"
"12/29/2021 12:00:00 AM","Pembina County","North Dakota","Midwest","West North Central","38067","48.766896","-97.545405 ","1499","15","2","0","12/28/2021 12:00:00 AM","2019","6801","NYTIMES-USCENSUS"
"12/29/2021 12:00:00 AM","Edgecombe County","North Carolina","South","South Atlantic","37065","35.917077","-77.602742 ","8551","127","17","0","12/28/2021 12:00:00 AM","2019","51472","NYTIMES-USCENSUS"
"12/29/2021 12:00:00 AM","Oktibbeha County","Mississippi","South","East South Central","28105","33.422313","-88.876151 ","7410","141","31","0","12/28/2021 12:00:00 AM","2019","49587","NYTIMES-USCENSUS"
"12/29/2021 12:00:00 AM","Clinton County","New York","Northeast","Middle Atlantic","36019","44.752712","-73.705643 ","9615","56","47","1","12/28/2021 12:00:00 AM","2019","80485","NYTIMES-USCENSUS"
"12/29/2021 12:00:00 AM","Acadia Parish","Louisiana","South","West South Central","22001","30.291497","-92.411037 ","11036","256","86","1","12/28/2021 12:00:00 AM","2019","62045","NYTIMES-USCENSUS"
"12/29/2021 12:00:00 AM","Bristol County","Rhode Island","Northeast","New England","44001","41.70684","-71.286687 ","7660","156","328","3","12/28/2021 12:00:00 AM","2019","48479","NYTIMES-USCENSUS"
"12/29/2021 12:00:00 AM","Jo Daviess County","Illinois","Midwest","East North Central","17085","42.362391","-90.21147 ","2880","35","20","0","12/28/2021 12:00:00 AM","2019","21235","NYTIMES-USCENSUS"
"12/29/2021 12:00:00 AM","Elbert County","Colorado","West","Mountain","08039","39.315157","-104.114076 ","3276","30","22","0","12/28/2021 12:00:00 AM","2019","26729","NYTIMES-USCENSUS"
"12/29/2021 12:00:00 AM","Madison County","Missouri","Midwest","West North Central","29123","37.474481","-90.343413 ","2645","41","15","0","12/28/2021 12:00:00 AM","2019","12088","NYTIMES-USCENSUS"
"12/29/2021 12:00:00 AM","Concordia Parish","Louisiana","South","West South Central","22029","31.469805","-91.626315 ","3367","80","33","0","12/28/2021 12:00:00 AM","2019","19259","NYTIMES-USCENSUS"
"12/29/2021 12:00:00 AM","Monroe County","Alabama","South","East South Central","01099","31.580332","-87.383266 ","3469","66","28","0","12/28/2021 12:00:00 AM","2019","20733","NYTIMES-USCENSUS"
"12/29/2021 12:00:00 AM","Colusa County","California","West","Pacific","06011","39.177739","-122.237563 ","3360","21","1","0","12/28/2021 12:00:00 AM","2019","21547","NYTIMES-USCENSUS"
"12/29/2021 12:00:00 AM","Sacramento County","California","West","Pacific","06067","38.450136","-121.344329 ","176798","2533","432","6","12/28/2021 12:00:00 AM","2019","1552058","NYTIMES-USCENSUS"
"12/29/2021 12:00:00 AM","Columbia County","Oregon","West","Pacific","41009","45.941932","-123.081079 ","4740","61","9","0","12/28/2021 12:00:00 AM","2019","52354","NYTIMES-USCENSUS"
"12/29/2021 12:00:00 AM","Chippewa County","Michigan","Midwest","East North Central","26033","46.321819","-84.52063 ","8251","80","60","0","12/28/2021 12:00:00 AM","2019","37349","NYTIMES-USCENSUS"
"12/29/2021 12:00:00 AM","Blaine County","Idaho","West","Mountain","16013","43.394192","-113.955371 ","3462","27","81","0","12/28/2021 12:00:00 AM","2019","23021","NYTIMES-USCENSUS"
"12/29/2021 12:00:00 AM","Scotland County","North Carolina","South","South Atlantic","37165","34.840023","-79.477337 ","6154","110","40","0","12/28/2021 12:00:00 AM","2019","34823","NYTIMES-USCENSUS"
"12/29/2021 12:00:00 AM","Ralls County","Missouri","Midwest","West North Central","29173","39.553455","-91.524787 ","1866","19","14","0","12/28/2021 12:00:00 AM","2019","10309","NYTIMES-USCENSUS"
"12/29/2021 12:00:00 AM","Chickasaw County","Mississippi","South","East South Central","28017","33.933277","-88.947558 ","3454","73","26","0","12/28/2021 12:00:00 AM","2019","17103","NYTIMES-USCENSUS"
"12/29/2021 12:00:00 AM","Yavapai County","Arizona","West","Mountain","04025","34.631071","-112.577225 ","36081","948","135","3","12/28/2021 12:00:00 AM","2019","235099","NYTIMES-USCENSUS"
"12/29/2021 12:00:00 AM","Calvert County","Maryland","South","South Atlantic","24009","38.522719","-76.529762 ","7141","102","85","0","12/28/2021 12:00:00 AM","2019","92525","NYTIMES-USCENSUS"
"12/29/2021 12:00:00 AM","Mercer County","Illinois","Midwest","East North Central","17131","41.205605","-90.74177 ","2743","38","17","1","12/28/2021 12:00:00 AM","2019","15437","NYTIMES-USCENSUS"
"12/29/2021 12:00:00 AM","Dawson County","Texas","South","West South Central","48115","32.742528","-101.948771 ","2291","82","23","0","12/28/2021 12:00:00 AM","2019","12728","NYTIMES-USCENSUS"
"12/29/2021 12:00:00 AM","Bradford County","Pennsylvania","Northeast","Middle Atlantic","42015","41.791504","-76.502123 ","10618","153","123","1","12/28/2021 12:00:00 AM","2019","60323","NYTIMES-USCENSUS"
"12/29/2021 12:00:00 AM","Talladega County","Alabama","South","East South Central","01121","33.369314","-86.17593 ","14716","307","80","0","12/28/2021 12:00:00 AM","2019","79978","NYTIMES-USCENSUS"
"12/29/2021 12:00:00 AM","Barrow County","Georgia","South","South Atlantic","13013","33.992009","-83.712303 ","15948","205","126","0","12/28/2021 12:00:00 AM","2019","83240","NYTIMES-USCENSUS"
"12/29/2021 12:00:00 AM","Wood County","Wisconsin","Midwest","East North Central","55141","44.461413","-90.038825 ","14745","174","72","0","12/28/2021 12:00:00 AM","2019","72999","NYTIMES-USCENSUS"
"12/29/2021 12:00:00 AM","Jackson County","Missouri","Midwest","West North Central","29095","39.005364","-94.343211 ","66818","882","520","1","12/28/2021 12:00:00 AM","2019","703011","NYTIMES-USCENSUS"
"12/29/2021 12:00:00 AM","Beaufort County","North Carolina","South","South Atlantic","37013","35.482313","-76.842014 ","7881","137","8","0","12/28/2021 12:00:00 AM","2019","46994","NYTIMES-USCENSUS"
"12/29/2021 12:00:00 AM","Delta County","Texas","South","West South Central","48119","33.385933","-95.67335 ","734","22","0","0","12/28/2021 12:00:00 AM","2019","5331","NYTIMES-USCENSUS"
"12/29/2021 12:00:00 AM","Lamar County","Alabama","South","East South Central","01075","33.787085","-88.087431 ","2595","59","9","1","12/28/2021 12:00:00 AM","2019","13805","NYTIMES-USCENSUS"
"12/29/2021 12:00:00 AM","Palo Alto County","Iowa","Midwest","West North Central","19147","43.075337","-94.669055 ","1634","32","31","0","12/28/2021 12:00:00 AM","2019","8886","NYTIMES-USCENSUS"
"12/29/2021 12:00:00 AM","Jefferson County","Montana","West","Mountain","30043","46.124232","-112.059428 ","1947","21","4","0","12/28/2021 12:00:00 AM","2019","12221","NYTIMES-USCENSUS"
"12/29/2021 12:00:00 AM","Powhatan County","Virginia","South","South Atlantic","51145","37.549404","-77.912855 ","3320","31","24","0","12/28/2021 12:00:00 AM","2019","29652","NYTIMES-USCENSUS"
"12/29/2021 12:00:00 AM","Caswell County","North Carolina","South","South Atlantic","37033","36.394298","-79.339609 ","3511","39","-1","0","12/28/2021 12:00:00 AM","2019","22604","NYTIMES-USCENSUS"
"12/29/2021 12:00:00 AM","Hyde County","South Dakota","Midwest","West North Central","46069","44.537174","-99.472736 ","234","5","2","0","12/28/2021 12:00:00 AM","2019","1301","NYTIMES-USCENSUS"
"12/29/2021 12:00:00 AM","Montgomery County","Texas","South","West South Central","48339","30.298801","-95.50295 ","94783","1133","376","1","12/28/2021 12:00:00 AM","2019","607391","NYTIMES-USCENSUS"
"12/29/2021 12:00:00 AM","Glades County","Florida","South","South Atlantic","12043","26.95481","-81.19082 ","1478","34","0","0","12/28/2021 12:00:00 AM","2019","13811","NYTIMES-USCENSUS"
"12/29/2021 12:00:00 AM","Morton County","North Dakota","Midwest","West North Central","38059","46.710819","-101.298265 ","8498","131","31","0","12/28/2021 12:00:00 AM","2019","31364","NYTIMES-USCENSUS"
"12/29/2021 12:00:00 AM","Ford County","Illinois","Midwest","East North Central","17053","40.596539","-88.224588 ","3065","67","31","0","12/28/2021 12:00:00 AM","2019","12961","NYTIMES-USCENSUS"
"12/29/2021 12:00:00 AM","Rabun County","Georgia","South","South Atlantic","13241","34.883934","-83.40487 ","2745","77","5","0","12/28/2021 12:00:00 AM","2019","17137","NYTIMES-USCENSUS"
"12/29/2021 12:00:00 AM","Grant County","Indiana","Midwest","East North Central","18053","40.515758","-85.654946 ","13638","282","43","1","12/28/2021 12:00:00 AM","2019","65769","NYTIMES-USCENSUS"
"12/29/2021 12:00:00 AM","Franklin County","Idaho","West","Mountain","16041","42.173609","-111.822965 ","1832","27","1","1","12/28/2021 12:00:00 AM","2019","13876","NYTIMES-USCENSUS"
"12/29/2021 12:00:00 AM","Pike County","Mississippi","South","East South Central","28113","31.177516","-90.397725 ","6110","158","27","0","12/28/2021 12:00:00 AM","2019","39288","NYTIMES-USCENSUS"
"12/29/2021 12:00:00 AM","Knox County","Illinois","Midwest","East North Central","17095","40.930945","-90.213792 ","8749","215","77","1","12/28/2021 12:00:00 AM","2019","49699","NYTIMES-USCENSUS"
"12/29/2021 12:00:00 AM","Plymouth County","Iowa","Midwest","West North Central","19149","42.737585","-96.215864 ","5196","90","46","0","12/28/2021 12:00:00 AM","2019","25177","NYTIMES-USCENSUS"
"12/29/2021 12:00:00 AM","Howard County","Nebraska","Midwest","West North Central","31093","41.216851","-98.513342 ","852","10","4","0","12/28/2021 12:00:00 AM","2019","6445","NYTIMES-USCENSUS"
"12/29/2021 12:00:00 AM","Guadalupe County","Texas","South","West South Central","48187","29.582671","-97.948995 ","25787","348","34","0","12/28/2021 12:00:00 AM","2019","166847","NYTIMES-USCENSUS"
"12/29/2021 12:00:00 AM","Jones County","Mississippi","South","East South Central","28067","31.616601","-89.168532 ","14469","250","30","0","12/28/2021 12:00:00 AM","2019","68098","NYTIMES-USCENSUS"
"12/29/2021 12:00:00 AM","Prentiss County","Mississippi","South","East South Central","28117","34.620566","-88.522184 ","5401","87","21","0","12/28/2021 12:00:00 AM","2019","25126","NYTIMES-USCENSUS"
"12/29/2021 12:00:00 AM","Shelby County","Kentucky","South","East South Central","21211","38.239011","-85.228247 ","8092","129","40","1","12/28/2021 12:00:00 AM","2019","49024","NYTIMES-USCENSUS"
"12/29/2021 12:00:00 AM","Monroe County","Ohio","Midwest","East North Central","39111","39.726253","-81.090983 ","2589","65","14","0","12/28/2021 12:00:00 AM","2019","13654","NYTIMES-USCENSUS"
"12/29/2021 12:00:00 AM","Sioux County","Iowa","Midwest","West North Central","19167","43.082646","-96.17801 ","6520","78","58","0","12/28/2021 12:00:00 AM","2019","34855","NYTIMES-USCENSUS"
"12/29/2021 12:00:00 AM","Atoka County","Oklahoma","South","West South Central","40005","34.392469","-96.036558 ","2827","40","2","0","12/28/2021 12:00:00 AM","2019","13758","NYTIMES-USCENSUS"
"12/29/2021 12:00:00 AM","Rolette County","North Dakota","Midwest","West North Central","38079","48.768271","-99.840463 ","3556","36","10","0","12/28/2021 12:00:00 AM","2019","14176","NYTIMES-USCENSUS"
"12/29/2021 12:00:00 AM","Woods County","Oklahoma","South","West South Central","40151","36.726984","-98.863649 ","1783","30","12","0","12/28/2021 12:00:00 AM","2019","8793","NYTIMES-USCENSUS"
"12/29/2021 12:00:00 AM","Taylor County","Texas","South","West South Central","48441","32.297126","-99.89043 ","24620","616","102","4","12/28/2021 12:00:00 AM","2019","138034","NYTIMES-USCENSUS"
"12/29/2021 12:00:00 AM","Jackson County","Indiana","Midwest","East North Central","18071","38.911957","-86.042516 ","8639","101","74","0","12/28/2021 12:00:00 AM","2019","44231","NYTIMES-USCENSUS"
"12/29/2021 12:00:00 AM","Cedar County","Missouri","Midwest","West North Central","29039","37.733655","-93.850014 ","2098","42","21","0","12/28/2021 12:00:00 AM","2019","14349","NYTIMES-USCENSUS"
"12/29/2021 12:00:00 AM","St. Lawrence County","New York","Northeast","Middle Atlantic","36089","44.488112","-75.074311 ","14952","159","67","1","12/28/2021 12:00:00 AM","2019","107740","NYTIMES-USCENSUS"
"12/29/2021 12:00:00 AM","Pierce County","Georgia","South","South Atlantic","13229","31.353998","-82.21037 ","4408","107","12","0","12/28/2021 12:00:00 AM","2019","19465","NYTIMES-USCENSUS"
"12/29/2021 12:00:00 AM","Warrick County","Indiana","Midwest","East North Central","18173","38.097728","-87.272049 ","13286","209","69","1","12/28/2021 12:00:00 AM","2019","62998","NYTIMES-USCENSUS"
"12/29/2021 12:00:00 AM","Jasper County","Texas","South","West South Central","48241","30.752932","-94.022294 ","4241","165","36","0","12/28/2021 12:00:00 AM","2019","35529","NYTIMES-USCENSUS"
"12/29/2021 12:00:00 AM","Matanuska-Susitna Borough","Alaska","West","Pacific","02170","62.265626","-149.503993 ","25091","173","133","0","12/28/2021 12:00:00 AM","2019","108317","NYTIMES-USCENSUS"
"12/29/2021 12:00:00 AM","Kemper County","Mississippi","South","East South Central","28069","32.750136","-88.625631 ","1489","42","7","1","12/28/2021 12:00:00 AM","2019","9742","NYTIMES-USCENSUS"
"12/29/2021 12:00:00 AM","Allen County","Indiana","Midwest","East North Central","18003","41.091909","-85.071791 ","74434","985","456","1","12/28/2021 12:00:00 AM","2019","379299","NYTIMES-USCENSUS"
"12/29/2021 12:00:00 AM","Park County","Montana","West","Mountain","30067","45.463081","-110.53493 ","2821","31","8","0","12/28/2021 12:00:00 AM","2019","16606","NYTIMES-USCENSUS"
"12/29/2021 12:00:00 AM","Torrance County","New Mexico","West","Mountain","35057","34.554978","-105.890557 ","2249","35","10","1","12/28/2021 12:00:00 AM","2019","15461","NYTIMES-USCENSUS"
"12/29/2021 12:00:00 AM","Cleveland County","North Carolina","South","South Atlantic","37045","35.33463","-81.557114 ","19945","324","60","2","12/28/2021 12:00:00 AM","2019","97947","NYTIMES-USCENSUS"
"12/29/2021 12:00:00 AM","Wharton County","Texas","South","West South Central","48481","29.27848","-96.229674 ","6492","193","16","0","12/28/2021 12:00:00 AM","2019","41556","NYTIMES-USCENSUS"
"12/29/2021 12:00:00 AM","Shiawassee County","Michigan","Midwest","East North Central","26155","42.951545","-84.146352 ","12724","183","134","1","12/28/2021 12:00:00 AM","2019","68122","NYTIMES-USCENSUS"
"12/29/2021 12:00:00 AM","Lake County","Florida","South","South Atlantic","12069","28.764113","-81.712282 ","56730","1250","0","-2","12/28/2021 12:00:00 AM","2019","367118","NYTIMES-USCENSUS"
"12/29/2021 12:00:00 AM","Seminole County","Oklahoma","South","West South Central","40133","35.158366","-96.602857 ","4179","107","29","0","12/28/2021 12:00:00 AM","2019","24258","NYTIMES-USCENSUS"
"12/29/2021 12:00:00 AM","Logan County","Oklahoma","South","West South Central","40083","35.914277","-97.450952 ","6686","127","73","4","12/28/2021 12:00:00 AM","2019","48011","NYTIMES-USCENSUS"
"12/29/2021 12:00:00 AM","Gallatin County","Montana","West","Mountain","30031","45.518054","-111.163921 ","23574","104","360","0","12/28/2021 12:00:00 AM","2019","114434","NYTIMES-USCENSUS"
"12/29/2021 12:00:00 AM","McKinley County","New Mexico","West","Mountain","35031","35.584062","-108.253294 ","17490","535","41","0","12/28/2021 12:00:00 AM","2019","71367","NYTIMES-USCENSUS"
"12/29/2021 12:00:00 AM","McIntosh County","North Dakota","Midwest","West North Central","38051","46.108682","-99.416487 ","541","9","0","0","12/28/2021 12:00:00 AM","2019","2497","NYTIMES-USCENSUS"
"12/29/2021 12:00:00 AM","Lawrence County","Kentucky","South","East South Central","21127","38.074453","-82.73829 ","3167","48","9","0","12/28/2021 12:00:00 AM","2019","15317","NYTIMES-USCENSUS"
"12/29/2021 12:00:00 AM","Bannock County","Idaho","West","Mountain","16005","42.692921","-112.228982 ","14666","216","36","0","12/28/2021 12:00:00 AM","2019","87808","NYTIMES-USCENSUS"
"12/29/2021 12:00:00 AM","Wallowa County","Oregon","West","Pacific","41063","45.593753","-117.18558 ","782","13","2","0","12/28/2021 12:00:00 AM","2019","7208","NYTIMES-USCENSUS"
"12/29/2021 12:00:00 AM","Franklin County","North Carolina","South","South Atlantic","37069","36.088241","-78.28309 ","11105","64","108","0","12/28/2021 12:00:00 AM","2019","69685","NYTIMES-USCENSUS"
"12/29/2021 12:00:00 AM","Merced County","California","West","Pacific","06047","37.194806","-120.722802 ","46970","698","94","2","12/28/2021 12:00:00 AM","2019","277680","NYTIMES-USCENSUS"
"12/29/2021 12:00:00 AM","Lancaster County","Virginia","South","South Atlantic","51103","37.704843","-76.412663 ","1167","24","12","0","12/28/2021 12:00:00 AM","2019","10603","NYTIMES-USCENSUS"
"12/29/2021 12:00:00 AM","Hall County","Georgia","South","South Atlantic","13139","34.317569","-83.8185 ","41083","697","117","1","12/28/2021 12:00:00 AM","2019","204441","NYTIMES-USCENSUS"
"12/29/2021 12:00:00 AM","Coles County","Illinois","Midwest","East North Central","17029","39.51368","-88.220782 ","9665","148","65","2","12/28/2021 12:00:00 AM","2019","50621","NYTIMES-USCENSUS"
"12/29/2021 12:00:00 AM","Daviess County","Missouri","Midwest","West North Central","29061","39.962839","-93.970053 ","1295","17","13","0","12/28/2021 12:00:00 AM","2019","8278","NYTIMES-USCENSUS"
"12/29/2021 12:00:00 AM","Conejos County","Colorado","West","Mountain","08021","37.213406","-106.176447 ","1189","46","3","2","12/28/2021 12:00:00 AM","2019","8205","NYTIMES-USCENSUS"
"12/29/2021 12:00:00 AM","Calhoun County","Iowa","Midwest","West North Central","19025","42.38617","-94.643683 ","2102","20","35","0","12/28/2021 12:00:00 AM","2019","9668","NYTIMES-USCENSUS"
"12/29/2021 12:00:00 AM","Norfolk County","Massachusetts","Northeast","New England","25021","42.171738","-71.18111 ","82736","1949","1523","2","12/28/2021 12:00:00 AM","2019","706775","NYTIMES-USCENSUS"
"12/29/2021 12:00:00 AM","Crane County","Texas","South","West South Central","48103","31.422796","-102.487774 ","996","19","6","0","12/28/2021 12:00:00 AM","2019","4797","NYTIMES-USCENSUS"
"12/29/2021 12:00:00 AM","Lampasas County","Texas","South","West South Central","48281","31.196731","-98.240889 ","3683","71","3","1","12/28/2021 12:00:00 AM","2019","21428","NYTIMES-USCENSUS"
"12/29/2021 12:00:00 AM","Rooks County","Kansas","Midwest","West North Central","20163","39.346006","-99.324492 ","1015","16","23","0","12/28/2021 12:00:00 AM","2019","4920","NYTIMES-USCENSUS"
"12/29/2021 12:00:00 AM","Davis County","Utah","West","Mountain","49011","41.037559","-112.201943 ","65168","311","370","0","12/28/2021 12:00:00 AM","2019","355481","NYTIMES-USCENSUS"
"12/29/2021 12:00:00 AM","Morgan County","Colorado","West","Mountain","08087","40.263159","-103.81221 ","4221","125","13","0","12/28/2021 12:00:00 AM","2019","29068","NYTIMES-USCENSUS"
"12/29/2021 12:00:00 AM","Ashland County","Wisconsin","Midwest","East North Central","55003","46.544424","-90.679691 ","2399","24","2","0","12/28/2021 12:00:00 AM","2019","15562","NYTIMES-USCENSUS"
"12/29/2021 12:00:00 AM","Susquehanna County","Pennsylvania","Northeast","Middle Atlantic","42115","41.819665","-75.800969 ","5659","86","54","3","12/28/2021 12:00:00 AM","2019","40328","NYTIMES-USCENSUS"
"12/29/2021 12:00:00 AM","Houston County","Minnesota","Midwest","West North Central","27055","43.66699","-91.501556 ","3128","18","16","0","12/28/2021 12:00:00 AM","2019","18600","NYTIMES-USCENSUS"
"12/29/2021 12:00:00 AM","Eagle County","Colorado","West","Mountain","08037","39.626992","-106.695169 ","11238","32","339","0","12/28/2021 12:00:00 AM","2019","55127","NYTIMES-USCENSUS"
"12/29/2021 12:00:00 AM","Dixon County","Nebraska","Midwest","West North Central","31051","42.485086","-96.855784 ","884","9","3","0","12/28/2021 12:00:00 AM","2019","5636","NYTIMES-USCENSUS"
"12/29/2021 12:00:00 AM","Madison County","Arkansas","South","West South Central","05087","36.012545","-93.724053 ","2880","44","11","0","12/28/2021 12:00:00 AM","2019","16576","NYTIMES-USCENSUS"
"12/29/2021 12:00:00 AM","Rapides Parish","Louisiana","South","West South Central","22079","31.193204","-92.535953 ","22474","483","181","1","12/28/2021 12:00:00 AM","2019","129648","NYTIMES-USCENSUS"
"12/29/2021 12:00:00 AM","Christian County","Illinois","Midwest","East North Central","17021","39.545524","-89.279593 ","6690","104","45","0","12/28/2021 12:00:00 AM","2019","32304","NYTIMES-USCENSUS"
"12/29/2021 12:00:00 AM","Warren County","New Jersey","Northeast","Middle Atlantic","34041","40.853491","-75.009498 ","16217","277","293","0","12/28/2021 12:00:00 AM","2019","105267","NYTIMES-USCENSUS"
"12/29/2021 12:00:00 AM","Whatcom County","Washington","West","Pacific","53073","48.842653","-121.836432 ","20116","200","59","3","12/28/2021 12:00:00 AM","2019","229247","NYTIMES-USCENSUS"
"12/29/2021 12:00:00 AM","Randolph County","Arkansas","South","West South Central","05121","36.341298","-91.028441 ","3703","67","22","0","12/28/2021 12:00:00 AM","2019","17958","NYTIMES-USCENSUS"
"12/29/2021 12:00:00 AM","McLennan County","Texas","South","West South Central","48309","31.549596","-97.201511 ","44473","769","149","0","12/28/2021 12:00:00 AM","2019","256623","NYTIMES-USCENSUS"
"12/29/2021 12:00:00 AM","Erie County","Pennsylvania","Northeast","Middle Atlantic","42049","42.117952","-80.096386 ","40770","625","167","4","12/28/2021 12:00:00 AM","2019","269728","NYTIMES-USCENSUS"
"12/29/2021 12:00:00 AM","Latah County","Idaho","West","Mountain","16057","46.81892","-116.730974 ","4874","41","12","0","12/28/2021 12:00:00 AM","2019","40108","NYTIMES-USCENSUS"
"12/29/2021 12:00:00 AM","Burlington County","New Jersey","Northeast","Middle Atlantic","34005","39.875786","-74.663006 ","68592","1011","823","7","12/28/2021 12:00:00 AM","2019","445349","NYTIMES-USCENSUS"
"12/29/2021 12:00:00 AM","Warren County","North Carolina","South","South Atlantic","37185","36.398105","-78.099899 ","2663","36","12","0","12/28/2021 12:00:00 AM","2019","19731","NYTIMES-USCENSUS"
"12/29/2021 12:00:00 AM","Wright County","Iowa","Midwest","West North Central","19197","42.733007","-93.734735 ","2924","54","70","0","12/28/2021 12:00:00 AM","2019","12562","NYTIMES-USCENSUS"
"12/29/2021 12:00:00 AM","Yuma County","Arizona","West","Mountain","04027","32.773942","-113.910905 ","44176","982","49","3","12/28/2021 12:00:00 AM","2019","213787","NYTIMES-USCENSUS"
"12/29/2021 12:00:00 AM","Humboldt County","Nevada","West","Mountain","32013","41.407914","-118.127591 ","3248","43","5","0","12/28/2021 12:00:00 AM","2019","16831","NYTIMES-USCENSUS"
"12/29/2021 12:00:00 AM","Kossuth County","Iowa","Midwest","West North Central","19109","43.212356","-94.213965 ","3226","80","75","0","12/28/2021 12:00:00 AM","2019","14813","NYTIMES-USCENSUS"
"12/29/2021 12:00:00 AM","Brown County","Texas","South","West South Central","48049","31.764137","-98.998456 ","7389","195","32","0","12/28/2021 12:00:00 AM","2019","37864","NYTIMES-USCENSUS"
"12/29/2021 12:00:00 AM","Teton County","Wyoming","West","Mountain","56039","44.048662","-110.426087 ","5835","14","68","0","12/28/2021 12:00:00 AM","2019","23464","NYTIMES-USCENSUS"
"12/29/2021 12:00:00 AM","Lafourche Parish","Louisiana","South","West South Central","22057","29.491992","-90.394849 ","18940","321","206","0","12/28/2021 12:00:00 AM","2019","97614","NYTIMES-USCENSUS"
"12/29/2021 12:00:00 AM","Fulton County","Indiana","Midwest","East North Central","18049","41.050384","-86.265006 ","3937","84","18","1","12/28/2021 12:00:00 AM","2019","19974","NYTIMES-USCENSUS"
"12/29/2021 12:00:00 AM","Tom Green County","Texas","South","West South Central","48451","31.398823","-100.463788 ","26474","395","173","1","12/28/2021 12:00:00 AM","2019","119200","NYTIMES-USCENSUS"
"12/29/2021 12:00:00 AM","Merrick County","Nebraska","Midwest","West North Central","31121","41.16979","-98.031057 ","1283","15","2","0","12/28/2021 12:00:00 AM","2019","7755","NYTIMES-USCENSUS"
"12/29/2021 12:00:00 AM","Grant County","New Mexico","West","Mountain","35017","32.732087","-108.381504 ","4302","62","73","1","12/28/2021 12:00:00 AM","2019","26998","NYTIMES-USCENSUS"
"12/29/2021 12:00:00 AM","Steele County","North Dakota","Midwest","West North Central","38091","47.451062","-97.71892 ","299","2","1","0","12/28/2021 12:00:00 AM","2019","1890","NYTIMES-USCENSUS"
"12/29/2021 12:00:00 AM","Wilcox County","Alabama","South","East South Central","01131","31.990082","-87.304935 ","1822","38","6","0","12/28/2021 12:00:00 AM","2019","10373","NYTIMES-USCENSUS"
"12/29/2021 12:00:00 AM","Marion County","South Carolina","South","South Atlantic","45067","34.08362","-79.354001 ","5672","143","50","0","12/28/2021 12:00:00 AM","2019","30657","NYTIMES-USCENSUS"
"12/29/2021 12:00:00 AM","Grady County","Oklahoma","South","West South Central","40051","35.021058","-97.88689 ","9044","200","90","2","12/28/2021 12:00:00 AM","2019","55834","NYTIMES-USCENSUS"
"12/29/2021 12:00:00 AM","Jeff Davis County","Georgia","South","South Atlantic","13161","31.811615","-82.636825 ","3001","63","5","0","12/28/2021 12:00:00 AM","2019","15115","NYTIMES-USCENSUS"
"12/29/2021 12:00:00 AM","Douglas County","Kansas","Midwest","West North Central","20045","38.896417","-95.290947 ","14853","111","564","0","12/28/2021 12:00:00 AM","2019","122259","NYTIMES-USCENSUS"
"12/29/2021 12:00:00 AM","Mecklenburg County","Virginia","South","South Atlantic","51117","36.687256","-78.368959 ","3749","97","4","0","12/28/2021 12:00:00 AM","2019","30587","NYTIMES-USCENSUS"
"12/29/2021 12:00:00 AM","Montgomery County","Indiana","Midwest","East North Central","18107","40.040296","-86.892715 ","7908","133","28","3","12/28/2021 12:00:00 AM","2019","38338","NYTIMES-USCENSUS"
"12/29/2021 12:00:00 AM","Logan County","Kentucky","South","East South Central","21141","36.859607","-86.881288 ","5635","98","13","0","12/28/2021 12:00:00 AM","2019","27102","NYTIMES-USCENSUS"
"12/29/2021 12:00:00 AM","Portsmouth city","Virginia","South","South Atlantic","51740","36.859339","-76.356973 ","14089","256","196","0","12/28/2021 12:00:00 AM","2019","94398","NYTIMES-USCENSUS"
"12/29/2021 12:00:00 AM","Van Zandt County","Texas","South","West South Central","48467","32.558787","-95.836906 ","8437","233","7","1","12/28/2021 12:00:00 AM","2019","56590","NYTIMES-USCENSUS"
"12/29/2021 12:00:00 AM","Lafayette County","Florida","South","South Atlantic","12067","29.990066","-83.17851 ","2232","51","0","-2","12/28/2021 12:00:00 AM","2019","8422","NYTIMES-USCENSUS"
"12/29/2021 12:00:00 AM","Southampton County","Virginia","South","South Atlantic","51175","36.720068","-77.103813 ","2534","74","15","1","12/28/2021 12:00:00 AM","2019","17631","NYTIMES-USCENSUS"
"12/29/2021 12:00:00 AM","Koochiching County","Minnesota","Midwest","West North Central","27071","48.245374","-93.782896 ","1987","29","-1","0","12/28/2021 12:00:00 AM","2019","12229","NYTIMES-USCENSUS"
"12/29/2021 12:00:00 AM","Houston County","Alabama","South","East South Central","01069","31.158183","-85.296411 ","18275","432","65","2","12/28/2021 12:00:00 AM","2019","105882","NYTIMES-USCENSUS"
"12/29/2021 12:00:00 AM","Essex County","Virginia","South","South Atlantic","51057","37.936389","-76.933747 ","1441","21","13","0","12/28/2021 12:00:00 AM","2019","10953","NYTIMES-USCENSUS"
"12/29/2021 12:00:00 AM","Wilson County","Tennessee","South","East South Central","47189","36.149527","-86.291242 ","29614","404","288","1","12/28/2021 12:00:00 AM","2019","144657","NYTIMES-USCENSUS"
"12/29/2021 12:00:00 AM","Trego County","Kansas","Midwest","West North Central","20195","38.921302","-99.865423 ","560","9","5","0","12/28/2021 12:00:00 AM","2019","2803","NYTIMES-USCENSUS"
"12/29/2021 12:00:00 AM","Richland County","Montana","West","Mountain","30083","47.785633","-104.563408 ","2033","30","3","0","12/28/2021 12:00:00 AM","2019","10803","NYTIMES-USCENSUS"
"12/29/2021 12:00:00 AM","Alachua County","Florida","South","South Atlantic","12001","29.67574","-82.357221 ","41206","539","0","1","12/28/2021 12:00:00 AM","2019","269043","NYTIMES-USCENSUS"
"12/29/2021 12:00:00 AM","Snohomish County","Washington","West","Pacific","53061","48.054913","-121.765038 ","79407","840","493","0","12/28/2021 12:00:00 AM","2019","822083","NYTIMES-USCENSUS"
"12/29/2021 12:00:00 AM","Oscoda County","Michigan","Midwest","East North Central","26135","44.687257","-84.126905 ","1172","51","4","1","12/28/2021 12:00:00 AM","2019","8241","NYTIMES-USCENSUS"
"12/29/2021 12:00:00 AM","New London County","Connecticut","Northeast","New England","09011","41.472652","-72.108634 ","35683","522","354","0","12/28/2021 12:00:00 AM","2019","265206","NYTIMES-USCENSUS"
"12/29/2021 12:00:00 AM","Mason County","Michigan","Midwest","East North Central","26105","43.957196","-86.442937 ","4767","66","28","0","12/28/2021 12:00:00 AM","2019","29144","NYTIMES-USCENSUS"
"12/29/2021 12:00:00 AM","Trempealeau County","Wisconsin","Midwest","East North Central","55121","44.30305","-91.358867 ","6103","55","34","1","12/28/2021 12:00:00 AM","2019","29649","NYTIMES-USCENSUS"
"12/29/2021 12:00:00 AM","Rutland County","Vermont","Northeast","New England","50021","43.580858","-73.038202 ","7104","40","80","0","12/28/2021 12:00:00 AM","2019","58191","NYTIMES-USCENSUS"
"12/29/2021 12:00:00 AM","Richland County","South Carolina","South","South Atlantic","45079","34.029095","-80.898037 ","74208","801","2158","1","12/28/2021 12:00:00 AM","2019","415759","NYTIMES-USCENSUS"
"12/29/2021 12:00:00 AM","Lincoln County","Oregon","West","Pacific","41041","44.641061","-123.911212 ","3879","58","23","0","12/28/2021 12:00:00 AM","2019","49962","NYTIMES-USCENSUS"
"12/29/2021 12:00:00 AM","Polk County","Florida","South","South Atlantic","12105","27.953649","-81.693534 ","132809","2531","0","3","12/28/2021 12:00:00 AM","2019","724777","NYTIMES-USCENSUS"
"12/29/2021 12:00:00 AM","Lincoln County","Missouri","Midwest","West North Central","29113","39.062255","-90.962916 ","11310","101","72","1","12/28/2021 12:00:00 AM","2019","59013","NYTIMES-USCENSUS"
"12/29/2021 12:00:00 AM","Hampton County","South Carolina","South","South Atlantic","45049","32.778334","-81.143822 ","3227","75","36","0","12/28/2021 12:00:00 AM","2019","19222","NYTIMES-USCENSUS"
"12/29/2021 12:00:00 AM","Mackinac County","Michigan","Midwest","East North Central","26097","46.167868","-85.303762 ","1702","19","20","0","12/28/2021 12:00:00 AM","2019","10799","NYTIMES-USCENSUS"
"12/29/2021 12:00:00 AM","Saline County","Missouri","Midwest","West North Central","29195","39.13584","-93.204164 ","4670","86","23","0","12/28/2021 12:00:00 AM","2019","22761","NYTIMES-USCENSUS"
"12/29/2021 12:00:00 AM","Colfax County","New Mexico","West","Mountain","35007","36.612964","-104.64011 ","1959","56","4","0","12/28/2021 12:00:00 AM","2019","11941","NYTIMES-USCENSUS"
"12/29/2021 12:00:00 AM","Kent County","Rhode Island","Northeast","New England","44003","41.675118","-71.580282 ","29360","424","1189","9","12/28/2021 12:00:00 AM","2019","164292","NYTIMES-USCENSUS"
"12/29/2021 12:00:00 AM","Randolph County","Illinois","Midwest","East North Central","17157","38.056515","-89.82121 ","6245","113","54","0","12/28/2021 12:00:00 AM","2019","31782","NYTIMES-USCENSUS"
"12/29/2021 12:00:00 AM","Musselshell County","Montana","West","Mountain","30065","46.505281","-108.439763 ","767","26","0","0","12/28/2021 12:00:00 AM","2019","4633","NYTIMES-USCENSUS"
"12/29/2021 12:00:00 AM","Emmet County","Michigan","Midwest","East North Central","26047","45.590094","-84.986822 ","4549","60","30","1","12/28/2021 12:00:00 AM","2019","33415","NYTIMES-USCENSUS"
"12/29/2021 12:00:00 AM","Mason County","West Virginia","South","South Atlantic","54053","38.770914","-82.029007 ","4301","66","19","0","12/28/2021 12:00:00 AM","2019","26516","NYTIMES-USCENSUS"
"12/29/2021 12:00:00 AM","Lumpkin County","Georgia","South","South Atlantic","13187","34.56814","-83.998925 ","5282","111","16","0","12/28/2021 12:00:00 AM","2019","33610","NYTIMES-USCENSUS"
"12/29/2021 12:00:00 AM","Brown County","Wisconsin","Midwest","East North Central","55009","44.474024","-87.99613 ","58864","374","423","0","12/28/2021 12:00:00 AM","2019","264542","NYTIMES-USCENSUS"
"12/29/2021 12:00:00 AM","Lipscomb County","Texas","South","West South Central","48295","36.2802","-100.272683 ","491","12","3","0","12/28/2021 12:00:00 AM","2019","3233","NYTIMES-USCENSUS"
"12/29/2021 12:00:00 AM","Harris County","Georgia","South","South Atlantic","13145","32.731549","-84.912432 ","4036","96","28","0","12/28/2021 12:00:00 AM","2019","35236","NYTIMES-USCENSUS"
"12/29/2021 12:00:00 AM","Bladen County","North Carolina","South","South Atlantic","37017","34.591938","-78.539489 ","5883","96","23","0","12/28/2021 12:00:00 AM","2019","32722","NYTIMES-USCENSUS"
"12/29/2021 12:00:00 AM","Yellowstone County","Montana","West","Mountain","30111","45.936987","-108.276656 ","32072","473","79","1","12/28/2021 12:00:00 AM","2019","161300","NYTIMES-USCENSUS"
"12/29/2021 12:00:00 AM","Preble County","Ohio","Midwest","East North Central","39135","39.73881","-84.644758 ","6963","147","28","0","12/28/2021 12:00:00 AM","2019","40882","NYTIMES-USCENSUS"
"12/29/2021 12:00:00 AM","Sabine Parish","Louisiana","South","West South Central","22085","31.560402","-93.559579 ","4795","99","67","0","12/28/2021 12:00:00 AM","2019","23884","NYTIMES-USCENSUS"
"12/29/2021 12:00:00 AM","Ingham County","Michigan","Midwest","East North Central","26065","42.603534","-84.373811 ","42204","581","812","4","12/28/2021 12:00:00 AM","2019","292406","NYTIMES-USCENSUS"
"12/29/2021 12:00:00 AM","Boyle County","Kentucky","South","East South Central","21021","37.618104","-84.868352 ","5934","116","22","0","12/28/2021 12:00:00 AM","2019","30060","NYTIMES-USCENSUS"
"12/29/2021 12:00:00 AM","Warren County","Iowa","Midwest","West North Central","19181","41.332446","-93.568751 ","9377","112","170","1","12/28/2021 12:00:00 AM","2019","51466","NYTIMES-USCENSUS"
"12/29/2021 12:00:00 AM","Tompkins County","New York","Northeast","Middle Atlantic","36109","42.453006","-76.473483 ","11134","71","104","1","12/28/2021 12:00:00 AM","2019","102180","NYTIMES-USCENSUS"
"12/29/2021 12:00:00 AM","Cass County","North Dakota","Midwest","West North Central","38017","46.927003","-97.252375 ","39251","283","231","0","12/28/2021 12:00:00 AM","2019","181923","NYTIMES-USCENSUS"
"12/29/2021 12:00:00 AM","Wolfe County","Kentucky","South","East South Central","21237","37.743893","-83.49511 ","1493","14","18","0","12/28/2021 12:00:00 AM","2019","7157","NYTIMES-USCENSUS"
"12/29/2021 12:00:00 AM","Lee County","Iowa","Midwest","West North Central","19111","40.647588","-91.477157 ","6387","109","82","0","12/28/2021 12:00:00 AM","2019","33657","NYTIMES-USCENSUS"
"12/29/2021 12:00:00 AM","Marshall County","Indiana","Midwest","East North Central","18099","41.325003","-86.269036 ","10032","167","27","0","12/28/2021 12:00:00 AM","2019","46258","NYTIMES-USCENSUS"
"12/29/2021 12:00:00 AM","Clayton County","Iowa","Midwest","West North Central","19043","42.840985","-91.323576 ","2783","64","49","1","12/28/2021 12:00:00 AM","2019","17549","NYTIMES-USCENSUS"
"12/29/2021 12:00:00 AM","Cedar County","Iowa","Midwest","West North Central","19031","41.77236","-91.132611 ","2996","27","77","0","12/28/2021 12:00:00 AM","2019","18627","NYTIMES-USCENSUS"
"12/29/2021 12:00:00 AM","Sampson County","North Carolina","South","South Atlantic","37163","34.989298","-78.371261 ","12067","143","21","0","12/28/2021 12:00:00 AM","2019","63531","NYTIMES-USCENSUS"
"12/29/2021 12:00:00 AM","Albemarle County","Virginia","South","South Atlantic","51003","38.024184","-78.553506 ","9491","117","146","0","12/28/2021 12:00:00 AM","2019","109330","NYTIMES-USCENSUS"
"12/29/2021 12:00:00 AM","Wilkes County","Georgia","South","South Atlantic","13317","33.779031","-82.747921 ","1632","39","6","0","12/28/2021 12:00:00 AM","2019","9777","NYTIMES-USCENSUS"
"12/29/2021 12:00:00 AM","Floyd County","Indiana","Midwest","East North Central","18043","38.318081","-85.911847 ","12982","247","99","2","12/28/2021 12:00:00 AM","2019","78522","NYTIMES-USCENSUS"
"12/29/2021 12:00:00 AM","Hardin County","Illinois","Midwest","East North Central","17069","37.517852","-88.266148 ","758","16","1","0","12/28/2021 12:00:00 AM","2019","3821","NYTIMES-USCENSUS"
"12/29/2021 12:00:00 AM","Summers County","West Virginia","South","South Atlantic","54089","37.655999","-80.856325 ","1710","37","11","0","12/28/2021 12:00:00 AM","2019","12573","NYTIMES-USCENSUS"
"12/29/2021 12:00:00 AM","Lafayette Parish","Louisiana","South","West South Central","22055","30.206507","-92.06417 ","41399","415","462","0","12/28/2021 12:00:00 AM","2019","244390","NYTIMES-USCENSUS"
"12/29/2021 12:00:00 AM","Cleveland County","Arkansas","South","West South Central","05025","33.893201","-92.188714 ","1502","33","7","0","12/28/2021 12:00:00 AM","2019","7956","NYTIMES-USCENSUS"
"12/29/2021 12:00:00 AM","Cheboygan County","Michigan","Midwest","East North Central","26031","45.476022","-84.495431 ","3676","80","30","0","12/28/2021 12:00:00 AM","2019","25276","NYTIMES-USCENSUS"
"12/29/2021 12:00:00 AM","Jackson County","Kansas","Midwest","West North Central","20085","39.411145","-95.794485 ","2672","21","40","1","12/28/2021 12:00:00 AM","2019","13171","NYTIMES-USCENSUS"
"12/29/2021 12:00:00 AM","Providence County","Rhode Island","Northeast","New England","44007","41.869768","-71.578625 ","138925","2204","4544","31","12/28/2021 12:00:00 AM","2019","638931","NYTIMES-USCENSUS"
"12/29/2021 12:00:00 AM","Washington County","Virginia","South","South Atlantic","51191","36.747814","-81.950322 ","9059","177","36","1","12/28/2021 12:00:00 AM","2019","53740","NYTIMES-USCENSUS"
"12/29/2021 12:00:00 AM","Chase County","Nebraska","Midwest","West North Central","31029","40.53039","-101.694192 ","652","5","0","0","12/28/2021 12:00:00 AM","2019","3924","NYTIMES-USCENSUS"
"12/29/2021 12:00:00 AM","Pendleton County","West Virginia","South","South Atlantic","54071","38.67445","-79.340617 ","1319","16","8","0","12/28/2021 12:00:00 AM","2019","6969","NYTIMES-USCENSUS"
"12/29/2021 12:00:00 AM","Richland County","Ohio","Midwest","East North Central","39139","40.774159","-82.542781 ","23726","383","226","0","12/28/2021 12:00:00 AM","2019","121154","NYTIMES-USCENSUS"
"12/29/2021 12:00:00 AM","Washington County","Nebraska","Midwest","West North Central","31177","41.533973","-96.224577 ","3362","29","17","0","12/28/2021 12:00:00 AM","2019","20729","NYTIMES-USCENSUS"
"12/29/2021 12:00:00 AM","Converse County","Wyoming","West","Mountain","56009","42.984623","-105.524752 ","2379","48","4","0","12/28/2021 12:00:00 AM","2019","13822","NYTIMES-USCENSUS"
"12/29/2021 12:00:00 AM","Lee County","Alabama","South","East South Central","01081","32.604064","-85.353048 ","26595","269","141","0","12/28/2021 12:00:00 AM","2019","164542","NYTIMES-USCENSUS"
"12/29/2021 12:00:00 AM","Ketchikan Gateway Borough","Alaska","West","Pacific","02130","55.449938","-131.106685 ","2348","13","24","0","12/28/2021 12:00:00 AM","2019","13901","NYTIMES-USCENSUS"
"12/29/2021 12:00:00 AM","Crittenden County","Kentucky","South","East South Central","21055","37.358149","-88.10501 ","1450","37","5","0","12/28/2021 12:00:00 AM","2019","8806","NYTIMES-USCENSUS"
"12/29/2021 12:00:00 AM","Montezuma County","Colorado","West","Mountain","08083","37.338025","-108.595786 ","4212","54","14","1","12/28/2021 12:00:00 AM","2019","26183","NYTIMES-USCENSUS"
"12/29/2021 12:00:00 AM","Pulaski County","Indiana","Midwest","East North Central","18131","41.045272","-86.692538 ","2353","70","16","1","12/28/2021 12:00:00 AM","2019","12353","NYTIMES-USCENSUS"
"12/29/2021 12:00:00 AM","Payne County","Oklahoma","South","West South Central","40119","36.079225","-96.975255 ","12814","127","179","2","12/28/2021 12:00:00 AM","2019","81784","NYTIMES-USCENSUS"
"12/29/2021 12:00:00 AM","Lewis County","Tennessee","South","East South Central","47101","35.523244","-87.496983 ","2613","48","8","0","12/28/2021 12:00:00 AM","2019","12268","NYTIMES-USCENSUS"
"12/29/2021 12:00:00 AM","Noble County","Ohio","Midwest","East North Central","39121","39.767232","-81.452493 ","2391","50","21","0","12/28/2021 12:00:00 AM","2019","14424","NYTIMES-USCENSUS"
"12/29/2021 12:00:00 AM","Douglas County","South Dakota","Midwest","West North Central","46043","43.391506","-98.358433 ","588","14","2","0","12/28/2021 12:00:00 AM","2019","2921","NYTIMES-USCENSUS"
"12/29/2021 12:00:00 AM","Passaic County","New Jersey","Northeast","Middle Atlantic","34031","41.036655","-74.299408 ","99325","2067","1985","2","12/28/2021 12:00:00 AM","2019","501826","NYTIMES-USCENSUS"
"12/29/2021 12:00:00 AM","Dodge County","Nebraska","Midwest","West North Central","31053","41.577008","-96.645852 ","7326","83","17","0","12/28/2021 12:00:00 AM","2019","36565","NYTIMES-USCENSUS"
"12/29/2021 12:00:00 AM","Hampshire County","Massachusetts","Northeast","New England","25015","42.339459","-72.663694 ","15452","343","128","0","12/28/2021 12:00:00 AM","2019","160830","NYTIMES-USCENSUS"
"12/29/2021 12:00:00 AM","Winn Parish","Louisiana","South","West South Central","22127","31.941187","-92.641269 ","2775","58","31","0","12/28/2021 12:00:00 AM","2019","13904","NYTIMES-USCENSUS"
"12/29/2021 12:00:00 AM","Cumberland County","Tennessee","South","East South Central","47035","35.952398","-84.994761 ","11998","275","36","0","12/28/2021 12:00:00 AM","2019","60520","NYTIMES-USCENSUS"
"12/29/2021 12:00:00 AM","St. John the Baptist Parish","Louisiana","South","West South Central","22095","30.144068","-90.49096 ","6900","173","148","0","12/28/2021 12:00:00 AM","2019","42837","NYTIMES-USCENSUS"
"12/29/2021 12:00:00 AM","Runnels County","Texas","South","West South Central","48399","31.845119","-99.982715 ","1784","56","3","0","12/28/2021 12:00:00 AM","2019","10264","NYTIMES-USCENSUS"
"12/29/2021 12:00:00 AM","Chesapeake city","Virginia","South","South Atlantic","51550","36.679376","-76.301788 ","32469","380","282","3","12/28/2021 12:00:00 AM","2019","244835","NYTIMES-USCENSUS"
"12/29/2021 12:00:00 AM","Green County","Kentucky","South","East South Central","21087","37.278065","-85.537925 ","2668","39","12","0","12/28/2021 12:00:00 AM","2019","10941","NYTIMES-USCENSUS"
"12/29/2021 12:00:00 AM","Worcester County","Maryland","South","South Atlantic","24047","38.222133","-75.309931 ","5826","129","101","1","12/28/2021 12:00:00 AM","2019","52276","NYTIMES-USCENSUS"
"12/29/2021 12:00:00 AM","Missoula County","Montana","West","Mountain","30063","47.027263","-113.892691 ","18012","192","78","0","12/28/2021 12:00:00 AM","2019","119600","NYTIMES-USCENSUS"
"12/29/2021 12:00:00 AM","Holmes County","Ohio","Midwest","East North Central","39075","40.565597","-81.930001 ","4301","152","25","0","12/28/2021 12:00:00 AM","2019","43960","NYTIMES-USCENSUS"
"12/29/2021 12:00:00 AM","Clay County","Tennessee","South","East South Central","47027","36.545749","-85.545717 ","1644","40","9","1","12/28/2021 12:00:00 AM","2019","7615","NYTIMES-USCENSUS"
"12/29/2021 12:00:00 AM","Mitchell County","Georgia","South","South Atlantic","13205","31.228997","-84.192038 ","3546","102","22","0","12/28/2021 12:00:00 AM","2019","21863","NYTIMES-USCENSUS"
"12/29/2021 12:00:00 AM","Philadelphia County","Pennsylvania","Northeast","Middle Atlantic","42101","40.009376","-75.133346 ","220803","4249","3525","25","12/28/2021 12:00:00 AM","2019","1584064","NYTIMES-USCENSUS"
"12/29/2021 12:00:00 AM","Spotsylvania County","Virginia","South","South Atlantic","51177","38.182431","-77.657226 ","18165","182","133","7","12/28/2021 12:00:00 AM","2019","136215","NYTIMES-USCENSUS"
"12/29/2021 12:00:00 AM","Jefferson County","Nebraska","Midwest","West North Central","31095","40.175736","-97.143103 ","1005","3","2","0","12/28/2021 12:00:00 AM","2019","7046","NYTIMES-USCENSUS"
"12/29/2021 12:00:00 AM","Garfield County","Colorado","West","Mountain","08045","39.599352","-107.90978 ","9667","78","92","1","12/28/2021 12:00:00 AM","2019","60061","NYTIMES-USCENSUS"
"12/29/2021 12:00:00 AM","Roanoke city","Virginia","South","South Atlantic","51770","37.278458","-79.958174 ","14050","271","88","1","12/28/2021 12:00:00 AM","2019","99143","NYTIMES-USCENSUS"
"12/29/2021 12:00:00 AM","Russell County","Virginia","South","South Atlantic","51167","36.93342","-82.095934 ","4607","77","24","1","12/28/2021 12:00:00 AM","2019","26586","NYTIMES-USCENSUS"
"12/29/2021 12:00:00 AM","Sheboygan County","Wisconsin","Midwest","East North Central","55117","43.741232","-87.731516 ","23116","203","17","0","12/28/2021 12:00:00 AM","2019","115340","NYTIMES-USCENSUS"
"12/29/2021 12:00:00 AM","Bethel Census Area","Alaska","West","Pacific","02050","60.929141","-160.152625 ","6945","32","17","0","12/28/2021 12:00:00 AM","2019","18386","NYTIMES-USCENSUS"
"12/29/2021 12:00:00 AM","Red River Parish","Louisiana","South","West South Central","22081","32.101213","-93.34905 ","1495","49","12","0","12/28/2021 12:00:00 AM","2019","8442","NYTIMES-USCENSUS"
"12/29/2021 12:00:00 AM","Stevens County","Kansas","Midwest","West North Central","20189","37.2017","-101.317268 ","1070","17","12","0","12/28/2021 12:00:00 AM","2019","5485","NYTIMES-USCENSUS"
"12/29/2021 12:00:00 AM","Madison County","Indiana","Midwest","East North Central","18095","40.166203","-85.722454 ","23638","517","131","0","12/28/2021 12:00:00 AM","2019","129569","NYTIMES-USCENSUS"
"12/29/2021 12:00:00 AM","Sargent County","North Dakota","Midwest","West North Central","38081","46.108204","-97.630051 ","778","9","6","0","12/28/2021 12:00:00 AM","2019","3898","NYTIMES-USCENSUS"
"12/29/2021 12:00:00 AM","Orange County","Vermont","Northeast","New England","50017","44.003349","-72.369464 ","2097","9","14","0","12/28/2021 12:00:00 AM","2019","28892","NYTIMES-USCENSUS"
"12/29/2021 12:00:00 AM","McDonough County","Illinois","Midwest","East North Central","17109","40.455808","-90.678954 ","4660","84","26","1","12/28/2021 12:00:00 AM","2019","29682","NYTIMES-USCENSUS"
"12/29/2021 12:00:00 AM","Walsh County","North Dakota","Midwest","West North Central","38099","48.376979","-97.72223 ","2575","33","6","0","12/28/2021 12:00:00 AM","2019","10641","NYTIMES-USCENSUS"
"12/29/2021 12:00:00 AM","Fairbanks North Star Borough","Alaska","West","Pacific","02090","64.676044","-146.548159 ","17554","117","75","0","12/28/2021 12:00:00 AM","2019","96849","NYTIMES-USCENSUS"
"12/29/2021 12:00:00 AM","Lincoln County","Georgia","South","South Atlantic","13181","33.792151","-82.448299 ","1271","33","8","0","12/28/2021 12:00:00 AM","2019","7921","NYTIMES-USCENSUS"
"12/29/2021 12:00:00 AM","Seneca County","New York","Northeast","Middle Atlantic","36099","42.782294","-76.827088 ","3881","79","62","1","12/28/2021 12:00:00 AM","2019","34016","NYTIMES-USCENSUS"
"12/29/2021 12:00:00 AM","Marshall County","Kentucky","South","East South Central","21157","36.882017","-88.332752 ","5580","85","51","0","12/28/2021 12:00:00 AM","2019","31100","NYTIMES-USCENSUS"
"12/29/2021 12:00:00 AM","Erie County","Ohio","Midwest","East North Central","39043","41.394143","-82.586835 ","14609","217","202","0","12/28/2021 12:00:00 AM","2019","74266","NYTIMES-USCENSUS"
"12/29/2021 12:00:00 AM","Lassen County","California","West","Pacific","06035","40.715287","-120.621223 ","8061","61","0","0","12/28/2021 12:00:00 AM","2019","30573","NYTIMES-USCENSUS"
"12/29/2021 12:00:00 AM","Cerro Gordo County","Iowa","Midwest","West North Central","19033","43.074975","-93.250965 ","8858","137","119","4","12/28/2021 12:00:00 AM","2019","42450","NYTIMES-USCENSUS"
"12/29/2021 12:00:00 AM","Cumberland County","North Carolina","South","South Atlantic","37051","35.050192","-78.828719 ","51564","506","290","4","12/28/2021 12:00:00 AM","2019","335509","NYTIMES-USCENSUS"
"12/29/2021 12:00:00 AM","Reeves County","Texas","South","West South Central","48389","31.308366","-103.712706 ","3819","60","14","0","12/28/2021 12:00:00 AM","2019","15976","NYTIMES-USCENSUS"
"12/29/2021 12:00:00 AM","Bates County","Missouri","Midwest","West North Central","29013","38.257217","-94.339246 ","2731","63","7","0","12/28/2021 12:00:00 AM","2019","16172","NYTIMES-USCENSUS"
"12/29/2021 12:00:00 AM","Lyon County","Iowa","Midwest","West North Central","19119","43.38358","-96.207201 ","2229","44","32","0","12/28/2021 12:00:00 AM","2019","11755","NYTIMES-USCENSUS"
"12/29/2021 12:00:00 AM","Armstrong County","Pennsylvania","Northeast","Middle Atlantic","42005","40.81238","-79.464129 ","11754","274","57","1","12/28/2021 12:00:00 AM","2019","64735","NYTIMES-USCENSUS"
"12/29/2021 12:00:00 AM","Campbell County","Tennessee","South","East South Central","47013","36.401592","-84.159249 ","7989","128","38","0","12/28/2021 12:00:00 AM","2019","39842","NYTIMES-USCENSUS"
"12/29/2021 12:00:00 AM","Walworth County","South Dakota","Midwest","West North Central","46129","45.427605","-100.027856 ","1015","19","7","0","12/28/2021 12:00:00 AM","2019","5435","NYTIMES-USCENSUS"
"12/29/2021 12:00:00 AM","Monroe County","West Virginia","South","South Atlantic","54063","37.554062","-80.550329 ","2600","31","12","0","12/28/2021 12:00:00 AM","2019","13275","NYTIMES-USCENSUS"
"12/29/2021 12:00:00 AM","Benton County","Arkansas","South","West South Central","05007","36.337819","-94.256298 ","46153","683","218","2","12/28/2021 12:00:00 AM","2019","279141","NYTIMES-USCENSUS"
"12/29/2021 12:00:00 AM","Hardin County","Kentucky","South","East South Central","21093","37.695836","-85.963183 ","20816","343","98","0","12/28/2021 12:00:00 AM","2019","110958","NYTIMES-USCENSUS"
"12/29/2021 12:00:00 AM","Tangipahoa Parish","Louisiana","South","West South Central","22105","30.621348","-90.40649 ","23844","533","269","0","12/28/2021 12:00:00 AM","2019","134758","NYTIMES-USCENSUS"
"12/29/2021 12:00:00 AM","Adair County","Kentucky","South","East South Central","21001","37.105559","-85.28138 ","3973","91","10","0","12/28/2021 12:00:00 AM","2019","19202","NYTIMES-USCENSUS"
"12/29/2021 12:00:00 AM","Logan County","Illinois","Midwest","East North Central","17107","40.129277","-89.365309 ","6144","90","39","0","12/28/2021 12:00:00 AM","2019","28618","NYTIMES-USCENSUS"
"12/29/2021 12:00:00 AM","Alpine County","California","West","Pacific","06003","38.621783","-119.798352 ","113","0","0","0","12/28/2021 12:00:00 AM","2019","1129","NYTIMES-USCENSUS"
"12/29/2021 12:00:00 AM","Sevier County","Utah","West","Mountain","49041","38.746824","-111.81193 ","4160","20","18","0","12/28/2021 12:00:00 AM","2019","21620","NYTIMES-USCENSUS"
"12/29/2021 12:00:00 AM","Brookings County","South Dakota","Midwest","West North Central","46011","44.376675","-96.797797 ","5745","41","27","0","12/28/2021 12:00:00 AM","2019","35077","NYTIMES-USCENSUS"
"12/29/2021 12:00:00 AM","Ray County","Missouri","Midwest","West North Central","29177","39.308401","-93.995746 ","3732","65","52","1","12/28/2021 12:00:00 AM","2019","23018","NYTIMES-USCENSUS"
"12/29/2021 12:00:00 AM","Greene County","Arkansas","South","West South Central","05055","36.120607","-90.566346 ","11003","133","64","1","12/28/2021 12:00:00 AM","2019","45325","NYTIMES-USCENSUS"
"12/29/2021 12:00:00 AM","Magoffin County","Kentucky","South","East South Central","21153","37.698983","-83.069721 ","2632","35","22","0","12/28/2021 12:00:00 AM","2019","12161","NYTIMES-USCENSUS"
"12/29/2021 12:00:00 AM","Douglas County","Missouri","Midwest","West North Central","29067","36.946517","-92.515892 ","1943","66","13","0","12/28/2021 12:00:00 AM","2019","13185","NYTIMES-USCENSUS"
"12/29/2021 12:00:00 AM","Louisa County","Virginia","South","South Atlantic","51109","37.972704","-77.959795 ","4080","54","57","0","12/28/2021 12:00:00 AM","2019","37591","NYTIMES-USCENSUS"
"12/29/2021 12:00:00 AM","Stanton County","Nebraska","Midwest","West North Central","31167","41.905045","-97.177109 ","565","11","1","0","12/28/2021 12:00:00 AM","2019","5920","NYTIMES-USCENSUS"
"12/29/2021 12:00:00 AM","Harlan County","Kentucky","South","East South Central","21095","36.859223","-83.221497 ","6281","160","16","2","12/28/2021 12:00:00 AM","2019","26010","NYTIMES-USCENSUS"
"12/29/2021 12:00:00 AM","Carbon County","Utah","West","Mountain","49007","39.673284","-110.588484 ","3728","41","9","0","12/28/2021 12:00:00 AM","2019","20463","NYTIMES-USCENSUS"
"12/29/2021 12:00:00 AM","Stewart County","Georgia","South","South Atlantic","13259","32.073225","-84.834912 ","1628","30","6","0","12/28/2021 12:00:00 AM","2019","6621","NYTIMES-USCENSUS"
"12/29/2021 12:00:00 AM","Sussex County","New Jersey","Northeast","Middle Atlantic","34037","41.137461","-74.691914 ","23252","369","341","1","12/28/2021 12:00:00 AM","2019","140488","NYTIMES-USCENSUS"
"12/29/2021 12:00:00 AM","Carbon County","Montana","West","Mountain","30009","45.224468","-109.028554 ","1603","23","5","0","12/28/2021 12:00:00 AM","2019","10725","NYTIMES-USCENSUS"
"12/29/2021 12:00:00 AM","Indian River County","Florida","South","South Atlantic","12061","27.700528","-80.574789 ","22684","570","0","0","12/28/2021 12:00:00 AM","2019","159923","NYTIMES-USCENSUS"
"12/29/2021 12:00:00 AM","Holmes County","Florida","South","South Atlantic","12059","30.862007","-85.815939 ","3904","72","0","-1","12/28/2021 12:00:00 AM","2019","19617","NYTIMES-USCENSUS"
"12/29/2021 12:00:00 AM","Nicholas County","Kentucky","South","East South Central","21181","38.338031","-84.026223 ","1342","29","2","0","12/28/2021 12:00:00 AM","2019","7269","NYTIMES-USCENSUS"
"12/29/2021 12:00:00 AM","Sherman County","Nebraska","Midwest","West North Central","31163","41.218743","-98.972849 ","457","4","1","0","12/28/2021 12:00:00 AM","2019","3001","NYTIMES-USCENSUS"
"12/29/2021 12:00:00 AM","Atchison County","Kansas","Midwest","West North Central","20005","39.532544","-95.313397 ","2978","27","33","0","12/28/2021 12:00:00 AM","2019","16073","NYTIMES-USCENSUS"
"12/29/2021 12:00:00 AM","Martin County","Kentucky","South","East South Central","21159","37.796774","-82.506623 ","2228","39","20","0","12/28/2021 12:00:00 AM","2019","11195","NYTIMES-USCENSUS"
"12/29/2021 12:00:00 AM","Summit County","Ohio","Midwest","East North Central","39153","41.121847","-81.534928 ","88510","1285","1465","0","12/28/2021 12:00:00 AM","2019","541013","NYTIMES-USCENSUS"
"12/29/2021 12:00:00 AM","Pike County","Arkansas","South","West South Central","05109","34.158191","-93.658659 ","1827","39","3","0","12/28/2021 12:00:00 AM","2019","10718","NYTIMES-USCENSUS"
"12/29/2021 12:00:00 AM","Marion County","Tennessee","South","East South Central","47115","35.133422","-85.618399 ","6086","110","16","0","12/28/2021 12:00:00 AM","2019","28907","NYTIMES-USCENSUS"
"12/29/2021 12:00:00 AM","Otoe County","Nebraska","Midwest","West North Central","31131","40.637992","-96.131027 ","2462","13","12","0","12/28/2021 12:00:00 AM","2019","16012","NYTIMES-USCENSUS"
"12/29/2021 12:00:00 AM","Stark County","North Dakota","Midwest","West North Central","38089","46.817031","-102.662026 ","9077","79","9","0","12/28/2021 12:00:00 AM","2019","31489","NYTIMES-USCENSUS"
"12/29/2021 12:00:00 AM","Yates County","New York","Northeast","Middle Atlantic","36123","42.638237","-77.104324 ","2347","35","22","0","12/28/2021 12:00:00 AM","2019","24913","NYTIMES-USCENSUS"
"12/29/2021 12:00:00 AM","Kittson County","Minnesota","Midwest","West North Central","27069","48.77604","-96.780349 ","852","24","1","1","12/28/2021 12:00:00 AM","2019","4298","NYTIMES-USCENSUS"
"12/29/2021 12:00:00 AM","Blue Earth County","Minnesota","Midwest","West North Central","27013","44.03371","-94.064012 ","12677","79","49","2","12/28/2021 12:00:00 AM","2019","67653","NYTIMES-USCENSUS"
"12/29/2021 12:00:00 AM","Lincoln County","Colorado","West","Mountain","08073","38.99374","-103.507555 ","1435","8","5","0","12/28/2021 12:00:00 AM","2019","5701","NYTIMES-USCENSUS"
"12/29/2021 12:00:00 AM","Logan County","Arkansas","South","West South Central","05083","35.218654","-93.72091 ","3845","54","7","0","12/28/2021 12:00:00 AM","2019","21466","NYTIMES-USCENSUS"
"12/29/2021 12:00:00 AM","Perry County","Mississippi","South","East South Central","28111","31.169307","-88.988755 ","2191","56","11","0","12/28/2021 12:00:00 AM","2019","11973","NYTIMES-USCENSUS"
"12/29/2021 12:00:00 AM","Tipton County","Indiana","Midwest","East North Central","18159","40.310229","-86.056207 ","2702","72","15","0","12/28/2021 12:00:00 AM","2019","15148","NYTIMES-USCENSUS"
"12/29/2021 12:00:00 AM","Douglas County","Illinois","Midwest","East North Central","17041","39.766078","-88.222866 ","4090","44","48","0","12/28/2021 12:00:00 AM","2019","19465","NYTIMES-USCENSUS"
"12/29/2021 12:00:00 AM","Chariton County","Missouri","Midwest","West North Central","29041","39.517968","-92.96162 ","1287","32","3","0","12/28/2021 12:00:00 AM","2019","7426","NYTIMES-USCENSUS"
"12/29/2021 12:00:00 AM","Muskingum County","Ohio","Midwest","East North Central","39119","39.966046","-81.943506 ","18225","226","142","0","12/28/2021 12:00:00 AM","2019","86215","NYTIMES-USCENSUS"
"12/29/2021 12:00:00 AM","Calhoun County","Michigan","Midwest","East North Central","26025","42.24299","-85.012385 ","24824","462","210","3","12/28/2021 12:00:00 AM","2019","134159","NYTIMES-USCENSUS"
"12/29/2021 12:00:00 AM","DeKalb County","Illinois","Midwest","East North Central","17037","41.894612","-88.768991 ","16011","160","162","1","12/28/2021 12:00:00 AM","2019","104897","NYTIMES-USCENSUS"
"12/29/2021 12:00:00 AM","Hidalgo County","New Mexico","West","Mountain","35023","31.898052","-108.751929 ","698","12","9","0","12/28/2021 12:00:00 AM","2019","4198","NYTIMES-USCENSUS"
"12/29/2021 12:00:00 AM","Sierra County","New Mexico","West","Mountain","35051","33.119468","-107.188161 ","1482","63","2","0","12/28/2021 12:00:00 AM","2019","10791","NYTIMES-USCENSUS"
"12/29/2021 12:00:00 AM","McCracken County","Kentucky","South","East South Central","21145","37.054111","-88.712454 ","11797","202","85","0","12/28/2021 12:00:00 AM","2019","65418","NYTIMES-USCENSUS"
"12/29/2021 12:00:00 AM","Warren County","Illinois","Midwest","East North Central","17187","40.850441","-90.620223 ","2953","74","33","1","12/28/2021 12:00:00 AM","2019","16844","NYTIMES-USCENSUS"
"12/29/2021 12:00:00 AM","Larimer County","Colorado","West","Mountain","08069","40.658093","-105.486764 ","49193","399","345","0","12/28/2021 12:00:00 AM","2019","356899","NYTIMES-USCENSUS"
