"monitor_date","county","state_name","region","subregion","fips","latitude","longitude","case_count_to_date","death_count_to_date","case_count","death_count","previous_monitor_date","population_year","population","source"
"12/11/2021 12:00:00 AM","Butler County","Iowa","Midwest","West North Central","19023","42.734757","-92.780153 ","2441","47","0","0","12/10/2021 12:00:00 AM","2019","14439","NYTIMES-USCENSUS"
"12/11/2021 12:00:00 AM","Fentress County","Tennessee","South","East South Central","47049","36.369892","-84.937764 ","3888","72","0","0","12/10/2021 12:00:00 AM","2019","18523","NYTIMES-USCENSUS"
"12/11/2021 12:00:00 AM","Crane County","Texas","South","West South Central","48103","31.422796","-102.487774 ","967","19","3","0","12/10/2021 12:00:00 AM","2019","4797","NYTIMES-USCENSUS"
"12/11/2021 12:00:00 AM","Kent County","Michigan","Midwest","East North Central","26081","43.032497","-85.547446 ","115124","1167","0","0","12/10/2021 12:00:00 AM","2019","656955","NYTIMES-USCENSUS"
"12/11/2021 12:00:00 AM","Wheeler County","Texas","South","West South Central","48483","35.392593","-100.253107 ","822","14","7","0","12/10/2021 12:00:00 AM","2019","5056","NYTIMES-USCENSUS"
"12/11/2021 12:00:00 AM","Claiborne Parish","Louisiana","South","West South Central","22027","32.82716","-92.989728 ","2058","66","0","0","12/10/2021 12:00:00 AM","2019","15670","NYTIMES-USCENSUS"
"12/11/2021 12:00:00 AM","Sevier County","Utah","West","Mountain","49041","38.746824","-111.81193 ","4029","19","0","0","12/10/2021 12:00:00 AM","2019","21620","NYTIMES-USCENSUS"
"12/11/2021 12:00:00 AM","Jefferson County","Washington","West","Pacific","53031","47.805708","-123.527057 ","1294","20","0","0","12/10/2021 12:00:00 AM","2019","32221","NYTIMES-USCENSUS"
"12/11/2021 12:00:00 AM","Shawnee County","Kansas","Midwest","West North Central","20177","39.041805","-95.755664 ","28694","485","0","0","12/10/2021 12:00:00 AM","2019","176875","NYTIMES-USCENSUS"
"12/11/2021 12:00:00 AM","Washington County","Texas","South","West South Central","48477","30.215075","-96.410272 ","5891","133","4","0","12/10/2021 12:00:00 AM","2019","35882","NYTIMES-USCENSUS"
"12/11/2021 12:00:00 AM","Latimer County","Oklahoma","South","West South Central","40077","34.875137","-95.272262 ","1605","28","0","0","12/10/2021 12:00:00 AM","2019","10073","NYTIMES-USCENSUS"
"12/11/2021 12:00:00 AM","Sullivan County","Missouri","Midwest","West North Central","29211","40.209587","-93.109783 ","1301","17","4","0","12/10/2021 12:00:00 AM","2019","6089","NYTIMES-USCENSUS"
"12/11/2021 12:00:00 AM","Leake County","Mississippi","South","East South Central","28079","32.76063","-89.52225 ","4151","92","0","0","12/10/2021 12:00:00 AM","2019","22786","NYTIMES-USCENSUS"
"12/11/2021 12:00:00 AM","Clayton County","Georgia","South","South Atlantic","13063","33.542686","-84.355573 ","40695","779","0","0","12/10/2021 12:00:00 AM","2019","292256","NYTIMES-USCENSUS"
"12/11/2021 12:00:00 AM","Oscoda County","Michigan","Midwest","East North Central","26135","44.687257","-84.126905 ","1136","48","0","0","12/10/2021 12:00:00 AM","2019","8241","NYTIMES-USCENSUS"
"12/11/2021 12:00:00 AM","Gentry County","Missouri","Midwest","West North Central","29075","40.208127","-94.405321 ","1594","28","13","0","12/10/2021 12:00:00 AM","2019","6571","NYTIMES-USCENSUS"
"12/11/2021 12:00:00 AM","Bourbon County","Kansas","Midwest","West North Central","20011","37.8561","-94.850928 ","2742","44","0","0","12/10/2021 12:00:00 AM","2019","14534","NYTIMES-USCENSUS"
"12/11/2021 12:00:00 AM","Cannon County","Tennessee","South","East South Central","47015","35.808394","-86.062404 ","2895","45","0","0","12/10/2021 12:00:00 AM","2019","14678","NYTIMES-USCENSUS"
"12/11/2021 12:00:00 AM","Atchison County","Kansas","Midwest","West North Central","20005","39.532544","-95.313397 ","2744","26","0","0","12/10/2021 12:00:00 AM","2019","16073","NYTIMES-USCENSUS"
"12/11/2021 12:00:00 AM","Union County","Pennsylvania","Northeast","Middle Atlantic","42119","40.962179","-77.055475 ","8467","122","28","3","12/10/2021 12:00:00 AM","2019","44923","NYTIMES-USCENSUS"
"12/11/2021 12:00:00 AM","Candler County","Georgia","South","South Atlantic","13043","32.40395","-82.071266 ","1580","90","0","0","12/10/2021 12:00:00 AM","2019","10803","NYTIMES-USCENSUS"
"12/11/2021 12:00:00 AM","Buena Vista city","Virginia","South","South Atlantic","51530","37.729345","-79.358134 ","1455","31","0","0","12/10/2021 12:00:00 AM","2019","6478","NYTIMES-USCENSUS"
"12/11/2021 12:00:00 AM","Person County","North Carolina","South","South Atlantic","37145","36.38635","-78.965623 ","5550","89","0","0","12/10/2021 12:00:00 AM","2019","39490","NYTIMES-USCENSUS"
"12/11/2021 12:00:00 AM","Alpena County","Michigan","Midwest","East North Central","26007","44.894954","-83.426574 ","4271","95","0","0","12/10/2021 12:00:00 AM","2019","28405","NYTIMES-USCENSUS"
"12/11/2021 12:00:00 AM","Marion County","Florida","South","South Atlantic","12083","29.202805","-82.0431 ","57594","1780","0","0","12/10/2021 12:00:00 AM","2019","365579","NYTIMES-USCENSUS"
"12/11/2021 12:00:00 AM","Shelby County","Iowa","Midwest","West North Central","19165","41.679014","-95.308917 ","2066","43","0","0","12/10/2021 12:00:00 AM","2019","11454","NYTIMES-USCENSUS"
"12/11/2021 12:00:00 AM","Mills County","Iowa","Midwest","West North Central","19129","41.033703","-95.619101 ","2330","30","0","0","12/10/2021 12:00:00 AM","2019","15109","NYTIMES-USCENSUS"
"12/11/2021 12:00:00 AM","Union County","Indiana","Midwest","East North Central","18161","39.623111","-84.925152 ","1305","17","0","0","12/10/2021 12:00:00 AM","2019","7054","NYTIMES-USCENSUS"
"12/11/2021 12:00:00 AM","Eddy County","North Dakota","Midwest","West North Central","38027","47.723436","-98.900474 ","568","6","0","0","12/10/2021 12:00:00 AM","2019","2287","NYTIMES-USCENSUS"
"12/11/2021 12:00:00 AM","New Hanover County","North Carolina","South","South Atlantic","37129","34.183445","-77.864204 ","29728","298","0","0","12/10/2021 12:00:00 AM","2019","234473","NYTIMES-USCENSUS"
"12/11/2021 12:00:00 AM","Sanborn County","South Dakota","Midwest","West North Central","46111","44.018942","-98.091709 ","422","3","0","0","12/10/2021 12:00:00 AM","2019","2344","NYTIMES-USCENSUS"
"12/11/2021 12:00:00 AM","Auglaize County","Ohio","Midwest","East North Central","39011","40.561309","-84.224018 ","8221","121","25","0","12/10/2021 12:00:00 AM","2019","45656","NYTIMES-USCENSUS"
"12/11/2021 12:00:00 AM","Pushmataha County","Oklahoma","South","West South Central","40127","34.377899","-95.408082 ","1861","40","0","0","12/10/2021 12:00:00 AM","2019","11096","NYTIMES-USCENSUS"
"12/11/2021 12:00:00 AM","St. Croix County","Wisconsin","Midwest","East North Central","55109","45.028959","-92.447284 ","16885","100","0","0","12/10/2021 12:00:00 AM","2019","90687","NYTIMES-USCENSUS"
"12/11/2021 12:00:00 AM","Montezuma County","Colorado","West","Mountain","08083","37.338025","-108.595786 ","4060","50","0","0","12/10/2021 12:00:00 AM","2019","26183","NYTIMES-USCENSUS"
"12/11/2021 12:00:00 AM","Polk County","Missouri","Midwest","West North Central","29167","37.616761","-93.400817 ","5542","80","17","0","12/10/2021 12:00:00 AM","2019","32149","NYTIMES-USCENSUS"
"12/11/2021 12:00:00 AM","Middlesex County","Connecticut","Northeast","New England","09007","41.433003","-72.52278 ","16514","403","0","0","12/10/2021 12:00:00 AM","2019","162436","NYTIMES-USCENSUS"
"12/11/2021 12:00:00 AM","Lafayette County","Arkansas","South","West South Central","05073","33.240629","-93.611514 ","872","28","0","0","12/10/2021 12:00:00 AM","2019","6624","NYTIMES-USCENSUS"
"12/11/2021 12:00:00 AM","Suffolk city","Virginia","South","South Atlantic","51800","36.697157","-76.634781 ","11427","251","0","0","12/10/2021 12:00:00 AM","2019","92108","NYTIMES-USCENSUS"
"12/11/2021 12:00:00 AM","Warren County","Ohio","Midwest","East North Central","39165","39.425663","-84.16994 ","36976","423","135","0","12/10/2021 12:00:00 AM","2019","234602","NYTIMES-USCENSUS"
"12/11/2021 12:00:00 AM","Curry County","New Mexico","West","Mountain","35009","34.572984","-103.346055 ","8282","131","50","0","12/10/2021 12:00:00 AM","2019","48954","NYTIMES-USCENSUS"
"12/11/2021 12:00:00 AM","Lincoln County","North Carolina","South","South Atlantic","37109","35.488491","-81.226893 ","16195","118","0","0","12/10/2021 12:00:00 AM","2019","86111","NYTIMES-USCENSUS"
"12/11/2021 12:00:00 AM","De Witt County","Illinois","Midwest","East North Central","17039","40.181499","-88.901853 ","2594","38","0","0","12/10/2021 12:00:00 AM","2019","15638","NYTIMES-USCENSUS"
"12/11/2021 12:00:00 AM","Sumter County","Alabama","South","East South Central","01119","32.597481","-88.200057 ","1405","42","0","0","12/10/2021 12:00:00 AM","2019","12427","NYTIMES-USCENSUS"
"12/11/2021 12:00:00 AM","Lamar County","Georgia","South","South Atlantic","13171","33.07444","-84.146689 ","3496","99","0","0","12/10/2021 12:00:00 AM","2019","19077","NYTIMES-USCENSUS"
"12/11/2021 12:00:00 AM","Isanti County","Minnesota","Midwest","West North Central","27059","45.562431","-93.296339 ","7390","88","0","0","12/10/2021 12:00:00 AM","2019","40596","NYTIMES-USCENSUS"
"12/11/2021 12:00:00 AM","Monroe County","New York","Northeast","Middle Atlantic","36055","43.250347","-77.700518 ","103401","1276","348","1","12/10/2021 12:00:00 AM","2019","741770","NYTIMES-USCENSUS"
"12/11/2021 12:00:00 AM","Bullock County","Alabama","South","East South Central","01011","32.101759","-85.717261 ","1537","46","0","0","12/10/2021 12:00:00 AM","2019","10101","NYTIMES-USCENSUS"
"12/11/2021 12:00:00 AM","Warren County","New York","Northeast","Middle Atlantic","36113","43.555105","-73.838139 ","7938","100","64","0","12/10/2021 12:00:00 AM","2019","63944","NYTIMES-USCENSUS"
"12/11/2021 12:00:00 AM","Washington County","Maine","Northeast","New England","23029","44.967009","-67.609354 ","2536","37","37","1","12/10/2021 12:00:00 AM","2019","31379","NYTIMES-USCENSUS"
"12/11/2021 12:00:00 AM","Staunton city","Virginia","South","South Atlantic","51790","38.157978","-79.061876 ","3649","85","0","0","12/10/2021 12:00:00 AM","2019","24932","NYTIMES-USCENSUS"
"12/11/2021 12:00:00 AM","Calhoun County","Texas","South","West South Central","48057","28.441719","-96.579574 ","3922","38","2","0","12/10/2021 12:00:00 AM","2019","21290","NYTIMES-USCENSUS"
"12/11/2021 12:00:00 AM","Kit Carson County","Colorado","West","Mountain","08063","39.30534","-102.603023 ","1200","24","0","0","12/10/2021 12:00:00 AM","2019","7097","NYTIMES-USCENSUS"
"12/11/2021 12:00:00 AM","Skamania County","Washington","West","Pacific","53059","46.024785","-121.953232 ","873","7","0","0","12/10/2021 12:00:00 AM","2019","12083","NYTIMES-USCENSUS"
"12/11/2021 12:00:00 AM","Sedgwick County","Kansas","Midwest","West North Central","20173","37.681045","-97.461054 ","90060","1087","0","0","12/10/2021 12:00:00 AM","2019","516042","NYTIMES-USCENSUS"
"12/11/2021 12:00:00 AM","Lewis County","Missouri","Midwest","West North Central","29111","40.084559","-91.728803 ","1884","30","6","0","12/10/2021 12:00:00 AM","2019","9776","NYTIMES-USCENSUS"
"12/11/2021 12:00:00 AM","Starr County","Texas","South","West South Central","48427","26.530903","-98.740235 ","11894","336","27","0","12/10/2021 12:00:00 AM","2019","64633","NYTIMES-USCENSUS"
"12/11/2021 12:00:00 AM","Perry County","Pennsylvania","Northeast","Middle Atlantic","42099","40.39778","-77.266328 ","6327","135","56","0","12/10/2021 12:00:00 AM","2019","46272","NYTIMES-USCENSUS"
"12/11/2021 12:00:00 AM","Newton County","Arkansas","South","West South Central","05101","35.910742","-93.215898 ","1284","41","14","0","12/10/2021 12:00:00 AM","2019","7753","NYTIMES-USCENSUS"
"12/11/2021 12:00:00 AM","Bee County","Texas","South","West South Central","48025","28.416077","-97.742586 ","5404","135","2","0","12/10/2021 12:00:00 AM","2019","32565","NYTIMES-USCENSUS"
"12/11/2021 12:00:00 AM","Saluda County","South Carolina","South","South Atlantic","45081","34.005278","-81.727903 ","2619","57","0","0","12/10/2021 12:00:00 AM","2019","20473","NYTIMES-USCENSUS"
"12/11/2021 12:00:00 AM","Lauderdale County","Mississippi","South","East South Central","28075","32.403998","-88.660449 ","12396","323","0","0","12/10/2021 12:00:00 AM","2019","74125","NYTIMES-USCENSUS"
"12/11/2021 12:00:00 AM","Scott County","Mississippi","South","East South Central","28123","32.411959","-89.533486 ","4806","99","0","0","12/10/2021 12:00:00 AM","2019","28124","NYTIMES-USCENSUS"
"12/11/2021 12:00:00 AM","Lincoln Parish","Louisiana","South","West South Central","22061","32.601823","-92.662303 ","7320","117","0","0","12/10/2021 12:00:00 AM","2019","46742","NYTIMES-USCENSUS"
"12/11/2021 12:00:00 AM","Sanilac County","Michigan","Midwest","East North Central","26151","43.449155","-82.642815 ","6382","157","0","0","12/10/2021 12:00:00 AM","2019","41170","NYTIMES-USCENSUS"
"12/11/2021 12:00:00 AM","Schley County","Georgia","South","South Atlantic","13249","32.263444","-84.322708 ","720","8","0","0","12/10/2021 12:00:00 AM","2019","5257","NYTIMES-USCENSUS"
"12/11/2021 12:00:00 AM","McCurtain County","Oklahoma","South","West South Central","40089","34.117073","-94.766086 ","5895","138","0","0","12/10/2021 12:00:00 AM","2019","32832","NYTIMES-USCENSUS"
"12/11/2021 12:00:00 AM","Scotts Bluff County","Nebraska","Midwest","West North Central","31157","41.850331","-103.701549 ","7124","102","0","0","12/10/2021 12:00:00 AM","2019","35618","NYTIMES-USCENSUS"
"12/11/2021 12:00:00 AM","Taylor County","Florida","South","South Atlantic","12123","29.967146","-83.639573 ","4637","83","0","0","12/10/2021 12:00:00 AM","2019","21569","NYTIMES-USCENSUS"
"12/11/2021 12:00:00 AM","Albany County","New York","Northeast","Middle Atlantic","36001","42.58824","-73.97401 ","36288","422","171","0","12/10/2021 12:00:00 AM","2019","305506","NYTIMES-USCENSUS"
"12/11/2021 12:00:00 AM","Prowers County","Colorado","West","Mountain","08099","37.958181","-102.392161 ","1991","40","0","0","12/10/2021 12:00:00 AM","2019","12172","NYTIMES-USCENSUS"
"12/11/2021 12:00:00 AM","Hancock County","Ohio","Midwest","East North Central","39063","41.000217","-83.665947 ","11960","178","54","0","12/10/2021 12:00:00 AM","2019","75783","NYTIMES-USCENSUS"
"12/11/2021 12:00:00 AM","Shasta County","California","West","Pacific","06089","40.760514","-122.043556 ","26472","470","0","0","12/10/2021 12:00:00 AM","2019","180080","NYTIMES-USCENSUS"
"12/11/2021 12:00:00 AM","Spalding County","Georgia","South","South Atlantic","13255","33.262348","-84.284905 ","10707","331","0","0","12/10/2021 12:00:00 AM","2019","66703","NYTIMES-USCENSUS"
"12/11/2021 12:00:00 AM","Lyon County","Iowa","Midwest","West North Central","19119","43.38358","-96.207201 ","2144","42","0","0","12/10/2021 12:00:00 AM","2019","11755","NYTIMES-USCENSUS"
"12/11/2021 12:00:00 AM","Gibson County","Indiana","Midwest","East North Central","18051","38.317398","-87.580523 ","7316","123","0","0","12/10/2021 12:00:00 AM","2019","33659","NYTIMES-USCENSUS"
"12/11/2021 12:00:00 AM","Payne County","Oklahoma","South","West South Central","40119","36.079225","-96.975255 ","12414","125","0","0","12/10/2021 12:00:00 AM","2019","81784","NYTIMES-USCENSUS"
"12/11/2021 12:00:00 AM","Charlottesville city","Virginia","South","South Atlantic","51540","38.037658","-78.485381 ","5645","62","0","0","12/10/2021 12:00:00 AM","2019","47266","NYTIMES-USCENSUS"
"12/11/2021 12:00:00 AM","Ziebach County","South Dakota","Midwest","West North Central","46137","44.989764","-101.660827 ","480","10","0","0","12/10/2021 12:00:00 AM","2019","2756","NYTIMES-USCENSUS"
"12/11/2021 12:00:00 AM","Franklin County","Idaho","West","Mountain","16041","42.173609","-111.822965 ","1785","26","0","0","12/10/2021 12:00:00 AM","2019","13876","NYTIMES-USCENSUS"
"12/11/2021 12:00:00 AM","Greenville County","South Carolina","South","South Atlantic","45045","34.892645","-82.372077 ","109023","1535","0","0","12/10/2021 12:00:00 AM","2019","523542","NYTIMES-USCENSUS"
"12/11/2021 12:00:00 AM","Metcalfe County","Kentucky","South","East South Central","21169","36.99243","-85.633456 ","2097","48","0","0","12/10/2021 12:00:00 AM","2019","10071","NYTIMES-USCENSUS"
"12/11/2021 12:00:00 AM","Marion County","Ohio","Midwest","East North Central","39101","40.588034","-83.168803 ","13806","199","91","0","12/10/2021 12:00:00 AM","2019","65093","NYTIMES-USCENSUS"
"12/11/2021 12:00:00 AM","Lincoln County","Nebraska","Midwest","West North Central","31111","41.050322","-100.744481 ","6183","80","0","0","12/10/2021 12:00:00 AM","2019","34914","NYTIMES-USCENSUS"
"12/11/2021 12:00:00 AM","Conejos County","Colorado","West","Mountain","08021","37.213406","-106.176447 ","1162","42","0","0","12/10/2021 12:00:00 AM","2019","8205","NYTIMES-USCENSUS"
"12/11/2021 12:00:00 AM","Spencer County","Indiana","Midwest","East North Central","18147","38.009697","-87.010375 ","3718","50","0","0","12/10/2021 12:00:00 AM","2019","20277","NYTIMES-USCENSUS"
"12/11/2021 12:00:00 AM","Osage County","Kansas","Midwest","West North Central","20139","38.650215","-95.708255 ","2370","39","0","0","12/10/2021 12:00:00 AM","2019","15949","NYTIMES-USCENSUS"
"12/11/2021 12:00:00 AM","Grant County","Oregon","West","Pacific","41023","44.496326","-119.014057 ","1095","17","0","0","12/10/2021 12:00:00 AM","2019","7199","NYTIMES-USCENSUS"
"12/11/2021 12:00:00 AM","Harrison County","West Virginia","South","South Atlantic","54033","39.279182","-80.386498 ","12674","190","30","0","12/10/2021 12:00:00 AM","2019","67256","NYTIMES-USCENSUS"
"12/11/2021 12:00:00 AM","Carroll County","Iowa","Midwest","West North Central","19027","42.039502","-94.86765 ","3779","56","0","0","12/10/2021 12:00:00 AM","2019","20165","NYTIMES-USCENSUS"
"12/11/2021 12:00:00 AM","Warren County","Kentucky","South","East South Central","21227","36.995634","-86.423579 ","27750","292","0","0","12/10/2021 12:00:00 AM","2019","132896","NYTIMES-USCENSUS"
"12/11/2021 12:00:00 AM","George County","Mississippi","South","East South Central","28039","30.855431","-88.642268 ","5121","80","0","0","12/10/2021 12:00:00 AM","2019","24500","NYTIMES-USCENSUS"
"12/11/2021 12:00:00 AM","Bristol County","Massachusetts","Northeast","New England","25005","41.748588","-71.088894 ","92887","1970","0","0","12/10/2021 12:00:00 AM","2019","565217","NYTIMES-USCENSUS"
"12/11/2021 12:00:00 AM","Jim Wells County","Texas","South","West South Central","48249","27.733516","-98.090814 ","7297","183","1","0","12/10/2021 12:00:00 AM","2019","40482","NYTIMES-USCENSUS"
"12/11/2021 12:00:00 AM","Linn County","Kansas","Midwest","West North Central","20107","38.216549","-94.844932 ","1790","21","0","0","12/10/2021 12:00:00 AM","2019","9703","NYTIMES-USCENSUS"
"12/11/2021 12:00:00 AM","Grainger County","Tennessee","South","East South Central","47057","36.277509","-83.509546 ","4607","74","0","0","12/10/2021 12:00:00 AM","2019","23320","NYTIMES-USCENSUS"
"12/11/2021 12:00:00 AM","Kenton County","Kentucky","South","East South Central","21117","38.930503","-84.533438 ","27831","301","0","0","12/10/2021 12:00:00 AM","2019","166998","NYTIMES-USCENSUS"
"12/11/2021 12:00:00 AM","Apache County","Arizona","West","Mountain","04001","35.385084","-109.490172 ","15723","521","39","1","12/10/2021 12:00:00 AM","2019","71887","NYTIMES-USCENSUS"
"12/11/2021 12:00:00 AM","Rockdale County","Georgia","South","South Atlantic","13247","33.652081","-84.02637 ","11832","250","0","0","12/10/2021 12:00:00 AM","2019","90896","NYTIMES-USCENSUS"
"12/11/2021 12:00:00 AM","Jefferson County","Nebraska","Midwest","West North Central","31095","40.175736","-97.143103 ","976","3","0","0","12/10/2021 12:00:00 AM","2019","7046","NYTIMES-USCENSUS"
"12/11/2021 12:00:00 AM","Kinney County","Texas","South","West South Central","48271","29.347086","-100.4177 ","525","10","1","0","12/10/2021 12:00:00 AM","2019","3667","NYTIMES-USCENSUS"
"12/11/2021 12:00:00 AM","Butler County","Pennsylvania","Northeast","Middle Atlantic","42019","40.913847","-79.918978 ","30522","579","190","7","12/10/2021 12:00:00 AM","2019","187853","NYTIMES-USCENSUS"
"12/11/2021 12:00:00 AM","Archuleta County","Colorado","West","Mountain","08007","37.202395","-107.050863 ","1972","8","0","0","12/10/2021 12:00:00 AM","2019","14029","NYTIMES-USCENSUS"
"12/11/2021 12:00:00 AM","Chatham County","North Carolina","South","South Atlantic","37037","35.704994","-79.251454 ","7200","99","0","0","12/10/2021 12:00:00 AM","2019","74470","NYTIMES-USCENSUS"
"12/11/2021 12:00:00 AM","Fluvanna County","Virginia","South","South Atlantic","51065","37.830584","-78.283494 ","3042","29","0","0","12/10/2021 12:00:00 AM","2019","27270","NYTIMES-USCENSUS"
"12/11/2021 12:00:00 AM","Wayne County","Iowa","Midwest","West North Central","19185","40.739983","-93.332613 ","902","25","0","0","12/10/2021 12:00:00 AM","2019","6441","NYTIMES-USCENSUS"
"12/11/2021 12:00:00 AM","Hancock County","Tennessee","South","East South Central","47067","36.521353","-83.227493 ","1309","21","0","0","12/10/2021 12:00:00 AM","2019","6620","NYTIMES-USCENSUS"
"12/11/2021 12:00:00 AM","McKenzie County","North Dakota","Midwest","West North Central","38053","47.742475","-103.403215 ","2571","23","3","0","12/10/2021 12:00:00 AM","2019","15024","NYTIMES-USCENSUS"
"12/11/2021 12:00:00 AM","Garrett County","Maryland","South","South Atlantic","24023","39.547299","-79.274619 ","3910","86","0","0","12/10/2021 12:00:00 AM","2019","29014","NYTIMES-USCENSUS"
"12/11/2021 12:00:00 AM","Abbeville County","South Carolina","South","South Atlantic","45001","34.229041","-82.454058 ","4032","53","0","0","12/10/2021 12:00:00 AM","2019","24527","NYTIMES-USCENSUS"
"12/11/2021 12:00:00 AM","Fayette County","Indiana","Midwest","East North Central","18041","39.639655","-85.185032 ","4881","105","0","0","12/10/2021 12:00:00 AM","2019","23102","NYTIMES-USCENSUS"
"12/11/2021 12:00:00 AM","Hardin County","Texas","South","West South Central","48199","30.329648","-94.393178 ","10550","214","1","0","12/10/2021 12:00:00 AM","2019","57602","NYTIMES-USCENSUS"
"12/11/2021 12:00:00 AM","Pipestone County","Minnesota","Midwest","West North Central","27117","44.015361","-96.257015 ","1549","30","0","0","12/10/2021 12:00:00 AM","2019","9126","NYTIMES-USCENSUS"
"12/11/2021 12:00:00 AM","Shelby County","Alabama","South","East South Central","01117","33.263043","-86.678089 ","38593","375","35","2","12/10/2021 12:00:00 AM","2019","217702","NYTIMES-USCENSUS"
"12/11/2021 12:00:00 AM","Leon County","Florida","South","South Atlantic","12073","30.45931","-84.2778 ","51313","526","0","0","12/10/2021 12:00:00 AM","2019","293582","NYTIMES-USCENSUS"
"12/11/2021 12:00:00 AM","Hubbard County","Minnesota","Midwest","West North Central","27057","47.095551","-94.91329 ","3653","49","0","0","12/10/2021 12:00:00 AM","2019","21491","NYTIMES-USCENSUS"
"12/11/2021 12:00:00 AM","Golden Valley County","Montana","West","Mountain","30037","46.380624","-109.174586 ","122","5","0","0","12/10/2021 12:00:00 AM","2019","821","NYTIMES-USCENSUS"
"12/11/2021 12:00:00 AM","Walton County","Georgia","South","South Atlantic","13297","33.783887","-83.731829 ","15651","354","0","0","12/10/2021 12:00:00 AM","2019","94593","NYTIMES-USCENSUS"
"12/11/2021 12:00:00 AM","Greenbrier County","West Virginia","South","South Atlantic","54025","37.924418","-80.45059 ","5423","112","29","0","12/10/2021 12:00:00 AM","2019","34662","NYTIMES-USCENSUS"
"12/11/2021 12:00:00 AM","Lynn County","Texas","South","West South Central","48305","33.178412","-101.818493 ","907","27","5","0","12/10/2021 12:00:00 AM","2019","5951","NYTIMES-USCENSUS"
"12/11/2021 12:00:00 AM","Aransas County","Texas","South","West South Central","48007","28.122621","-96.967501 ","2655","67","1","0","12/10/2021 12:00:00 AM","2019","23510","NYTIMES-USCENSUS"
"12/11/2021 12:00:00 AM","Clinton County","Indiana","Midwest","East North Central","18023","40.305944","-86.477567 ","6450","87","0","0","12/10/2021 12:00:00 AM","2019","32399","NYTIMES-USCENSUS"
"12/11/2021 12:00:00 AM","Harford County","Maryland","South","South Atlantic","24025","39.537429","-76.299789 ","22682","372","0","0","12/10/2021 12:00:00 AM","2019","255441","NYTIMES-USCENSUS"
"12/11/2021 12:00:00 AM","Marion County","Kansas","Midwest","West North Central","20115","38.359647","-97.102771 ","2025","35","0","0","12/10/2021 12:00:00 AM","2019","11884","NYTIMES-USCENSUS"
"12/11/2021 12:00:00 AM","Dinwiddie County","Virginia","South","South Atlantic","51053","37.073498","-77.635492 ","3513","60","0","0","12/10/2021 12:00:00 AM","2019","28544","NYTIMES-USCENSUS"
"12/11/2021 12:00:00 AM","Dallas County","Iowa","Midwest","West North Central","19049","41.68532","-94.040706 ","15941","117","0","0","12/10/2021 12:00:00 AM","2019","93453","NYTIMES-USCENSUS"
"12/11/2021 12:00:00 AM","Arenac County","Michigan","Midwest","East North Central","26011","44.036833","-83.740675 ","2223","49","0","0","12/10/2021 12:00:00 AM","2019","14883","NYTIMES-USCENSUS"
"12/11/2021 12:00:00 AM","Carter County","Tennessee","South","East South Central","47019","36.284744","-82.126593 ","11157","236","0","0","12/10/2021 12:00:00 AM","2019","56391","NYTIMES-USCENSUS"
"12/11/2021 12:00:00 AM","Northampton County","North Carolina","South","South Atlantic","37131","36.421774","-77.398352 ","2656","66","0","0","12/10/2021 12:00:00 AM","2019","19483","NYTIMES-USCENSUS"
"12/11/2021 12:00:00 AM","Jasper County","Missouri","Midwest","West North Central","29097","37.205197","-94.337259 ","14637","259","28","0","12/10/2021 12:00:00 AM","2019","121328","NYTIMES-USCENSUS"
"12/11/2021 12:00:00 AM","Logan County","Oklahoma","South","West South Central","40083","35.914277","-97.450952 ","6441","122","0","0","12/10/2021 12:00:00 AM","2019","48011","NYTIMES-USCENSUS"
"12/11/2021 12:00:00 AM","Cheyenne County","Nebraska","Midwest","West North Central","31033","41.214236","-103.011929 ","1470","19","0","0","12/10/2021 12:00:00 AM","2019","8910","NYTIMES-USCENSUS"
"12/11/2021 12:00:00 AM","Lawrence County","Tennessee","South","East South Central","47099","35.220476","-87.396546 ","9865","134","0","0","12/10/2021 12:00:00 AM","2019","44142","NYTIMES-USCENSUS"
"12/11/2021 12:00:00 AM","Gem County","Idaho","West","Mountain","16045","44.061473","-116.398784 ","2926","69","4","0","12/10/2021 12:00:00 AM","2019","18112","NYTIMES-USCENSUS"
"12/11/2021 12:00:00 AM","Blair County","Pennsylvania","Northeast","Middle Atlantic","42013","40.498683","-78.309597 ","21869","457","208","2","12/10/2021 12:00:00 AM","2019","121829","NYTIMES-USCENSUS"
"12/11/2021 12:00:00 AM","Platte County","Nebraska","Midwest","West North Central","31141","41.576866","-97.513467 ","6127","50","0","0","12/10/2021 12:00:00 AM","2019","33470","NYTIMES-USCENSUS"
"12/11/2021 12:00:00 AM","Whitley County","Indiana","Midwest","East North Central","18183","41.136426","-85.501892 ","6836","62","0","0","12/10/2021 12:00:00 AM","2019","33964","NYTIMES-USCENSUS"
"12/11/2021 12:00:00 AM","Cuyahoga County","Ohio","Midwest","East North Central","39035","41.555037","-81.604957 ","175914","2692","1270","0","12/10/2021 12:00:00 AM","2019","1235072","NYTIMES-USCENSUS"
"12/11/2021 12:00:00 AM","Cass County","Michigan","Midwest","East North Central","26027","41.917243","-86.000142 ","8461","108","0","0","12/10/2021 12:00:00 AM","2019","51787","NYTIMES-USCENSUS"
"12/11/2021 12:00:00 AM","Pondera County","Montana","West","Mountain","30073","48.228604","-112.220761 ","826","6","0","0","12/10/2021 12:00:00 AM","2019","5911","NYTIMES-USCENSUS"
"12/11/2021 12:00:00 AM","Major County","Oklahoma","South","West South Central","40093","36.313119","-98.542015 ","1448","33","0","0","12/10/2021 12:00:00 AM","2019","7629","NYTIMES-USCENSUS"
"12/11/2021 12:00:00 AM","Jefferson County","Kentucky","South","East South Central","21111","38.189532","-85.657624 ","129413","1780","0","0","12/10/2021 12:00:00 AM","2019","766757","NYTIMES-USCENSUS"
"12/11/2021 12:00:00 AM","Reeves County","Texas","South","West South Central","48389","31.308366","-103.712706 ","3755","59","1","0","12/10/2021 12:00:00 AM","2019","15976","NYTIMES-USCENSUS"
"12/11/2021 12:00:00 AM","Piute County","Utah","West","Mountain","49031","38.335881","-112.129375 ","206","2","0","0","12/10/2021 12:00:00 AM","2019","1479","NYTIMES-USCENSUS"
"12/11/2021 12:00:00 AM","Jones County","Georgia","South","South Atlantic","13169","33.021664","-83.562196 ","3575","99","0","0","12/10/2021 12:00:00 AM","2019","28735","NYTIMES-USCENSUS"
"12/11/2021 12:00:00 AM","Nantucket County","Massachusetts","Northeast","New England","25019","41.293392","-70.102164 ","2014","0","0","0","12/10/2021 12:00:00 AM","2019","11399","NYTIMES-USCENSUS"
"12/11/2021 12:00:00 AM","Howard County","Indiana","Midwest","East North Central","18067","40.483537","-86.114118 ","17257","328","0","0","12/10/2021 12:00:00 AM","2019","82544","NYTIMES-USCENSUS"
"12/11/2021 12:00:00 AM","Orleans County","Vermont","Northeast","New England","50019","44.828442","-72.25163 ","3645","27","10","0","12/10/2021 12:00:00 AM","2019","27037","NYTIMES-USCENSUS"
"12/11/2021 12:00:00 AM","Boone County","Iowa","Midwest","West North Central","19015","42.038642","-93.938603 ","4086","43","0","0","12/10/2021 12:00:00 AM","2019","26234","NYTIMES-USCENSUS"
"12/11/2021 12:00:00 AM","Burnet County","Texas","South","West South Central","48053","30.78963","-98.201187 ","7661","132","8","0","12/10/2021 12:00:00 AM","2019","48155","NYTIMES-USCENSUS"
"12/11/2021 12:00:00 AM","Phelps County","Nebraska","Midwest","West North Central","31137","40.516365","-99.406557 ","1659","10","0","0","12/10/2021 12:00:00 AM","2019","9034","NYTIMES-USCENSUS"
"12/11/2021 12:00:00 AM","Jackson County","South Dakota","Midwest","West North Central","46071","43.677506","-101.626323 ","428","19","0","0","12/10/2021 12:00:00 AM","2019","3344","NYTIMES-USCENSUS"
"12/11/2021 12:00:00 AM","Hanover County","Virginia","South","South Atlantic","51085","37.760215","-77.491317 ","12893","202","0","0","12/10/2021 12:00:00 AM","2019","107766","NYTIMES-USCENSUS"
"12/11/2021 12:00:00 AM","Bowie County","Texas","South","West South Central","48037","33.446065","-94.422393 ","13105","347","35","0","12/10/2021 12:00:00 AM","2019","93245","NYTIMES-USCENSUS"
"12/11/2021 12:00:00 AM","Monroe County","Iowa","Midwest","West North Central","19135","41.028847","-92.869642 ","1474","41","0","0","12/10/2021 12:00:00 AM","2019","7707","NYTIMES-USCENSUS"
"12/11/2021 12:00:00 AM","Cabell County","West Virginia","South","South Atlantic","54011","38.419578","-82.243397 ","16595","288","50","0","12/10/2021 12:00:00 AM","2019","91945","NYTIMES-USCENSUS"
"12/11/2021 12:00:00 AM","Mahoning County","Ohio","Midwest","East North Central","39099","41.01088","-80.770396 ","37002","799","169","0","12/10/2021 12:00:00 AM","2019","228683","NYTIMES-USCENSUS"
"12/11/2021 12:00:00 AM","Greene County","Ohio","Midwest","East North Central","39057","39.687479","-83.894894 ","24968","381","64","0","12/10/2021 12:00:00 AM","2019","168937","NYTIMES-USCENSUS"
"12/11/2021 12:00:00 AM","Lackawanna County","Pennsylvania","Northeast","Middle Atlantic","42069","41.440284","-75.609666 ","26762","567","210","2","12/10/2021 12:00:00 AM","2019","209674","NYTIMES-USCENSUS"
"12/11/2021 12:00:00 AM","Polk County","Texas","South","West South Central","48373","30.784553","-94.837338 ","6004","219","7","1","12/10/2021 12:00:00 AM","2019","51353","NYTIMES-USCENSUS"
"12/11/2021 12:00:00 AM","Lee County","Iowa","Midwest","West North Central","19111","40.647588","-91.477157 ","6091","107","0","0","12/10/2021 12:00:00 AM","2019","33657","NYTIMES-USCENSUS"
"12/11/2021 12:00:00 AM","San Mateo County","California","West","Pacific","06081","37.414672","-122.371546 ","57192","631","0","0","12/10/2021 12:00:00 AM","2019","766573","NYTIMES-USCENSUS"
"12/11/2021 12:00:00 AM","Walton County","Florida","South","South Atlantic","12131","30.571247","-86.162798 ","12108","173","0","0","12/10/2021 12:00:00 AM","2019","74071","NYTIMES-USCENSUS"
"12/11/2021 12:00:00 AM","Iron County","Wisconsin","Midwest","East North Central","55051","46.32655","-90.261298 ","1007","43","0","0","12/10/2021 12:00:00 AM","2019","5687","NYTIMES-USCENSUS"
"12/11/2021 12:00:00 AM","Paulding County","Georgia","South","South Atlantic","13223","33.92103","-84.867169 ","26129","350","0","0","12/10/2021 12:00:00 AM","2019","168667","NYTIMES-USCENSUS"
"12/11/2021 12:00:00 AM","Polk County","Wisconsin","Midwest","East North Central","55095","45.462041","-92.447066 ","8777","102","0","0","12/10/2021 12:00:00 AM","2019","43783","NYTIMES-USCENSUS"
"12/11/2021 12:00:00 AM","Wexford County","Michigan","Midwest","East North Central","26165","44.331375","-85.570046 ","4797","79","0","0","12/10/2021 12:00:00 AM","2019","33631","NYTIMES-USCENSUS"
"12/11/2021 12:00:00 AM","Brown County","Illinois","Midwest","East North Central","17009","39.962069","-90.750309 ","1156","18","0","0","12/10/2021 12:00:00 AM","2019","6578","NYTIMES-USCENSUS"
"12/11/2021 12:00:00 AM","Buffalo County","Wisconsin","Midwest","East North Central","55011","44.385633","-91.761294 ","2348","9","0","0","12/10/2021 12:00:00 AM","2019","13031","NYTIMES-USCENSUS"
"12/11/2021 12:00:00 AM","Montgomery County","Tennessee","South","East South Central","47125","36.500354","-87.380887 ","34133","371","0","0","12/10/2021 12:00:00 AM","2019","208993","NYTIMES-USCENSUS"
"12/11/2021 12:00:00 AM","Franklin County","Virginia","South","South Atlantic","51067","36.991186","-79.882715 ","6751","115","0","0","12/10/2021 12:00:00 AM","2019","56042","NYTIMES-USCENSUS"
"12/11/2021 12:00:00 AM","St. Louis County","Missouri","Midwest","West North Central","29189","38.640688","-90.446073 ","139988","2665","163","2","12/10/2021 12:00:00 AM","2019","994205","NYTIMES-USCENSUS"
"12/11/2021 12:00:00 AM","Carson City","Nevada","West","Mountain","32510","39.15306","-119.747368 ","9523","175","0","0","12/10/2021 12:00:00 AM","2019","55916","NYTIMES-USCENSUS"
"12/11/2021 12:00:00 AM","Jo Daviess County","Illinois","Midwest","East North Central","17085","42.362391","-90.21147 ","2701","32","0","0","12/10/2021 12:00:00 AM","2019","21235","NYTIMES-USCENSUS"
"12/11/2021 12:00:00 AM","Hancock County","Iowa","Midwest","West North Central","19081","43.075411","-93.743697 ","2302","41","0","0","12/10/2021 12:00:00 AM","2019","10630","NYTIMES-USCENSUS"
"12/11/2021 12:00:00 AM","Vinton County","Ohio","Midwest","East North Central","39163","39.252042","-82.485961 ","1945","40","12","0","12/10/2021 12:00:00 AM","2019","13085","NYTIMES-USCENSUS"
"12/11/2021 12:00:00 AM","Martin County","Indiana","Midwest","East North Central","18101","38.705322","-86.801847 ","1549","20","0","0","12/10/2021 12:00:00 AM","2019","10255","NYTIMES-USCENSUS"
"12/11/2021 12:00:00 AM","Madison County","Kentucky","South","East South Central","21151","37.725511","-84.278362 ","17586","206","0","0","12/10/2021 12:00:00 AM","2019","92987","NYTIMES-USCENSUS"
"12/11/2021 12:00:00 AM","Newton County","Mississippi","South","East South Central","28101","32.40197","-89.118412 ","3976","83","0","0","12/10/2021 12:00:00 AM","2019","21018","NYTIMES-USCENSUS"
"12/11/2021 12:00:00 AM","Norton city","Virginia","South","South Atlantic","51720","36.931549","-82.625996 ","687","17","0","0","12/10/2021 12:00:00 AM","2019","3981","NYTIMES-USCENSUS"
"12/11/2021 12:00:00 AM","Richland County","Wisconsin","Midwest","East North Central","55103","43.376199","-90.435693 ","2613","33","0","0","12/10/2021 12:00:00 AM","2019","17252","NYTIMES-USCENSUS"
"12/11/2021 12:00:00 AM","Nemaha County","Kansas","Midwest","West North Central","20131","39.791043","-96.005381 ","2314","56","0","0","12/10/2021 12:00:00 AM","2019","10231","NYTIMES-USCENSUS"
"12/11/2021 12:00:00 AM","Carroll County","Illinois","Midwest","East North Central","17015","42.0709","-89.924189 ","2781","42","0","0","12/10/2021 12:00:00 AM","2019","14305","NYTIMES-USCENSUS"
"12/11/2021 12:00:00 AM","Limestone County","Texas","South","West South Central","48293","31.547543","-96.593623 ","3710","111","6","0","12/10/2021 12:00:00 AM","2019","23437","NYTIMES-USCENSUS"
"12/11/2021 12:00:00 AM","Cobb County","Georgia","South","South Atlantic","13067","33.939929","-84.574121 ","113519","1436","0","0","12/10/2021 12:00:00 AM","2019","760141","NYTIMES-USCENSUS"
"12/11/2021 12:00:00 AM","Hawkins County","Tennessee","South","East South Central","47073","36.452089","-82.931485 ","11040","188","0","0","12/10/2021 12:00:00 AM","2019","56786","NYTIMES-USCENSUS"
"12/11/2021 12:00:00 AM","Fergus County","Montana","West","Mountain","30027","47.221816","-109.232956 ","1869","48","0","0","12/10/2021 12:00:00 AM","2019","11050","NYTIMES-USCENSUS"
"12/11/2021 12:00:00 AM","Lassen County","California","West","Pacific","06035","40.715287","-120.621223 ","8029","61","10","0","12/10/2021 12:00:00 AM","2019","30573","NYTIMES-USCENSUS"
"12/11/2021 12:00:00 AM","Iroquois County","Illinois","Midwest","East North Central","17075","40.748867","-87.833601 ","4936","88","0","0","12/10/2021 12:00:00 AM","2019","27114","NYTIMES-USCENSUS"
"12/11/2021 12:00:00 AM","Warren County","Tennessee","South","East South Central","47177","35.67825","-85.777343 ","8931","133","0","0","12/10/2021 12:00:00 AM","2019","41277","NYTIMES-USCENSUS"
"12/11/2021 12:00:00 AM","Cheshire County","New Hampshire","Northeast","New England","33005","42.92546","-72.248183 ","7906","60","0","0","12/10/2021 12:00:00 AM","2019","76085","NYTIMES-USCENSUS"
"12/11/2021 12:00:00 AM","Klamath County","Oregon","West","Pacific","41035","42.683761","-121.646168 ","9171","156","0","0","12/10/2021 12:00:00 AM","2019","68238","NYTIMES-USCENSUS"
"12/11/2021 12:00:00 AM","Caddo Parish","Louisiana","South","West South Central","22017","32.580106","-93.88497 ","40397","982","0","0","12/10/2021 12:00:00 AM","2019","240204","NYTIMES-USCENSUS"
"12/11/2021 12:00:00 AM","Stillwater County","Montana","West","Mountain","30095","45.658545","-109.381576 ","1243","29","0","0","12/10/2021 12:00:00 AM","2019","9642","NYTIMES-USCENSUS"
"12/11/2021 12:00:00 AM","Woodford County","Kentucky","South","East South Central","21239","38.043103","-84.748855 ","3895","33","0","0","12/10/2021 12:00:00 AM","2019","26734","NYTIMES-USCENSUS"
"12/11/2021 12:00:00 AM","Cascade County","Montana","West","Mountain","30013","47.316575","-111.350262 ","16907","275","0","0","12/10/2021 12:00:00 AM","2019","81366","NYTIMES-USCENSUS"
"12/11/2021 12:00:00 AM","Buffalo County","Nebraska","Midwest","West North Central","31019","40.855265","-99.074984 ","8771","57","0","0","12/10/2021 12:00:00 AM","2019","49659","NYTIMES-USCENSUS"
"12/11/2021 12:00:00 AM","San Joaquin County","California","West","Pacific","06077","37.934982","-121.272244 ","108876","1842","0","0","12/10/2021 12:00:00 AM","2019","762148","NYTIMES-USCENSUS"
"12/11/2021 12:00:00 AM","Caroline County","Maryland","South","South Atlantic","24011","38.871531","-75.831662 ","3614","54","0","0","12/10/2021 12:00:00 AM","2019","33406","NYTIMES-USCENSUS"
"12/11/2021 12:00:00 AM","Cottonwood County","Minnesota","Midwest","West North Central","27033","44.010639","-95.183152 ","2386","33","0","0","12/10/2021 12:00:00 AM","2019","11196","NYTIMES-USCENSUS"
"12/11/2021 12:00:00 AM","Overton County","Tennessee","South","East South Central","47133","36.34485","-85.283076 ","4973","86","0","0","12/10/2021 12:00:00 AM","2019","22241","NYTIMES-USCENSUS"
"12/11/2021 12:00:00 AM","Wayne County","Illinois","Midwest","East North Central","17191","38.431857","-88.43243 ","3340","67","0","0","12/10/2021 12:00:00 AM","2019","16215","NYTIMES-USCENSUS"
"12/11/2021 12:00:00 AM","Sweetwater County","Wyoming","West","Mountain","56037","41.660328","-108.875677 ","8190","103","0","0","12/10/2021 12:00:00 AM","2019","42343","NYTIMES-USCENSUS"
"12/11/2021 12:00:00 AM","Clarendon County","South Carolina","South","South Atlantic","45027","33.664682","-80.217889 ","5242","136","0","0","12/10/2021 12:00:00 AM","2019","33745","NYTIMES-USCENSUS"
"12/11/2021 12:00:00 AM","Morgan County","Georgia","South","South Atlantic","13211","33.598696","-83.499435 ","3475","49","0","0","12/10/2021 12:00:00 AM","2019","19276","NYTIMES-USCENSUS"
"12/11/2021 12:00:00 AM","Clarke County","Iowa","Midwest","West North Central","19039","41.029726","-93.785259 ","1675","29","0","0","12/10/2021 12:00:00 AM","2019","9395","NYTIMES-USCENSUS"
"12/11/2021 12:00:00 AM","Garza County","Texas","South","West South Central","48169","33.183792","-101.301134 ","755","23","0","0","12/10/2021 12:00:00 AM","2019","6229","NYTIMES-USCENSUS"
"12/11/2021 12:00:00 AM","Stark County","Illinois","Midwest","East North Central","17175","41.096908","-89.797411 ","958","29","0","0","12/10/2021 12:00:00 AM","2019","5342","NYTIMES-USCENSUS"
"12/11/2021 12:00:00 AM","Scurry County","Texas","South","West South Central","48415","32.744353","-100.913346 ","3578","85","5","0","12/10/2021 12:00:00 AM","2019","16703","NYTIMES-USCENSUS"
"12/11/2021 12:00:00 AM","Huntington County","Indiana","Midwest","East North Central","18069","40.826394","-85.478597 ","7960","121","0","0","12/10/2021 12:00:00 AM","2019","36520","NYTIMES-USCENSUS"
"12/11/2021 12:00:00 AM","Mercer County","Missouri","Midwest","West North Central","29129","40.421413","-93.567631 ","493","9","2","0","12/10/2021 12:00:00 AM","2019","3617","NYTIMES-USCENSUS"
"12/11/2021 12:00:00 AM","Ottawa County","Michigan","Midwest","East North Central","26139","43.054969","-86.219349 ","52439","598","0","0","12/10/2021 12:00:00 AM","2019","291830","NYTIMES-USCENSUS"
"12/11/2021 12:00:00 AM","Cumberland County","Kentucky","South","East South Central","21057","36.782372","-85.388484 ","1455","22","0","0","12/10/2021 12:00:00 AM","2019","6614","NYTIMES-USCENSUS"
"12/11/2021 12:00:00 AM","Grady County","Georgia","South","South Atlantic","13131","30.875908","-84.24508 ","3713","92","0","0","12/10/2021 12:00:00 AM","2019","24633","NYTIMES-USCENSUS"
"12/11/2021 12:00:00 AM","Santa Fe County","New Mexico","West","Mountain","35049","35.514531","-105.963972 ","15874","187","80","2","12/10/2021 12:00:00 AM","2019","150358","NYTIMES-USCENSUS"
"12/11/2021 12:00:00 AM","Bedford County","Tennessee","South","East South Central","47003","35.51366","-86.458294 ","9670","173","0","0","12/10/2021 12:00:00 AM","2019","49713","NYTIMES-USCENSUS"
"12/11/2021 12:00:00 AM","Gladwin County","Michigan","Midwest","East North Central","26051","43.98975","-84.389816 ","3886","87","0","0","12/10/2021 12:00:00 AM","2019","25449","NYTIMES-USCENSUS"
"12/11/2021 12:00:00 AM","Johnston County","Oklahoma","South","West South Central","40069","34.313455","-96.654254 ","2021","49","0","0","12/10/2021 12:00:00 AM","2019","11085","NYTIMES-USCENSUS"
"12/11/2021 12:00:00 AM","Luce County","Michigan","Midwest","East North Central","26095","46.510988","-85.517552 ","1797","6","0","0","12/10/2021 12:00:00 AM","2019","6229","NYTIMES-USCENSUS"
"12/11/2021 12:00:00 AM","Ness County","Kansas","Midwest","West North Central","20135","38.480437","-99.908745 ","555","17","0","0","12/10/2021 12:00:00 AM","2019","2750","NYTIMES-USCENSUS"
"12/11/2021 12:00:00 AM","Meigs County","Tennessee","South","East South Central","47121","35.512203","-84.816102 ","2265","33","0","0","12/10/2021 12:00:00 AM","2019","12422","NYTIMES-USCENSUS"
"12/11/2021 12:00:00 AM","Habersham County","Georgia","South","South Atlantic","13137","34.634392","-83.525875 ","7792","213","0","0","12/10/2021 12:00:00 AM","2019","45328","NYTIMES-USCENSUS"
"12/11/2021 12:00:00 AM","Warren County","Pennsylvania","Northeast","Middle Atlantic","42123","41.834298","-79.298182 ","5350","166","10","1","12/10/2021 12:00:00 AM","2019","39191","NYTIMES-USCENSUS"
"12/11/2021 12:00:00 AM","Elmore County","Alabama","South","East South Central","01051","32.597229","-86.142735 ","16031","296","38","1","12/10/2021 12:00:00 AM","2019","81209","NYTIMES-USCENSUS"
"12/11/2021 12:00:00 AM","Juneau City and Borough","Alaska","West","Pacific","02110","58.37291","-134.178445 ","4213","12","0","0","12/10/2021 12:00:00 AM","2019","31974","NYTIMES-USCENSUS"
"12/11/2021 12:00:00 AM","Washington County","Colorado","West","Mountain","08121","39.96579","-103.209744 ","756","24","0","0","12/10/2021 12:00:00 AM","2019","4908","NYTIMES-USCENSUS"
"12/11/2021 12:00:00 AM","Ransom County","North Dakota","Midwest","West North Central","38073","46.449276","-97.647554 ","1042","23","2","1","12/10/2021 12:00:00 AM","2019","5218","NYTIMES-USCENSUS"
"12/11/2021 12:00:00 AM","Bibb County","Georgia","South","South Atlantic","13021","32.808845","-83.694194 ","26227","662","0","0","12/10/2021 12:00:00 AM","2019","153159","NYTIMES-USCENSUS"
"12/11/2021 12:00:00 AM","Grafton County","New Hampshire","Northeast","New England","33009","43.926439","-71.842424 ","8371","40","0","0","12/10/2021 12:00:00 AM","2019","89886","NYTIMES-USCENSUS"
"12/11/2021 12:00:00 AM","Garfield County","Oklahoma","South","West South Central","40047","36.378132","-97.788741 ","10692","218","0","0","12/10/2021 12:00:00 AM","2019","61056","NYTIMES-USCENSUS"
"12/11/2021 12:00:00 AM","Northampton County","Pennsylvania","Northeast","Middle Atlantic","42095","40.752791","-75.307447 ","51563","836","385","2","12/10/2021 12:00:00 AM","2019","305285","NYTIMES-USCENSUS"
"12/11/2021 12:00:00 AM","Lycoming County","Pennsylvania","Northeast","Middle Atlantic","42081","41.343882","-77.055262 ","20546","415","89","6","12/10/2021 12:00:00 AM","2019","113299","NYTIMES-USCENSUS"
"12/11/2021 12:00:00 AM","Lincoln County","Oregon","West","Pacific","41041","44.641061","-123.911212 ","3728","57","0","0","12/10/2021 12:00:00 AM","2019","49962","NYTIMES-USCENSUS"
"12/11/2021 12:00:00 AM","Dunn County","North Dakota","Midwest","West North Central","38025","47.354557","-102.612322 ","842","7","0","0","12/10/2021 12:00:00 AM","2019","4424","NYTIMES-USCENSUS"
"12/11/2021 12:00:00 AM","Pendleton County","Kentucky","South","East South Central","21191","38.696284","-84.351943 ","2229","26","0","0","12/10/2021 12:00:00 AM","2019","14590","NYTIMES-USCENSUS"
"12/11/2021 12:00:00 AM","Holmes County","Florida","South","South Atlantic","12059","30.862007","-85.815939 ","3871","72","0","0","12/10/2021 12:00:00 AM","2019","19617","NYTIMES-USCENSUS"
"12/11/2021 12:00:00 AM","Chester County","Pennsylvania","Northeast","Middle Atlantic","42029","39.974029","-75.749751 ","58320","918","427","2","12/10/2021 12:00:00 AM","2019","524989","NYTIMES-USCENSUS"
"12/11/2021 12:00:00 AM","Clay County","Illinois","Midwest","East North Central","17025","38.746819","-88.482325 ","3051","59","0","0","12/10/2021 12:00:00 AM","2019","13184","NYTIMES-USCENSUS"
"12/11/2021 12:00:00 AM","Ritchie County","West Virginia","South","South Atlantic","54085","39.177112","-81.066317 ","1618","23","8","0","12/10/2021 12:00:00 AM","2019","9554","NYTIMES-USCENSUS"
"12/11/2021 12:00:00 AM","Harrison County","Texas","South","West South Central","48203","32.547991","-94.374434 ","9349","188","14","0","12/10/2021 12:00:00 AM","2019","66553","NYTIMES-USCENSUS"
"12/11/2021 12:00:00 AM","Ford County","Illinois","Midwest","East North Central","17053","40.596539","-88.224588 ","2803","67","0","0","12/10/2021 12:00:00 AM","2019","12961","NYTIMES-USCENSUS"
"12/11/2021 12:00:00 AM","Floyd County","Virginia","South","South Atlantic","51063","36.931433","-80.350266 ","1629","32","0","0","12/10/2021 12:00:00 AM","2019","15749","NYTIMES-USCENSUS"
"12/11/2021 12:00:00 AM","Fayette County","Iowa","Midwest","West North Central","19065","42.864122","-91.840376 ","2977","56","0","0","12/10/2021 12:00:00 AM","2019","19650","NYTIMES-USCENSUS"
"12/11/2021 12:00:00 AM","Hopkins County","Texas","South","West South Central","48223","33.148967","-95.565434 ","5552","148","8","0","12/10/2021 12:00:00 AM","2019","37084","NYTIMES-USCENSUS"
"12/11/2021 12:00:00 AM","Davison County","South Dakota","Midwest","West North Central","46035","43.680439","-98.155868 ","4217","71","0","0","12/10/2021 12:00:00 AM","2019","19775","NYTIMES-USCENSUS"
"12/11/2021 12:00:00 AM","Reagan County","Texas","South","West South Central","48383","31.375191","-101.514395 ","631","10","0","0","12/10/2021 12:00:00 AM","2019","3849","NYTIMES-USCENSUS"
"12/11/2021 12:00:00 AM","Vanderburgh County","Indiana","Midwest","East North Central","18163","38.02007","-87.586166 ","35410","515","0","0","12/10/2021 12:00:00 AM","2019","181451","NYTIMES-USCENSUS"
"12/11/2021 12:00:00 AM","San Benito County","California","West","Pacific","06069","36.611651","-121.085811 ","8004","79","0","0","12/10/2021 12:00:00 AM","2019","62808","NYTIMES-USCENSUS"
"12/11/2021 12:00:00 AM","Montgomery County","Arkansas","South","West South Central","05097","34.545656","-93.664153 ","1179","49","4","0","12/10/2021 12:00:00 AM","2019","8986","NYTIMES-USCENSUS"
"12/11/2021 12:00:00 AM","Grenada County","Mississippi","South","East South Central","28043","33.770031","-89.80274 ","3826","109","0","0","12/10/2021 12:00:00 AM","2019","20758","NYTIMES-USCENSUS"
"12/11/2021 12:00:00 AM","Hansford County","Texas","South","West South Central","48195","36.272847","-101.35693 ","1188","27","4","0","12/10/2021 12:00:00 AM","2019","5399","NYTIMES-USCENSUS"
"12/11/2021 12:00:00 AM","Elk County","Pennsylvania","Northeast","Middle Atlantic","42047","41.427332","-78.653937 ","5041","68","18","0","12/10/2021 12:00:00 AM","2019","29910","NYTIMES-USCENSUS"
"12/11/2021 12:00:00 AM","Gray County","Kansas","Midwest","West North Central","20069","37.744513","-100.451716 ","950","23","0","0","12/10/2021 12:00:00 AM","2019","5988","NYTIMES-USCENSUS"
"12/11/2021 12:00:00 AM","Talladega County","Alabama","South","East South Central","01121","33.369314","-86.17593 ","14319","304","18","0","12/10/2021 12:00:00 AM","2019","79978","NYTIMES-USCENSUS"
"12/11/2021 12:00:00 AM","Northampton County","Virginia","South","South Atlantic","51131","37.302775","-75.924018 ","1201","47","0","0","12/10/2021 12:00:00 AM","2019","11710","NYTIMES-USCENSUS"
"12/11/2021 12:00:00 AM","Zavala County","Texas","South","West South Central","48507","28.864652","-99.75983 ","2575","56","0","0","12/10/2021 12:00:00 AM","2019","11840","NYTIMES-USCENSUS"
"12/11/2021 12:00:00 AM","Meade County","South Dakota","Midwest","West North Central","46093","44.605282","-102.714169 ","5007","53","0","0","12/10/2021 12:00:00 AM","2019","28332","NYTIMES-USCENSUS"
"12/11/2021 12:00:00 AM","La Paz County","Arizona","West","Mountain","04012","33.72761","-114.038806 ","3501","105","4","0","12/10/2021 12:00:00 AM","2019","21108","NYTIMES-USCENSUS"
"12/11/2021 12:00:00 AM","Pennington County","Minnesota","Midwest","West North Central","27113","48.069247","-96.037725 ","2597","30","0","0","12/10/2021 12:00:00 AM","2019","14119","NYTIMES-USCENSUS"
"12/11/2021 12:00:00 AM","Franklin County","Illinois","Midwest","East North Central","17055","37.991852","-88.926321 ","7969","137","0","0","12/10/2021 12:00:00 AM","2019","38469","NYTIMES-USCENSUS"
"12/11/2021 12:00:00 AM","Hardeman County","Texas","South","West South Central","48197","34.289904","-99.745697 ","459","14","0","0","12/10/2021 12:00:00 AM","2019","3933","NYTIMES-USCENSUS"
"12/11/2021 12:00:00 AM","Tooele County","Utah","West","Mountain","49045","40.467753","-113.123979 ","13753","81","0","0","12/10/2021 12:00:00 AM","2019","72259","NYTIMES-USCENSUS"
"12/11/2021 12:00:00 AM","Forsyth County","Georgia","South","South Atlantic","13117","34.225143","-84.127408 ","35786","292","0","0","12/10/2021 12:00:00 AM","2019","244252","NYTIMES-USCENSUS"
"12/11/2021 12:00:00 AM","Concho County","Texas","South","West South Central","48095","31.318883","-99.863649 ","744","10","0","0","12/10/2021 12:00:00 AM","2019","2726","NYTIMES-USCENSUS"
"12/11/2021 12:00:00 AM","Erie County","New York","Northeast","Middle Atlantic","36029","42.752759","-78.778192 ","132934","2131","582","11","12/10/2021 12:00:00 AM","2019","918702","NYTIMES-USCENSUS"
"12/11/2021 12:00:00 AM","Hocking County","Ohio","Midwest","East North Central","39073","39.490342","-82.483447 ","4252","93","23","0","12/10/2021 12:00:00 AM","2019","28264","NYTIMES-USCENSUS"
"12/11/2021 12:00:00 AM","Robertson County","Tennessee","South","East South Central","47147","36.527509","-86.869354 ","14568","206","0","0","12/10/2021 12:00:00 AM","2019","71813","NYTIMES-USCENSUS"
"12/11/2021 12:00:00 AM","Lee County","Florida","South","South Atlantic","12071","26.563273","-81.984182 ","127007","1844","0","0","12/10/2021 12:00:00 AM","2019","770577","NYTIMES-USCENSUS"
"12/11/2021 12:00:00 AM","Randolph County","Indiana","Midwest","East North Central","18135","40.164079","-85.00579 ","4144","109","0","0","12/10/2021 12:00:00 AM","2019","24665","NYTIMES-USCENSUS"
"12/11/2021 12:00:00 AM","Woods County","Oklahoma","South","West South Central","40151","36.726984","-98.863649 ","1723","29","0","0","12/10/2021 12:00:00 AM","2019","8793","NYTIMES-USCENSUS"
"12/11/2021 12:00:00 AM","Macomb County","Michigan","Midwest","East North Central","26099","42.671553","-82.911456 ","149528","3003","0","0","12/10/2021 12:00:00 AM","2019","873972","NYTIMES-USCENSUS"
"12/11/2021 12:00:00 AM","Perry County","Ohio","Midwest","East North Central","39127","39.743187","-82.237952 ","5806","82","24","0","12/10/2021 12:00:00 AM","2019","36134","NYTIMES-USCENSUS"
"12/11/2021 12:00:00 AM","Thurston County","Washington","West","Pacific","53067","46.935822","-122.830152 ","23556","262","0","0","12/10/2021 12:00:00 AM","2019","290536","NYTIMES-USCENSUS"
"12/11/2021 12:00:00 AM","Pontotoc County","Mississippi","South","East South Central","28115","34.227081","-89.037239 ","7109","110","0","0","12/10/2021 12:00:00 AM","2019","32174","NYTIMES-USCENSUS"
"12/11/2021 12:00:00 AM","Fremont County","Idaho","West","Mountain","16043","44.218091","-111.484429 ","1681","18","1","0","12/10/2021 12:00:00 AM","2019","13099","NYTIMES-USCENSUS"
"12/11/2021 12:00:00 AM","Gloucester County","Virginia","South","South Atlantic","51073","37.403541","-76.523505 ","4088","80","0","0","12/10/2021 12:00:00 AM","2019","37348","NYTIMES-USCENSUS"
"12/11/2021 12:00:00 AM","Macon County","Alabama","South","East South Central","01087","32.387027","-85.692887 ","2472","68","3","0","12/10/2021 12:00:00 AM","2019","18068","NYTIMES-USCENSUS"
"12/11/2021 12:00:00 AM","Waldo County","Maine","Northeast","New England","23027","44.505822","-69.138961 ","3105","36","29","0","12/10/2021 12:00:00 AM","2019","39715","NYTIMES-USCENSUS"
"12/11/2021 12:00:00 AM","Gibson County","Tennessee","South","East South Central","47053","35.991632","-88.933812 ","10907","195","0","0","12/10/2021 12:00:00 AM","2019","49133","NYTIMES-USCENSUS"
"12/11/2021 12:00:00 AM","Douglas County","Colorado","West","Mountain","08035","39.325414","-104.925987 ","47925","355","0","0","12/10/2021 12:00:00 AM","2019","351154","NYTIMES-USCENSUS"
"12/11/2021 12:00:00 AM","York County","South Carolina","South","South Atlantic","45091","34.970188","-81.183187 ","49084","533","0","0","12/10/2021 12:00:00 AM","2019","280979","NYTIMES-USCENSUS"
"12/11/2021 12:00:00 AM","Alameda County","California","West","Pacific","06001","37.647139","-121.912488 ","126762","1516","0","0","12/10/2021 12:00:00 AM","2019","1671329","NYTIMES-USCENSUS"
"12/11/2021 12:00:00 AM","Claiborne County","Tennessee","South","East South Central","47025","36.501572","-83.660698 ","5918","120","0","0","12/10/2021 12:00:00 AM","2019","31959","NYTIMES-USCENSUS"
"12/11/2021 12:00:00 AM","Muhlenberg County","Kentucky","South","East South Central","21177","37.213816","-87.134092 ","6108","97","0","0","12/10/2021 12:00:00 AM","2019","30622","NYTIMES-USCENSUS"
"12/11/2021 12:00:00 AM","Benton County","Missouri","Midwest","West North Central","29015","38.301036","-93.287942 ","2844","70","22","0","12/10/2021 12:00:00 AM","2019","19443","NYTIMES-USCENSUS"
"12/11/2021 12:00:00 AM","Marshall County","Iowa","Midwest","West North Central","19127","42.0417","-92.981403 ","6856","94","0","0","12/10/2021 12:00:00 AM","2019","39369","NYTIMES-USCENSUS"
"12/11/2021 12:00:00 AM","Coos County","Oregon","West","Pacific","41011","43.18591","-124.094133 ","5952","113","0","0","12/10/2021 12:00:00 AM","2019","64487","NYTIMES-USCENSUS"
"12/11/2021 12:00:00 AM","Simpson County","Kentucky","South","East South Central","21213","36.740937","-86.581793 ","3562","69","0","0","12/10/2021 12:00:00 AM","2019","18572","NYTIMES-USCENSUS"
"12/11/2021 12:00:00 AM","Santa Barbara County","California","West","Pacific","06083","34.536677","-120.038364 ","48090","559","0","0","12/10/2021 12:00:00 AM","2019","446499","NYTIMES-USCENSUS"
"12/11/2021 12:00:00 AM","Winnebago County","Wisconsin","Midwest","East North Central","55139","44.085707","-88.668149 ","32736","295","0","0","12/10/2021 12:00:00 AM","2019","171907","NYTIMES-USCENSUS"
"12/11/2021 12:00:00 AM","Phelps County","Missouri","Midwest","West North Central","29161","37.866326","-91.790349 ","6999","196","29","1","12/10/2021 12:00:00 AM","2019","44573","NYTIMES-USCENSUS"
"12/11/2021 12:00:00 AM","Merrick County","Nebraska","Midwest","West North Central","31121","41.16979","-98.031057 ","1254","15","0","0","12/10/2021 12:00:00 AM","2019","7755","NYTIMES-USCENSUS"
"12/11/2021 12:00:00 AM","Jefferson County","Arkansas","South","West South Central","05069","34.277239","-91.929673 ","12550","233","5","0","12/10/2021 12:00:00 AM","2019","66824","NYTIMES-USCENSUS"
"12/11/2021 12:00:00 AM","Bay County","Florida","South","South Atlantic","12005","30.15914","-85.534395 ","32055","698","0","0","12/10/2021 12:00:00 AM","2019","174705","NYTIMES-USCENSUS"
"12/11/2021 12:00:00 AM","St. Louis County","Minnesota","Midwest","West North Central","27137","47.578635","-92.514593 ","31010","431","0","0","12/10/2021 12:00:00 AM","2019","199070","NYTIMES-USCENSUS"
"12/11/2021 12:00:00 AM","Allegheny County","Pennsylvania","Northeast","Middle Atlantic","42003","40.469757","-79.980451 ","158347","2570","937","10","12/10/2021 12:00:00 AM","2019","1216045","NYTIMES-USCENSUS"
"12/11/2021 12:00:00 AM","Jefferson County","Mississippi","South","East South Central","28063","31.733633","-91.043878 ","975","34","0","0","12/10/2021 12:00:00 AM","2019","6990","NYTIMES-USCENSUS"
"12/11/2021 12:00:00 AM","Miller County","Arkansas","South","West South Central","05091","33.305505","-93.901502 ","6741","151","7","0","12/10/2021 12:00:00 AM","2019","43257","NYTIMES-USCENSUS"
"12/11/2021 12:00:00 AM","Glenn County","California","West","Pacific","06021","39.602546","-122.4017 ","4622","51","0","0","12/10/2021 12:00:00 AM","2019","28393","NYTIMES-USCENSUS"
"12/11/2021 12:00:00 AM","Pendleton County","West Virginia","South","South Atlantic","54071","38.67445","-79.340617 ","1281","16","4","0","12/10/2021 12:00:00 AM","2019","6969","NYTIMES-USCENSUS"
"12/11/2021 12:00:00 AM","Benton County","Iowa","Midwest","West North Central","19011","42.092547","-92.05763 ","4305","60","0","0","12/10/2021 12:00:00 AM","2019","25645","NYTIMES-USCENSUS"
"12/11/2021 12:00:00 AM","Murray County","Oklahoma","South","West South Central","40099","34.485766","-97.071557 ","2731","57","0","0","12/10/2021 12:00:00 AM","2019","14073","NYTIMES-USCENSUS"
"12/11/2021 12:00:00 AM","Finney County","Kansas","Midwest","West North Central","20055","38.049808","-100.739967 ","8342","97","0","0","12/10/2021 12:00:00 AM","2019","36467","NYTIMES-USCENSUS"
"12/11/2021 12:00:00 AM","Callaway County","Missouri","Midwest","West North Central","29027","38.835547","-91.923446 ","8289","96","18","0","12/10/2021 12:00:00 AM","2019","44743","NYTIMES-USCENSUS"
"12/11/2021 12:00:00 AM","Hampton County","South Carolina","South","South Atlantic","45049","32.778334","-81.143822 ","3153","75","0","0","12/10/2021 12:00:00 AM","2019","19222","NYTIMES-USCENSUS"
"12/11/2021 12:00:00 AM","Walla Walla County","Washington","West","Pacific","53071","46.254606","-118.48037 ","9468","113","0","0","12/10/2021 12:00:00 AM","2019","60760","NYTIMES-USCENSUS"
"12/11/2021 12:00:00 AM","Washington Parish","Louisiana","South","West South Central","22117","30.852144","-90.046253 ","8294","221","0","0","12/10/2021 12:00:00 AM","2019","46194","NYTIMES-USCENSUS"
"12/11/2021 12:00:00 AM","Arapahoe County","Colorado","West","Mountain","08005","39.644554","-104.331706 ","93807","1024","0","0","12/10/2021 12:00:00 AM","2019","656590","NYTIMES-USCENSUS"
"12/11/2021 12:00:00 AM","Harrison County","Ohio","Midwest","East North Central","39067","40.292318","-81.091565 ","2228","54","11","0","12/10/2021 12:00:00 AM","2019","15040","NYTIMES-USCENSUS"
"12/11/2021 12:00:00 AM","La Plata County","Colorado","West","Mountain","08067","37.287367","-107.839718 ","7169","64","0","0","12/10/2021 12:00:00 AM","2019","56221","NYTIMES-USCENSUS"
"12/11/2021 12:00:00 AM","Knott County","Kentucky","South","East South Central","21119","37.354368","-82.952546 ","2563","43","0","0","12/10/2021 12:00:00 AM","2019","14806","NYTIMES-USCENSUS"
"12/11/2021 12:00:00 AM","Falls Church city","Virginia","South","South Atlantic","51610","38.884722","-77.175603 ","736","14","0","0","12/10/2021 12:00:00 AM","2019","14617","NYTIMES-USCENSUS"
"12/11/2021 12:00:00 AM","St. Bernard Parish","Louisiana","South","West South Central","22087","29.91811","-89.263494 ","7074","98","0","0","12/10/2021 12:00:00 AM","2019","47244","NYTIMES-USCENSUS"
"12/11/2021 12:00:00 AM","Marion County","Illinois","Midwest","East North Central","17121","38.648236","-88.920362 ","7703","161","0","0","12/10/2021 12:00:00 AM","2019","37205","NYTIMES-USCENSUS"
"12/11/2021 12:00:00 AM","Muskegon County","Michigan","Midwest","East North Central","26121","43.428739","-86.420908 ","29885","491","0","0","12/10/2021 12:00:00 AM","2019","173566","NYTIMES-USCENSUS"
"12/11/2021 12:00:00 AM","Kimble County","Texas","South","West South Central","48267","30.479472","-99.746396 ","454","11","1","0","12/10/2021 12:00:00 AM","2019","4337","NYTIMES-USCENSUS"
"12/11/2021 12:00:00 AM","White County","Tennessee","South","East South Central","47185","35.927049","-85.455785 ","5825","102","0","0","12/10/2021 12:00:00 AM","2019","27345","NYTIMES-USCENSUS"
"12/11/2021 12:00:00 AM","Phillips County","Kansas","Midwest","West North Central","20147","39.784506","-99.34215 ","1030","28","0","0","12/10/2021 12:00:00 AM","2019","5234","NYTIMES-USCENSUS"
"12/11/2021 12:00:00 AM","Benton County","Indiana","Midwest","East North Central","18007","40.600939","-87.314786 ","1743","18","0","0","12/10/2021 12:00:00 AM","2019","8748","NYTIMES-USCENSUS"
"12/11/2021 12:00:00 AM","Ada County","Idaho","West","Mountain","16001","43.451477","-116.244376 ","86714","847","51","0","12/10/2021 12:00:00 AM","2019","481587","NYTIMES-USCENSUS"
"12/11/2021 12:00:00 AM","Banks County","Georgia","South","South Atlantic","13011","34.351922","-83.498441 ","2867","68","0","0","12/10/2021 12:00:00 AM","2019","19234","NYTIMES-USCENSUS"
"12/11/2021 12:00:00 AM","Pearl River County","Mississippi","South","East South Central","28109","30.774793","-89.586904 ","9781","244","0","0","12/10/2021 12:00:00 AM","2019","55535","NYTIMES-USCENSUS"
"12/11/2021 12:00:00 AM","Chittenden County","Vermont","Northeast","New England","50007","44.463329","-73.06941 ","13914","132","82","0","12/10/2021 12:00:00 AM","2019","163774","NYTIMES-USCENSUS"
"12/11/2021 12:00:00 AM","Allamakee County","Iowa","Midwest","West North Central","19005","43.274964","-91.382751 ","2166","56","0","0","12/10/2021 12:00:00 AM","2019","13687","NYTIMES-USCENSUS"
"12/11/2021 12:00:00 AM","Carbon County","Wyoming","West","Mountain","56007","41.70359","-106.933153 ","3226","45","0","0","12/10/2021 12:00:00 AM","2019","14800","NYTIMES-USCENSUS"
"12/11/2021 12:00:00 AM","Guadalupe County","Texas","South","West South Central","48187","29.582671","-97.948995 ","25279","349","18","0","12/10/2021 12:00:00 AM","2019","166847","NYTIMES-USCENSUS"
"12/11/2021 12:00:00 AM","Gosper County","Nebraska","Midwest","West North Central","31073","40.509095","-99.823206 ","276","5","0","0","12/10/2021 12:00:00 AM","2019","1990","NYTIMES-USCENSUS"
"12/11/2021 12:00:00 AM","Fairfax County","Virginia","South","South Atlantic","51059","38.82952","-77.273252 ","97108","1178","0","0","12/10/2021 12:00:00 AM","2019","1147532","NYTIMES-USCENSUS"
"12/11/2021 12:00:00 AM","Randolph County","Illinois","Midwest","East North Central","17157","38.056515","-89.82121 ","5869","110","0","0","12/10/2021 12:00:00 AM","2019","31782","NYTIMES-USCENSUS"
"12/11/2021 12:00:00 AM","Iredell County","North Carolina","South","South Atlantic","37097","35.806251","-80.874524 ","31088","336","0","0","12/10/2021 12:00:00 AM","2019","181806","NYTIMES-USCENSUS"
"12/11/2021 12:00:00 AM","Knox County","Texas","South","West South Central","48275","33.61189","-99.730356 ","374","22","0","0","12/10/2021 12:00:00 AM","2019","3664","NYTIMES-USCENSUS"
"12/11/2021 12:00:00 AM","Clay County","North Carolina","South","South Atlantic","37043","35.052997","-83.752264 ","1727","38","0","0","12/10/2021 12:00:00 AM","2019","11231","NYTIMES-USCENSUS"
"12/11/2021 12:00:00 AM","Georgetown County","South Carolina","South","South Atlantic","45043","33.417531","-79.296333 ","9986","186","0","0","12/10/2021 12:00:00 AM","2019","62680","NYTIMES-USCENSUS"
"12/11/2021 12:00:00 AM","Rio Grande County","Colorado","West","Mountain","08105","37.485853","-106.453128 ","1900","34","0","0","12/10/2021 12:00:00 AM","2019","11267","NYTIMES-USCENSUS"
"12/11/2021 12:00:00 AM","Unicoi County","Tennessee","South","East South Central","47171","36.100129","-82.418218 ","3309","69","0","0","12/10/2021 12:00:00 AM","2019","17883","NYTIMES-USCENSUS"
"12/11/2021 12:00:00 AM","Elbert County","Georgia","South","South Atlantic","13105","34.116413","-82.841909 ","3420","92","0","0","12/10/2021 12:00:00 AM","2019","19194","NYTIMES-USCENSUS"
"12/11/2021 12:00:00 AM","Big Horn County","Montana","West","Mountain","30003","45.407868","-107.518162 ","3442","84","0","0","12/10/2021 12:00:00 AM","2019","13319","NYTIMES-USCENSUS"
"12/11/2021 12:00:00 AM","Pawnee County","Oklahoma","South","West South Central","40117","36.313704","-96.696669 ","2794","69","0","0","12/10/2021 12:00:00 AM","2019","16376","NYTIMES-USCENSUS"
"12/11/2021 12:00:00 AM","Boone County","Indiana","Midwest","East North Central","18011","40.050892","-86.469014 ","10145","134","0","0","12/10/2021 12:00:00 AM","2019","67843","NYTIMES-USCENSUS"
"12/11/2021 12:00:00 AM","Hudspeth County","Texas","South","West South Central","48229","31.450868","-105.377549 ","614","14","5","0","12/10/2021 12:00:00 AM","2019","4886","NYTIMES-USCENSUS"
"12/11/2021 12:00:00 AM","Solano County","California","West","Pacific","06095","38.267226","-121.939594 ","48216","365","0","0","12/10/2021 12:00:00 AM","2019","447643","NYTIMES-USCENSUS"
"12/11/2021 12:00:00 AM","St. Clair County","Michigan","Midwest","East North Central","26147","42.928803","-82.668913 ","28237","589","0","0","12/10/2021 12:00:00 AM","2019","159128","NYTIMES-USCENSUS"
"12/11/2021 12:00:00 AM","Holt County","Missouri","Midwest","West North Central","29087","40.095724","-95.219072 ","735","23","1","0","12/10/2021 12:00:00 AM","2019","4403","NYTIMES-USCENSUS"
"12/11/2021 12:00:00 AM","Mille Lacs County","Minnesota","Midwest","West North Central","27095","45.929043","-93.632996 ","5554","84","0","0","12/10/2021 12:00:00 AM","2019","26277","NYTIMES-USCENSUS"
"12/11/2021 12:00:00 AM","San Augustine County","Texas","South","West South Central","48405","31.382449","-94.16318 ","902","38","0","0","12/10/2021 12:00:00 AM","2019","8237","NYTIMES-USCENSUS"
"12/11/2021 12:00:00 AM","Brown County","Minnesota","Midwest","West North Central","27015","44.246541","-94.733647 ","4852","63","0","0","12/10/2021 12:00:00 AM","2019","25008","NYTIMES-USCENSUS"
"12/11/2021 12:00:00 AM","Cooke County","Texas","South","West South Central","48097","33.639196","-97.210343 ","5245","105","2","0","12/10/2021 12:00:00 AM","2019","41257","NYTIMES-USCENSUS"
"12/11/2021 12:00:00 AM","Nobles County","Minnesota","Midwest","West North Central","27105","43.677686","-95.763132 ","5332","55","0","0","12/10/2021 12:00:00 AM","2019","21629","NYTIMES-USCENSUS"
"12/11/2021 12:00:00 AM","Tunica County","Mississippi","South","East South Central","28143","34.652201","-90.37177 ","1650","39","0","0","12/10/2021 12:00:00 AM","2019","9632","NYTIMES-USCENSUS"
"12/11/2021 12:00:00 AM","Pocahontas County","Iowa","Midwest","West North Central","19151","42.734033","-94.678279 ","1233","25","0","0","12/10/2021 12:00:00 AM","2019","6619","NYTIMES-USCENSUS"
"12/11/2021 12:00:00 AM","King George County","Virginia","South","South Atlantic","51099","38.27718","-77.162636 ","2972","24","0","0","12/10/2021 12:00:00 AM","2019","26836","NYTIMES-USCENSUS"
"12/11/2021 12:00:00 AM","Madison County","Tennessee","South","East South Central","47113","35.606056","-88.833424 ","18348","330","0","0","12/10/2021 12:00:00 AM","2019","97984","NYTIMES-USCENSUS"
"12/11/2021 12:00:00 AM","Covington city","Virginia","South","South Atlantic","51580","37.78106","-79.985434 ","790","18","0","0","12/10/2021 12:00:00 AM","2019","5538","NYTIMES-USCENSUS"
"12/11/2021 12:00:00 AM","Spencer County","Kentucky","South","East South Central","21215","38.025411","-85.317174 ","3241","40","0","0","12/10/2021 12:00:00 AM","2019","19351","NYTIMES-USCENSUS"
"12/11/2021 12:00:00 AM","Lawrence County","Indiana","Midwest","East North Central","18093","38.839815","-86.48782 ","8276","191","0","0","12/10/2021 12:00:00 AM","2019","45370","NYTIMES-USCENSUS"
"12/11/2021 12:00:00 AM","Ionia County","Michigan","Midwest","East North Central","26067","42.94465","-85.073766 ","14516","132","0","0","12/10/2021 12:00:00 AM","2019","64697","NYTIMES-USCENSUS"
"12/11/2021 12:00:00 AM","Lafayette Parish","Louisiana","South","West South Central","22055","30.206507","-92.06417 ","39840","410","0","0","12/10/2021 12:00:00 AM","2019","244390","NYTIMES-USCENSUS"
"12/11/2021 12:00:00 AM","Marquette County","Wisconsin","Midwest","East North Central","55077","43.826053","-89.409095 ","2745","38","0","0","12/10/2021 12:00:00 AM","2019","15574","NYTIMES-USCENSUS"
"12/11/2021 12:00:00 AM","St. Johns County","Florida","South","South Atlantic","12109","29.890487","-81.40004 ","41549","473","0","0","12/10/2021 12:00:00 AM","2019","264672","NYTIMES-USCENSUS"
"12/11/2021 12:00:00 AM","Lorain County","Ohio","Midwest","East North Central","39093","41.438805","-82.179722 ","44259","669","259","0","12/10/2021 12:00:00 AM","2019","309833","NYTIMES-USCENSUS"
"12/11/2021 12:00:00 AM","Douglas County","Wisconsin","Midwest","East North Central","55031","46.463218","-91.892477 ","7660","70","0","0","12/10/2021 12:00:00 AM","2019","43150","NYTIMES-USCENSUS"
"12/11/2021 12:00:00 AM","Clay County","Texas","South","West South Central","48077","33.785904","-98.212917 ","1608","25","0","0","12/10/2021 12:00:00 AM","2019","10471","NYTIMES-USCENSUS"
"12/11/2021 12:00:00 AM","Hernando County","Florida","South","South Atlantic","12053","28.555995","-82.525969 ","28876","926","0","0","12/10/2021 12:00:00 AM","2019","193920","NYTIMES-USCENSUS"
"12/11/2021 12:00:00 AM","Orange County","California","West","Pacific","06059","33.675687","-117.777207 ","337937","5814","0","0","12/10/2021 12:00:00 AM","2019","3175692","NYTIMES-USCENSUS"
"12/11/2021 12:00:00 AM","Essex County","Vermont","Northeast","New England","50009","44.724021","-71.732736 ","821","2","1","0","12/10/2021 12:00:00 AM","2019","6163","NYTIMES-USCENSUS"
"12/11/2021 12:00:00 AM","Des Moines County","Iowa","Midwest","West North Central","19057","40.915339","-91.186925 ","7223","109","0","0","12/10/2021 12:00:00 AM","2019","38967","NYTIMES-USCENSUS"
"12/11/2021 12:00:00 AM","Audubon County","Iowa","Midwest","West North Central","19009","41.679178","-94.904312 ","797","17","0","0","12/10/2021 12:00:00 AM","2019","5496","NYTIMES-USCENSUS"
"12/11/2021 12:00:00 AM","Douglas County","Washington","West","Pacific","53017","47.741763","-119.694622 ","6796","51","0","0","12/10/2021 12:00:00 AM","2019","43429","NYTIMES-USCENSUS"
"12/11/2021 12:00:00 AM","Newton County","Indiana","Midwest","East North Central","18111","40.962399","-87.402172 ","1883","56","0","0","12/10/2021 12:00:00 AM","2019","13984","NYTIMES-USCENSUS"
"12/11/2021 12:00:00 AM","Newton County","Texas","South","West South Central","48351","30.786718","-93.73925 ","964","54","1","0","12/10/2021 12:00:00 AM","2019","13595","NYTIMES-USCENSUS"
"12/11/2021 12:00:00 AM","Jackson County","Iowa","Midwest","West North Central","19097","42.164226","-90.574582 ","3434","47","0","0","12/10/2021 12:00:00 AM","2019","19439","NYTIMES-USCENSUS"
"12/11/2021 12:00:00 AM","Swisher County","Texas","South","West South Central","48437","34.526319","-101.743865 ","1515","23","5","0","12/10/2021 12:00:00 AM","2019","7397","NYTIMES-USCENSUS"
"12/11/2021 12:00:00 AM","Sussex County","Virginia","South","South Atlantic","51183","36.926645","-77.259732 ","1600","29","0","0","12/10/2021 12:00:00 AM","2019","11159","NYTIMES-USCENSUS"
"12/11/2021 12:00:00 AM","Pulaski County","Virginia","South","South Atlantic","51155","37.063385","-80.713444 ","4530","98","0","0","12/10/2021 12:00:00 AM","2019","34027","NYTIMES-USCENSUS"
"12/11/2021 12:00:00 AM","Grant County","Washington","West","Pacific","53025","47.213633","-119.467788 ","18406","211","0","0","12/10/2021 12:00:00 AM","2019","97733","NYTIMES-USCENSUS"
"12/11/2021 12:00:00 AM","Wyandot County","Ohio","Midwest","East North Central","39175","40.839782","-83.313681 ","3917","77","17","0","12/10/2021 12:00:00 AM","2019","21772","NYTIMES-USCENSUS"
"12/11/2021 12:00:00 AM","Wasatch County","Utah","West","Mountain","49051","40.334884","-111.161568 ","6812","31","0","0","12/10/2021 12:00:00 AM","2019","34091","NYTIMES-USCENSUS"
"12/11/2021 12:00:00 AM","Chester County","Tennessee","South","East South Central","47023","35.420253","-88.611353 ","3640","78","0","0","12/10/2021 12:00:00 AM","2019","17297","NYTIMES-USCENSUS"
"12/11/2021 12:00:00 AM","Benton County","Arkansas","South","West South Central","05007","36.337819","-94.256298 ","44726","650","59","1","12/10/2021 12:00:00 AM","2019","279141","NYTIMES-USCENSUS"
"12/11/2021 12:00:00 AM","Greeley County","Nebraska","Midwest","West North Central","31077","41.567571","-98.530565 ","312","1","0","0","12/10/2021 12:00:00 AM","2019","2356","NYTIMES-USCENSUS"
"12/11/2021 12:00:00 AM","Mesa County","Colorado","West","Mountain","08077","39.019524","-108.460571 ","28908","424","0","0","12/10/2021 12:00:00 AM","2019","154210","NYTIMES-USCENSUS"
"12/11/2021 12:00:00 AM","Franklin County","Florida","South","South Atlantic","12037","29.677794","-84.815213 ","2232","45","0","0","12/10/2021 12:00:00 AM","2019","12125","NYTIMES-USCENSUS"
"12/11/2021 12:00:00 AM","Saunders County","Nebraska","Midwest","West North Central","31155","41.223388","-96.642097 ","3620","20","0","0","12/10/2021 12:00:00 AM","2019","21578","NYTIMES-USCENSUS"
"12/11/2021 12:00:00 AM","Craighead County","Arkansas","South","West South Central","05031","35.827729","-90.631421 ","22684","251","31","0","12/10/2021 12:00:00 AM","2019","110332","NYTIMES-USCENSUS"
"12/11/2021 12:00:00 AM","Roberts County","Texas","South","West South Central","48393","35.838596","-100.836682 ","111","1","0","0","12/10/2021 12:00:00 AM","2019","854","NYTIMES-USCENSUS"
"12/11/2021 12:00:00 AM","Lincoln County","Oklahoma","South","West South Central","40081","35.703117","-96.881392 ","5120","117","0","0","12/10/2021 12:00:00 AM","2019","34877","NYTIMES-USCENSUS"
"12/11/2021 12:00:00 AM","Jefferson County","Wisconsin","Midwest","East North Central","55055","43.013804","-88.773985 ","14177","174","0","0","12/10/2021 12:00:00 AM","2019","84769","NYTIMES-USCENSUS"
"12/11/2021 12:00:00 AM","Otter Tail County","Minnesota","Midwest","West North Central","27111","46.405727","-95.714581 ","10157","134","0","0","12/10/2021 12:00:00 AM","2019","58746","NYTIMES-USCENSUS"
"12/11/2021 12:00:00 AM","Reynolds County","Missouri","Midwest","West North Central","29179","37.366464","-90.972282 ","835","12","0","0","12/10/2021 12:00:00 AM","2019","6270","NYTIMES-USCENSUS"
"12/11/2021 12:00:00 AM","Greene County","Illinois","Midwest","East North Central","17061","39.355439","-90.387682 ","2274","53","0","0","12/10/2021 12:00:00 AM","2019","12969","NYTIMES-USCENSUS"
"12/11/2021 12:00:00 AM","Washita County","Oklahoma","South","West South Central","40149","35.289497","-98.991436 ","1694","33","0","0","12/10/2021 12:00:00 AM","2019","10916","NYTIMES-USCENSUS"
"12/11/2021 12:00:00 AM","Washington County","Illinois","Midwest","East North Central","17189","38.35314","-89.417187 ","2290","36","0","0","12/10/2021 12:00:00 AM","2019","13887","NYTIMES-USCENSUS"
"12/11/2021 12:00:00 AM","Story County","Iowa","Midwest","West North Central","19169","42.037538","-93.466093 ","14273","59","0","0","12/10/2021 12:00:00 AM","2019","97117","NYTIMES-USCENSUS"
"12/11/2021 12:00:00 AM","Fulton County","Indiana","Midwest","East North Central","18049","41.050384","-86.265006 ","3738","75","0","0","12/10/2021 12:00:00 AM","2019","19974","NYTIMES-USCENSUS"
"12/11/2021 12:00:00 AM","Furnas County","Nebraska","Midwest","West North Central","31065","40.191865","-99.909663 ","809","5","0","0","12/10/2021 12:00:00 AM","2019","4676","NYTIMES-USCENSUS"
"12/11/2021 12:00:00 AM","Prince of Wales-Hyder Census Area","Alaska","West","Pacific","02198","55.682773","-133.162389 ","617","6","0","0","12/10/2021 12:00:00 AM","2019","6203","NYTIMES-USCENSUS"
"12/11/2021 12:00:00 AM","Toombs County","Georgia","South","South Atlantic","13279","32.117753","-82.330597 ","5513","177","0","0","12/10/2021 12:00:00 AM","2019","26830","NYTIMES-USCENSUS"
"12/11/2021 12:00:00 AM","Emmet County","Iowa","Midwest","West North Central","19063","43.377984","-94.66937 ","1850","46","0","0","12/10/2021 12:00:00 AM","2019","9208","NYTIMES-USCENSUS"
"12/11/2021 12:00:00 AM","Hood River County","Oregon","West","Pacific","41027","45.511775","-121.655976 ","2203","37","0","0","12/10/2021 12:00:00 AM","2019","23382","NYTIMES-USCENSUS"
"12/11/2021 12:00:00 AM","Johnson County","Arkansas","South","West South Central","05071","35.573359","-93.466322 ","4768","61","5","0","12/10/2021 12:00:00 AM","2019","26578","NYTIMES-USCENSUS"
"12/11/2021 12:00:00 AM","East Carroll Parish","Louisiana","South","West South Central","22035","32.73017","-91.234141 ","1719","32","0","0","12/10/2021 12:00:00 AM","2019","6861","NYTIMES-USCENSUS"
"12/11/2021 12:00:00 AM","Athens County","Ohio","Midwest","East North Central","39009","39.332755","-82.045885 ","8540","98","23","0","12/10/2021 12:00:00 AM","2019","65327","NYTIMES-USCENSUS"
"12/11/2021 12:00:00 AM","Pointe Coupee Parish","Louisiana","South","West South Central","22077","30.708319","-91.604621 ","4012","85","0","0","12/10/2021 12:00:00 AM","2019","21730","NYTIMES-USCENSUS"
"12/11/2021 12:00:00 AM","Clark County","Missouri","Midwest","West North Central","29045","40.407275","-91.729472 ","1200","27","0","0","12/10/2021 12:00:00 AM","2019","6797","NYTIMES-USCENSUS"
"12/11/2021 12:00:00 AM","Medina County","Texas","South","West South Central","48325","29.353661","-99.111085 ","7112","170","4","0","12/10/2021 12:00:00 AM","2019","51584","NYTIMES-USCENSUS"
"12/11/2021 12:00:00 AM","Sutter County","California","West","Pacific","06101","39.03619","-121.70394 ","14771","187","0","0","12/10/2021 12:00:00 AM","2019","96971","NYTIMES-USCENSUS"
"12/11/2021 12:00:00 AM","Marion County","Missouri","Midwest","West North Central","29127","39.807538","-91.635379 ","5728","100","5","0","12/10/2021 12:00:00 AM","2019","28530","NYTIMES-USCENSUS"
"12/11/2021 12:00:00 AM","Clay County","West Virginia","South","South Atlantic","54015","38.459826","-81.081866 ","1461","24","12","0","12/10/2021 12:00:00 AM","2019","8508","NYTIMES-USCENSUS"
"12/11/2021 12:00:00 AM","Hamilton County","Texas","South","West South Central","48193","31.707342","-98.111756 ","1346","29","10","0","12/10/2021 12:00:00 AM","2019","8461","NYTIMES-USCENSUS"
"12/11/2021 12:00:00 AM","Jefferson County","Oregon","West","Pacific","41031","44.645151","-121.178632 ","4294","69","0","0","12/10/2021 12:00:00 AM","2019","24658","NYTIMES-USCENSUS"
"12/11/2021 12:00:00 AM","Montgomery County","Indiana","Midwest","East North Central","18107","40.040296","-86.892715 ","7401","125","0","0","12/10/2021 12:00:00 AM","2019","38338","NYTIMES-USCENSUS"
"12/11/2021 12:00:00 AM","Wilson County","Tennessee","South","East South Central","47189","36.149527","-86.291242 ","28159","357","0","0","12/10/2021 12:00:00 AM","2019","144657","NYTIMES-USCENSUS"
"12/11/2021 12:00:00 AM","Franklin County","Maine","Northeast","New England","23007","44.976724","-70.414935 ","3291","35","13","0","12/10/2021 12:00:00 AM","2019","30199","NYTIMES-USCENSUS"
"12/11/2021 12:00:00 AM","Sharp County","Arkansas","South","West South Central","05135","36.173399","-91.471069 ","3221","73","3","1","12/10/2021 12:00:00 AM","2019","17442","NYTIMES-USCENSUS"
"12/11/2021 12:00:00 AM","Garfield County","Nebraska","Midwest","West North Central","31071","41.906868","-98.951231 ","306","1","0","0","12/10/2021 12:00:00 AM","2019","1969","NYTIMES-USCENSUS"
"12/11/2021 12:00:00 AM","Dubois County","Indiana","Midwest","East North Central","18037","38.373344","-86.873385 ","8993","144","0","0","12/10/2021 12:00:00 AM","2019","42736","NYTIMES-USCENSUS"
"12/11/2021 12:00:00 AM","Angelina County","Texas","South","West South Central","48005","31.251896","-94.611134 ","13920","422","1","0","12/10/2021 12:00:00 AM","2019","86715","NYTIMES-USCENSUS"
"12/11/2021 12:00:00 AM","Edgar County","Illinois","Midwest","East North Central","17045","39.679037","-87.74711 ","3137","71","0","0","12/10/2021 12:00:00 AM","2019","17161","NYTIMES-USCENSUS"
"12/11/2021 12:00:00 AM","Lancaster County","Virginia","South","South Atlantic","51103","37.704843","-76.412663 ","1102","24","0","0","12/10/2021 12:00:00 AM","2019","10603","NYTIMES-USCENSUS"
"12/11/2021 12:00:00 AM","Richardson County","Nebraska","Midwest","West North Central","31147","40.123743","-95.718603 ","1166","24","0","0","12/10/2021 12:00:00 AM","2019","7865","NYTIMES-USCENSUS"
"12/11/2021 12:00:00 AM","Allendale County","South Carolina","South","South Atlantic","45005","32.979757","-81.363265 ","1377","21","0","0","12/10/2021 12:00:00 AM","2019","8688","NYTIMES-USCENSUS"
"12/11/2021 12:00:00 AM","Morgan County","Indiana","Midwest","East North Central","18109","39.482646","-86.447457 ","10729","207","0","0","12/10/2021 12:00:00 AM","2019","70489","NYTIMES-USCENSUS"
"12/11/2021 12:00:00 AM","Live Oak County","Texas","South","West South Central","48297","28.351535","-98.126961 ","1762","38","0","0","12/10/2021 12:00:00 AM","2019","12207","NYTIMES-USCENSUS"
"12/11/2021 12:00:00 AM","Lafayette County","Missouri","Midwest","West North Central","29107","39.068705","-93.802639 ","5236","89","25","0","12/10/2021 12:00:00 AM","2019","32708","NYTIMES-USCENSUS"
"12/11/2021 12:00:00 AM","Boundary County","Idaho","West","Mountain","16021","48.773131","-116.524668 ","1724","48","0","0","12/10/2021 12:00:00 AM","2019","12245","NYTIMES-USCENSUS"
"12/11/2021 12:00:00 AM","Covington County","Alabama","South","East South Central","01039","31.243987","-86.448721 ","7019","197","13","0","12/10/2021 12:00:00 AM","2019","37049","NYTIMES-USCENSUS"
"12/11/2021 12:00:00 AM","Lee County","Virginia","South","South Atlantic","51105","36.701721","-83.130112 ","3981","62","0","0","12/10/2021 12:00:00 AM","2019","23423","NYTIMES-USCENSUS"
"12/11/2021 12:00:00 AM","Lincoln County","Colorado","West","Mountain","08073","38.99374","-103.507555 ","1412","8","0","0","12/10/2021 12:00:00 AM","2019","5701","NYTIMES-USCENSUS"
"12/11/2021 12:00:00 AM","Sauk County","Wisconsin","Midwest","East North Central","55111","43.428001","-89.943318 ","10242","78","0","0","12/10/2021 12:00:00 AM","2019","64442","NYTIMES-USCENSUS"
"12/11/2021 12:00:00 AM","Pender County","North Carolina","South","South Atlantic","37141","34.512556","-77.888106 ","9361","102","0","0","12/10/2021 12:00:00 AM","2019","63060","NYTIMES-USCENSUS"
"12/11/2021 12:00:00 AM","Miller County","Georgia","South","South Atlantic","13201","31.162931","-84.730398 ","1250","24","0","0","12/10/2021 12:00:00 AM","2019","5718","NYTIMES-USCENSUS"
"12/11/2021 12:00:00 AM","Fleming County","Kentucky","South","East South Central","21069","38.367848","-83.699205 ","2408","40","0","0","12/10/2021 12:00:00 AM","2019","14581","NYTIMES-USCENSUS"
"12/11/2021 12:00:00 AM","Vermilion Parish","Louisiana","South","West South Central","22113","29.789722","-92.291568 ","10429","195","0","0","12/10/2021 12:00:00 AM","2019","59511","NYTIMES-USCENSUS"
"12/11/2021 12:00:00 AM","Le Sueur County","Minnesota","Midwest","West North Central","27079","44.373424","-93.730143 ","4827","36","0","0","12/10/2021 12:00:00 AM","2019","28887","NYTIMES-USCENSUS"
"12/11/2021 12:00:00 AM","Langlade County","Wisconsin","Midwest","East North Central","55067","45.254863","-89.06707 ","3652","61","0","0","12/10/2021 12:00:00 AM","2019","19189","NYTIMES-USCENSUS"
"12/11/2021 12:00:00 AM","De Soto Parish","Louisiana","South","West South Central","22031","32.059248","-93.740797 ","4848","113","0","0","12/10/2021 12:00:00 AM","2019","27463","NYTIMES-USCENSUS"
"12/11/2021 12:00:00 AM","Rockingham County","Virginia","South","South Atlantic","51165","38.507585","-78.885321 ","10083","174","0","0","12/10/2021 12:00:00 AM","2019","81948","NYTIMES-USCENSUS"
"12/11/2021 12:00:00 AM","Wood County","Wisconsin","Midwest","East North Central","55141","44.461413","-90.038825 ","13545","155","0","0","12/10/2021 12:00:00 AM","2019","72999","NYTIMES-USCENSUS"
"12/11/2021 12:00:00 AM","Dunklin County","Missouri","Midwest","West North Central","29069","36.153025","-90.062254 ","4757","93","15","0","12/10/2021 12:00:00 AM","2019","29131","NYTIMES-USCENSUS"
"12/11/2021 12:00:00 AM","Worth County","Georgia","South","South Atlantic","13321","31.551773","-83.84996 ","3145","96","0","0","12/10/2021 12:00:00 AM","2019","20247","NYTIMES-USCENSUS"
"12/11/2021 12:00:00 AM","White County","Indiana","Midwest","East North Central","18181","40.75095","-86.864293 ","4950","72","0","0","12/10/2021 12:00:00 AM","2019","24102","NYTIMES-USCENSUS"
"12/11/2021 12:00:00 AM","Platte County","Missouri","Midwest","West North Central","29165","39.37869","-94.761477 ","6820","71","24","0","12/10/2021 12:00:00 AM","2019","104418","NYTIMES-USCENSUS"
"12/11/2021 12:00:00 AM","Morton County","Kansas","Midwest","West North Central","20129","37.185249","-101.809516 ","462","10","0","0","12/10/2021 12:00:00 AM","2019","2587","NYTIMES-USCENSUS"
"12/11/2021 12:00:00 AM","Washington County","Arkansas","South","West South Central","05143","35.978001","-94.217269 ","46339","502","59","0","12/10/2021 12:00:00 AM","2019","239187","NYTIMES-USCENSUS"
"12/11/2021 12:00:00 AM","Custer County","Colorado","West","Mountain","08027","38.101996","-105.373512 ","477","13","0","0","12/10/2021 12:00:00 AM","2019","5068","NYTIMES-USCENSUS"
"12/11/2021 12:00:00 AM","Sawyer County","Wisconsin","Midwest","East North Central","55113","45.864911","-91.147133 ","3283","40","0","0","12/10/2021 12:00:00 AM","2019","16558","NYTIMES-USCENSUS"
"12/11/2021 12:00:00 AM","Decatur County","Tennessee","South","East South Central","47039","35.603136","-88.110292 ","2520","44","0","0","12/10/2021 12:00:00 AM","2019","11663","NYTIMES-USCENSUS"
"12/11/2021 12:00:00 AM","Mendocino County","California","West","Pacific","06045","39.432388","-123.442881 ","8817","100","0","0","12/10/2021 12:00:00 AM","2019","86749","NYTIMES-USCENSUS"
"12/11/2021 12:00:00 AM","Walker County","Alabama","South","East South Central","01127","33.791558","-87.301094 ","12272","386","14","3","12/10/2021 12:00:00 AM","2019","63521","NYTIMES-USCENSUS"
"12/11/2021 12:00:00 AM","Bell County","Kentucky","South","East South Central","21013","36.728928","-83.680718 ","6060","115","0","0","12/10/2021 12:00:00 AM","2019","26032","NYTIMES-USCENSUS"
"12/11/2021 12:00:00 AM","Multnomah County","Oregon","West","Pacific","41051","45.547711","-122.417363 ","61622","867","0","0","12/10/2021 12:00:00 AM","2019","812855","NYTIMES-USCENSUS"
"12/11/2021 12:00:00 AM","Cameron Parish","Louisiana","South","West South Central","22023","29.871812","-93.164948 ","867","8","0","0","12/10/2021 12:00:00 AM","2019","6973","NYTIMES-USCENSUS"
"12/11/2021 12:00:00 AM","Kanawha County","West Virginia","South","South Atlantic","54039","38.328068","-81.523516 ","27442","559","81","0","12/10/2021 12:00:00 AM","2019","178124","NYTIMES-USCENSUS"
"12/11/2021 12:00:00 AM","Traverse County","Minnesota","Midwest","West North Central","27155","45.769935","-96.474832 ","613","6","0","0","12/10/2021 12:00:00 AM","2019","3259","NYTIMES-USCENSUS"
"12/11/2021 12:00:00 AM","Colfax County","Nebraska","Midwest","West North Central","31037","41.57496","-97.088945 ","1979","21","0","0","12/10/2021 12:00:00 AM","2019","10709","NYTIMES-USCENSUS"
"12/11/2021 12:00:00 AM","Danville city","Virginia","South","South Atlantic","51590","36.583334","-79.408071 ","6582","201","0","0","12/10/2021 12:00:00 AM","2019","40044","NYTIMES-USCENSUS"
"12/11/2021 12:00:00 AM","Park County","Colorado","West","Mountain","08093","39.118914","-105.717648 ","1778","13","0","0","12/10/2021 12:00:00 AM","2019","18845","NYTIMES-USCENSUS"
"12/11/2021 12:00:00 AM","Miner County","South Dakota","Midwest","West North Central","46097","44.021541","-97.608122 ","371","11","0","0","12/10/2021 12:00:00 AM","2019","2216","NYTIMES-USCENSUS"
"12/11/2021 12:00:00 AM","St. Clair County","Illinois","Midwest","East North Central","17163","38.470198","-89.928546 ","44043","664","0","0","12/10/2021 12:00:00 AM","2019","259686","NYTIMES-USCENSUS"
"12/11/2021 12:00:00 AM","Harvey County","Kansas","Midwest","West North Central","20079","38.050144","-97.436706 ","5869","100","0","0","12/10/2021 12:00:00 AM","2019","34429","NYTIMES-USCENSUS"
"12/11/2021 12:00:00 AM","Attala County","Mississippi","South","East South Central","28007","33.090468","-89.588622 ","3434","90","0","0","12/10/2021 12:00:00 AM","2019","18174","NYTIMES-USCENSUS"
"12/11/2021 12:00:00 AM","Greenup County","Kentucky","South","East South Central","21089","38.563562","-82.93382 ","7156","102","0","0","12/10/2021 12:00:00 AM","2019","35098","NYTIMES-USCENSUS"
"12/11/2021 12:00:00 AM","Waller County","Texas","South","West South Central","48473","30.01359","-95.982149 ","6660","87","5","0","12/10/2021 12:00:00 AM","2019","55246","NYTIMES-USCENSUS"
"12/11/2021 12:00:00 AM","Pope County","Minnesota","Midwest","West North Central","27121","45.589623","-95.446705 ","2125","10","0","0","12/10/2021 12:00:00 AM","2019","11249","NYTIMES-USCENSUS"
"12/11/2021 12:00:00 AM","Marshall County","South Dakota","Midwest","West North Central","46091","45.737044","-97.58087 ","530","8","0","0","12/10/2021 12:00:00 AM","2019","4935","NYTIMES-USCENSUS"
"12/11/2021 12:00:00 AM","Menard County","Illinois","Midwest","East North Central","17129","40.022569","-89.794133 ","1994","19","0","0","12/10/2021 12:00:00 AM","2019","12196","NYTIMES-USCENSUS"
"12/11/2021 12:00:00 AM","Martin County","North Carolina","South","South Atlantic","37117","35.847301","-77.119602 ","3813","75","0","0","12/10/2021 12:00:00 AM","2019","22440","NYTIMES-USCENSUS"
"12/11/2021 12:00:00 AM","Lake County","South Dakota","Midwest","West North Central","46079","44.02845","-97.123223 ","1736","20","0","0","12/10/2021 12:00:00 AM","2019","12797","NYTIMES-USCENSUS"
"12/11/2021 12:00:00 AM","Putnam County","Ohio","Midwest","East North Central","39137","41.024533","-84.129879 ","6435","122","19","0","12/10/2021 12:00:00 AM","2019","33861","NYTIMES-USCENSUS"
"12/11/2021 12:00:00 AM","Texas County","Oklahoma","South","West South Central","40139","36.746317","-101.483855 ","4369","41","0","0","12/10/2021 12:00:00 AM","2019","19983","NYTIMES-USCENSUS"
"12/11/2021 12:00:00 AM","Harris County","Georgia","South","South Atlantic","13145","32.731549","-84.912432 ","3885","96","0","0","12/10/2021 12:00:00 AM","2019","35236","NYTIMES-USCENSUS"
"12/11/2021 12:00:00 AM","Cumberland County","Maine","Northeast","New England","23005","43.808348","-70.330375 ","25616","257","120","1","12/10/2021 12:00:00 AM","2019","295003","NYTIMES-USCENSUS"
"12/11/2021 12:00:00 AM","Morrison County","Minnesota","Midwest","West North Central","27097","46.020484","-94.266619 ","6924","82","0","0","12/10/2021 12:00:00 AM","2019","33386","NYTIMES-USCENSUS"
"12/11/2021 12:00:00 AM","Union County","Kentucky","South","East South Central","21225","37.658029","-87.95165 ","2722","43","0","0","12/10/2021 12:00:00 AM","2019","14381","NYTIMES-USCENSUS"
"12/11/2021 12:00:00 AM","Baca County","Colorado","West","Mountain","08009","37.30978","-102.543741 ","576","6","0","0","12/10/2021 12:00:00 AM","2019","3581","NYTIMES-USCENSUS"
"12/11/2021 12:00:00 AM","Stewart County","Georgia","South","South Atlantic","13259","32.073225","-84.834912 ","1604","29","0","0","12/10/2021 12:00:00 AM","2019","6621","NYTIMES-USCENSUS"
"12/11/2021 12:00:00 AM","Livingston County","Michigan","Midwest","East North Central","26093","42.602532","-83.911718 ","30653","314","0","0","12/10/2021 12:00:00 AM","2019","191995","NYTIMES-USCENSUS"
"12/11/2021 12:00:00 AM","Pasquotank County","North Carolina","South","South Atlantic","37139","36.265199","-76.260691 ","5627","110","0","0","12/10/2021 12:00:00 AM","2019","39824","NYTIMES-USCENSUS"
"12/11/2021 12:00:00 AM","Itasca County","Minnesota","Midwest","West North Central","27061","47.490817","-93.611102 ","8041","104","0","0","12/10/2021 12:00:00 AM","2019","45130","NYTIMES-USCENSUS"
"12/11/2021 12:00:00 AM","Van Buren County","Michigan","Midwest","East North Central","26159","42.28215","-86.306076 ","11834","193","0","0","12/10/2021 12:00:00 AM","2019","75677","NYTIMES-USCENSUS"
"12/11/2021 12:00:00 AM","Cherry County","Nebraska","Midwest","West North Central","31031","42.571323","-101.047653 ","441","8","0","0","12/10/2021 12:00:00 AM","2019","5689","NYTIMES-USCENSUS"
"12/11/2021 12:00:00 AM","Humboldt County","Iowa","Midwest","West North Central","19091","42.782221","-94.202775 ","1934","33","0","0","12/10/2021 12:00:00 AM","2019","9558","NYTIMES-USCENSUS"
"12/11/2021 12:00:00 AM","Alamosa County","Colorado","West","Mountain","08003","37.568442","-105.788041 ","3004","51","0","0","12/10/2021 12:00:00 AM","2019","16233","NYTIMES-USCENSUS"
"12/11/2021 12:00:00 AM","Spokane County","Washington","West","Pacific","53063","47.620375","-117.403371 ","79251","1121","0","0","12/10/2021 12:00:00 AM","2019","522798","NYTIMES-USCENSUS"
"12/11/2021 12:00:00 AM","Juniata County","Pennsylvania","Northeast","Middle Atlantic","42067","40.530673","-77.400438 ","3556","137","23","3","12/10/2021 12:00:00 AM","2019","24763","NYTIMES-USCENSUS"
"12/11/2021 12:00:00 AM","Noble County","Oklahoma","South","West South Central","40103","36.384901","-97.236335 ","1978","33","0","0","12/10/2021 12:00:00 AM","2019","11131","NYTIMES-USCENSUS"
"12/11/2021 12:00:00 AM","Montgomery County","Missouri","Midwest","West North Central","29139","38.935184","-91.465427 ","1695","34","9","0","12/10/2021 12:00:00 AM","2019","11551","NYTIMES-USCENSUS"
"12/11/2021 12:00:00 AM","Price County","Wisconsin","Midwest","East North Central","55099","45.679072","-90.35965 ","2330","16","0","0","12/10/2021 12:00:00 AM","2019","13351","NYTIMES-USCENSUS"
"12/11/2021 12:00:00 AM","Bracken County","Kentucky","South","East South Central","21023","38.680365","-84.115235 ","1356","19","0","0","12/10/2021 12:00:00 AM","2019","8303","NYTIMES-USCENSUS"
"12/11/2021 12:00:00 AM","Brown County","Ohio","Midwest","East North Central","39015","38.931377","-83.866772 ","7418","121","37","0","12/10/2021 12:00:00 AM","2019","43432","NYTIMES-USCENSUS"
"12/11/2021 12:00:00 AM","Fremont County","Colorado","West","Mountain","08043","38.45517","-105.424958 ","10333","146","0","0","12/10/2021 12:00:00 AM","2019","47839","NYTIMES-USCENSUS"
"12/11/2021 12:00:00 AM","Goodhue County","Minnesota","Midwest","West North Central","27049","44.406178","-92.716 ","8571","101","0","0","12/10/2021 12:00:00 AM","2019","46340","NYTIMES-USCENSUS"
"12/11/2021 12:00:00 AM","Santa Clara County","California","West","Pacific","06085","37.221614","-121.68954 ","154536","1942","0","0","12/10/2021 12:00:00 AM","2019","1927852","NYTIMES-USCENSUS"
"12/11/2021 12:00:00 AM","Radford city","Virginia","South","South Atlantic","51750","37.120119","-80.559147 ","3129","36","0","0","12/10/2021 12:00:00 AM","2019","18249","NYTIMES-USCENSUS"
"12/11/2021 12:00:00 AM","Montgomery County","Ohio","Midwest","East North Central","39113","39.753736","-84.290591 ","82724","1433","307","0","12/10/2021 12:00:00 AM","2019","531687","NYTIMES-USCENSUS"
"12/11/2021 12:00:00 AM","Wabasha County","Minnesota","Midwest","West North Central","27157","44.289634","-92.233454 ","3910","10","0","0","12/10/2021 12:00:00 AM","2019","21627","NYTIMES-USCENSUS"
"12/11/2021 12:00:00 AM","Jasper County","Iowa","Midwest","West North Central","19099","41.685551","-93.054147 ","6446","91","0","0","12/10/2021 12:00:00 AM","2019","37185","NYTIMES-USCENSUS"
"12/11/2021 12:00:00 AM","Warren County","Mississippi","South","East South Central","28149","32.356095","-90.852384 ","6942","179","0","0","12/10/2021 12:00:00 AM","2019","45381","NYTIMES-USCENSUS"
"12/11/2021 12:00:00 AM","Harlan County","Kentucky","South","East South Central","21095","36.859223","-83.221497 ","6048","147","0","0","12/10/2021 12:00:00 AM","2019","26010","NYTIMES-USCENSUS"
"12/11/2021 12:00:00 AM","Stevens County","Minnesota","Midwest","West North Central","27149","45.593461","-95.992315 ","1757","11","0","0","12/10/2021 12:00:00 AM","2019","9805","NYTIMES-USCENSUS"
"12/11/2021 12:00:00 AM","Pitkin County","Colorado","West","Mountain","08097","39.217541","-106.916162 ","3334","6","0","0","12/10/2021 12:00:00 AM","2019","17767","NYTIMES-USCENSUS"
"12/11/2021 12:00:00 AM","Newton County","Georgia","South","South Atlantic","13217","33.552751","-83.85136 ","16831","367","0","0","12/10/2021 12:00:00 AM","2019","111744","NYTIMES-USCENSUS"
"12/11/2021 12:00:00 AM","Webster County","Mississippi","South","East South Central","28155","33.612061","-89.283961 ","2079","49","0","0","12/10/2021 12:00:00 AM","2019","9689","NYTIMES-USCENSUS"
"12/11/2021 12:00:00 AM","Adams County","Mississippi","South","East South Central","28001","31.486224","-91.351797 ","4803","125","0","0","12/10/2021 12:00:00 AM","2019","30693","NYTIMES-USCENSUS"
"12/11/2021 12:00:00 AM","Lee County","North Carolina","South","South Atlantic","37105","35.476336","-79.172117 ","9774","113","0","0","12/10/2021 12:00:00 AM","2019","61779","NYTIMES-USCENSUS"
"12/11/2021 12:00:00 AM","Livingston Parish","Louisiana","South","West South Central","22063","30.440419","-90.727474 ","24935","385","0","0","12/10/2021 12:00:00 AM","2019","140789","NYTIMES-USCENSUS"
"12/11/2021 12:00:00 AM","Atoka County","Oklahoma","South","West South Central","40005","34.392469","-96.036558 ","2825","40","0","0","12/10/2021 12:00:00 AM","2019","13758","NYTIMES-USCENSUS"
"12/11/2021 12:00:00 AM","Rensselaer County","New York","Northeast","Middle Atlantic","36083","42.710421","-73.513845 ","18703","201","122","0","12/10/2021 12:00:00 AM","2019","158714","NYTIMES-USCENSUS"
"12/11/2021 12:00:00 AM","Lumpkin County","Georgia","South","South Atlantic","13187","34.56814","-83.998925 ","5009","110","0","0","12/10/2021 12:00:00 AM","2019","33610","NYTIMES-USCENSUS"
"12/11/2021 12:00:00 AM","Augusta County","Virginia","South","South Atlantic","51015","38.17259","-79.140975 ","11010","140","0","0","12/10/2021 12:00:00 AM","2019","75558","NYTIMES-USCENSUS"
"12/11/2021 12:00:00 AM","Mercer County","Illinois","Midwest","East North Central","17131","41.205605","-90.74177 ","2444","37","0","0","12/10/2021 12:00:00 AM","2019","15437","NYTIMES-USCENSUS"
