"monitor_date","county","state_name","region","subregion","fips","latitude","longitude","case_count_to_date","death_count_to_date","case_count","death_count","previous_monitor_date","population_year","population","source"
"5/17/2021 12:00:00 AM","Mecklenburg County","Virginia","South","South Atlantic","51117","36.687256","-78.368959 ","2314","67","1","0","5/16/2021 12:00:00 AM","2019","30587","NYTIMES-USCENSUS"
"5/17/2021 12:00:00 AM","Stone County","Mississippi","South","East South Central","28131","30.790184","-89.112297 ","1830","33","2","0","5/16/2021 12:00:00 AM","2019","18336","NYTIMES-USCENSUS"
"5/17/2021 12:00:00 AM","Buchanan County","Iowa","Midwest","West North Central","19019","42.470328","-91.838666 ","1915","32","0","0","5/16/2021 12:00:00 AM","2019","21175","NYTIMES-USCENSUS"
"5/17/2021 12:00:00 AM","Murray County","Minnesota","Midwest","West North Central","27101","44.015594","-95.761581 ","1063","9","0","0","5/16/2021 12:00:00 AM","2019","8194","NYTIMES-USCENSUS"
"5/17/2021 12:00:00 AM","Claiborne County","Mississippi","South","East South Central","28021","31.97281","-90.915424 ","1025","30","1","0","5/16/2021 12:00:00 AM","2019","8988","NYTIMES-USCENSUS"
"5/17/2021 12:00:00 AM","New Kent County","Virginia","South","South Atlantic","51127","37.51016","-76.999331 ","1498","18","-1","0","5/16/2021 12:00:00 AM","2019","23091","NYTIMES-USCENSUS"
"5/17/2021 12:00:00 AM","Nash County","North Carolina","South","South Atlantic","37127","35.965945","-77.987555 ","11556","190","36","0","5/16/2021 12:00:00 AM","2019","94298","NYTIMES-USCENSUS"
"5/17/2021 12:00:00 AM","Mower County","Minnesota","Midwest","West North Central","27099","43.666249","-92.759514 ","4668","32","1","0","5/16/2021 12:00:00 AM","2019","40062","NYTIMES-USCENSUS"
"5/17/2021 12:00:00 AM","Clay County","Missouri","Midwest","West North Central","29047","39.315551","-94.421502 ","10071","165","2","0","5/16/2021 12:00:00 AM","2019","249948","NYTIMES-USCENSUS"
"5/17/2021 12:00:00 AM","Milwaukee County","Wisconsin","Midwest","East North Central","55079","42.912643","-87.862312 ","116474","1368","101","0","5/16/2021 12:00:00 AM","2019","945726","NYTIMES-USCENSUS"
"5/17/2021 12:00:00 AM","White County","Georgia","South","South Atlantic","13311","34.644182","-83.743 ","3217","80","0","0","5/16/2021 12:00:00 AM","2019","30798","NYTIMES-USCENSUS"
"5/17/2021 12:00:00 AM","Brazos County","Texas","South","West South Central","48041","30.656713","-96.302394 ","26767","251","38","0","5/16/2021 12:00:00 AM","2019","229211","NYTIMES-USCENSUS"
"5/17/2021 12:00:00 AM","Mercer County","New Jersey","Northeast","Middle Atlantic","34021","40.282503","-74.703724 ","33725","942","20","0","5/16/2021 12:00:00 AM","2019","367430","NYTIMES-USCENSUS"
"5/17/2021 12:00:00 AM","Taos County","New Mexico","West","Mountain","35055","36.577183","-105.638878 ","1673","52","2","0","5/16/2021 12:00:00 AM","2019","32723","NYTIMES-USCENSUS"
"5/17/2021 12:00:00 AM","Tyler County","West Virginia","South","South Atlantic","54095","39.465634","-80.877219 ","724","10","4","0","5/16/2021 12:00:00 AM","2019","8591","NYTIMES-USCENSUS"
"5/17/2021 12:00:00 AM","Bell County","Kentucky","South","East South Central","21013","36.728928","-83.680718 ","3112","54","0","0","5/16/2021 12:00:00 AM","2019","26032","NYTIMES-USCENSUS"
"5/17/2021 12:00:00 AM","Wetzel County","West Virginia","South","South Atlantic","54103","39.59818","-80.635399 ","1362","31","4","1","5/16/2021 12:00:00 AM","2019","15065","NYTIMES-USCENSUS"
"5/17/2021 12:00:00 AM","Muhlenberg County","Kentucky","South","East South Central","21177","37.213816","-87.134092 ","2965","65","2","0","5/16/2021 12:00:00 AM","2019","30622","NYTIMES-USCENSUS"
"5/17/2021 12:00:00 AM","Wake County","North Carolina","South","South Atlantic","37183","35.789846","-78.650624 ","94990","732","0","0","5/16/2021 12:00:00 AM","2019","1111761","NYTIMES-USCENSUS"
"5/17/2021 12:00:00 AM","Washington County","Minnesota","Midwest","West North Central","27163","45.037929","-92.890117 ","27009","283","26","0","5/16/2021 12:00:00 AM","2019","262440","NYTIMES-USCENSUS"
"5/17/2021 12:00:00 AM","Florence County","Wisconsin","Midwest","East North Central","55037","45.871828","-88.406988 ","502","13","0","0","5/16/2021 12:00:00 AM","2019","4295","NYTIMES-USCENSUS"
"5/17/2021 12:00:00 AM","Alpena County","Michigan","Midwest","East North Central","26007","44.894954","-83.426574 ","2204","61","4","0","5/16/2021 12:00:00 AM","2019","28405","NYTIMES-USCENSUS"
"5/17/2021 12:00:00 AM","Sandoval County","New Mexico","West","Mountain","35043","35.685091","-106.883119 ","12006","230","25","0","5/16/2021 12:00:00 AM","2019","146748","NYTIMES-USCENSUS"
"5/17/2021 12:00:00 AM","Carter County","Missouri","Midwest","West North Central","29035","36.944858","-90.945705 ","542","10","0","0","5/16/2021 12:00:00 AM","2019","5982","NYTIMES-USCENSUS"
"5/17/2021 12:00:00 AM","Lake County","Minnesota","Midwest","West North Central","27075","47.517111","-91.411704 ","811","20","0","0","5/16/2021 12:00:00 AM","2019","10641","NYTIMES-USCENSUS"
"5/17/2021 12:00:00 AM","Amador County","California","West","Pacific","06005","38.443549","-120.653858 ","3666","47","1","0","5/16/2021 12:00:00 AM","2019","39752","NYTIMES-USCENSUS"
"5/17/2021 12:00:00 AM","Breathitt County","Kentucky","South","East South Central","21025","37.517807","-83.317158 ","1028","9","-1","0","5/16/2021 12:00:00 AM","2019","12630","NYTIMES-USCENSUS"
"5/17/2021 12:00:00 AM","Benton County","Arkansas","South","West South Central","05007","36.337819","-94.256298 ","29159","417","5","1","5/16/2021 12:00:00 AM","2019","279141","NYTIMES-USCENSUS"
"5/17/2021 12:00:00 AM","Chippewa County","Michigan","Midwest","East North Central","26033","46.321819","-84.52063 ","5568","49","2","0","5/16/2021 12:00:00 AM","2019","37349","NYTIMES-USCENSUS"
"5/17/2021 12:00:00 AM","Storey County","Nevada","West","Mountain","32029","39.438385","-119.524646 ","110","3","0","0","5/16/2021 12:00:00 AM","2019","4123","NYTIMES-USCENSUS"
"5/17/2021 12:00:00 AM","Garfield County","Utah","West","Mountain","49017","37.831664","-111.450908 ","469","10","0","0","5/16/2021 12:00:00 AM","2019","5051","NYTIMES-USCENSUS"
"5/17/2021 12:00:00 AM","Boone County","Nebraska","Midwest","West North Central","31011","41.703934","-98.070476 ","584","4","0","0","5/16/2021 12:00:00 AM","2019","5192","NYTIMES-USCENSUS"
"5/17/2021 12:00:00 AM","Butler County","Kentucky","South","East South Central","21031","37.207013","-86.682471 ","1466","24","0","0","5/16/2021 12:00:00 AM","2019","12879","NYTIMES-USCENSUS"
"5/17/2021 12:00:00 AM","Bayfield County","Wisconsin","Midwest","East North Central","55007","46.634199","-91.177282 ","1277","19","0","0","5/16/2021 12:00:00 AM","2019","15036","NYTIMES-USCENSUS"
"5/17/2021 12:00:00 AM","Franklin County","Tennessee","South","East South Central","47051","35.155926","-86.099203 ","5165","90","1","0","5/16/2021 12:00:00 AM","2019","42208","NYTIMES-USCENSUS"
"5/17/2021 12:00:00 AM","Hood County","Texas","South","West South Central","48221","32.430149","-97.831677 ","6565","129","0","0","5/16/2021 12:00:00 AM","2019","61643","NYTIMES-USCENSUS"
"5/17/2021 12:00:00 AM","Washoe County","Nevada","West","Mountain","32031","40.73132","-119.663269 ","45768","676","56","0","5/16/2021 12:00:00 AM","2019","471519","NYTIMES-USCENSUS"
"5/17/2021 12:00:00 AM","Marshall County","Mississippi","South","East South Central","28093","34.76619","-89.504231 ","4454","103","4","0","5/16/2021 12:00:00 AM","2019","35294","NYTIMES-USCENSUS"
"5/17/2021 12:00:00 AM","Atchison County","Kansas","Midwest","West North Central","20005","39.532544","-95.313397 ","1633","14","1","0","5/16/2021 12:00:00 AM","2019","16073","NYTIMES-USCENSUS"
"5/17/2021 12:00:00 AM","Cherokee County","Kansas","Midwest","West North Central","20021","37.169392","-94.845698 ","2486","52","0","0","5/16/2021 12:00:00 AM","2019","19939","NYTIMES-USCENSUS"
"5/17/2021 12:00:00 AM","Greeley County","Nebraska","Midwest","West North Central","31077","41.567571","-98.530565 ","214","1","0","0","5/16/2021 12:00:00 AM","2019","2356","NYTIMES-USCENSUS"
"5/17/2021 12:00:00 AM","Aiken County","South Carolina","South","South Atlantic","45003","33.550013","-81.632983 ","17380","225","7","0","5/16/2021 12:00:00 AM","2019","170872","NYTIMES-USCENSUS"
"5/17/2021 12:00:00 AM","Archuleta County","Colorado","West","Mountain","08007","37.202395","-107.050863 ","962","1","0","0","5/16/2021 12:00:00 AM","2019","14029","NYTIMES-USCENSUS"
"5/17/2021 12:00:00 AM","Catron County","New Mexico","West","Mountain","35003","33.901621","-108.391928 ","93","5","0","0","5/16/2021 12:00:00 AM","2019","3527","NYTIMES-USCENSUS"
"5/17/2021 12:00:00 AM","Monroe County","Arkansas","South","West South Central","05095","34.679512","-91.20331 ","870","17","0","0","5/16/2021 12:00:00 AM","2019","6701","NYTIMES-USCENSUS"
"5/17/2021 12:00:00 AM","Emporia city","Virginia","South","South Atlantic","51595","36.696182","-77.535975 ","669","42","0","0","5/16/2021 12:00:00 AM","2019","5346","NYTIMES-USCENSUS"
"5/17/2021 12:00:00 AM","Albemarle County","Virginia","South","South Atlantic","51003","38.024184","-78.553506 ","5781","83","2","0","5/16/2021 12:00:00 AM","2019","109330","NYTIMES-USCENSUS"
"5/17/2021 12:00:00 AM","Delaware County","Iowa","Midwest","West North Central","19055","42.472937","-91.366767 ","2097","41","0","0","5/16/2021 12:00:00 AM","2019","17011","NYTIMES-USCENSUS"
"5/17/2021 12:00:00 AM","Wasatch County","Utah","West","Mountain","49051","40.334884","-111.161568 ","4648","22","0","0","5/16/2021 12:00:00 AM","2019","34091","NYTIMES-USCENSUS"
"5/17/2021 12:00:00 AM","Bamberg County","South Carolina","South","South Atlantic","45009","33.203021","-81.053161 ","1580","51","1","0","5/16/2021 12:00:00 AM","2019","14066","NYTIMES-USCENSUS"
"5/17/2021 12:00:00 AM","Harrison County","Missouri","Midwest","West North Central","29081","40.34562","-93.992582 ","878","14","0","0","5/16/2021 12:00:00 AM","2019","8352","NYTIMES-USCENSUS"
"5/17/2021 12:00:00 AM","DeKalb County","Indiana","Midwest","East North Central","18033","41.39676","-85.002697 ","4309","88","1","0","5/16/2021 12:00:00 AM","2019","43475","NYTIMES-USCENSUS"
"5/17/2021 12:00:00 AM","Autauga County","Alabama","South","East South Central","01001","32.532237","-86.64644 ","7010","108","5","0","5/16/2021 12:00:00 AM","2019","55869","NYTIMES-USCENSUS"
"5/17/2021 12:00:00 AM","Gove County","Kansas","Midwest","West North Central","20063","38.917239","-100.48736 ","386","19","0","0","5/16/2021 12:00:00 AM","2019","2636","NYTIMES-USCENSUS"
"5/17/2021 12:00:00 AM","Morris County","New Jersey","Northeast","Middle Atlantic","34027","40.858896","-74.547292 ","49792","1220","14","0","5/16/2021 12:00:00 AM","2019","491845","NYTIMES-USCENSUS"
"5/17/2021 12:00:00 AM","Hampshire County","West Virginia","South","South Atlantic","54027","39.312139","-78.611989 ","1869","34","7","0","5/16/2021 12:00:00 AM","2019","23175","NYTIMES-USCENSUS"
"5/17/2021 12:00:00 AM","Macon County","North Carolina","South","South Atlantic","37113","35.152959","-83.421901 ","3124","38","-5","1","5/16/2021 12:00:00 AM","2019","35858","NYTIMES-USCENSUS"
"5/17/2021 12:00:00 AM","Wilcox County","Alabama","South","East South Central","01131","31.990082","-87.304935 ","1274","30","0","0","5/16/2021 12:00:00 AM","2019","10373","NYTIMES-USCENSUS"
"5/17/2021 12:00:00 AM","Frio County","Texas","South","West South Central","48163","28.869383","-99.109005 ","2871","51","0","0","5/16/2021 12:00:00 AM","2019","20306","NYTIMES-USCENSUS"
"5/17/2021 12:00:00 AM","DeKalb County","Illinois","Midwest","East North Central","17037","41.894612","-88.768991 ","10140","124","44","0","5/16/2021 12:00:00 AM","2019","104897","NYTIMES-USCENSUS"
"5/17/2021 12:00:00 AM","Marion County","Kentucky","South","East South Central","21155","37.552604","-85.268959 ","2332","38","0","0","5/16/2021 12:00:00 AM","2019","19273","NYTIMES-USCENSUS"
"5/17/2021 12:00:00 AM","La Salle County","Texas","South","West South Central","48283","28.351098","-99.096774 ","1048","28","2","0","5/16/2021 12:00:00 AM","2019","7520","NYTIMES-USCENSUS"
"5/17/2021 12:00:00 AM","Warren County","New York","Northeast","Middle Atlantic","36113","43.555105","-73.838139 ","3592","57","2","0","5/16/2021 12:00:00 AM","2019","63944","NYTIMES-USCENSUS"
"5/17/2021 12:00:00 AM","Oswego County","New York","Northeast","Middle Atlantic","36075","43.461443","-76.209262 ","7461","90","15","0","5/16/2021 12:00:00 AM","2019","117124","NYTIMES-USCENSUS"
"5/17/2021 12:00:00 AM","Ransom County","North Dakota","Midwest","West North Central","38073","46.449276","-97.647554 ","694","17","0","0","5/16/2021 12:00:00 AM","2019","5218","NYTIMES-USCENSUS"
"5/17/2021 12:00:00 AM","Crow Wing County","Minnesota","Midwest","West North Central","27035","46.491653","-94.070718 ","6678","90","9","0","5/16/2021 12:00:00 AM","2019","65055","NYTIMES-USCENSUS"
"5/17/2021 12:00:00 AM","Russell County","Alabama","South","East South Central","01113","32.289811","-85.18698 ","4459","38","2","0","5/16/2021 12:00:00 AM","2019","57961","NYTIMES-USCENSUS"
"5/17/2021 12:00:00 AM","DeWitt County","Texas","South","West South Central","48123","29.082346","-97.361654 ","1932","59","1","0","5/16/2021 12:00:00 AM","2019","20160","NYTIMES-USCENSUS"
"5/17/2021 12:00:00 AM","Riley County","Kansas","Midwest","West North Central","20161","39.291211","-96.727489 ","6497","43","0","0","5/16/2021 12:00:00 AM","2019","74232","NYTIMES-USCENSUS"
"5/17/2021 12:00:00 AM","Union County","Oregon","West","Pacific","41061","45.304081","-117.999149 ","1451","23","0","0","5/16/2021 12:00:00 AM","2019","26835","NYTIMES-USCENSUS"
"5/17/2021 12:00:00 AM","Hughes County","Oklahoma","South","West South Central","40063","35.052934","-96.251183 ","1237","28","0","0","5/16/2021 12:00:00 AM","2019","13279","NYTIMES-USCENSUS"
"5/17/2021 12:00:00 AM","Wheeler County","Georgia","South","South Atlantic","13309","32.105258","-82.733849 ","630","24","1","0","5/16/2021 12:00:00 AM","2019","7855","NYTIMES-USCENSUS"
"5/17/2021 12:00:00 AM","Shawnee County","Kansas","Midwest","West North Central","20177","39.041805","-95.755664 ","17518","363","13","0","5/16/2021 12:00:00 AM","2019","176875","NYTIMES-USCENSUS"
"5/17/2021 12:00:00 AM","Blount County","Alabama","South","East South Central","01009","33.977358","-86.56644 ","6776","139","3","0","5/16/2021 12:00:00 AM","2019","57826","NYTIMES-USCENSUS"
"5/17/2021 12:00:00 AM","Kit Carson County","Colorado","West","Mountain","08063","39.30534","-102.603023 ","619","11","0","0","5/16/2021 12:00:00 AM","2019","7097","NYTIMES-USCENSUS"
"5/17/2021 12:00:00 AM","Warrick County","Indiana","Midwest","East North Central","18173","38.097728","-87.272049 ","7802","158","2","0","5/16/2021 12:00:00 AM","2019","62998","NYTIMES-USCENSUS"
"5/17/2021 12:00:00 AM","Schuyler County","Missouri","Midwest","West North Central","29197","40.469361","-92.519016 ","338","7","0","0","5/16/2021 12:00:00 AM","2019","4660","NYTIMES-USCENSUS"
"5/17/2021 12:00:00 AM","Santa Fe County","New Mexico","West","Mountain","35049","35.514531","-105.963972 ","10556","145","53","0","5/16/2021 12:00:00 AM","2019","150358","NYTIMES-USCENSUS"
"5/17/2021 12:00:00 AM","Crawford County","Indiana","Midwest","East North Central","18025","38.289433","-86.440871 ","1015","16","0","0","5/16/2021 12:00:00 AM","2019","10577","NYTIMES-USCENSUS"
"5/17/2021 12:00:00 AM","Monroe County","Indiana","Midwest","East North Central","18105","39.160729","-86.52331 ","11960","174","12","2","5/16/2021 12:00:00 AM","2019","148431","NYTIMES-USCENSUS"
"5/17/2021 12:00:00 AM","McHenry County","North Dakota","Midwest","West North Central","38049","48.233842","-100.633267 ","647","23","0","0","5/16/2021 12:00:00 AM","2019","5745","NYTIMES-USCENSUS"
"5/17/2021 12:00:00 AM","Grant Parish","Louisiana","South","West South Central","22043","31.597787","-92.561716 ","2173","56","4","0","5/16/2021 12:00:00 AM","2019","22389","NYTIMES-USCENSUS"
"5/17/2021 12:00:00 AM","McCracken County","Kentucky","South","East South Central","21145","37.054111","-88.712454 ","6700","123","17","0","5/16/2021 12:00:00 AM","2019","65418","NYTIMES-USCENSUS"
"5/17/2021 12:00:00 AM","Deaf Smith County","Texas","South","West South Central","48117","34.940766","-102.607564 ","2822","66","0","0","5/16/2021 12:00:00 AM","2019","18546","NYTIMES-USCENSUS"
"5/17/2021 12:00:00 AM","Republic County","Kansas","Midwest","West North Central","20157","39.828906","-97.650883 ","680","15","0","0","5/16/2021 12:00:00 AM","2019","4636","NYTIMES-USCENSUS"
"5/17/2021 12:00:00 AM","Sullivan County","Tennessee","South","East South Central","47163","36.509681","-82.301336 ","16994","300","42","2","5/16/2021 12:00:00 AM","2019","158348","NYTIMES-USCENSUS"
"5/17/2021 12:00:00 AM","Pickett County","Tennessee","South","East South Central","47137","36.559364","-85.075741 ","758","24","-1","0","5/16/2021 12:00:00 AM","2019","5048","NYTIMES-USCENSUS"
"5/17/2021 12:00:00 AM","Nassau County","Florida","South","South Atlantic","12089","30.605963","-81.765087 ","8476","126","4","0","5/16/2021 12:00:00 AM","2019","88625","NYTIMES-USCENSUS"
"5/17/2021 12:00:00 AM","Crittenden County","Arkansas","South","West South Central","05035","35.197559","-90.30512 ","6095","97","3","0","5/16/2021 12:00:00 AM","2019","47955","NYTIMES-USCENSUS"
"5/17/2021 12:00:00 AM","Neshoba County","Mississippi","South","East South Central","28099","32.752518","-89.119274 ","4033","176","2","0","5/16/2021 12:00:00 AM","2019","29118","NYTIMES-USCENSUS"
"5/17/2021 12:00:00 AM","Androscoggin County","Maine","Northeast","New England","23001","44.167681","-70.207435 ","8000","72","37","0","5/16/2021 12:00:00 AM","2019","108277","NYTIMES-USCENSUS"
"5/17/2021 12:00:00 AM","Wabash County","Indiana","Midwest","East North Central","18169","40.843747","-85.795192 ","3558","80","1","0","5/16/2021 12:00:00 AM","2019","30996","NYTIMES-USCENSUS"
"5/17/2021 12:00:00 AM","Morgan County","Utah","West","Mountain","49029","41.091027","-111.577885 ","1291","11","2","0","5/16/2021 12:00:00 AM","2019","12124","NYTIMES-USCENSUS"
"5/17/2021 12:00:00 AM","Walthall County","Mississippi","South","East South Central","28147","31.164492","-90.103431 ","1343","45","1","0","5/16/2021 12:00:00 AM","2019","14286","NYTIMES-USCENSUS"
"5/17/2021 12:00:00 AM","Hutchinson County","South Dakota","Midwest","West North Central","46067","43.33671","-97.749383 ","918","27","1","0","5/16/2021 12:00:00 AM","2019","7291","NYTIMES-USCENSUS"
"5/17/2021 12:00:00 AM","Owen County","Indiana","Midwest","East North Central","18119","39.317339","-86.838845 ","2036","58","3","0","5/16/2021 12:00:00 AM","2019","20799","NYTIMES-USCENSUS"
"5/17/2021 12:00:00 AM","Chittenden County","Vermont","Northeast","New England","50007","44.463329","-73.06941 ","7458","102","3","0","5/16/2021 12:00:00 AM","2019","163774","NYTIMES-USCENSUS"
"5/17/2021 12:00:00 AM","Mecosta County","Michigan","Midwest","East North Central","26107","43.635295","-85.332751 ","3128","30","8","0","5/16/2021 12:00:00 AM","2019","43453","NYTIMES-USCENSUS"
"5/17/2021 12:00:00 AM","Clay County","West Virginia","South","South Atlantic","54015","38.459826","-81.081866 ","519","9","3","0","5/16/2021 12:00:00 AM","2019","8508","NYTIMES-USCENSUS"
"5/17/2021 12:00:00 AM","Northwest Arctic Borough","Alaska","West","Pacific","02188","67.005066","-160.021086 ","618","2","0","0","5/16/2021 12:00:00 AM","2019","7621","NYTIMES-USCENSUS"
"5/17/2021 12:00:00 AM","Evans County","Georgia","South","South Atlantic","13109","32.153083","-81.890153 ","966","29","0","0","5/16/2021 12:00:00 AM","2019","10654","NYTIMES-USCENSUS"
"5/17/2021 12:00:00 AM","Adams County","Colorado","West","Mountain","08001","39.874325","-104.331872 ","59817","723","52","0","5/16/2021 12:00:00 AM","2019","517421","NYTIMES-USCENSUS"
"5/17/2021 12:00:00 AM","Warren County","Mississippi","South","East South Central","28149","32.356095","-90.852384 ","4397","121","4","0","5/16/2021 12:00:00 AM","2019","45381","NYTIMES-USCENSUS"
"5/17/2021 12:00:00 AM","Reynolds County","Missouri","Midwest","West North Central","29179","37.366464","-90.972282 ","478","4","0","0","5/16/2021 12:00:00 AM","2019","6270","NYTIMES-USCENSUS"
"5/17/2021 12:00:00 AM","Mineral County","Colorado","West","Mountain","08079","37.549067","-107.003236 ","91","1","0","0","5/16/2021 12:00:00 AM","2019","769","NYTIMES-USCENSUS"
"5/17/2021 12:00:00 AM","Sonoma County","California","West","Pacific","06097","38.525182","-122.92611 ","30067","321","10","0","5/16/2021 12:00:00 AM","2019","494336","NYTIMES-USCENSUS"
"5/17/2021 12:00:00 AM","Pocahontas County","Iowa","Midwest","West North Central","19151","42.734033","-94.678279 ","855","22","0","0","5/16/2021 12:00:00 AM","2019","6619","NYTIMES-USCENSUS"
"5/17/2021 12:00:00 AM","Baldwin County","Georgia","South","South Atlantic","13009","33.05949","-83.255457 ","4545","130","2","0","5/16/2021 12:00:00 AM","2019","44890","NYTIMES-USCENSUS"
"5/17/2021 12:00:00 AM","Montgomery County","Arkansas","South","West South Central","05097","34.545656","-93.664153 ","756","33","0","0","5/16/2021 12:00:00 AM","2019","8986","NYTIMES-USCENSUS"
"5/17/2021 12:00:00 AM","Bedford County","Pennsylvania","Northeast","Middle Atlantic","42009","39.998634","-78.494747 ","4515","137","1","0","5/16/2021 12:00:00 AM","2019","47888","NYTIMES-USCENSUS"
"5/17/2021 12:00:00 AM","Union County","Mississippi","South","East South Central","28145","34.489533","-89.002339 ","4112","76","1","0","5/16/2021 12:00:00 AM","2019","28815","NYTIMES-USCENSUS"
"5/17/2021 12:00:00 AM","Kankakee County","Illinois","Midwest","East North Central","17091","41.13951","-87.861117 ","14232","218","9","0","5/16/2021 12:00:00 AM","2019","109862","NYTIMES-USCENSUS"
"5/17/2021 12:00:00 AM","Ben Hill County","Georgia","South","South Atlantic","13017","31.740772","-83.147197 ","2109","79","0","0","5/16/2021 12:00:00 AM","2019","16700","NYTIMES-USCENSUS"
"5/17/2021 12:00:00 AM","Fulton County","Kentucky","South","East South Central","21075","36.552511","-89.187659 ","527","14","2","0","5/16/2021 12:00:00 AM","2019","5969","NYTIMES-USCENSUS"
"5/17/2021 12:00:00 AM","Jackson County","West Virginia","South","South Atlantic","54035","38.834234","-81.677717 ","2139","61","1","0","5/16/2021 12:00:00 AM","2019","28576","NYTIMES-USCENSUS"
"5/17/2021 12:00:00 AM","Miller County","Arkansas","South","West South Central","05091","33.305505","-93.901502 ","4354","38","0","0","5/16/2021 12:00:00 AM","2019","43257","NYTIMES-USCENSUS"
"5/17/2021 12:00:00 AM","Montgomery County","Virginia","South","South Atlantic","51121","37.175538","-80.387794 ","9387","96","1","0","5/16/2021 12:00:00 AM","2019","98535","NYTIMES-USCENSUS"
"5/17/2021 12:00:00 AM","Meigs County","Ohio","Midwest","East North Central","39105","39.089807","-82.028397 ","1455","40","2","0","5/16/2021 12:00:00 AM","2019","22907","NYTIMES-USCENSUS"
"5/17/2021 12:00:00 AM","Floyd County","Virginia","South","South Atlantic","51063","36.931433","-80.350266 ","862","23","1","1","5/16/2021 12:00:00 AM","2019","15749","NYTIMES-USCENSUS"
"5/17/2021 12:00:00 AM","McHenry County","Illinois","Midwest","East North Central","17111","42.324298","-88.452245 ","28705","314","30","0","5/16/2021 12:00:00 AM","2019","307774","NYTIMES-USCENSUS"
"5/17/2021 12:00:00 AM","Pendleton County","West Virginia","South","South Atlantic","54071","38.67445","-79.340617 ","704","10","1","0","5/16/2021 12:00:00 AM","2019","6969","NYTIMES-USCENSUS"
"5/17/2021 12:00:00 AM","Desha County","Arkansas","South","West South Central","05041","33.828752","-91.244103 ","1363","24","0","0","5/16/2021 12:00:00 AM","2019","11361","NYTIMES-USCENSUS"
"5/17/2021 12:00:00 AM","Hardin County","Kentucky","South","East South Central","21093","37.695836","-85.963183 ","9751","157","0","0","5/16/2021 12:00:00 AM","2019","110958","NYTIMES-USCENSUS"
"5/17/2021 12:00:00 AM","Burke County","North Dakota","Midwest","West North Central","38013","48.786453","-102.520087 ","241","1","0","0","5/16/2021 12:00:00 AM","2019","2115","NYTIMES-USCENSUS"
"5/17/2021 12:00:00 AM","Hamilton County","Indiana","Midwest","East North Central","18057","40.053513","-86.021709 ","35875","426","22","0","5/16/2021 12:00:00 AM","2019","338011","NYTIMES-USCENSUS"
"5/17/2021 12:00:00 AM","Hardeman County","Texas","South","West South Central","48197","34.289904","-99.745697 ","382","12","0","0","5/16/2021 12:00:00 AM","2019","3933","NYTIMES-USCENSUS"
"5/17/2021 12:00:00 AM","Phelps County","Missouri","Midwest","West North Central","29161","37.866326","-91.790349 ","3856","130","0","0","5/16/2021 12:00:00 AM","2019","44573","NYTIMES-USCENSUS"
"5/17/2021 12:00:00 AM","Stokes County","North Carolina","South","South Atlantic","37169","36.393797","-80.269921 ","4105","80","18","1","5/16/2021 12:00:00 AM","2019","45591","NYTIMES-USCENSUS"
"5/17/2021 12:00:00 AM","Etowah County","Alabama","South","East South Central","01055","34.047641","-86.034263 ","13927","353","2","0","5/16/2021 12:00:00 AM","2019","102268","NYTIMES-USCENSUS"
"5/17/2021 12:00:00 AM","Orange County","Virginia","South","South Atlantic","51137","38.249326","-78.011092 ","2205","38","2","0","5/16/2021 12:00:00 AM","2019","37051","NYTIMES-USCENSUS"
"5/17/2021 12:00:00 AM","Chesapeake city","Virginia","South","South Atlantic","51550","36.679376","-76.301788 ","20931","298","17","1","5/16/2021 12:00:00 AM","2019","244835","NYTIMES-USCENSUS"
"5/17/2021 12:00:00 AM","Clark County","Wisconsin","Midwest","East North Central","55019","44.739346","-90.609953 ","3673","63","4","0","5/16/2021 12:00:00 AM","2019","34774","NYTIMES-USCENSUS"
"5/17/2021 12:00:00 AM","Fond du Lac County","Wisconsin","Midwest","East North Central","55039","43.754722","-88.493284 ","13707","121","8","0","5/16/2021 12:00:00 AM","2019","103403","NYTIMES-USCENSUS"
"5/17/2021 12:00:00 AM","Scott County","Indiana","Midwest","East North Central","18143","38.679431","-85.751898 ","2682","56","1","0","5/16/2021 12:00:00 AM","2019","23873","NYTIMES-USCENSUS"
"5/17/2021 12:00:00 AM","Waushara County","Wisconsin","Midwest","East North Central","55137","44.112823","-89.239786 ","2509","37","1","0","5/16/2021 12:00:00 AM","2019","24443","NYTIMES-USCENSUS"
"5/17/2021 12:00:00 AM","Alachua County","Florida","South","South Atlantic","12001","29.67574","-82.357221 ","25125","281","19","2","5/16/2021 12:00:00 AM","2019","269043","NYTIMES-USCENSUS"
"5/17/2021 12:00:00 AM","North Slope Borough","Alaska","West","Pacific","02185","69.449343","-153.47283 ","1078","4","0","0","5/16/2021 12:00:00 AM","2019","9832","NYTIMES-USCENSUS"
"5/17/2021 12:00:00 AM","Upshur County","Texas","South","West South Central","48459","32.735349","-94.941184 ","3289","75","2","0","5/16/2021 12:00:00 AM","2019","41753","NYTIMES-USCENSUS"
"5/17/2021 12:00:00 AM","Humphreys County","Tennessee","South","East South Central","47085","36.040822","-87.790453 ","1824","28","9","0","5/16/2021 12:00:00 AM","2019","18582","NYTIMES-USCENSUS"
"5/17/2021 12:00:00 AM","Madison County","Alabama","South","East South Central","01089","34.764238","-86.55108 ","35175","506","18","0","5/16/2021 12:00:00 AM","2019","372909","NYTIMES-USCENSUS"
"5/17/2021 12:00:00 AM","Antrim County","Michigan","Midwest","East North Central","26009","45.005455","-85.175639 ","1932","28","1","0","5/16/2021 12:00:00 AM","2019","23324","NYTIMES-USCENSUS"
"5/17/2021 12:00:00 AM","Beltrami County","Minnesota","Midwest","West North Central","27007","47.879508","-95.00505 ","3986","59","8","0","5/16/2021 12:00:00 AM","2019","47188","NYTIMES-USCENSUS"
"5/17/2021 12:00:00 AM","Boyd County","Kentucky","South","East South Central","21019","38.360003","-82.681406 ","5002","74","0","0","5/16/2021 12:00:00 AM","2019","46718","NYTIMES-USCENSUS"
"5/17/2021 12:00:00 AM","DeSoto County","Florida","South","South Atlantic","12027","27.190581","-81.806253 ","4374","94","1","0","5/16/2021 12:00:00 AM","2019","38001","NYTIMES-USCENSUS"
"5/17/2021 12:00:00 AM","Tuolumne County","California","West","Pacific","06109","38.021434","-119.964733 ","4148","67","9","0","5/16/2021 12:00:00 AM","2019","54478","NYTIMES-USCENSUS"
"5/17/2021 12:00:00 AM","Linn County","Oregon","West","Pacific","41043","44.488898","-122.537208 ","5034","68","17","0","5/16/2021 12:00:00 AM","2019","129749","NYTIMES-USCENSUS"
"5/17/2021 12:00:00 AM","Rosebud County","Montana","West","Mountain","30087","46.173206","-106.666792 ","1224","49","0","0","5/16/2021 12:00:00 AM","2019","8937","NYTIMES-USCENSUS"
"5/17/2021 12:00:00 AM","Clarke County","Georgia","South","South Atlantic","13059","33.952185","-83.367152 ","15103","145","2","0","5/16/2021 12:00:00 AM","2019","128331","NYTIMES-USCENSUS"
"5/17/2021 12:00:00 AM","Cherokee County","Texas","South","West South Central","48073","31.843881","-95.156343 ","4209","140","0","0","5/16/2021 12:00:00 AM","2019","52646","NYTIMES-USCENSUS"
"5/17/2021 12:00:00 AM","Weber County","Utah","West","Mountain","49057","41.270325","-111.876883 ","29238","204","77","0","5/16/2021 12:00:00 AM","2019","260213","NYTIMES-USCENSUS"
"5/17/2021 12:00:00 AM","Saunders County","Nebraska","Midwest","West North Central","31155","41.223388","-96.642097 ","2532","16","1","0","5/16/2021 12:00:00 AM","2019","21578","NYTIMES-USCENSUS"
"5/17/2021 12:00:00 AM","Tillamook County","Oregon","West","Pacific","41057","45.45589","-123.759299 ","652","3","0","0","5/16/2021 12:00:00 AM","2019","27036","NYTIMES-USCENSUS"
"5/17/2021 12:00:00 AM","Northampton County","Virginia","South","South Atlantic","51131","37.302775","-75.924018 ","807","36","1","0","5/16/2021 12:00:00 AM","2019","11710","NYTIMES-USCENSUS"
"5/17/2021 12:00:00 AM","Arlington County","Virginia","South","South Atlantic","51013","38.878337","-77.100703 ","15272","255","6","0","5/16/2021 12:00:00 AM","2019","236842","NYTIMES-USCENSUS"
"5/17/2021 12:00:00 AM","Potter County","Pennsylvania","Northeast","Middle Atlantic","42105","41.748587","-77.894436 ","1140","23","0","0","5/16/2021 12:00:00 AM","2019","16526","NYTIMES-USCENSUS"
"5/17/2021 12:00:00 AM","Montgomery County","Missouri","Midwest","West North Central","29139","38.935184","-91.465427 ","1036","11","0","0","5/16/2021 12:00:00 AM","2019","11551","NYTIMES-USCENSUS"
"5/17/2021 12:00:00 AM","Shiawassee County","Michigan","Midwest","East North Central","26155","42.951545","-84.146352 ","6291","102","20","0","5/16/2021 12:00:00 AM","2019","68122","NYTIMES-USCENSUS"
"5/17/2021 12:00:00 AM","Seneca County","New York","Northeast","Middle Atlantic","36099","42.782294","-76.827088 ","1983","56","1","0","5/16/2021 12:00:00 AM","2019","34016","NYTIMES-USCENSUS"
"5/17/2021 12:00:00 AM","Knox County","Tennessee","South","East South Central","47093","35.992726","-83.937721 ","52125","637","78","1","5/16/2021 12:00:00 AM","2019","470313","NYTIMES-USCENSUS"
"5/17/2021 12:00:00 AM","Wood County","Ohio","Midwest","East North Central","39173","41.360183","-83.622682 ","13168","189","5","0","5/16/2021 12:00:00 AM","2019","130817","NYTIMES-USCENSUS"
"5/17/2021 12:00:00 AM","Montgomery County","Tennessee","South","East South Central","47125","36.500354","-87.380887 ","20475","228","73","1","5/16/2021 12:00:00 AM","2019","208993","NYTIMES-USCENSUS"
"5/17/2021 12:00:00 AM","Forsyth County","Georgia","South","South Atlantic","13117","34.225143","-84.127408 ","22982","195","16","0","5/16/2021 12:00:00 AM","2019","244252","NYTIMES-USCENSUS"
"5/17/2021 12:00:00 AM","Garfield County","Colorado","West","Mountain","08045","39.599352","-107.90978 ","5847","39","6","0","5/16/2021 12:00:00 AM","2019","60061","NYTIMES-USCENSUS"
"5/17/2021 12:00:00 AM","Meade County","South Dakota","Midwest","West North Central","46093","44.605282","-102.714169 ","2770","31","0","0","5/16/2021 12:00:00 AM","2019","28332","NYTIMES-USCENSUS"
"5/17/2021 12:00:00 AM","McLeod County","Minnesota","Midwest","West North Central","27085","44.821657","-94.272323 ","4256","59","2","0","5/16/2021 12:00:00 AM","2019","35893","NYTIMES-USCENSUS"
"5/17/2021 12:00:00 AM","Kootenai County","Idaho","West","Mountain","16055","47.675957","-116.695919 ","18231","209","71","0","5/16/2021 12:00:00 AM","2019","165697","NYTIMES-USCENSUS"
"5/17/2021 12:00:00 AM","Washington County","Oregon","West","Pacific","41067","45.553542","-123.097615 ","25787","237","0","2","5/16/2021 12:00:00 AM","2019","601592","NYTIMES-USCENSUS"
"5/17/2021 12:00:00 AM","Harrison County","Mississippi","South","East South Central","28047","30.416536","-89.083376 ","17973","309","24","0","5/16/2021 12:00:00 AM","2019","208080","NYTIMES-USCENSUS"
"5/17/2021 12:00:00 AM","Humboldt County","California","West","Pacific","06023","40.706655","-123.926176 ","4135","42","55","0","5/16/2021 12:00:00 AM","2019","135558","NYTIMES-USCENSUS"
"5/17/2021 12:00:00 AM","Bladen County","North Carolina","South","South Atlantic","37017","34.591938","-78.539489 ","3280","42","5","0","5/16/2021 12:00:00 AM","2019","32722","NYTIMES-USCENSUS"
"5/17/2021 12:00:00 AM","Ontario County","New York","Northeast","Middle Atlantic","36069","42.856357","-77.303497 ","7319","92","8","0","5/16/2021 12:00:00 AM","2019","109777","NYTIMES-USCENSUS"
"5/17/2021 12:00:00 AM","Rankin County","Mississippi","South","East South Central","28121","32.267123","-89.946063 ","13650","278","7","0","5/16/2021 12:00:00 AM","2019","155271","NYTIMES-USCENSUS"
"5/17/2021 12:00:00 AM","Island County","Washington","West","Pacific","53029","48.158554","-122.670649 ","1744","30","3","0","5/16/2021 12:00:00 AM","2019","85141","NYTIMES-USCENSUS"
"5/17/2021 12:00:00 AM","Huerfano County","Colorado","West","Mountain","08055","37.687815","-104.959928 ","417","17","0","0","5/16/2021 12:00:00 AM","2019","6897","NYTIMES-USCENSUS"
"5/17/2021 12:00:00 AM","Cameron Parish","Louisiana","South","West South Central","22023","29.871812","-93.164948 ","602","6","-2","0","5/16/2021 12:00:00 AM","2019","6973","NYTIMES-USCENSUS"
"5/17/2021 12:00:00 AM","Martin County","Texas","South","West South Central","48317","32.30983","-101.961836 ","634","19","0","0","5/16/2021 12:00:00 AM","2019","5771","NYTIMES-USCENSUS"
"5/17/2021 12:00:00 AM","Curry County","New Mexico","West","Mountain","35009","34.572984","-103.346055 ","5226","79","23","0","5/16/2021 12:00:00 AM","2019","48954","NYTIMES-USCENSUS"
"5/17/2021 12:00:00 AM","Washington County","Maine","Northeast","New England","23029","44.967009","-67.609354 ","858","16","3","0","5/16/2021 12:00:00 AM","2019","31379","NYTIMES-USCENSUS"
"5/17/2021 12:00:00 AM","Bee County","Texas","South","West South Central","48025","28.416077","-97.742586 ","3497","72","0","0","5/16/2021 12:00:00 AM","2019","32565","NYTIMES-USCENSUS"
"5/17/2021 12:00:00 AM","Hillsborough County","Florida","South","South Atlantic","12057","27.88761","-82.374417 ","140226","1767","110","2","5/16/2021 12:00:00 AM","2019","1471968","NYTIMES-USCENSUS"
"5/17/2021 12:00:00 AM","Lenawee County","Michigan","Midwest","East North Central","26091","41.896022","-84.074356 ","10698","165","22","-1","5/16/2021 12:00:00 AM","2019","98451","NYTIMES-USCENSUS"
"5/17/2021 12:00:00 AM","Athens County","Ohio","Midwest","East North Central","39009","39.332755","-82.045885 ","5208","58","1","0","5/16/2021 12:00:00 AM","2019","65327","NYTIMES-USCENSUS"
"5/17/2021 12:00:00 AM","Mayes County","Oklahoma","South","West South Central","40097","36.303804","-95.235638 ","4194","69","0","0","5/16/2021 12:00:00 AM","2019","41100","NYTIMES-USCENSUS"
"5/17/2021 12:00:00 AM","St. Tammany Parish","Louisiana","South","West South Central","22103","30.410022","-89.951962 ","25823","525","48","0","5/16/2021 12:00:00 AM","2019","260419","NYTIMES-USCENSUS"
"5/17/2021 12:00:00 AM","Shawano County","Wisconsin","Midwest","East North Central","55115","44.789641","-88.755813 ","5294","83","0","0","5/16/2021 12:00:00 AM","2019","40899","NYTIMES-USCENSUS"
"5/17/2021 12:00:00 AM","Union County","Indiana","Midwest","East North Central","18161","39.623111","-84.925152 ","742","11","0","0","5/16/2021 12:00:00 AM","2019","7054","NYTIMES-USCENSUS"
"5/17/2021 12:00:00 AM","Watauga County","North Carolina","South","South Atlantic","37189","36.235368","-81.709888 ","4661","31","24","0","5/16/2021 12:00:00 AM","2019","56177","NYTIMES-USCENSUS"
"5/17/2021 12:00:00 AM","Twin Falls County","Idaho","West","Mountain","16083","42.352309","-114.665639 ","9572","128","32","0","5/16/2021 12:00:00 AM","2019","86878","NYTIMES-USCENSUS"
"5/17/2021 12:00:00 AM","Perry County","Missouri","Midwest","West North Central","29157","37.71113","-89.802125 ","2235","30","0","0","5/16/2021 12:00:00 AM","2019","19136","NYTIMES-USCENSUS"
"5/17/2021 12:00:00 AM","Jackson County","Oregon","West","Pacific","41029","42.411621","-122.675611 ","10959","141","6","1","5/16/2021 12:00:00 AM","2019","220944","NYTIMES-USCENSUS"
"5/17/2021 12:00:00 AM","Millard County","Utah","West","Mountain","49027","38.956744","-113.133092 ","1438","14","0","0","5/16/2021 12:00:00 AM","2019","13188","NYTIMES-USCENSUS"
"5/17/2021 12:00:00 AM","Chicot County","Arkansas","South","West South Central","05017","33.267139","-91.297158 ","1616","41","0","0","5/16/2021 12:00:00 AM","2019","10118","NYTIMES-USCENSUS"
"5/17/2021 12:00:00 AM","Calhoun County","Iowa","Midwest","West North Central","19025","42.38617","-94.643683 ","1385","13","0","0","5/16/2021 12:00:00 AM","2019","9668","NYTIMES-USCENSUS"
"5/17/2021 12:00:00 AM","Charlton County","Georgia","South","South Atlantic","13049","30.779904","-82.139644 ","1468","33","1","0","5/16/2021 12:00:00 AM","2019","13392","NYTIMES-USCENSUS"
"5/17/2021 12:00:00 AM","Allen County","Kentucky","South","East South Central","21003","36.75077","-86.192458 ","2080","40","0","0","5/16/2021 12:00:00 AM","2019","21315","NYTIMES-USCENSUS"
"5/17/2021 12:00:00 AM","Comanche County","Oklahoma","South","West South Central","40031","34.662625","-98.476586 ","13825","186","0","0","5/16/2021 12:00:00 AM","2019","120749","NYTIMES-USCENSUS"
"5/17/2021 12:00:00 AM","Benewah County","Idaho","West","Mountain","16009","47.218451","-116.633541 ","686","9","1","0","5/16/2021 12:00:00 AM","2019","9298","NYTIMES-USCENSUS"
"5/17/2021 12:00:00 AM","Sumner County","Kansas","Midwest","West North Central","20191","37.236662","-97.493352 ","2173","51","5","0","5/16/2021 12:00:00 AM","2019","22836","NYTIMES-USCENSUS"
"5/17/2021 12:00:00 AM","LaPorte County","Indiana","Midwest","East North Central","18091","41.549013","-86.744739 ","12097","217","13","0","5/16/2021 12:00:00 AM","2019","109888","NYTIMES-USCENSUS"
"5/17/2021 12:00:00 AM","Jasper County","Indiana","Midwest","East North Central","18073","41.017688","-87.118814 ","3730","51","6","0","5/16/2021 12:00:00 AM","2019","33562","NYTIMES-USCENSUS"
"5/17/2021 12:00:00 AM","Bourbon County","Kansas","Midwest","West North Central","20011","37.8561","-94.850928 ","1417","26","3","0","5/16/2021 12:00:00 AM","2019","14534","NYTIMES-USCENSUS"
"5/17/2021 12:00:00 AM","Wagoner County","Oklahoma","South","West South Central","40145","35.963388","-95.514201 ","8090","115","0","0","5/16/2021 12:00:00 AM","2019","81289","NYTIMES-USCENSUS"
"5/17/2021 12:00:00 AM","Essex County","New York","Northeast","Middle Atlantic","36031","44.109601","-73.778431 ","1586","26","1","0","5/16/2021 12:00:00 AM","2019","36885","NYTIMES-USCENSUS"
"5/17/2021 12:00:00 AM","Middlesex County","Virginia","South","South Atlantic","51119","37.606975","-76.528082 ","571","20","0","0","5/16/2021 12:00:00 AM","2019","10582","NYTIMES-USCENSUS"
"5/17/2021 12:00:00 AM","Hardy County","West Virginia","South","South Atlantic","54031","39.011361","-78.841729 ","1532","24","-1","0","5/16/2021 12:00:00 AM","2019","13776","NYTIMES-USCENSUS"
"5/17/2021 12:00:00 AM","Kennebec County","Maine","Northeast","New England","23011","44.417012","-69.765764 ","6224","69","21","0","5/16/2021 12:00:00 AM","2019","122302","NYTIMES-USCENSUS"
"5/17/2021 12:00:00 AM","Lewis County","Washington","West","Pacific","53041","46.580071","-122.377444 ","4619","66","22","1","5/16/2021 12:00:00 AM","2019","80707","NYTIMES-USCENSUS"
"5/17/2021 12:00:00 AM","Pickens County","Alabama","South","East South Central","01107","33.2968","-88.096864 ","2348","62","0","0","5/16/2021 12:00:00 AM","2019","19930","NYTIMES-USCENSUS"
"5/17/2021 12:00:00 AM","Gloucester County","New Jersey","Northeast","Middle Atlantic","34015","39.722875","-75.145679 ","30276","630","22","0","5/16/2021 12:00:00 AM","2019","291636","NYTIMES-USCENSUS"
"5/17/2021 12:00:00 AM","Wayne County","Pennsylvania","Northeast","Middle Atlantic","42127","41.646602","-75.292493 ","4033","80","6","0","5/16/2021 12:00:00 AM","2019","51361","NYTIMES-USCENSUS"
"5/17/2021 12:00:00 AM","Lewis County","Tennessee","South","East South Central","47101","35.523244","-87.496983 ","1586","26","2","0","5/16/2021 12:00:00 AM","2019","12268","NYTIMES-USCENSUS"
"5/17/2021 12:00:00 AM","Griggs County","North Dakota","Midwest","West North Central","38039","47.456334","-98.232286 ","329","2","0","0","5/16/2021 12:00:00 AM","2019","2231","NYTIMES-USCENSUS"
"5/17/2021 12:00:00 AM","Pittsylvania County","Virginia","South","South Atlantic","51143","36.821721","-79.398502 ","5535","81","1","1","5/16/2021 12:00:00 AM","2019","60354","NYTIMES-USCENSUS"
"5/17/2021 12:00:00 AM","Chemung County","New York","Northeast","Middle Atlantic","36015","42.148697","-76.752471 ","7570","135","10","0","5/16/2021 12:00:00 AM","2019","83456","NYTIMES-USCENSUS"
"5/17/2021 12:00:00 AM","Sumner County","Tennessee","South","East South Central","47165","36.472423","-86.458405 ","24170","349","35","0","5/16/2021 12:00:00 AM","2019","191283","NYTIMES-USCENSUS"
"5/17/2021 12:00:00 AM","Isabella County","Michigan","Midwest","East North Central","26073","43.645233","-84.839424 ","6182","92","17","0","5/16/2021 12:00:00 AM","2019","69872","NYTIMES-USCENSUS"
"5/17/2021 12:00:00 AM","Lake County","Illinois","Midwest","East North Central","17097","42.185968","-87.805939 ","67459","1062","61","1","5/16/2021 12:00:00 AM","2019","696535","NYTIMES-USCENSUS"
"5/17/2021 12:00:00 AM","Bonner County","Idaho","West","Mountain","16017","48.316796","-116.612362 ","3256","43","6","0","5/16/2021 12:00:00 AM","2019","45739","NYTIMES-USCENSUS"
"5/17/2021 12:00:00 AM","Henry County","Kentucky","South","East South Central","21103","38.451383","-85.119647 ","1363","13","1","0","5/16/2021 12:00:00 AM","2019","16126","NYTIMES-USCENSUS"
"5/17/2021 12:00:00 AM","Caswell County","North Carolina","South","South Atlantic","37033","36.394298","-79.339609 ","2179","29","4","1","5/16/2021 12:00:00 AM","2019","22604","NYTIMES-USCENSUS"
"5/17/2021 12:00:00 AM","Kenosha County","Wisconsin","Midwest","East North Central","55059","42.585882","-87.876398 ","18463","324","9","0","5/16/2021 12:00:00 AM","2019","169561","NYTIMES-USCENSUS"
"5/17/2021 12:00:00 AM","Culpeper County","Virginia","South","South Atlantic","51047","38.48593","-77.956476 ","4652","63","-1","0","5/16/2021 12:00:00 AM","2019","52605","NYTIMES-USCENSUS"
"5/17/2021 12:00:00 AM","Lawrence County","South Dakota","Midwest","West North Central","46081","44.348514","-103.806362 ","2988","47","1","0","5/16/2021 12:00:00 AM","2019","25844","NYTIMES-USCENSUS"
"5/17/2021 12:00:00 AM","Jasper County","Iowa","Midwest","West North Central","19099","41.685551","-93.054147 ","4194","72","0","0","5/16/2021 12:00:00 AM","2019","37185","NYTIMES-USCENSUS"
"5/17/2021 12:00:00 AM","Worth County","Georgia","South","South Atlantic","13321","31.551773","-83.84996 ","1793","68","1","0","5/16/2021 12:00:00 AM","2019","20247","NYTIMES-USCENSUS"
"5/17/2021 12:00:00 AM","Clay County","Nebraska","Midwest","West North Central","31035","40.523669","-98.050858 ","704","11","0","0","5/16/2021 12:00:00 AM","2019","6203","NYTIMES-USCENSUS"
"5/17/2021 12:00:00 AM","Switzerland County","Indiana","Midwest","East North Central","18155","38.825854","-85.029681 ","795","8","0","0","5/16/2021 12:00:00 AM","2019","10751","NYTIMES-USCENSUS"
"5/17/2021 12:00:00 AM","Lake County","Montana","West","Mountain","30047","47.642901","-114.083687 ","2082","36","0","0","5/16/2021 12:00:00 AM","2019","30458","NYTIMES-USCENSUS"
"5/17/2021 12:00:00 AM","Gregory County","South Dakota","Midwest","West North Central","46053","43.175142","-99.206591 ","579","30","0","0","5/16/2021 12:00:00 AM","2019","4185","NYTIMES-USCENSUS"
"5/17/2021 12:00:00 AM","Elmore County","Idaho","West","Mountain","16039","43.394698","-115.471205 ","2031","16","11","0","5/16/2021 12:00:00 AM","2019","27511","NYTIMES-USCENSUS"
"5/17/2021 12:00:00 AM","Loudoun County","Virginia","South","South Atlantic","51107","39.0812","-77.638898 ","27799","277","16","0","5/16/2021 12:00:00 AM","2019","413538","NYTIMES-USCENSUS"
"5/17/2021 12:00:00 AM","Saline County","Nebraska","Midwest","West North Central","31151","40.516802","-97.131755 ","2042","2","4","0","5/16/2021 12:00:00 AM","2019","14224","NYTIMES-USCENSUS"
"5/17/2021 12:00:00 AM","Teton County","Idaho","West","Mountain","16081","43.760994","-111.211765 ","1224","4","2","0","5/16/2021 12:00:00 AM","2019","12142","NYTIMES-USCENSUS"
"5/17/2021 12:00:00 AM","Baxter County","Arkansas","South","West South Central","05005","36.280268","-92.329949 ","3183","104","1","0","5/16/2021 12:00:00 AM","2019","41932","NYTIMES-USCENSUS"
"5/17/2021 12:00:00 AM","Charles Mix County","South Dakota","Midwest","West North Central","46023","43.206185","-98.595143 ","1378","22","0","0","5/16/2021 12:00:00 AM","2019","9292","NYTIMES-USCENSUS"
"5/17/2021 12:00:00 AM","Onondaga County","New York","Northeast","Middle Atlantic","36067","43.006516","-76.196134 ","38132","671","34","0","5/16/2021 12:00:00 AM","2019","460528","NYTIMES-USCENSUS"
"5/17/2021 12:00:00 AM","Bartholomew County","Indiana","Midwest","East North Central","18005","39.205843","-85.897999 ","8119","161","2","0","5/16/2021 12:00:00 AM","2019","83779","NYTIMES-USCENSUS"
"5/17/2021 12:00:00 AM","Renville County","Minnesota","Midwest","West North Central","27129","44.723697","-94.955617 ","1806","43","1","0","5/16/2021 12:00:00 AM","2019","14548","NYTIMES-USCENSUS"
"5/17/2021 12:00:00 AM","Lamoille County","Vermont","Northeast","New England","50015","44.611192","-72.632659 ","873","3","1","0","5/16/2021 12:00:00 AM","2019","25362","NYTIMES-USCENSUS"
"5/17/2021 12:00:00 AM","Brazoria County","Texas","South","West South Central","48039","29.167817","-95.434647 ","37827","508","0","0","5/16/2021 12:00:00 AM","2019","374264","NYTIMES-USCENSUS"
"5/17/2021 12:00:00 AM","Carroll County","Georgia","South","South Atlantic","13045","33.582237","-85.080527 ","11441","242","0","0","5/16/2021 12:00:00 AM","2019","119992","NYTIMES-USCENSUS"
"5/17/2021 12:00:00 AM","Wirt County","West Virginia","South","South Atlantic","54105","39.020034","-81.382975 ","428","3","0","0","5/16/2021 12:00:00 AM","2019","5821","NYTIMES-USCENSUS"
"5/17/2021 12:00:00 AM","Washington County","New York","Northeast","Middle Atlantic","36115","43.312377","-73.439428 ","3095","55","4","0","5/16/2021 12:00:00 AM","2019","61204","NYTIMES-USCENSUS"
"5/17/2021 12:00:00 AM","Andrew County","Missouri","Midwest","West North Central","29003","39.988863","-94.803551 ","1868","20","1","0","5/16/2021 12:00:00 AM","2019","17712","NYTIMES-USCENSUS"
"5/17/2021 12:00:00 AM","Williamson County","Illinois","Midwest","East North Central","17199","37.730353","-88.930018 ","7446","142","4","0","5/16/2021 12:00:00 AM","2019","66597","NYTIMES-USCENSUS"
"5/17/2021 12:00:00 AM","Auglaize County","Ohio","Midwest","East North Central","39011","40.561309","-84.224018 ","4949","86","1","0","5/16/2021 12:00:00 AM","2019","45656","NYTIMES-USCENSUS"
"5/17/2021 12:00:00 AM","Pacific County","Washington","West","Pacific","53049","46.556587","-123.782419 ","940","11","3","0","5/16/2021 12:00:00 AM","2019","22471","NYTIMES-USCENSUS"
"5/17/2021 12:00:00 AM","Miami County","Indiana","Midwest","East North Central","18103","40.772883","-86.044258 ","3845","69","2","0","5/16/2021 12:00:00 AM","2019","35516","NYTIMES-USCENSUS"
"5/17/2021 12:00:00 AM","Lafayette Parish","Louisiana","South","West South Central","22055","30.206507","-92.06417 ","23738","279","83","0","5/16/2021 12:00:00 AM","2019","244390","NYTIMES-USCENSUS"
"5/17/2021 12:00:00 AM","Mahoning County","Ohio","Midwest","East North Central","39099","41.01088","-80.770396 ","21795","588","27","0","5/16/2021 12:00:00 AM","2019","228683","NYTIMES-USCENSUS"
"5/17/2021 12:00:00 AM","Nemaha County","Nebraska","Midwest","West North Central","31127","40.387389","-95.852721 ","690","15","2","0","5/16/2021 12:00:00 AM","2019","6972","NYTIMES-USCENSUS"
"5/17/2021 12:00:00 AM","Levy County","Florida","South","South Atlantic","12075","29.271854","-82.831233 ","3498","54","8","0","5/16/2021 12:00:00 AM","2019","41503","NYTIMES-USCENSUS"
"5/17/2021 12:00:00 AM","St. Lucie County","Florida","South","South Atlantic","12111","27.379814","-80.443536 ","26926","641","26","0","5/16/2021 12:00:00 AM","2019","328297","NYTIMES-USCENSUS"
"5/17/2021 12:00:00 AM","Kaufman County","Texas","South","West South Central","48257","32.598944","-96.288377 ","16125","259","0","0","5/16/2021 12:00:00 AM","2019","136154","NYTIMES-USCENSUS"
"5/17/2021 12:00:00 AM","Concordia Parish","Louisiana","South","West South Central","22029","31.469805","-91.626315 ","1871","61","3","0","5/16/2021 12:00:00 AM","2019","19259","NYTIMES-USCENSUS"
"5/17/2021 12:00:00 AM","Susquehanna County","Pennsylvania","Northeast","Middle Atlantic","42115","41.819665","-75.800969 ","2571","62","1","0","5/16/2021 12:00:00 AM","2019","40328","NYTIMES-USCENSUS"
"5/17/2021 12:00:00 AM","Santa Cruz County","Arizona","West","Mountain","04023","31.525733","-110.845228 ","7989","179","0","0","5/16/2021 12:00:00 AM","2019","46498","NYTIMES-USCENSUS"
"5/17/2021 12:00:00 AM","Clearwater County","Minnesota","Midwest","West North Central","27029","47.575873","-95.371117 ","871","16","1","0","5/16/2021 12:00:00 AM","2019","8818","NYTIMES-USCENSUS"
"5/17/2021 12:00:00 AM","Clark County","Indiana","Midwest","East North Central","18019","38.476217","-85.711122 ","13057","201","4","0","5/16/2021 12:00:00 AM","2019","118302","NYTIMES-USCENSUS"
"5/17/2021 12:00:00 AM","Franklin County","Kansas","Midwest","West North Central","20059","38.558019","-95.278962 ","2563","43","0","0","5/16/2021 12:00:00 AM","2019","25544","NYTIMES-USCENSUS"
"5/17/2021 12:00:00 AM","Massac County","Illinois","Midwest","East North Central","17127","37.216119","-88.705658 ","1346","43","0","0","5/16/2021 12:00:00 AM","2019","13772","NYTIMES-USCENSUS"
"5/17/2021 12:00:00 AM","Piscataquis County","Maine","Northeast","New England","23021","45.915639","-69.102231 ","521","6","11","0","5/16/2021 12:00:00 AM","2019","16785","NYTIMES-USCENSUS"
"5/17/2021 12:00:00 AM","Holmes County","Mississippi","South","East South Central","28051","33.125942","-90.091197 ","1891","74","0","0","5/16/2021 12:00:00 AM","2019","17010","NYTIMES-USCENSUS"
"5/17/2021 12:00:00 AM","Guilford County","North Carolina","South","South Atlantic","37081","36.079065","-79.788665 ","47744","703","156","3","5/16/2021 12:00:00 AM","2019","537174","NYTIMES-USCENSUS"
"5/17/2021 12:00:00 AM","Harris County","Texas","South","West South Central","48201","29.857273","-95.393037 ","396552","6333","0","3","5/16/2021 12:00:00 AM","2019","4713325","NYTIMES-USCENSUS"
"5/17/2021 12:00:00 AM","Buffalo County","Wisconsin","Midwest","East North Central","55011","44.385633","-91.761294 ","1403","7","1","0","5/16/2021 12:00:00 AM","2019","13031","NYTIMES-USCENSUS"
"5/17/2021 12:00:00 AM","Eastland County","Texas","South","West South Central","48133","32.324645","-98.83656 ","1357","49","0","0","5/16/2021 12:00:00 AM","2019","18360","NYTIMES-USCENSUS"
"5/17/2021 12:00:00 AM","Fisher County","Texas","South","West South Central","48151","32.740473","-100.40312 ","300","14","0","0","5/16/2021 12:00:00 AM","2019","3830","NYTIMES-USCENSUS"
"5/17/2021 12:00:00 AM","Harrison County","Texas","South","West South Central","48203","32.547991","-94.374434 ","4887","109","2","0","5/16/2021 12:00:00 AM","2019","66553","NYTIMES-USCENSUS"
"5/17/2021 12:00:00 AM","Tate County","Mississippi","South","East South Central","28137","34.649553","-89.943105 ","3354","84","7","0","5/16/2021 12:00:00 AM","2019","28321","NYTIMES-USCENSUS"
"5/17/2021 12:00:00 AM","Lincoln County","Oklahoma","South","West South Central","40081","35.703117","-96.881392 ","3245","71","0","0","5/16/2021 12:00:00 AM","2019","34877","NYTIMES-USCENSUS"
"5/17/2021 12:00:00 AM","Fremont County","Iowa","Midwest","West North Central","19071","40.74259","-95.599182 ","622","9","0","0","5/16/2021 12:00:00 AM","2019","6960","NYTIMES-USCENSUS"
"5/17/2021 12:00:00 AM","Brown County","Ohio","Midwest","East North Central","39015","38.931377","-83.866772 ","3975","57","1","0","5/16/2021 12:00:00 AM","2019","43432","NYTIMES-USCENSUS"
"5/17/2021 12:00:00 AM","St. Louis County","Missouri","Midwest","West North Central","29189","38.640688","-90.446073 ","99197","2210","45","0","5/16/2021 12:00:00 AM","2019","994205","NYTIMES-USCENSUS"
"5/17/2021 12:00:00 AM","Robertson County","Tennessee","South","East South Central","47147","36.527509","-86.869354 ","9810","132","17","0","5/16/2021 12:00:00 AM","2019","71813","NYTIMES-USCENSUS"
"5/17/2021 12:00:00 AM","Toole County","Montana","West","Mountain","30101","48.645125","-111.733472 ","721","11","0","0","5/16/2021 12:00:00 AM","2019","4736","NYTIMES-USCENSUS"
"5/17/2021 12:00:00 AM","Westchester County","New York","Northeast","Middle Atlantic","36119","41.152686","-73.745753 ","128896","2268","33","0","5/16/2021 12:00:00 AM","2019","967506","NYTIMES-USCENSUS"
"5/17/2021 12:00:00 AM","Morgan County","Kentucky","South","East South Central","21175","37.92294","-83.258944 ","2269","3","0","0","5/16/2021 12:00:00 AM","2019","13309","NYTIMES-USCENSUS"
"5/17/2021 12:00:00 AM","Edwards County","Illinois","Midwest","East North Central","17047","38.417095","-88.047941 ","569","13","0","0","5/16/2021 12:00:00 AM","2019","6395","NYTIMES-USCENSUS"
"5/17/2021 12:00:00 AM","Logan County","West Virginia","South","South Atlantic","54045","37.830591","-81.940853 ","3161","94","2","0","5/16/2021 12:00:00 AM","2019","32019","NYTIMES-USCENSUS"
"5/17/2021 12:00:00 AM","Washington County","Kansas","Midwest","West North Central","20201","39.776714","-97.095611 ","533","14","0","0","5/16/2021 12:00:00 AM","2019","5406","NYTIMES-USCENSUS"
"5/17/2021 12:00:00 AM","Lynchburg city","Virginia","South","South Atlantic","51680","37.399016","-79.195458 ","7814","150","2","0","5/16/2021 12:00:00 AM","2019","82168","NYTIMES-USCENSUS"
"5/17/2021 12:00:00 AM","Macon County","Alabama","South","East South Central","01087","32.387027","-85.692887 ","1613","50","0","0","5/16/2021 12:00:00 AM","2019","18068","NYTIMES-USCENSUS"
"5/17/2021 12:00:00 AM","El Paso County","Texas","South","West South Central","48141","31.76648","-106.241423 ","135448","2685","59","0","5/16/2021 12:00:00 AM","2019","839238","NYTIMES-USCENSUS"
"5/17/2021 12:00:00 AM","Harrison County","Indiana","Midwest","East North Central","18061","38.186454","-86.103766 ","4369","74","2","0","5/16/2021 12:00:00 AM","2019","40515","NYTIMES-USCENSUS"
"5/17/2021 12:00:00 AM","Madison County","Mississippi","South","East South Central","28089","32.63437","-90.03416 ","10130","217","17","0","5/16/2021 12:00:00 AM","2019","106272","NYTIMES-USCENSUS"
"5/17/2021 12:00:00 AM","Stanislaus County","California","West","Pacific","06099","37.562316","-121.002831 ","62310","1061","61","0","5/16/2021 12:00:00 AM","2019","550660","NYTIMES-USCENSUS"
"5/17/2021 12:00:00 AM","Suffolk city","Virginia","South","South Atlantic","51800","36.697157","-76.634781 ","7930","190","2","0","5/16/2021 12:00:00 AM","2019","92108","NYTIMES-USCENSUS"
"5/17/2021 12:00:00 AM","New Castle County","Delaware","South","South Atlantic","10003","39.575915","-75.644132 ","63317","820","55","0","5/16/2021 12:00:00 AM","2019","558753","NYTIMES-USCENSUS"
"5/17/2021 12:00:00 AM","Otsego County","Michigan","Midwest","East North Central","26137","45.021787","-84.576603 ","2724","40","6","0","5/16/2021 12:00:00 AM","2019","24668","NYTIMES-USCENSUS"
"5/17/2021 12:00:00 AM","Delta County","Michigan","Midwest","East North Central","26041","45.805229","-86.901938 ","3988","91","4","0","5/16/2021 12:00:00 AM","2019","35784","NYTIMES-USCENSUS"
"5/17/2021 12:00:00 AM","Broadwater County","Montana","West","Mountain","30007","46.329849","-111.497873 ","493","5","0","0","5/16/2021 12:00:00 AM","2019","6237","NYTIMES-USCENSUS"
"5/17/2021 12:00:00 AM","Randolph County","Georgia","South","South Atlantic","13243","31.762651","-84.752311 ","629","34","0","0","5/16/2021 12:00:00 AM","2019","6778","NYTIMES-USCENSUS"
"5/17/2021 12:00:00 AM","Walker County","Texas","South","West South Central","48471","30.743163","-95.569825 ","8676","128","4","0","5/16/2021 12:00:00 AM","2019","72971","NYTIMES-USCENSUS"
"5/17/2021 12:00:00 AM","Wayne County","Mississippi","South","East South Central","28153","31.642503","-88.678214 ","2629","41","1","0","5/16/2021 12:00:00 AM","2019","20183","NYTIMES-USCENSUS"
"5/17/2021 12:00:00 AM","Moore County","Tennessee","South","East South Central","47127","35.288888","-86.358684 ","1018","17","1","0","5/16/2021 12:00:00 AM","2019","6488","NYTIMES-USCENSUS"
"5/17/2021 12:00:00 AM","Brooks County","Georgia","South","South Atlantic","13027","30.822934","-83.581905 ","1397","48","1","0","5/16/2021 12:00:00 AM","2019","15457","NYTIMES-USCENSUS"
"5/17/2021 12:00:00 AM","Crawford County","Arkansas","South","West South Central","05033","35.583011","-94.236219 ","7092","119","2","0","5/16/2021 12:00:00 AM","2019","63257","NYTIMES-USCENSUS"
"5/17/2021 12:00:00 AM","Kingsbury County","South Dakota","Midwest","West North Central","46077","44.362969","-97.499313 ","817","18","-1","0","5/16/2021 12:00:00 AM","2019","4939","NYTIMES-USCENSUS"
"5/17/2021 12:00:00 AM","Fleming County","Kentucky","South","East South Central","21069","38.367848","-83.699205 ","1200","24","0","0","5/16/2021 12:00:00 AM","2019","14581","NYTIMES-USCENSUS"
"5/17/2021 12:00:00 AM","Genesee County","Michigan","Midwest","East North Central","26049","43.021077","-83.706372 ","41174","920","76","3","5/16/2021 12:00:00 AM","2019","405813","NYTIMES-USCENSUS"
"5/17/2021 12:00:00 AM","Kearny County","Kansas","Midwest","West North Central","20093","37.994461","-101.308136 ","572","10","2","0","5/16/2021 12:00:00 AM","2019","3838","NYTIMES-USCENSUS"
"5/17/2021 12:00:00 AM","Manassas Park city","Virginia","South","South Atlantic","51685","38.769398","-77.442323 ","1217","11","0","0","5/16/2021 12:00:00 AM","2019","17478","NYTIMES-USCENSUS"
"5/17/2021 12:00:00 AM","Putnam County","West Virginia","South","South Atlantic","54079","38.510518","-81.906109 ","5195","93","7","1","5/16/2021 12:00:00 AM","2019","56450","NYTIMES-USCENSUS"
"5/17/2021 12:00:00 AM","Petersburg city","Virginia","South","South Atlantic","51730","37.20473","-77.392368 ","3876","86","2","0","5/16/2021 12:00:00 AM","2019","31346","NYTIMES-USCENSUS"
"5/17/2021 12:00:00 AM","Saguache County","Colorado","West","Mountain","08109","38.031651","-106.234666 ","392","4","0","0","5/16/2021 12:00:00 AM","2019","6824","NYTIMES-USCENSUS"
"5/17/2021 12:00:00 AM","Archer County","Texas","South","West South Central","48009","33.616305","-98.687267 ","807","12","0","0","5/16/2021 12:00:00 AM","2019","8553","NYTIMES-USCENSUS"
"5/17/2021 12:00:00 AM","East Carroll Parish","Louisiana","South","West South Central","22035","32.73017","-91.234141 ","1130","26","0","0","5/16/2021 12:00:00 AM","2019","6861","NYTIMES-USCENSUS"
"5/17/2021 12:00:00 AM","Barry County","Missouri","Midwest","West North Central","29009","36.699376","-93.834334 ","2895","45","0","0","5/16/2021 12:00:00 AM","2019","35789","NYTIMES-USCENSUS"
"5/17/2021 12:00:00 AM","Mercer County","North Dakota","Midwest","West North Central","38057","47.307147","-101.833328 ","1129","10","1","0","5/16/2021 12:00:00 AM","2019","8187","NYTIMES-USCENSUS"
"5/17/2021 12:00:00 AM","Haywood County","North Carolina","South","South Atlantic","37087","35.558882","-82.981307 ","4391","96","9","0","5/16/2021 12:00:00 AM","2019","62317","NYTIMES-USCENSUS"
"5/17/2021 12:00:00 AM","Lincoln County","New Mexico","West","Mountain","35027","33.740841","-105.449805 ","1715","19","10","0","5/16/2021 12:00:00 AM","2019","19572","NYTIMES-USCENSUS"
"5/17/2021 12:00:00 AM","Grant County","Oregon","West","Pacific","41023","44.496326","-119.014057 ","523","6","0","0","5/16/2021 12:00:00 AM","2019","7199","NYTIMES-USCENSUS"
"5/17/2021 12:00:00 AM","Deuel County","South Dakota","Midwest","West North Central","46039","44.75629","-96.690239 ","527","9","0","0","5/16/2021 12:00:00 AM","2019","4351","NYTIMES-USCENSUS"
"5/17/2021 12:00:00 AM","Ramsey County","Minnesota","Midwest","West North Central","27123","45.015204","-93.099965 ","51592","876","62","0","5/16/2021 12:00:00 AM","2019","550321","NYTIMES-USCENSUS"
"5/17/2021 12:00:00 AM","Sherburne County","Minnesota","Midwest","West North Central","27141","45.453176","-93.76913 ","11775","88","22","0","5/16/2021 12:00:00 AM","2019","97238","NYTIMES-USCENSUS"
"5/17/2021 12:00:00 AM","Jenkins County","Georgia","South","South Atlantic","13165","32.794563","-81.971524 ","853","43","0","0","5/16/2021 12:00:00 AM","2019","8676","NYTIMES-USCENSUS"
"5/17/2021 12:00:00 AM","Chisago County","Minnesota","Midwest","West North Central","27025","45.505444","-92.903849 ","6042","51","10","0","5/16/2021 12:00:00 AM","2019","56579","NYTIMES-USCENSUS"
"5/17/2021 12:00:00 AM","Emery County","Utah","West","Mountain","49015","39.009025","-110.7211 ","930","9","0","0","5/16/2021 12:00:00 AM","2019","10012","NYTIMES-USCENSUS"
"5/17/2021 12:00:00 AM","Giles County","Virginia","South","South Atlantic","51071","37.318072","-80.698321 ","1283","22","1","0","5/16/2021 12:00:00 AM","2019","16720","NYTIMES-USCENSUS"
"5/17/2021 12:00:00 AM","Madison County","Virginia","South","South Atlantic","51113","38.412059","-78.276961 ","620","16","2","0","5/16/2021 12:00:00 AM","2019","13261","NYTIMES-USCENSUS"
"5/17/2021 12:00:00 AM","Nueces County","Texas","South","West South Central","48355","27.740032","-97.516214 ","42592","813","109","1","5/16/2021 12:00:00 AM","2019","362294","NYTIMES-USCENSUS"
"5/17/2021 12:00:00 AM","Bremer County","Iowa","Midwest","West North Central","19017","42.780895","-92.327356 ","2850","60","1","0","5/16/2021 12:00:00 AM","2019","25062","NYTIMES-USCENSUS"
"5/17/2021 12:00:00 AM","Gray County","Texas","South","West South Central","48179","35.402542","-100.812374 ","2326","56","0","0","5/16/2021 12:00:00 AM","2019","21886","NYTIMES-USCENSUS"
"5/17/2021 12:00:00 AM","Owsley County","Kentucky","South","East South Central","21189","37.423622","-83.691637 ","496","15","0","0","5/16/2021 12:00:00 AM","2019","4415","NYTIMES-USCENSUS"
"5/17/2021 12:00:00 AM","Greene County","North Carolina","South","South Atlantic","37079","35.481959","-77.681688 ","2343","44","3","0","5/16/2021 12:00:00 AM","2019","21069","NYTIMES-USCENSUS"
"5/17/2021 12:00:00 AM","Butler County","Nebraska","Midwest","West North Central","31023","41.226072","-97.132039 ","856","12","0","0","5/16/2021 12:00:00 AM","2019","8016","NYTIMES-USCENSUS"
"5/17/2021 12:00:00 AM","Harney County","Oregon","West","Pacific","41025","43.064449","-118.987169 ","349","8","1","0","5/16/2021 12:00:00 AM","2019","7393","NYTIMES-USCENSUS"
"5/17/2021 12:00:00 AM","Saratoga County","New York","Northeast","Middle Atlantic","36091","43.106135","-73.855387 ","15136","166","13","0","5/16/2021 12:00:00 AM","2019","229863","NYTIMES-USCENSUS"
"5/17/2021 12:00:00 AM","Latimer County","Oklahoma","South","West South Central","40077","34.875137","-95.272262 ","836","13","0","0","5/16/2021 12:00:00 AM","2019","10073","NYTIMES-USCENSUS"
"5/17/2021 12:00:00 AM","Colbert County","Alabama","South","East South Central","01033","34.703112","-87.801457 ","6322","135","0","0","5/16/2021 12:00:00 AM","2019","55241","NYTIMES-USCENSUS"
"5/17/2021 12:00:00 AM","Sheboygan County","Wisconsin","Midwest","East North Central","55117","43.741232","-87.731516 ","14678","153","6","0","5/16/2021 12:00:00 AM","2019","115340","NYTIMES-USCENSUS"
"5/17/2021 12:00:00 AM","Morris County","Texas","South","West South Central","48343","33.116466","-94.731265 ","875","33","1","0","5/16/2021 12:00:00 AM","2019","12388","NYTIMES-USCENSUS"
"5/17/2021 12:00:00 AM","Butler County","Iowa","Midwest","West North Central","19023","42.734757","-92.780153 ","1652","34","2","0","5/16/2021 12:00:00 AM","2019","14439","NYTIMES-USCENSUS"
"5/17/2021 12:00:00 AM","Oregon County","Missouri","Midwest","West North Central","29149","36.68531","-91.401827 ","799","3","0","0","5/16/2021 12:00:00 AM","2019","10529","NYTIMES-USCENSUS"
"5/17/2021 12:00:00 AM","Ottawa County","Kansas","Midwest","West North Central","20143","39.137963","-97.654802 ","549","13","-2","0","5/16/2021 12:00:00 AM","2019","5704","NYTIMES-USCENSUS"
"5/17/2021 12:00:00 AM","Seminole County","Georgia","South","South Atlantic","13253","30.93396","-84.867685 ","954","19","0","0","5/16/2021 12:00:00 AM","2019","8090","NYTIMES-USCENSUS"
"5/17/2021 12:00:00 AM","Palo Pinto County","Texas","South","West South Central","48363","32.752204","-98.317967 ","2903","75","0","0","5/16/2021 12:00:00 AM","2019","29189","NYTIMES-USCENSUS"
"5/17/2021 12:00:00 AM","Carlisle County","Kentucky","South","East South Central","21039","36.85718","-88.976614 ","476","9","0","0","5/16/2021 12:00:00 AM","2019","4760","NYTIMES-USCENSUS"
"5/17/2021 12:00:00 AM","Sevier County","Tennessee","South","East South Central","47155","35.787822","-83.5249 ","13464","176","13","1","5/16/2021 12:00:00 AM","2019","98250","NYTIMES-USCENSUS"
"5/17/2021 12:00:00 AM","Carver County","Minnesota","Midwest","West North Central","27019","44.82132","-93.800091 ","10520","45","8","0","5/16/2021 12:00:00 AM","2019","105089","NYTIMES-USCENSUS"
"5/17/2021 12:00:00 AM","Mercer County","Illinois","Midwest","East North Central","17131","41.205605","-90.74177 ","1475","33","0","0","5/16/2021 12:00:00 AM","2019","15437","NYTIMES-USCENSUS"
"5/17/2021 12:00:00 AM","Saline County","Kansas","Midwest","West North Central","20169","38.791804","-97.651478 ","6272","140","2","0","5/16/2021 12:00:00 AM","2019","54224","NYTIMES-USCENSUS"
"5/17/2021 12:00:00 AM","Eddy County","North Dakota","Midwest","West North Central","38027","47.723436","-98.900474 ","469","6","0","0","5/16/2021 12:00:00 AM","2019","2287","NYTIMES-USCENSUS"
"5/17/2021 12:00:00 AM","Perry County","Mississippi","South","East South Central","28111","31.169307","-88.988755 ","1263","38","0","0","5/16/2021 12:00:00 AM","2019","11973","NYTIMES-USCENSUS"
"5/17/2021 12:00:00 AM","Itasca County","Minnesota","Midwest","West North Central","27061","47.490817","-93.611102 ","4422","56","17","0","5/16/2021 12:00:00 AM","2019","45130","NYTIMES-USCENSUS"
"5/17/2021 12:00:00 AM","Assumption Parish","Louisiana","South","West South Central","22007","29.9033","-91.065219 ","2216","36","3","0","5/16/2021 12:00:00 AM","2019","21891","NYTIMES-USCENSUS"
"5/17/2021 12:00:00 AM","McKenzie County","North Dakota","Midwest","West North Central","38053","47.742475","-103.403215 ","1353","13","4","0","5/16/2021 12:00:00 AM","2019","15024","NYTIMES-USCENSUS"
"5/17/2021 12:00:00 AM","Benzie County","Michigan","Midwest","East North Central","26019","44.636844","-86.231999 ","1266","34","3","0","5/16/2021 12:00:00 AM","2019","17766","NYTIMES-USCENSUS"
"5/17/2021 12:00:00 AM","Crawford County","Kansas","Midwest","West North Central","20037","37.505821","-94.853897 ","4735","83","0","0","5/16/2021 12:00:00 AM","2019","38818","NYTIMES-USCENSUS"
"5/17/2021 12:00:00 AM","Moore County","Texas","South","West South Central","48341","35.835676","-101.890502 ","2740","72","0","0","5/16/2021 12:00:00 AM","2019","20940","NYTIMES-USCENSUS"
"5/17/2021 12:00:00 AM","Stevens County","Minnesota","Midwest","West North Central","27149","45.593461","-95.992315 ","916","11","1","0","5/16/2021 12:00:00 AM","2019","9805","NYTIMES-USCENSUS"
"5/17/2021 12:00:00 AM","Teller County","Colorado","West","Mountain","08119","38.869976","-105.187365 ","1760","15","10","0","5/16/2021 12:00:00 AM","2019","25388","NYTIMES-USCENSUS"
"5/17/2021 12:00:00 AM","Haywood County","Tennessee","South","East South Central","47075","35.586678","-89.282691 ","2715","62","0","0","5/16/2021 12:00:00 AM","2019","17304","NYTIMES-USCENSUS"
"5/17/2021 12:00:00 AM","Marion County","Illinois","Midwest","East North Central","17121","38.648236","-88.920362 ","4472","121","1","0","5/16/2021 12:00:00 AM","2019","37205","NYTIMES-USCENSUS"
"5/17/2021 12:00:00 AM","Ontonagon County","Michigan","Midwest","East North Central","26131","46.835325","-89.276912 ","464","21","1","0","5/16/2021 12:00:00 AM","2019","5720","NYTIMES-USCENSUS"
"5/17/2021 12:00:00 AM","Huron County","Michigan","Midwest","East North Central","26063","43.907616","-82.857045 ","4051","75","0","0","5/16/2021 12:00:00 AM","2019","30981","NYTIMES-USCENSUS"
"5/17/2021 12:00:00 AM","Washington County","Wisconsin","Midwest","East North Central","55131","43.391156","-88.232917 ","16786","168","5","0","5/16/2021 12:00:00 AM","2019","136034","NYTIMES-USCENSUS"
"5/17/2021 12:00:00 AM","Minidoka County","Idaho","West","Mountain","16067","42.857211","-113.63984 ","2342","33","1","0","5/16/2021 12:00:00 AM","2019","21039","NYTIMES-USCENSUS"
"5/17/2021 12:00:00 AM","Arthur County","Nebraska","Midwest","West North Central","31005","41.57193","-101.695917 ","22","1","0","0","5/16/2021 12:00:00 AM","2019","463","NYTIMES-USCENSUS"
"5/17/2021 12:00:00 AM","Pontotoc County","Mississippi","South","East South Central","28115","34.227081","-89.037239 ","4211","72","3","0","5/16/2021 12:00:00 AM","2019","32174","NYTIMES-USCENSUS"
"5/17/2021 12:00:00 AM","McKean County","Pennsylvania","Northeast","Middle Atlantic","42083","41.81459","-78.572463 ","3702","70","3","1","5/16/2021 12:00:00 AM","2019","40625","NYTIMES-USCENSUS"
"5/17/2021 12:00:00 AM","Colquitt County","Georgia","South","South Atlantic","13071","31.189707","-83.769773 ","4726","121","-3","0","5/16/2021 12:00:00 AM","2019","45600","NYTIMES-USCENSUS"
"5/17/2021 12:00:00 AM","Parker County","Texas","South","West South Central","48367","32.777096","-97.805905 ","15798","183","0","0","5/16/2021 12:00:00 AM","2019","142878","NYTIMES-USCENSUS"
"5/17/2021 12:00:00 AM","Liberty County","Texas","South","West South Central","48291","30.158508","-94.844061 ","7941","185","8","0","5/16/2021 12:00:00 AM","2019","88219","NYTIMES-USCENSUS"
"5/17/2021 12:00:00 AM","Claiborne County","Tennessee","South","East South Central","47025","36.501572","-83.660698 ","3189","73","1","0","5/16/2021 12:00:00 AM","2019","31959","NYTIMES-USCENSUS"
"5/17/2021 12:00:00 AM","Sabine County","Texas","South","West South Central","48403","31.3433","-93.851913 ","524","45","0","0","5/16/2021 12:00:00 AM","2019","10542","NYTIMES-USCENSUS"
"5/17/2021 12:00:00 AM","Clark County","South Dakota","Midwest","West North Central","46025","44.855211","-97.724912 ","462","5","1","0","5/16/2021 12:00:00 AM","2019","3736","NYTIMES-USCENSUS"
"5/17/2021 12:00:00 AM","Wilson County","Kansas","Midwest","West North Central","20205","37.558515","-95.745175 ","1012","16","0","0","5/16/2021 12:00:00 AM","2019","8525","NYTIMES-USCENSUS"
"5/17/2021 12:00:00 AM","Warren County","Ohio","Midwest","East North Central","39165","39.425663","-84.16994 ","24390","300","10","0","5/16/2021 12:00:00 AM","2019","234602","NYTIMES-USCENSUS"
"5/17/2021 12:00:00 AM","Chelan County","Washington","West","Pacific","53007","47.860974","-120.619041 ","6907","67","12","0","5/16/2021 12:00:00 AM","2019","77200","NYTIMES-USCENSUS"
"5/17/2021 12:00:00 AM","Guadalupe County","Texas","South","West South Central","48187","29.582671","-97.948995 ","14886","212","0","0","5/16/2021 12:00:00 AM","2019","166847","NYTIMES-USCENSUS"
"5/17/2021 12:00:00 AM","Holmes County","Ohio","Midwest","East North Central","39075","40.565597","-81.930001 ","2625","101","0","0","5/16/2021 12:00:00 AM","2019","43960","NYTIMES-USCENSUS"
"5/17/2021 12:00:00 AM","Barnwell County","South Carolina","South","South Atlantic","45011","33.260552","-81.434228 ","2592","57","0","0","5/16/2021 12:00:00 AM","2019","20866","NYTIMES-USCENSUS"
"5/17/2021 12:00:00 AM","Marshall County","Alabama","South","East South Central","01095","34.309564","-86.321668 ","12280","225","0","0","5/16/2021 12:00:00 AM","2019","96774","NYTIMES-USCENSUS"
"5/17/2021 12:00:00 AM","Suwannee County","Florida","South","South Atlantic","12121","30.189244","-82.992754 ","5363","138","4","0","5/16/2021 12:00:00 AM","2019","44417","NYTIMES-USCENSUS"
"5/17/2021 12:00:00 AM","Dooly County","Georgia","South","South Atlantic","13093","32.151995","-83.807167 ","1086","46","4","0","5/16/2021 12:00:00 AM","2019","13390","NYTIMES-USCENSUS"
"5/17/2021 12:00:00 AM","Brule County","South Dakota","Midwest","West North Central","46015","43.729873","-99.092909 ","717","10","0","0","5/16/2021 12:00:00 AM","2019","5297","NYTIMES-USCENSUS"
"5/17/2021 12:00:00 AM","Lancaster County","Virginia","South","South Atlantic","51103","37.704843","-76.412663 ","714","16","0","0","5/16/2021 12:00:00 AM","2019","10603","NYTIMES-USCENSUS"
"5/17/2021 12:00:00 AM","Pueblo County","Colorado","West","Mountain","08101","38.162765","-104.484668 ","18770","392","23","0","5/16/2021 12:00:00 AM","2019","168424","NYTIMES-USCENSUS"
"5/17/2021 12:00:00 AM","Morgan County","Indiana","Midwest","East North Central","18109","39.482646","-86.447457 ","6628","145","5","1","5/16/2021 12:00:00 AM","2019","70489","NYTIMES-USCENSUS"
"5/17/2021 12:00:00 AM","Lauderdale County","Tennessee","South","East South Central","47097","35.762951","-89.627732 ","3210","44","8","0","5/16/2021 12:00:00 AM","2019","25633","NYTIMES-USCENSUS"
"5/17/2021 12:00:00 AM","Roseau County","Minnesota","Midwest","West North Central","27135","48.761068","-95.821504 ","2098","19","4","0","5/16/2021 12:00:00 AM","2019","15165","NYTIMES-USCENSUS"
"5/17/2021 12:00:00 AM","Logan County","Nebraska","Midwest","West North Central","31113","41.542155","-100.443665 ","82","0","0","0","5/16/2021 12:00:00 AM","2019","748","NYTIMES-USCENSUS"
"5/17/2021 12:00:00 AM","Essex County","New Jersey","Northeast","Middle Atlantic","34013","40.7874","-74.246292 ","93539","2957","1","2","5/16/2021 12:00:00 AM","2019","798975","NYTIMES-USCENSUS"
"5/17/2021 12:00:00 AM","Jackson County","Texas","South","West South Central","48239","28.959802","-96.58908 ","1840","31","0","0","5/16/2021 12:00:00 AM","2019","14760","NYTIMES-USCENSUS"
"5/17/2021 12:00:00 AM","Wheatland County","Montana","West","Mountain","30107","46.496967","-109.857684 ","179","8","0","0","5/16/2021 12:00:00 AM","2019","2126","NYTIMES-USCENSUS"
"5/17/2021 12:00:00 AM","Wyandot County","Ohio","Midwest","East North Central","39175","40.839782","-83.313681 ","2321","55","0","0","5/16/2021 12:00:00 AM","2019","21772","NYTIMES-USCENSUS"
"5/17/2021 12:00:00 AM","Denton County","Texas","South","West South Central","48121","33.205132","-97.12114 ","75469","758","105","0","5/16/2021 12:00:00 AM","2019","887207","NYTIMES-USCENSUS"
"5/17/2021 12:00:00 AM","Fayette County","Kentucky","South","East South Central","21067","38.040678","-84.458272 ","35854","314","4","0","5/16/2021 12:00:00 AM","2019","323152","NYTIMES-USCENSUS"
"5/17/2021 12:00:00 AM","Fulton County","New York","Northeast","Middle Atlantic","36035","43.115609","-74.423678 ","4348","91","4","0","5/16/2021 12:00:00 AM","2019","53383","NYTIMES-USCENSUS"
"5/17/2021 12:00:00 AM","Ascension Parish","Louisiana","South","West South Central","22005","30.206444","-90.912502 ","12391","164","63","0","5/16/2021 12:00:00 AM","2019","126604","NYTIMES-USCENSUS"
"5/17/2021 12:00:00 AM","Duval County","Texas","South","West South Central","48131","27.681123","-98.497393 ","1258","41","0","0","5/16/2021 12:00:00 AM","2019","11157","NYTIMES-USCENSUS"
"5/17/2021 12:00:00 AM","Rusk County","Texas","South","West South Central","48401","32.109423","-94.756382 ","4117","107","2","0","5/16/2021 12:00:00 AM","2019","54406","NYTIMES-USCENSUS"
"5/17/2021 12:00:00 AM","Goliad County","Texas","South","West South Central","48175","28.6607","-97.430415 ","454","13","0","0","5/16/2021 12:00:00 AM","2019","7658","NYTIMES-USCENSUS"
"5/17/2021 12:00:00 AM","Duval County","Florida","South","South Atlantic","12031","30.335245","-81.648113 ","99425","1447","70","0","5/16/2021 12:00:00 AM","2019","957755","NYTIMES-USCENSUS"
"5/17/2021 12:00:00 AM","Fairfax city","Virginia","South","South Atlantic","51600","38.853183","-77.299025 ","557","19","0","0","5/16/2021 12:00:00 AM","2019","24019","NYTIMES-USCENSUS"
"5/17/2021 12:00:00 AM","Adair County","Missouri","Midwest","West North Central","29001","40.190666","-92.603592 ","2468","20","0","0","5/16/2021 12:00:00 AM","2019","25343","NYTIMES-USCENSUS"
"5/17/2021 12:00:00 AM","Kanabec County","Minnesota","Midwest","West North Central","27065","45.94776","-93.297788 ","1453","26","2","0","5/16/2021 12:00:00 AM","2019","16337","NYTIMES-USCENSUS"
"5/17/2021 12:00:00 AM","Greene County","Arkansas","South","West South Central","05055","36.120607","-90.566346 ","6138","77","3","0","5/16/2021 12:00:00 AM","2019","45325","NYTIMES-USCENSUS"
"5/17/2021 12:00:00 AM","Twiggs County","Georgia","South","South Atlantic","13289","32.665847","-83.425879 ","727","44","0","0","5/16/2021 12:00:00 AM","2019","8120","NYTIMES-USCENSUS"
"5/17/2021 12:00:00 AM","Hamilton County","Illinois","Midwest","East North Central","17065","38.085227","-88.539009 ","836","18","1","0","5/16/2021 12:00:00 AM","2019","8116","NYTIMES-USCENSUS"
"5/17/2021 12:00:00 AM","Humboldt County","Iowa","Midwest","West North Central","19091","42.782221","-94.202775 ","1191","26","0","0","5/16/2021 12:00:00 AM","2019","9558","NYTIMES-USCENSUS"
"5/17/2021 12:00:00 AM","Williamsburg County","South Carolina","South","South Atlantic","45089","33.626462","-79.716474 ","4081","99","1","0","5/16/2021 12:00:00 AM","2019","30368","NYTIMES-USCENSUS"
"5/17/2021 12:00:00 AM","Aroostook County","Maine","Northeast","New England","23003","46.709193","-68.612409 ","1795","45","5","0","5/16/2021 12:00:00 AM","2019","67055","NYTIMES-USCENSUS"
"5/17/2021 12:00:00 AM","Montgomery County","Kentucky","South","East South Central","21173","38.038109","-83.912416 ","2748","30","5","0","5/16/2021 12:00:00 AM","2019","28157","NYTIMES-USCENSUS"
"5/17/2021 12:00:00 AM","Multnomah County","Oregon","West","Pacific","41051","45.547711","-122.417363 ","38829","612","115","8","5/16/2021 12:00:00 AM","2019","812855","NYTIMES-USCENSUS"
"5/17/2021 12:00:00 AM","Gilmer County","Georgia","South","South Atlantic","13123","34.690506","-84.454624 ","3005","84","0","0","5/16/2021 12:00:00 AM","2019","31369","NYTIMES-USCENSUS"
"5/17/2021 12:00:00 AM","Fayette County","Texas","South","West South Central","48149","29.877886","-96.921231 ","2720","63","0","0","5/16/2021 12:00:00 AM","2019","25346","NYTIMES-USCENSUS"
"5/17/2021 12:00:00 AM","George County","Mississippi","South","East South Central","28039","30.855431","-88.642268 ","2494","48","13","0","5/16/2021 12:00:00 AM","2019","24500","NYTIMES-USCENSUS"
"5/17/2021 12:00:00 AM","Hardin County","Tennessee","South","East South Central","47071","35.201893","-88.185696 ","3585","68","-4","0","5/16/2021 12:00:00 AM","2019","25652","NYTIMES-USCENSUS"
"5/17/2021 12:00:00 AM","Dixon County","Nebraska","Midwest","West North Central","31051","42.485086","-96.855784 ","610","9","-1","0","5/16/2021 12:00:00 AM","2019","5636","NYTIMES-USCENSUS"
"5/17/2021 12:00:00 AM","Charles County","Maryland","South","South Atlantic","24017","38.472853","-77.015427 ","10735","194","4","0","5/16/2021 12:00:00 AM","2019","163257","NYTIMES-USCENSUS"
"5/17/2021 12:00:00 AM","Burnett County","Wisconsin","Midwest","East North Central","55013","45.866897","-92.37573 ","1542","22","2","0","5/16/2021 12:00:00 AM","2019","15414","NYTIMES-USCENSUS"
"5/17/2021 12:00:00 AM","Hancock County","Georgia","South","South Atlantic","13141","33.26922","-83.000465 ","922","66","2","0","5/16/2021 12:00:00 AM","2019","8457","NYTIMES-USCENSUS"
"5/17/2021 12:00:00 AM","Comanche County","Kansas","Midwest","West North Central","20033","37.181442","-99.251293 ","170","9","0","0","5/16/2021 12:00:00 AM","2019","1700","NYTIMES-USCENSUS"
"5/17/2021 12:00:00 AM","Natrona County","Wyoming","West","Mountain","56025","42.977645","-106.768219 ","8047","136","8","0","5/16/2021 12:00:00 AM","2019","79858","NYTIMES-USCENSUS"
"5/17/2021 12:00:00 AM","Barren County","Kentucky","South","East South Central","21009","36.962805","-85.932108 ","4460","92","1","0","5/16/2021 12:00:00 AM","2019","44249","NYTIMES-USCENSUS"
"5/17/2021 12:00:00 AM","Houston County","Minnesota","Midwest","West North Central","27055","43.66699","-91.501556 ","1720","16","0","0","5/16/2021 12:00:00 AM","2019","18600","NYTIMES-USCENSUS"
"5/17/2021 12:00:00 AM","Jefferson County","Texas","South","West South Central","48245","29.854","-94.149331 ","19714","429","0","0","5/16/2021 12:00:00 AM","2019","251565","NYTIMES-USCENSUS"
"5/17/2021 12:00:00 AM","Pittsburg County","Oklahoma","South","West South Central","40121","34.92554","-95.74813 ","4643","70","0","0","5/16/2021 12:00:00 AM","2019","43654","NYTIMES-USCENSUS"
"5/17/2021 12:00:00 AM","Schuyler County","Illinois","Midwest","East North Central","17169","40.156905","-90.613464 ","760","19","0","0","5/16/2021 12:00:00 AM","2019","6768","NYTIMES-USCENSUS"
"5/17/2021 12:00:00 AM","Coffee County","Georgia","South","South Atlantic","13069","31.549245","-82.84494 ","5326","169","-2","0","5/16/2021 12:00:00 AM","2019","43273","NYTIMES-USCENSUS"
"5/17/2021 12:00:00 AM","Stafford County","Kansas","Midwest","West North Central","20185","38.03563","-98.719889 ","352","9","0","0","5/16/2021 12:00:00 AM","2019","4156","NYTIMES-USCENSUS"
"5/17/2021 12:00:00 AM","Rhea County","Tennessee","South","East South Central","47143","35.60059","-84.949548 ","4363","75","6","0","5/16/2021 12:00:00 AM","2019","33167","NYTIMES-USCENSUS"
"5/17/2021 12:00:00 AM","Coos County","Oregon","West","Pacific","41011","43.18591","-124.094133 ","2098","35","9","0","5/16/2021 12:00:00 AM","2019","64487","NYTIMES-USCENSUS"
"5/17/2021 12:00:00 AM","Hempstead County","Arkansas","South","West South Central","05057","33.735953","-93.664355 ","2005","20","0","0","5/16/2021 12:00:00 AM","2019","21532","NYTIMES-USCENSUS"
"5/17/2021 12:00:00 AM","Centre County","Pennsylvania","Northeast","Middle Atlantic","42027","40.909128","-77.847877 ","16689","222","2","0","5/16/2021 12:00:00 AM","2019","162385","NYTIMES-USCENSUS"
"5/17/2021 12:00:00 AM","Tallapoosa County","Alabama","South","East South Central","01123","32.863308","-85.799618 ","4044","153","0","0","5/16/2021 12:00:00 AM","2019","40367","NYTIMES-USCENSUS"
"5/17/2021 12:00:00 AM","Boyle County","Kentucky","South","East South Central","21021","37.618104","-84.868352 ","3445","70","1","0","5/16/2021 12:00:00 AM","2019","30060","NYTIMES-USCENSUS"
"5/17/2021 12:00:00 AM","Belknap County","New Hampshire","Northeast","New England","33001","43.519109","-71.425366 ","4054","100","1","0","5/16/2021 12:00:00 AM","2019","61303","NYTIMES-USCENSUS"
"5/17/2021 12:00:00 AM","Scotland County","North Carolina","South","South Atlantic","37165","34.840023","-79.477337 ","3804","85","5","0","5/16/2021 12:00:00 AM","2019","34823","NYTIMES-USCENSUS"
"5/17/2021 12:00:00 AM","Bacon County","Georgia","South","South Atlantic","13005","31.55021","-82.451433 ","1651","37","0","0","5/16/2021 12:00:00 AM","2019","11164","NYTIMES-USCENSUS"
"5/17/2021 12:00:00 AM","Drew County","Arkansas","South","West South Central","05043","33.587242","-91.722778 ","2008","44","0","0","5/16/2021 12:00:00 AM","2019","18219","NYTIMES-USCENSUS"
"5/17/2021 12:00:00 AM","Breckinridge County","Kentucky","South","East South Central","21027","37.777988","-86.432919 ","1287","16","0","0","5/16/2021 12:00:00 AM","2019","20477","NYTIMES-USCENSUS"
"5/17/2021 12:00:00 AM","Otero County","New Mexico","West","Mountain","35035","32.615599","-105.751308 ","5053","75","29","0","5/16/2021 12:00:00 AM","2019","67490","NYTIMES-USCENSUS"
"5/17/2021 12:00:00 AM","Dallas County","Texas","South","West South Central","48113","32.766987","-96.778424 ","301428","4037","0","3","5/16/2021 12:00:00 AM","2019","2635516","NYTIMES-USCENSUS"
"5/17/2021 12:00:00 AM","Lamar County","Alabama","South","East South Central","01075","33.787085","-88.087431 ","1433","36","0","0","5/16/2021 12:00:00 AM","2019","13805","NYTIMES-USCENSUS"
"5/17/2021 12:00:00 AM","Chester County","South Carolina","South","South Atlantic","45023","34.689342","-81.161249 ","4216","76","1","0","5/16/2021 12:00:00 AM","2019","32244","NYTIMES-USCENSUS"
"5/17/2021 12:00:00 AM","Lawrence County","Arkansas","South","West South Central","05075","36.041098","-91.101153 ","2123","43","1","0","5/16/2021 12:00:00 AM","2019","16406","NYTIMES-USCENSUS"
"5/17/2021 12:00:00 AM","Stewart County","Georgia","South","South Atlantic","13259","32.073225","-84.834912 ","905","25","0","0","5/16/2021 12:00:00 AM","2019","6621","NYTIMES-USCENSUS"
"5/17/2021 12:00:00 AM","Poweshiek County","Iowa","Midwest","West North Central","19157","41.684642","-92.522934 ","1549","34","0","0","5/16/2021 12:00:00 AM","2019","18504","NYTIMES-USCENSUS"
"5/17/2021 12:00:00 AM","McLennan County","Texas","South","West South Central","48309","31.549596","-97.201511 ","27256","472","0","0","5/16/2021 12:00:00 AM","2019","256623","NYTIMES-USCENSUS"
"5/17/2021 12:00:00 AM","Tazewell County","Virginia","South","South Atlantic","51185","37.125395","-81.562924 ","3644","70","4","0","5/16/2021 12:00:00 AM","2019","40595","NYTIMES-USCENSUS"
"5/17/2021 12:00:00 AM","Gilpin County","Colorado","West","Mountain","08047","39.861156","-105.528878 ","245","3","0","0","5/16/2021 12:00:00 AM","2019","6243","NYTIMES-USCENSUS"
"5/17/2021 12:00:00 AM","Southampton County","Virginia","South","South Atlantic","51175","36.720068","-77.103813 ","1972","56","0","0","5/16/2021 12:00:00 AM","2019","17631","NYTIMES-USCENSUS"
"5/17/2021 12:00:00 AM","Pasquotank County","North Carolina","South","South Atlantic","37139","36.265199","-76.260691 ","3387","81","7","1","5/16/2021 12:00:00 AM","2019","39824","NYTIMES-USCENSUS"
"5/17/2021 12:00:00 AM","Okeechobee County","Florida","South","South Atlantic","12093","27.385592","-80.887388 ","4071","89","3","0","5/16/2021 12:00:00 AM","2019","42168","NYTIMES-USCENSUS"
"5/17/2021 12:00:00 AM","Liberty County","Florida","South","South Atlantic","12077","30.259849","-84.86858 ","1078","16","0","0","5/16/2021 12:00:00 AM","2019","8354","NYTIMES-USCENSUS"
"5/17/2021 12:00:00 AM","Knox County","Maine","Northeast","New England","23013","44.042045","-69.038514 ","1099","5","2","0","5/16/2021 12:00:00 AM","2019","39772","NYTIMES-USCENSUS"
"5/17/2021 12:00:00 AM","Bryan County","Oklahoma","South","West South Central","40013","33.964004","-96.265135 ","6109","72","0","0","5/16/2021 12:00:00 AM","2019","47995","NYTIMES-USCENSUS"
"5/17/2021 12:00:00 AM","Titus County","Texas","South","West South Central","48449","33.214599","-94.966783 ","3722","84","0","0","5/16/2021 12:00:00 AM","2019","32750","NYTIMES-USCENSUS"
"5/17/2021 12:00:00 AM","Charles City County","Virginia","South","South Atlantic","51036","37.361054","-77.05417 ","502","16","0","0","5/16/2021 12:00:00 AM","2019","6963","NYTIMES-USCENSUS"
"5/17/2021 12:00:00 AM","Salem city","Virginia","South","South Atlantic","51775","37.285333","-80.055241 ","2167","48","1","0","5/16/2021 12:00:00 AM","2019","25301","NYTIMES-USCENSUS"
"5/17/2021 12:00:00 AM","Pike County","Indiana","Midwest","East North Central","18125","38.397961","-87.232547 ","1356","34","3","0","5/16/2021 12:00:00 AM","2019","12389","NYTIMES-USCENSUS"
"5/17/2021 12:00:00 AM","Stoddard County","Missouri","Midwest","West North Central","29207","36.851557","-89.947481 ","2489","37","0","0","5/16/2021 12:00:00 AM","2019","29025","NYTIMES-USCENSUS"
"5/17/2021 12:00:00 AM","Marshall County","West Virginia","South","South Atlantic","54051","39.854426","-80.671794 ","3483","76","-1","-1","5/16/2021 12:00:00 AM","2019","30531","NYTIMES-USCENSUS"
"5/17/2021 12:00:00 AM","Sedgwick County","Kansas","Midwest","West North Central","20173","37.681045","-97.461054 ","56838","756","68","0","5/16/2021 12:00:00 AM","2019","516042","NYTIMES-USCENSUS"
"5/17/2021 12:00:00 AM","Portage County","Wisconsin","Midwest","East North Central","55097","44.476246","-89.49807 ","7352","72","5","0","5/16/2021 12:00:00 AM","2019","70772","NYTIMES-USCENSUS"
"5/17/2021 12:00:00 AM","Lake County","Indiana","Midwest","East North Central","18089","41.472247","-87.374337 ","54330","1018","80","1","5/16/2021 12:00:00 AM","2019","485493","NYTIMES-USCENSUS"
"5/17/2021 12:00:00 AM","St. Francois County","Missouri","Midwest","West North Central","29187","37.810707","-90.473868 ","8826","115","2","0","5/16/2021 12:00:00 AM","2019","67215","NYTIMES-USCENSUS"
"5/17/2021 12:00:00 AM","Trousdale County","Tennessee","South","East South Central","47169","36.39303","-86.156691 ","2506","22","0","0","5/16/2021 12:00:00 AM","2019","11284","NYTIMES-USCENSUS"
"5/17/2021 12:00:00 AM","Ellis County","Kansas","Midwest","West North Central","20051","38.914597","-99.317313 ","3747","71","0","0","5/16/2021 12:00:00 AM","2019","28553","NYTIMES-USCENSUS"
"5/17/2021 12:00:00 AM","DeKalb County","Alabama","South","East South Central","01049","34.460915","-85.804021 ","8866","188","1","0","5/16/2021 12:00:00 AM","2019","71513","NYTIMES-USCENSUS"
"5/17/2021 12:00:00 AM","Henry County","Georgia","South","South Atlantic","13151","33.452947","-84.154021 ","25486","327","13","0","5/16/2021 12:00:00 AM","2019","234561","NYTIMES-USCENSUS"
"5/17/2021 12:00:00 AM","Iron County","Utah","West","Mountain","49021","37.909304","-113.30674 ","5846","32","2","0","5/16/2021 12:00:00 AM","2019","54839","NYTIMES-USCENSUS"
"5/17/2021 12:00:00 AM","Delaware County","New York","Northeast","Middle Atlantic","36025","42.193986","-74.966728 ","2321","37","1","0","5/16/2021 12:00:00 AM","2019","44135","NYTIMES-USCENSUS"
"5/17/2021 12:00:00 AM","Erie County","New York","Northeast","Middle Atlantic","36029","42.752759","-78.778192 ","88507","1778","73","0","5/16/2021 12:00:00 AM","2019","918702","NYTIMES-USCENSUS"
"5/17/2021 12:00:00 AM","Columbia County","Pennsylvania","Northeast","Middle Atlantic","42037","41.045517","-76.40426 ","5750","133","5","0","5/16/2021 12:00:00 AM","2019","64964","NYTIMES-USCENSUS"
"5/17/2021 12:00:00 AM","Kandiyohi County","Minnesota","Midwest","West North Central","27067","45.152714","-95.004981 ","6577","83","4","0","5/16/2021 12:00:00 AM","2019","43199","NYTIMES-USCENSUS"
"5/17/2021 12:00:00 AM","Mitchell County","Kansas","Midwest","West North Central","20123","39.393026","-98.207362 ","562","18","0","0","5/16/2021 12:00:00 AM","2019","5979","NYTIMES-USCENSUS"
"5/17/2021 12:00:00 AM","Cleburne County","Alabama","South","East South Central","01029","33.671964","-85.516126 ","1496","41","0","0","5/16/2021 12:00:00 AM","2019","14910","NYTIMES-USCENSUS"
"5/17/2021 12:00:00 AM","Smith County","Tennessee","South","East South Central","47159","36.256645","-85.941915 ","2789","39","4","0","5/16/2021 12:00:00 AM","2019","20157","NYTIMES-USCENSUS"
"5/17/2021 12:00:00 AM","San Joaquin County","California","West","Pacific","06077","37.934982","-121.272244 ","73339","1394","29","0","5/16/2021 12:00:00 AM","2019","762148","NYTIMES-USCENSUS"
"5/17/2021 12:00:00 AM","Elmore County","Alabama","South","East South Central","01051","32.597229","-86.142735 ","10158","206","0","0","5/16/2021 12:00:00 AM","2019","81209","NYTIMES-USCENSUS"
"5/17/2021 12:00:00 AM","Walton County","Georgia","South","South Atlantic","13297","33.783887","-83.731829 ","10798","261","11","0","5/16/2021 12:00:00 AM","2019","94593","NYTIMES-USCENSUS"
"5/17/2021 12:00:00 AM","Franklin County","Missouri","Midwest","West North Central","29071","38.413003","-91.072832 ","10665","183","5","0","5/16/2021 12:00:00 AM","2019","103967","NYTIMES-USCENSUS"
"5/17/2021 12:00:00 AM","Kimball County","Nebraska","Midwest","West North Central","31105","41.199274","-103.703153 ","415","2","0","-4","5/16/2021 12:00:00 AM","2019","3632","NYTIMES-USCENSUS"
"5/17/2021 12:00:00 AM","Lee County","Virginia","South","South Atlantic","51105","36.701721","-83.130112 ","2427","47","2","0","5/16/2021 12:00:00 AM","2019","23423","NYTIMES-USCENSUS"
"5/17/2021 12:00:00 AM","Tensas Parish","Louisiana","South","West South Central","22107","32.001489","-91.342576 ","359","8","0","0","5/16/2021 12:00:00 AM","2019","4334","NYTIMES-USCENSUS"
"5/17/2021 12:00:00 AM","Transylvania County","North Carolina","South","South Atlantic","37175","35.210103","-82.816666 ","2392","33","6","1","5/16/2021 12:00:00 AM","2019","34385","NYTIMES-USCENSUS"
"5/17/2021 12:00:00 AM","Greene County","Indiana","Midwest","East North Central","18055","39.047147","-87.004771 ","2814","89","1","0","5/16/2021 12:00:00 AM","2019","31922","NYTIMES-USCENSUS"
"5/17/2021 12:00:00 AM","Belmont County","Ohio","Midwest","East North Central","39013","40.017682","-80.967727 ","5978","168","7","0","5/16/2021 12:00:00 AM","2019","67006","NYTIMES-USCENSUS"
"5/17/2021 12:00:00 AM","Gallatin County","Kentucky","South","East South Central","21077","38.755663","-84.865143 ","699","30","0","0","5/16/2021 12:00:00 AM","2019","8869","NYTIMES-USCENSUS"
"5/17/2021 12:00:00 AM","Dorchester County","Maryland","South","South Atlantic","24019","38.429196","-76.047433 ","2795","51","2","0","5/16/2021 12:00:00 AM","2019","31929","NYTIMES-USCENSUS"
"5/17/2021 12:00:00 AM","Polk County","Texas","South","West South Central","48373","30.784553","-94.837338 ","3331","114","0","0","5/16/2021 12:00:00 AM","2019","51353","NYTIMES-USCENSUS"
"5/17/2021 12:00:00 AM","Lincoln County","Wyoming","West","Mountain","56023","42.229993","-110.682961 ","1411","12","-1","0","5/16/2021 12:00:00 AM","2019","19830","NYTIMES-USCENSUS"
"5/17/2021 12:00:00 AM","Gadsden County","Florida","South","South Atlantic","12039","30.578687","-84.612607 ","5734","99","0","0","5/16/2021 12:00:00 AM","2019","45660","NYTIMES-USCENSUS"
"5/17/2021 12:00:00 AM","Hoke County","North Carolina","South","South Atlantic","37093","35.017233","-79.241964 ","4701","55","19","0","5/16/2021 12:00:00 AM","2019","55234","NYTIMES-USCENSUS"
"5/17/2021 12:00:00 AM","Knox County","Texas","South","West South Central","48275","33.61189","-99.730356 ","258","17","0","0","5/16/2021 12:00:00 AM","2019","3664","NYTIMES-USCENSUS"
"5/17/2021 12:00:00 AM","Franklin County","Arkansas","South","West South Central","05047","35.508558","-93.887665 ","1693","40","0","0","5/16/2021 12:00:00 AM","2019","17715","NYTIMES-USCENSUS"
"5/17/2021 12:00:00 AM","Newaygo County","Michigan","Midwest","East North Central","26123","43.562712","-85.791372 ","4733","62","9","0","5/16/2021 12:00:00 AM","2019","48980","NYTIMES-USCENSUS"
"5/17/2021 12:00:00 AM","Washington County","Tennessee","South","East South Central","47179","36.295665","-82.495037 ","14713","245","22","0","5/16/2021 12:00:00 AM","2019","129375","NYTIMES-USCENSUS"
"5/17/2021 12:00:00 AM","Emmet County","Michigan","Midwest","East North Central","26047","45.590094","-84.986822 ","2815","41","22","0","5/16/2021 12:00:00 AM","2019","33415","NYTIMES-USCENSUS"
"5/17/2021 12:00:00 AM","Lea County","New Mexico","West","Mountain","35025","32.795687","-103.413271 ","9055","169","6","0","5/16/2021 12:00:00 AM","2019","71070","NYTIMES-USCENSUS"
"5/17/2021 12:00:00 AM","Morehouse Parish","Louisiana","South","West South Central","22067","32.820008","-91.800399 ","2841","77","7","0","5/16/2021 12:00:00 AM","2019","24874","NYTIMES-USCENSUS"
"5/17/2021 12:00:00 AM","Chippewa County","Minnesota","Midwest","West North Central","27023","45.028625","-95.564108 ","1525","38","1","0","5/16/2021 12:00:00 AM","2019","11800","NYTIMES-USCENSUS"
"5/17/2021 12:00:00 AM","Rowan County","Kentucky","South","East South Central","21205","38.204266","-83.428079 ","2247","20","0","0","5/16/2021 12:00:00 AM","2019","24460","NYTIMES-USCENSUS"
"5/17/2021 12:00:00 AM","Armstrong County","Texas","South","West South Central","48011","34.964179","-101.356636 ","209","6","0","0","5/16/2021 12:00:00 AM","2019","1887","NYTIMES-USCENSUS"
"5/17/2021 12:00:00 AM","Miner County","South Dakota","Midwest","West North Central","46097","44.021541","-97.608122 ","304","10","0","0","5/16/2021 12:00:00 AM","2019","2216","NYTIMES-USCENSUS"
"5/17/2021 12:00:00 AM","McPherson County","Nebraska","Midwest","West North Central","31117","41.648414","-101.120851 ","29","1","0","0","5/16/2021 12:00:00 AM","2019","494","NYTIMES-USCENSUS"
"5/17/2021 12:00:00 AM","Victoria County","Texas","South","West South Central","48469","28.79637","-96.971198 ","8883","210","0","0","5/16/2021 12:00:00 AM","2019","92084","NYTIMES-USCENSUS"
"5/17/2021 12:00:00 AM","Leflore County","Mississippi","South","East South Central","28083","33.54979","-90.294934 ","3500","125","2","0","5/16/2021 12:00:00 AM","2019","28183","NYTIMES-USCENSUS"
"5/17/2021 12:00:00 AM","Jackson County","North Carolina","South","South Atlantic","37099","35.285454","-83.123966 ","3602","56","1","0","5/16/2021 12:00:00 AM","2019","43938","NYTIMES-USCENSUS"
"5/17/2021 12:00:00 AM","Broome County","New York","Northeast","Middle Atlantic","36007","42.161977","-75.830283 ","18381","357","14","0","5/16/2021 12:00:00 AM","2019","190488","NYTIMES-USCENSUS"
"5/17/2021 12:00:00 AM","Amherst County","Virginia","South","South Atlantic","51009","37.629304","-79.154667 ","2930","37","0","0","5/16/2021 12:00:00 AM","2019","31605","NYTIMES-USCENSUS"
"5/17/2021 12:00:00 AM","Chowan County","North Carolina","South","South Atlantic","37041","36.128979","-76.602752 ","1468","23","3","0","5/16/2021 12:00:00 AM","2019","13943","NYTIMES-USCENSUS"
"5/17/2021 12:00:00 AM","Morgan County","Tennessee","South","East South Central","47129","36.138697","-84.639262 ","2519","39","6","0","5/16/2021 12:00:00 AM","2019","21403","NYTIMES-USCENSUS"
"5/17/2021 12:00:00 AM","Jefferson County","Oklahoma","South","West South Central","40067","34.105082","-97.83889 ","703","13","0","0","5/16/2021 12:00:00 AM","2019","6002","NYTIMES-USCENSUS"
"5/17/2021 12:00:00 AM","Canyon County","Idaho","West","Mountain","16027","43.625796","-116.709058 ","26861","298","45","0","5/16/2021 12:00:00 AM","2019","229849","NYTIMES-USCENSUS"
"5/17/2021 12:00:00 AM","Putnam County","Ohio","Midwest","East North Central","39137","41.024533","-84.129879 ","4301","101","2","0","5/16/2021 12:00:00 AM","2019","33861","NYTIMES-USCENSUS"
"5/17/2021 12:00:00 AM","Ventura County","California","West","Pacific","06111","34.358748","-119.133145 ","81102","1017","69","0","5/16/2021 12:00:00 AM","2019","846006","NYTIMES-USCENSUS"
"5/17/2021 12:00:00 AM","Sussex County","Delaware","South","South Atlantic","10005","38.673227","-75.337024 ","25696","489","22","0","5/16/2021 12:00:00 AM","2019","234225","NYTIMES-USCENSUS"
"5/17/2021 12:00:00 AM","Zavala County","Texas","South","West South Central","48507","28.864652","-99.75983 ","1860","41","0","0","5/16/2021 12:00:00 AM","2019","11840","NYTIMES-USCENSUS"
"5/17/2021 12:00:00 AM","Covington city","Virginia","South","South Atlantic","51580","37.78106","-79.985434 ","601","13","1","0","5/16/2021 12:00:00 AM","2019","5538","NYTIMES-USCENSUS"
"5/17/2021 12:00:00 AM","Pennington County","South Dakota","Midwest","West North Central","46103","44.002349","-102.823801 ","13756","193","1","0","5/16/2021 12:00:00 AM","2019","113775","NYTIMES-USCENSUS"
"5/17/2021 12:00:00 AM","Atascosa County","Texas","South","West South Central","48013","28.891478","-98.535381 ","5775","150","0","0","5/16/2021 12:00:00 AM","2019","51153","NYTIMES-USCENSUS"
