"monitor_date","county","state_name","region","subregion","fips","latitude","longitude","case_count_to_date","death_count_to_date","case_count","death_count","previous_monitor_date","population_year","population","source"
"10/11/2021 12:00:00 AM","Delaware County","Ohio","Midwest","East North Central","39041","40.278941","-83.007462 ","23689","156","23689","156","","2019","209177","NYTIMES-USCENSUS"
"10/11/2021 12:00:00 AM","Jones County","Iowa","Midwest","West North Central","19105","42.125118","-91.116914 ","3572","59","3572","59","","2019","20681","NYTIMES-USCENSUS"
"10/11/2021 12:00:00 AM","Jackson County","Arkansas","South","West South Central","05067","35.596467","-91.223205 ","4104","42","4104","42","","2019","16719","NYTIMES-USCENSUS"
"10/11/2021 12:00:00 AM","Delta County","Texas","South","West South Central","48119","33.385933","-95.67335 ","591","20","591","20","","2019","5331","NYTIMES-USCENSUS"
"10/11/2021 12:00:00 AM","Klamath County","Oregon","West","Pacific","41035","42.683761","-121.646168 ","7465","103","7465","103","","2019","68238","NYTIMES-USCENSUS"
"10/11/2021 12:00:00 AM","Lenawee County","Michigan","Midwest","East North Central","26091","41.896022","-84.074356 ","13614","195","13614","195","","2019","98451","NYTIMES-USCENSUS"
"10/11/2021 12:00:00 AM","Taylor County","Kentucky","South","East South Central","21217","37.36621","-85.328059 ","5445","79","5445","79","","2019","25769","NYTIMES-USCENSUS"
"10/11/2021 12:00:00 AM","Johnson County","Illinois","Midwest","East North Central","17087","37.460709","-88.882131 ","2226","37","2226","37","","2019","12417","NYTIMES-USCENSUS"
"10/11/2021 12:00:00 AM","Blanco County","Texas","South","West South Central","48031","30.266456","-98.399217 ","1283","28","1283","28","","2019","11931","NYTIMES-USCENSUS"
"10/11/2021 12:00:00 AM","Dade County","Georgia","South","South Atlantic","13083","34.852424","-85.506201 ","2113","19","2113","19","","2019","16116","NYTIMES-USCENSUS"
"10/11/2021 12:00:00 AM","Cumberland County","Illinois","Midwest","East North Central","17035","39.273121","-88.240619 ","1866","38","1866","38","","2019","10766","NYTIMES-USCENSUS"
"10/11/2021 12:00:00 AM","Raleigh County","West Virginia","South","South Atlantic","54081","37.762469","-81.264672 ","10687","158","10687","158","","2019","73361","NYTIMES-USCENSUS"
"10/11/2021 12:00:00 AM","Franklin County","Iowa","Midwest","West North Central","19069","42.736545","-93.271415 ","1605","26","1605","26","","2019","10070","NYTIMES-USCENSUS"
"10/11/2021 12:00:00 AM","Brunswick County","North Carolina","South","South Atlantic","37019","34.038754","-78.227765 ","15802","227","15802","227","","2019","142820","NYTIMES-USCENSUS"
"10/11/2021 12:00:00 AM","Union County","Pennsylvania","Northeast","Middle Atlantic","42119","40.962179","-77.055475 ","7071","97","7071","97","","2019","44923","NYTIMES-USCENSUS"
"10/11/2021 12:00:00 AM","Woodward County","Oklahoma","South","West South Central","40153","36.425619","-99.273661 ","3615","40","3615","40","","2019","20211","NYTIMES-USCENSUS"
"10/11/2021 12:00:00 AM","Strafford County","New Hampshire","Northeast","New England","33017","43.293272","-71.035589 ","12589","112","12589","112","","2019","130633","NYTIMES-USCENSUS"
"10/11/2021 12:00:00 AM","Beltrami County","Minnesota","Midwest","West North Central","27007","47.879508","-95.00505 ","6075","76","6075","76","","2019","47188","NYTIMES-USCENSUS"
"10/11/2021 12:00:00 AM","Putnam County","Tennessee","South","East South Central","47141","36.14094","-85.49618 ","16415","209","16415","209","","2019","80245","NYTIMES-USCENSUS"
"10/11/2021 12:00:00 AM","Brazoria County","Texas","South","West South Central","48039","29.167817","-95.434647 ","58400","786","58400","786","","2019","374264","NYTIMES-USCENSUS"
"10/11/2021 12:00:00 AM","Creek County","Oklahoma","South","West South Central","40037","35.907398","-96.380177 ","10677","227","10677","227","","2019","71522","NYTIMES-USCENSUS"
"10/11/2021 12:00:00 AM","Motley County","Texas","South","West South Central","48345","34.057899","-100.793152 ","152","9","152","9","","2019","1200","NYTIMES-USCENSUS"
"10/11/2021 12:00:00 AM","Marquette County","Wisconsin","Midwest","East North Central","55077","43.826053","-89.409095 ","2128","33","2128","33","","2019","15574","NYTIMES-USCENSUS"
"10/11/2021 12:00:00 AM","Tazewell County","Illinois","Midwest","East North Central","17179","40.508074","-89.51626 ","20341","360","20341","360","","2019","131803","NYTIMES-USCENSUS"
"10/11/2021 12:00:00 AM","El Paso County","Texas","South","West South Central","48141","31.76648","-106.241423 ","146479","2840","146479","2840","","2019","839238","NYTIMES-USCENSUS"
"10/11/2021 12:00:00 AM","McHenry County","North Dakota","Midwest","West North Central","38049","48.233842","-100.633267 ","813","23","813","23","","2019","5745","NYTIMES-USCENSUS"
"10/11/2021 12:00:00 AM","Stark County","Ohio","Midwest","East North Central","39151","40.814131","-81.365667 ","44981","1030","44981","1030","","2019","370606","NYTIMES-USCENSUS"
"10/11/2021 12:00:00 AM","Brown County","Kansas","Midwest","West North Central","20013","39.825931","-95.569905 ","1501","40","1501","40","","2019","9564","NYTIMES-USCENSUS"
"10/11/2021 12:00:00 AM","Randolph County","Alabama","South","East South Central","01111","33.296461","-85.464064 ","3232","60","3232","60","","2019","22722","NYTIMES-USCENSUS"
"10/11/2021 12:00:00 AM","Clarke County","Iowa","Midwest","West North Central","19039","41.029726","-93.785259 ","1384","27","1384","27","","2019","9395","NYTIMES-USCENSUS"
"10/11/2021 12:00:00 AM","Dunklin County","Missouri","Midwest","West North Central","29069","36.153025","-90.062254 ","4240","58","4240","58","","2019","29131","NYTIMES-USCENSUS"
"10/11/2021 12:00:00 AM","Rush County","Indiana","Midwest","East North Central","18139","39.622362","-85.466529 ","2607","32","2607","32","","2019","16581","NYTIMES-USCENSUS"
"10/11/2021 12:00:00 AM","Guadalupe County","New Mexico","West","Mountain","35019","34.869782","-104.784968 ","852","15","852","15","","2019","4300","NYTIMES-USCENSUS"
"10/11/2021 12:00:00 AM","Amador County","California","West","Pacific","06005","38.443549","-120.653858 ","5336","62","5336","62","","2019","39752","NYTIMES-USCENSUS"
"10/11/2021 12:00:00 AM","Floyd County","Indiana","Midwest","East North Central","18043","38.318081","-85.911847 ","10916","220","10916","220","","2019","78522","NYTIMES-USCENSUS"
"10/11/2021 12:00:00 AM","Henry County","Missouri","Midwest","West North Central","29083","38.386491","-93.792628 ","3173","49","3173","49","","2019","21824","NYTIMES-USCENSUS"
"10/11/2021 12:00:00 AM","Appling County","Georgia","South","South Atlantic","13001","31.739712","-82.290103 ","3473","96","3473","96","","2019","18386","NYTIMES-USCENSUS"
"10/11/2021 12:00:00 AM","Colorado County","Texas","South","West South Central","48089","29.596296","-96.508935 ","2499","51","2499","51","","2019","21493","NYTIMES-USCENSUS"
"10/11/2021 12:00:00 AM","Hoke County","North Carolina","South","South Atlantic","37093","35.017233","-79.241964 ","6963","77","6963","77","","2019","55234","NYTIMES-USCENSUS"
"10/11/2021 12:00:00 AM","Oceana County","Michigan","Midwest","East North Central","26127","43.603954","-86.467177 ","3493","67","3493","67","","2019","26467","NYTIMES-USCENSUS"
"10/11/2021 12:00:00 AM","Spotsylvania County","Virginia","South","South Atlantic","51177","38.182431","-77.657226 ","14266","141","14266","141","","2019","136215","NYTIMES-USCENSUS"
"10/11/2021 12:00:00 AM","Itawamba County","Mississippi","South","East South Central","28057","34.281075","-88.363127 ","4569","104","4569","104","","2019","23390","NYTIMES-USCENSUS"
"10/11/2021 12:00:00 AM","Nelson County","Kentucky","South","East South Central","21179","37.80312","-85.465931 ","8062","77","8062","77","","2019","46233","NYTIMES-USCENSUS"
"10/11/2021 12:00:00 AM","Grant County","West Virginia","South","South Atlantic","54023","39.105988","-79.195064 ","2039","32","2039","32","","2019","11568","NYTIMES-USCENSUS"
"10/11/2021 12:00:00 AM","Saline County","Kansas","Midwest","West North Central","20169","38.791804","-97.651478 ","8101","173","8101","173","","2019","54224","NYTIMES-USCENSUS"
"10/11/2021 12:00:00 AM","Randolph County","Illinois","Midwest","East North Central","17157","38.056515","-89.82121 ","5470","104","5470","104","","2019","31782","NYTIMES-USCENSUS"
"10/11/2021 12:00:00 AM","Rockingham County","Virginia","South","South Atlantic","51165","38.507585","-78.885321 ","8930","138","8930","138","","2019","81948","NYTIMES-USCENSUS"
"10/11/2021 12:00:00 AM","Butler County","Ohio","Midwest","East North Central","39017","39.439747","-84.565734 ","50272","685","50272","685","","2019","383134","NYTIMES-USCENSUS"
"10/11/2021 12:00:00 AM","Posey County","Indiana","Midwest","East North Central","18129","38.027614","-87.868653 ","3714","42","3714","42","","2019","25427","NYTIMES-USCENSUS"
"10/11/2021 12:00:00 AM","Nez Perce County","Idaho","West","Mountain","16069","46.333791","-116.760909 ","5857","91","5857","91","","2019","40408","NYTIMES-USCENSUS"
"10/11/2021 12:00:00 AM","Lincoln County","Missouri","Midwest","West North Central","29113","39.062255","-90.962916 ","8987","66","8987","66","","2019","59013","NYTIMES-USCENSUS"
"10/11/2021 12:00:00 AM","Goodhue County","Minnesota","Midwest","West North Central","27049","44.406178","-92.716 ","5879","82","5879","82","","2019","46340","NYTIMES-USCENSUS"
"10/11/2021 12:00:00 AM","Mahaska County","Iowa","Midwest","West North Central","19123","41.330797","-92.636366 ","3050","56","3050","56","","2019","22095","NYTIMES-USCENSUS"
"10/11/2021 12:00:00 AM","Manistee County","Michigan","Midwest","East North Central","26101","44.245268","-86.327537 ","2372","34","2372","34","","2019","24558","NYTIMES-USCENSUS"
"10/11/2021 12:00:00 AM","Houston County","Alabama","South","East South Central","01069","31.158183","-85.296411 ","17199","397","17199","397","","2019","105882","NYTIMES-USCENSUS"
"10/11/2021 12:00:00 AM","Acadia Parish","Louisiana","South","West South Central","22001","30.291497","-92.411037 ","10337","247","10337","247","","2019","62045","NYTIMES-USCENSUS"
"10/11/2021 12:00:00 AM","Quitman County","Georgia","South","South Atlantic","13239","31.862938","-85.004798 ","253","4","253","4","","2019","2299","NYTIMES-USCENSUS"
"10/11/2021 12:00:00 AM","Clinton County","Missouri","Midwest","West North Central","29049","39.608723","-94.395803 ","2797","76","2797","76","","2019","20387","NYTIMES-USCENSUS"
"10/11/2021 12:00:00 AM","Lee County","Kentucky","South","East South Central","21129","37.608116","-83.719248 ","1694","30","1694","30","","2019","7403","NYTIMES-USCENSUS"
"10/11/2021 12:00:00 AM","San Benito County","California","West","Pacific","06069","36.611651","-121.085811 ","7337","71","7337","71","","2019","62808","NYTIMES-USCENSUS"
"10/11/2021 12:00:00 AM","Cooke County","Texas","South","West South Central","48097","33.639196","-97.210343 ","4980","93","4980","93","","2019","41257","NYTIMES-USCENSUS"
"10/11/2021 12:00:00 AM","Kittson County","Minnesota","Midwest","West North Central","27069","48.77604","-96.780349 ","582","22","582","22","","2019","4298","NYTIMES-USCENSUS"
"10/11/2021 12:00:00 AM","Smyth County","Virginia","South","South Atlantic","51173","36.842318","-81.539786 ","4493","108","4493","108","","2019","30104","NYTIMES-USCENSUS"
"10/11/2021 12:00:00 AM","Lyon County","Kentucky","South","East South Central","21143","37.023976","-88.083391 ","1903","26","1903","26","","2019","8210","NYTIMES-USCENSUS"
"10/11/2021 12:00:00 AM","Cass County","Minnesota","Midwest","West North Central","27021","46.951745","-94.333705 ","3942","41","3942","41","","2019","29779","NYTIMES-USCENSUS"
"10/11/2021 12:00:00 AM","Tippah County","Mississippi","South","East South Central","28139","34.763618","-88.918819 ","4630","81","4630","81","","2019","22015","NYTIMES-USCENSUS"
"10/11/2021 12:00:00 AM","Clay County","Kentucky","South","East South Central","21051","37.164273","-83.715473 ","5045","56","5045","56","","2019","19901","NYTIMES-USCENSUS"
"10/11/2021 12:00:00 AM","Ottawa County","Ohio","Midwest","East North Central","39123","41.545495","-83.012613 ","4697","85","4697","85","","2019","40525","NYTIMES-USCENSUS"
"10/11/2021 12:00:00 AM","Bryan County","Georgia","South","South Atlantic","13029","32.017969","-81.438543 ","6269","60","6269","60","","2019","39627","NYTIMES-USCENSUS"
"10/11/2021 12:00:00 AM","Meade County","Kentucky","South","East South Central","21163","37.967476","-86.200863 ","3392","34","3392","34","","2019","28572","NYTIMES-USCENSUS"
"10/11/2021 12:00:00 AM","Vernon Parish","Louisiana","South","West South Central","22115","31.102841","-93.18833 ","6153","158","6153","158","","2019","47429","NYTIMES-USCENSUS"
"10/11/2021 12:00:00 AM","Bandera County","Texas","South","West South Central","48019","29.756389","-99.248285 ","2234","51","2234","51","","2019","23112","NYTIMES-USCENSUS"
"10/11/2021 12:00:00 AM","Berkshire County","Massachusetts","Northeast","New England","25003","42.371493","-73.217928 ","8278","315","8278","315","","2019","124944","NYTIMES-USCENSUS"
"10/11/2021 12:00:00 AM","Polk County","Iowa","Midwest","West North Central","19153","41.684816","-93.568971 ","72571","710","72571","710","","2019","490161","NYTIMES-USCENSUS"
"10/11/2021 12:00:00 AM","Morehouse Parish","Louisiana","South","West South Central","22067","32.820008","-91.800399 ","4411","114","4411","114","","2019","24874","NYTIMES-USCENSUS"
"10/11/2021 12:00:00 AM","Alcona County","Michigan","Midwest","East North Central","26001","44.657509","-83.29458 ","998","39","998","39","","2019","10405","NYTIMES-USCENSUS"
"10/11/2021 12:00:00 AM","Dallas County","Alabama","South","East South Central","01047","32.333526","-87.11436 ","4817","195","4817","195","","2019","37196","NYTIMES-USCENSUS"
"10/11/2021 12:00:00 AM","Upshur County","Texas","South","West South Central","48459","32.735349","-94.941184 ","5710","124","5710","124","","2019","41753","NYTIMES-USCENSUS"
"10/11/2021 12:00:00 AM","Yellowstone County","Montana","West","Mountain","30111","45.936987","-108.276656 ","25504","337","25504","337","","2019","161300","NYTIMES-USCENSUS"
"10/11/2021 12:00:00 AM","Delaware County","Oklahoma","South","West South Central","40041","36.393437","-94.808189 ","7107","135","7107","135","","2019","43009","NYTIMES-USCENSUS"
"10/11/2021 12:00:00 AM","Wayne County","North Carolina","South","South Atlantic","37191","35.35419","-78.00867 ","15485","297","15485","297","","2019","123131","NYTIMES-USCENSUS"
"10/11/2021 12:00:00 AM","Chautauqua County","New York","Northeast","Middle Atlantic","36013","42.304216","-79.407595 ","12069","166","12069","166","","2019","126903","NYTIMES-USCENSUS"
"10/11/2021 12:00:00 AM","Concho County","Texas","South","West South Central","48095","31.318883","-99.863649 ","698","10","698","10","","2019","2726","NYTIMES-USCENSUS"
"10/11/2021 12:00:00 AM","Reno County","Kansas","Midwest","West North Central","20155","37.948185","-98.078346 ","10909","163","10909","163","","2019","61998","NYTIMES-USCENSUS"
"10/11/2021 12:00:00 AM","Louisa County","Virginia","South","South Atlantic","51109","37.972704","-77.959795 ","3022","42","3022","42","","2019","37591","NYTIMES-USCENSUS"
"10/11/2021 12:00:00 AM","Foster County","North Dakota","Midwest","West North Central","38031","47.471431","-98.872876 ","635","19","635","19","","2019","3210","NYTIMES-USCENSUS"
"10/11/2021 12:00:00 AM","Dallas County","Iowa","Midwest","West North Central","19049","41.68532","-94.040706 ","13679","102","13679","102","","2019","93453","NYTIMES-USCENSUS"
"10/11/2021 12:00:00 AM","Halifax County","Virginia","South","South Atlantic","51083","36.766461","-78.939614 ","3677","99","3677","99","","2019","33911","NYTIMES-USCENSUS"
"10/11/2021 12:00:00 AM","Slope County","North Dakota","Midwest","West North Central","38087","46.445834","-103.462462 ","41","0","41","0","","2019","750","NYTIMES-USCENSUS"
"10/11/2021 12:00:00 AM","Marshall County","West Virginia","South","South Atlantic","54051","39.854426","-80.671794 ","5109","106","5109","106","","2019","30531","NYTIMES-USCENSUS"
"10/11/2021 12:00:00 AM","Monroe County","West Virginia","South","South Atlantic","54063","37.554062","-80.550329 ","1999","25","1999","25","","2019","13275","NYTIMES-USCENSUS"
"10/11/2021 12:00:00 AM","Tipton County","Indiana","Midwest","East North Central","18159","40.310229","-86.056207 ","2240","59","2240","59","","2019","15148","NYTIMES-USCENSUS"
"10/11/2021 12:00:00 AM","Harrison County","Texas","South","West South Central","48203","32.547991","-94.374434 ","9003","167","9003","167","","2019","66553","NYTIMES-USCENSUS"
"10/11/2021 12:00:00 AM","Lee County","Alabama","South","East South Central","01081","32.604064","-85.353048 ","23035","233","23035","233","","2019","164542","NYTIMES-USCENSUS"
"10/11/2021 12:00:00 AM","St. Louis County","Missouri","Midwest","West North Central","29189","38.640688","-90.446073 ","126967","2502","126967","2502","","2019","994205","NYTIMES-USCENSUS"
"10/11/2021 12:00:00 AM","Lincoln County","Kentucky","South","East South Central","21137","37.457174","-84.658335 ","4147","80","4147","80","","2019","24549","NYTIMES-USCENSUS"
"10/11/2021 12:00:00 AM","Rice County","Kansas","Midwest","West North Central","20159","38.347178","-98.201415 ","1415","15","1415","15","","2019","9537","NYTIMES-USCENSUS"
"10/11/2021 12:00:00 AM","Washington County","Georgia","South","South Atlantic","13303","32.971843","-82.798112 ","3176","112","3176","112","","2019","20374","NYTIMES-USCENSUS"
"10/11/2021 12:00:00 AM","Schuyler County","New York","Northeast","Middle Atlantic","36097","42.419776","-76.938603 ","1440","16","1440","16","","2019","17807","NYTIMES-USCENSUS"
"10/11/2021 12:00:00 AM","Van Wert County","Ohio","Midwest","East North Central","39161","40.85552","-84.585775 ","3518","73","3518","73","","2019","28275","NYTIMES-USCENSUS"
"10/11/2021 12:00:00 AM","Leslie County","Kentucky","South","East South Central","21131","37.087846","-83.388617 ","2104","18","2104","18","","2019","9877","NYTIMES-USCENSUS"
"10/11/2021 12:00:00 AM","Plumas County","California","West","Pacific","06063","39.992295","-120.824371 ","1498","6","1498","6","","2019","18807","NYTIMES-USCENSUS"
"10/11/2021 12:00:00 AM","Lincoln County","Mississippi","South","East South Central","28085","31.535216","-90.453566 ","5390","134","5390","134","","2019","34153","NYTIMES-USCENSUS"
"10/11/2021 12:00:00 AM","Harper County","Kansas","Midwest","West North Central","20077","37.188184","-98.06659 ","889","19","889","19","","2019","5436","NYTIMES-USCENSUS"
"10/11/2021 12:00:00 AM","Surry County","North Carolina","South","South Atlantic","37171","36.415416","-80.686463 ","11912","220","11912","220","","2019","71783","NYTIMES-USCENSUS"
"10/11/2021 12:00:00 AM","Nemaha County","Nebraska","Midwest","West North Central","31127","40.387389","-95.852721 ","878","13","878","13","","2019","6972","NYTIMES-USCENSUS"
"10/11/2021 12:00:00 AM","McDonough County","Illinois","Midwest","East North Central","17109","40.455808","-90.678954 ","3674","70","3674","70","","2019","29682","NYTIMES-USCENSUS"
"10/11/2021 12:00:00 AM","Howard County","Missouri","Midwest","West North Central","29089","39.143365","-92.695926 ","1387","12","1387","12","","2019","10001","NYTIMES-USCENSUS"
"10/11/2021 12:00:00 AM","Wayne County","New York","Northeast","Middle Atlantic","36117","43.218114","-77.049402 ","7732","83","7732","83","","2019","89918","NYTIMES-USCENSUS"
"10/11/2021 12:00:00 AM","Atkinson County","Georgia","South","South Atlantic","13003","31.296806","-82.878151 ","1549","29","1549","29","","2019","8165","NYTIMES-USCENSUS"
"10/11/2021 12:00:00 AM","Washington County","Wisconsin","Midwest","East North Central","55131","43.391156","-88.232917 ","21602","218","21602","218","","2019","136034","NYTIMES-USCENSUS"
"10/11/2021 12:00:00 AM","Edwards County","Illinois","Midwest","East North Central","17047","38.417095","-88.047941 ","1013","18","1013","18","","2019","6395","NYTIMES-USCENSUS"
"10/11/2021 12:00:00 AM","Coffee County","Tennessee","South","East South Central","47031","35.488765","-86.078202 ","10329","148","10329","148","","2019","56520","NYTIMES-USCENSUS"
"10/11/2021 12:00:00 AM","Humphreys County","Tennessee","South","East South Central","47085","36.040822","-87.790453 ","3121","44","3121","44","","2019","18582","NYTIMES-USCENSUS"
"10/11/2021 12:00:00 AM","Greenup County","Kentucky","South","East South Central","21089","38.563562","-82.93382 ","6110","77","6110","77","","2019","35098","NYTIMES-USCENSUS"
"10/11/2021 12:00:00 AM","Onslow County","North Carolina","South","South Atlantic","37133","34.763109","-77.499469 ","27469","241","27469","241","","2019","197938","NYTIMES-USCENSUS"
"10/11/2021 12:00:00 AM","Antrim County","Michigan","Midwest","East North Central","26009","45.005455","-85.175639 ","2191","35","2191","35","","2019","23324","NYTIMES-USCENSUS"
"10/11/2021 12:00:00 AM","Branch County","Michigan","Midwest","East North Central","26023","41.918455","-85.066885 ","7030","135","7030","135","","2019","43517","NYTIMES-USCENSUS"
"10/11/2021 12:00:00 AM","Oscoda County","Michigan","Midwest","East North Central","26135","44.687257","-84.126905 ","878","32","878","32","","2019","8241","NYTIMES-USCENSUS"
"10/11/2021 12:00:00 AM","Greene County","Tennessee","South","East South Central","47059","36.179487","-82.847523 ","13132","228","13132","228","","2019","69069","NYTIMES-USCENSUS"
"10/11/2021 12:00:00 AM","Madison County","Iowa","Midwest","West North Central","19121","41.330622","-94.015184 ","2099","23","2099","23","","2019","16338","NYTIMES-USCENSUS"
"10/11/2021 12:00:00 AM","Hardy County","West Virginia","South","South Atlantic","54031","39.011361","-78.841729 ","2284","28","2284","28","","2019","13776","NYTIMES-USCENSUS"
"10/11/2021 12:00:00 AM","Roosevelt County","Montana","West","Mountain","30085","48.282747","-104.99517 ","1860","57","1860","57","","2019","11004","NYTIMES-USCENSUS"
"10/11/2021 12:00:00 AM","Howard County","Arkansas","South","West South Central","05061","34.083064","-93.990931 ","2366","35","2366","35","","2019","13202","NYTIMES-USCENSUS"
"10/11/2021 12:00:00 AM","Accomack County","Virginia","South","South Atlantic","51001","37.765944","-75.757807 ","3892","73","3892","73","","2019","32316","NYTIMES-USCENSUS"
"10/11/2021 12:00:00 AM","Macon County","Illinois","Midwest","East North Central","17115","39.860237","-88.961529 ","15041","259","15041","259","","2019","104009","NYTIMES-USCENSUS"
"10/11/2021 12:00:00 AM","Pendleton County","West Virginia","South","South Atlantic","54071","38.67445","-79.340617 ","1065","12","1065","12","","2019","6969","NYTIMES-USCENSUS"
"10/11/2021 12:00:00 AM","Osceola County","Iowa","Midwest","West North Central","19143","43.378542","-95.633788 ","887","17","887","17","","2019","5958","NYTIMES-USCENSUS"
"10/11/2021 12:00:00 AM","Colquitt County","Georgia","South","South Atlantic","13071","31.189707","-83.769773 ","7489","171","7489","171","","2019","45600","NYTIMES-USCENSUS"
"10/11/2021 12:00:00 AM","Jefferson County","Wisconsin","Midwest","East North Central","55055","43.013804","-88.773985 ","11488","148","11488","148","","2019","84769","NYTIMES-USCENSUS"
"10/11/2021 12:00:00 AM","Fayette County","Texas","South","West South Central","48149","29.877886","-96.921231 ","3570","89","3570","89","","2019","25346","NYTIMES-USCENSUS"
"10/11/2021 12:00:00 AM","Stephens County","Georgia","South","South Atlantic","13257","34.553582","-83.290588 ","4668","99","4668","99","","2019","25925","NYTIMES-USCENSUS"
"10/11/2021 12:00:00 AM","Chattahoochee County","Georgia","South","South Atlantic","13053","32.347445","-84.788021 ","5595","17","5595","17","","2019","10907","NYTIMES-USCENSUS"
"10/11/2021 12:00:00 AM","Lee County","South Carolina","South","South Atlantic","45061","34.15864","-80.251209 ","2489","74","2489","74","","2019","16828","NYTIMES-USCENSUS"
"10/11/2021 12:00:00 AM","Watauga County","North Carolina","South","South Atlantic","37189","36.235368","-81.709888 ","6420","35","6420","35","","2019","56177","NYTIMES-USCENSUS"
"10/11/2021 12:00:00 AM","Miller County","Arkansas","South","West South Central","05091","33.305505","-93.901502 ","6341","114","6341","114","","2019","43257","NYTIMES-USCENSUS"
"10/11/2021 12:00:00 AM","Hardin County","Ohio","Midwest","East North Central","39065","40.660415","-83.664077 ","3974","72","3974","72","","2019","31365","NYTIMES-USCENSUS"
"10/11/2021 12:00:00 AM","Chickasaw County","Iowa","Midwest","West North Central","19037","43.059741","-92.31721 ","1523","18","1523","18","","2019","11933","NYTIMES-USCENSUS"
"10/11/2021 12:00:00 AM","Tuscola County","Michigan","Midwest","East North Central","26157","43.487902","-83.436618 ","6990","186","6990","186","","2019","52245","NYTIMES-USCENSUS"
"10/11/2021 12:00:00 AM","Sherman County","Nebraska","Midwest","West North Central","31163","41.218743","-98.972849 ","326","4","326","4","","2019","3001","NYTIMES-USCENSUS"
"10/11/2021 12:00:00 AM","Floyd County","Texas","South","West South Central","48153","34.07373","-101.303274 ","1131","35","1131","35","","2019","5712","NYTIMES-USCENSUS"
"10/11/2021 12:00:00 AM","Schoolcraft County","Michigan","Midwest","East North Central","26153","46.021122","-86.197029 ","723","5","723","5","","2019","8094","NYTIMES-USCENSUS"
"10/11/2021 12:00:00 AM","Jackson Parish","Louisiana","South","West South Central","22049","32.30429","-92.5617 ","2739","63","2739","63","","2019","15744","NYTIMES-USCENSUS"
"10/11/2021 12:00:00 AM","Chesapeake city","Virginia","South","South Atlantic","51550","36.679376","-76.301788 ","27861","342","27861","342","","2019","244835","NYTIMES-USCENSUS"
"10/11/2021 12:00:00 AM","Somerset County","Maine","Northeast","New England","23025","45.503646","-69.95611 ","3814","41","3814","41","","2019","50484","NYTIMES-USCENSUS"
"10/11/2021 12:00:00 AM","Fulton County","Ohio","Midwest","East North Central","39051","41.597264","-84.124267 ","5793","89","5793","89","","2019","42126","NYTIMES-USCENSUS"
"10/11/2021 12:00:00 AM","Ritchie County","West Virginia","South","South Atlantic","54085","39.177112","-81.066317 ","1392","17","1392","17","","2019","9554","NYTIMES-USCENSUS"
"10/11/2021 12:00:00 AM","Wayne County","Ohio","Midwest","East North Central","39169","40.829661","-81.887194 ","13222","256","13222","256","","2019","115710","NYTIMES-USCENSUS"
"10/11/2021 12:00:00 AM","Outagamie County","Wisconsin","Midwest","East North Central","55087","44.418226","-88.464988 ","29160","265","29160","265","","2019","187885","NYTIMES-USCENSUS"
"10/11/2021 12:00:00 AM","Smith County","Kansas","Midwest","West North Central","20183","39.78466","-98.785429 ","368","3","368","3","","2019","3583","NYTIMES-USCENSUS"
"10/11/2021 12:00:00 AM","Newton County","Georgia","South","South Atlantic","13217","33.552751","-83.85136 ","15956","322","15956","322","","2019","111744","NYTIMES-USCENSUS"
"10/11/2021 12:00:00 AM","Clark County","Indiana","Midwest","East North Central","18019","38.476217","-85.711122 ","18267","254","18267","254","","2019","118302","NYTIMES-USCENSUS"
"10/11/2021 12:00:00 AM","Fredericksburg city","Virginia","South","South Atlantic","51630","38.299272","-77.486658 ","2949","25","2949","25","","2019","29036","NYTIMES-USCENSUS"
"10/11/2021 12:00:00 AM","Franklin Parish","Louisiana","South","West South Central","22041","32.139076","-91.672371 ","4591","136","4591","136","","2019","20015","NYTIMES-USCENSUS"
"10/11/2021 12:00:00 AM","Shelby County","Kentucky","South","East South Central","21211","38.239011","-85.228247 ","6817","101","6817","101","","2019","49024","NYTIMES-USCENSUS"
"10/11/2021 12:00:00 AM","Hopewell city","Virginia","South","South Atlantic","51670","37.29101","-77.298944 ","3595","85","3595","85","","2019","22529","NYTIMES-USCENSUS"
"10/11/2021 12:00:00 AM","Hockley County","Texas","South","West South Central","48219","33.605932","-102.343398 ","4109","129","4109","129","","2019","23021","NYTIMES-USCENSUS"
"10/11/2021 12:00:00 AM","Pamlico County","North Carolina","South","South Atlantic","37137","35.147575","-76.665268 ","1659","23","1659","23","","2019","12726","NYTIMES-USCENSUS"
"10/11/2021 12:00:00 AM","Sanpete County","Utah","West","Mountain","49039","39.373426","-111.576933 ","5125","36","5125","36","","2019","30939","NYTIMES-USCENSUS"
"10/11/2021 12:00:00 AM","Sherman County","Kansas","Midwest","West North Central","20181","39.351352","-101.719859 ","765","13","765","13","","2019","5917","NYTIMES-USCENSUS"
"10/11/2021 12:00:00 AM","Irwin County","Georgia","South","South Atlantic","13155","31.604306","-83.277037 ","1423","35","1423","35","","2019","9416","NYTIMES-USCENSUS"
"10/11/2021 12:00:00 AM","Arlington County","Virginia","South","South Atlantic","51013","38.878337","-77.100703 ","18046","266","18046","266","","2019","236842","NYTIMES-USCENSUS"
"10/11/2021 12:00:00 AM","Logan County","Colorado","West","Mountain","08075","40.728091","-103.090464 ","4527","79","4527","79","","2019","22409","NYTIMES-USCENSUS"
"10/11/2021 12:00:00 AM","Santa Barbara County","California","West","Pacific","06083","34.536677","-120.038364 ","44631","515","44631","515","","2019","446499","NYTIMES-USCENSUS"
"10/11/2021 12:00:00 AM","Erie County","Ohio","Midwest","East North Central","39043","41.394143","-82.586835 ","10407","180","10407","180","","2019","74266","NYTIMES-USCENSUS"
"10/11/2021 12:00:00 AM","Newton County","Texas","South","West South Central","48351","30.786718","-93.73925 ","933","49","933","49","","2019","13595","NYTIMES-USCENSUS"
"10/11/2021 12:00:00 AM","Whiteside County","Illinois","Midwest","East North Central","17195","41.750673","-89.911005 ","8284","220","8284","220","","2019","55175","NYTIMES-USCENSUS"
"10/11/2021 12:00:00 AM","Greeley County","Nebraska","Midwest","West North Central","31077","41.567571","-98.530565 ","261","1","261","1","","2019","2356","NYTIMES-USCENSUS"
"10/11/2021 12:00:00 AM","Choctaw County","Mississippi","South","East South Central","28019","33.345964","-89.251332 ","1326","26","1326","26","","2019","8210","NYTIMES-USCENSUS"
"10/11/2021 12:00:00 AM","Coryell County","Texas","South","West South Central","48099","31.391177","-97.798022 ","10528","153","10528","153","","2019","75951","NYTIMES-USCENSUS"
"10/11/2021 12:00:00 AM","Cameron County","Pennsylvania","Northeast","Middle Atlantic","42023","41.438291","-78.198323 ","453","10","453","10","","2019","4447","NYTIMES-USCENSUS"
"10/11/2021 12:00:00 AM","Pennington County","South Dakota","Midwest","West North Central","46103","44.002349","-102.823801 ","19569","238","19569","238","","2019","113775","NYTIMES-USCENSUS"
"10/11/2021 12:00:00 AM","Logan County","Arkansas","South","West South Central","05083","35.218654","-93.72091 ","3548","40","3548","40","","2019","21466","NYTIMES-USCENSUS"
"10/11/2021 12:00:00 AM","Grant County","Arkansas","South","West South Central","05053","34.285568","-92.422979 ","2848","47","2848","47","","2019","18265","NYTIMES-USCENSUS"
"10/11/2021 12:00:00 AM","Calvert County","Maryland","South","South Atlantic","24009","38.522719","-76.529762 ","5459","100","5459","100","","2019","92525","NYTIMES-USCENSUS"
"10/11/2021 12:00:00 AM","Glades County","Florida","South","South Atlantic","12043","26.95481","-81.19082 ","1405","24","1405","24","","2019","13811","NYTIMES-USCENSUS"
"10/11/2021 12:00:00 AM","Jefferson County","Kansas","Midwest","West North Central","20087","39.239644","-95.375314 ","2515","46","2515","46","","2019","19043","NYTIMES-USCENSUS"
"10/11/2021 12:00:00 AM","McCracken County","Kentucky","South","East South Central","21145","37.054111","-88.712454 ","9785","167","9785","167","","2019","65418","NYTIMES-USCENSUS"
"10/11/2021 12:00:00 AM","Douglas County","Georgia","South","South Atlantic","13097","33.701242","-84.767314 ","21892","274","21892","274","","2019","146343","NYTIMES-USCENSUS"
"10/11/2021 12:00:00 AM","Scott County","Missouri","Midwest","West North Central","29201","37.047793","-89.568098 ","7031","111","7031","111","","2019","38280","NYTIMES-USCENSUS"
"10/11/2021 12:00:00 AM","Webb County","Texas","South","West South Central","48479","27.760799","-99.340752 ","56295","959","56295","959","","2019","276652","NYTIMES-USCENSUS"
"10/11/2021 12:00:00 AM","Hidalgo County","New Mexico","West","Mountain","35023","31.898052","-108.751929 ","548","11","548","11","","2019","4198","NYTIMES-USCENSUS"
"10/11/2021 12:00:00 AM","Barren County","Kentucky","South","East South Central","21009","36.962805","-85.932108 ","7743","131","7743","131","","2019","44249","NYTIMES-USCENSUS"
"10/11/2021 12:00:00 AM","Miami County","Indiana","Midwest","East North Central","18103","40.772883","-86.044258 ","5807","94","5807","94","","2019","35516","NYTIMES-USCENSUS"
"10/11/2021 12:00:00 AM","Calcasieu Parish","Louisiana","South","West South Central","22019","30.229559","-93.358015 ","33914","595","33914","595","","2019","203436","NYTIMES-USCENSUS"
"10/11/2021 12:00:00 AM","Albany County","New York","Northeast","Middle Atlantic","36001","42.58824","-73.97401 ","29993","379","29993","379","","2019","305506","NYTIMES-USCENSUS"
"10/11/2021 12:00:00 AM","Cook County","Georgia","South","South Atlantic","13075","31.152516","-83.429445 ","3572","58","3572","58","","2019","17270","NYTIMES-USCENSUS"
"10/11/2021 12:00:00 AM","Matagorda County","Texas","South","West South Central","48321","28.77476","-96.001532 ","5990","152","5990","152","","2019","36643","NYTIMES-USCENSUS"
"10/11/2021 12:00:00 AM","Dewey County","South Dakota","Midwest","West North Central","46041","45.148049","-100.837953 ","1735","30","1735","30","","2019","5892","NYTIMES-USCENSUS"
"10/11/2021 12:00:00 AM","Dunn County","Wisconsin","Midwest","East North Central","55033","44.947751","-91.897645 ","6715","44","6715","44","","2019","45368","NYTIMES-USCENSUS"
"10/11/2021 12:00:00 AM","Montrose County","Colorado","West","Mountain","08085","38.407507","-108.266282 ","4956","78","4956","78","","2019","42758","NYTIMES-USCENSUS"
"10/11/2021 12:00:00 AM","Cedar County","Missouri","Midwest","West North Central","29039","37.733655","-93.850014 ","1642","29","1642","29","","2019","14349","NYTIMES-USCENSUS"
"10/11/2021 12:00:00 AM","Garland County","Arkansas","South","West South Central","05051","34.578852","-93.146932 ","15768","379","15768","379","","2019","99386","NYTIMES-USCENSUS"
"10/11/2021 12:00:00 AM","Johnson County","Arkansas","South","West South Central","05071","35.573359","-93.466322 ","4520","55","4520","55","","2019","26578","NYTIMES-USCENSUS"
"10/11/2021 12:00:00 AM","McKinley County","New Mexico","West","Mountain","35031","35.584062","-108.253294 ","14178","501","14178","501","","2019","71367","NYTIMES-USCENSUS"
"10/11/2021 12:00:00 AM","Caswell County","North Carolina","South","South Atlantic","37033","36.394298","-79.339609 ","3112","37","3112","37","","2019","22604","NYTIMES-USCENSUS"
"10/11/2021 12:00:00 AM","Platte County","Wyoming","West","Mountain","56031","42.131593","-104.953963 ","1260","23","1260","23","","2019","8393","NYTIMES-USCENSUS"
"10/11/2021 12:00:00 AM","Todd County","Kentucky","South","East South Central","21219","36.840338","-87.183642 ","1654","30","1654","30","","2019","12294","NYTIMES-USCENSUS"
"10/11/2021 12:00:00 AM","Merced County","California","West","Pacific","06047","37.194806","-120.722802 ","41599","570","41599","570","","2019","277680","NYTIMES-USCENSUS"
"10/11/2021 12:00:00 AM","Comanche County","Texas","South","West South Central","48093","31.951645","-98.549617 ","2118","60","2118","60","","2019","13635","NYTIMES-USCENSUS"
"10/11/2021 12:00:00 AM","DeSoto County","Florida","South","South Atlantic","12027","27.190581","-81.806253 ","6816","121","6816","121","","2019","38001","NYTIMES-USCENSUS"
"10/11/2021 12:00:00 AM","Stanley County","South Dakota","Midwest","West North Central","46117","44.413984","-100.747822 ","406","3","406","3","","2019","3098","NYTIMES-USCENSUS"
"10/11/2021 12:00:00 AM","Greene County","Illinois","Midwest","East North Central","17061","39.355439","-90.387682 ","2033","53","2033","53","","2019","12969","NYTIMES-USCENSUS"
"10/11/2021 12:00:00 AM","Casey County","Kentucky","South","East South Central","21045","37.321962","-84.92822 ","2767","53","2767","53","","2019","16159","NYTIMES-USCENSUS"
"10/11/2021 12:00:00 AM","Habersham County","Georgia","South","South Atlantic","13137","34.634392","-83.525875 ","7339","190","7339","190","","2019","45328","NYTIMES-USCENSUS"
"10/11/2021 12:00:00 AM","Alexander County","Illinois","Midwest","East North Central","17003","37.183658","-89.349516 ","699","11","699","11","","2019","5761","NYTIMES-USCENSUS"
"10/11/2021 12:00:00 AM","Barton County","Kansas","Midwest","West North Central","20009","38.481239","-98.767837 ","3709","56","3709","56","","2019","25779","NYTIMES-USCENSUS"
"10/11/2021 12:00:00 AM","Columbia County","Wisconsin","Midwest","East North Central","55021","43.471882","-89.330472 ","7619","78","7619","78","","2019","57532","NYTIMES-USCENSUS"
"10/11/2021 12:00:00 AM","Marshall County","South Dakota","Midwest","West North Central","46091","45.737044","-97.58087 ","420","6","420","6","","2019","4935","NYTIMES-USCENSUS"
"10/11/2021 12:00:00 AM","Lee County","Iowa","Midwest","West North Central","19111","40.647588","-91.477157 ","5536","86","5536","86","","2019","33657","NYTIMES-USCENSUS"
"10/11/2021 12:00:00 AM","Suffolk County","New York","Northeast","Middle Atlantic","36103","40.943554","-72.692218 ","235833","3570","235833","3570","","2019","1476601","NYTIMES-USCENSUS"
"10/11/2021 12:00:00 AM","Columbia County","Arkansas","South","West South Central","05027","33.223038","-93.232843 ","3339","72","3339","72","","2019","23457","NYTIMES-USCENSUS"
"10/11/2021 12:00:00 AM","Glasscock County","Texas","South","West South Central","48173","31.868006","-101.521494 ","152","3","152","3","","2019","1409","NYTIMES-USCENSUS"
"10/11/2021 12:00:00 AM","Breathitt County","Kentucky","South","East South Central","21025","37.517807","-83.317158 ","1944","24","1944","24","","2019","12630","NYTIMES-USCENSUS"
"10/11/2021 12:00:00 AM","Independence County","Arkansas","South","West South Central","05063","35.737499","-91.559942 ","6173","153","6173","153","","2019","37825","NYTIMES-USCENSUS"
"10/11/2021 12:00:00 AM","Mower County","Minnesota","Midwest","West North Central","27099","43.666249","-92.759514 ","6178","39","6178","39","","2019","40062","NYTIMES-USCENSUS"
"10/11/2021 12:00:00 AM","Kearney County","Nebraska","Midwest","West North Central","31099","40.50912","-98.947602 ","808","5","808","5","","2019","6495","NYTIMES-USCENSUS"
"10/11/2021 12:00:00 AM","Yuma County","Arizona","West","Mountain","04027","32.773942","-113.910905 ","41066","896","41066","896","","2019","213787","NYTIMES-USCENSUS"
"10/11/2021 12:00:00 AM","Greene County","Alabama","South","East South Central","01063","32.844497","-87.9642 ","1241","44","1241","44","","2019","8111","NYTIMES-USCENSUS"
"10/11/2021 12:00:00 AM","Walla Walla County","Washington","West","Pacific","53071","46.254606","-118.48037 ","8621","97","8621","97","","2019","60760","NYTIMES-USCENSUS"
"10/11/2021 12:00:00 AM","Polk County","Texas","South","West South Central","48373","30.784553","-94.837338 ","5855","187","5855","187","","2019","51353","NYTIMES-USCENSUS"
"10/11/2021 12:00:00 AM","Bonner County","Idaho","West","Mountain","16017","48.316796","-116.612362 ","4903","78","4903","78","","2019","45739","NYTIMES-USCENSUS"
"10/11/2021 12:00:00 AM","Suffolk city","Virginia","South","South Atlantic","51800","36.697157","-76.634781 ","10518","223","10518","223","","2019","92108","NYTIMES-USCENSUS"
"10/11/2021 12:00:00 AM","Park County","Wyoming","West","Mountain","56029","44.492387","-109.593597 ","4686","54","4686","54","","2019","29194","NYTIMES-USCENSUS"
"10/11/2021 12:00:00 AM","Douglas County","Kansas","Midwest","West North Central","20045","38.896417","-95.290947 ","12145","100","12145","100","","2019","122259","NYTIMES-USCENSUS"
"10/11/2021 12:00:00 AM","Pulaski County","Indiana","Midwest","East North Central","18131","41.045272","-86.692538 ","1783","53","1783","53","","2019","12353","NYTIMES-USCENSUS"
"10/11/2021 12:00:00 AM","Somerset County","New Jersey","Northeast","Middle Atlantic","34035","40.565527","-74.619938 ","34371","871","34371","871","","2019","328934","NYTIMES-USCENSUS"
"10/11/2021 12:00:00 AM","Meade County","Kansas","Midwest","West North Central","20119","37.243886","-100.360094 ","636","15","636","15","","2019","4033","NYTIMES-USCENSUS"
"10/11/2021 12:00:00 AM","Campbell County","Virginia","South","South Atlantic","51031","37.210152","-79.095428 ","6852","130","6852","130","","2019","54885","NYTIMES-USCENSUS"
"10/11/2021 12:00:00 AM","Musselshell County","Montana","West","Mountain","30065","46.505281","-108.439763 ","508","15","508","15","","2019","4633","NYTIMES-USCENSUS"
"10/11/2021 12:00:00 AM","Hampton County","South Carolina","South","South Atlantic","45049","32.778334","-81.143822 ","3056","72","3056","72","","2019","19222","NYTIMES-USCENSUS"
"10/11/2021 12:00:00 AM","Dorchester County","Maryland","South","South Atlantic","24019","38.429196","-76.047433 ","3959","77","3959","77","","2019","31929","NYTIMES-USCENSUS"
"10/11/2021 12:00:00 AM","Catron County","New Mexico","West","Mountain","35003","33.901621","-108.391928 ","147","7","147","7","","2019","3527","NYTIMES-USCENSUS"
"10/11/2021 12:00:00 AM","Ellsworth County","Kansas","Midwest","West North Central","20053","38.700845","-98.205355 ","1359","28","1359","28","","2019","6102","NYTIMES-USCENSUS"
"10/11/2021 12:00:00 AM","Van Buren County","Iowa","Midwest","West North Central","19177","40.754117","-91.952943 ","811","21","811","21","","2019","7044","NYTIMES-USCENSUS"
"10/11/2021 12:00:00 AM","Williamson County","Illinois","Midwest","East North Central","17199","37.730353","-88.930018 ","11908","182","11908","182","","2019","66597","NYTIMES-USCENSUS"
"10/11/2021 12:00:00 AM","Hinsdale County","Colorado","West","Mountain","08053","37.811519","-107.383974 ","54","0","54","0","","2019","820","NYTIMES-USCENSUS"
"10/11/2021 12:00:00 AM","Tangipahoa Parish","Louisiana","South","West South Central","22105","30.621348","-90.40649 ","22481","492","22481","492","","2019","134758","NYTIMES-USCENSUS"
"10/11/2021 12:00:00 AM","Polk County","North Carolina","South","South Atlantic","37149","35.277901","-82.167621 ","2251","43","2251","43","","2019","20724","NYTIMES-USCENSUS"
"10/11/2021 12:00:00 AM","Stephenson County","Illinois","Midwest","East North Central","17177","42.349726","-89.665994 ","5697","110","5697","110","","2019","44498","NYTIMES-USCENSUS"
"10/11/2021 12:00:00 AM","Weston County","Wyoming","West","Mountain","56045","43.846213","-104.57002 ","957","8","957","8","","2019","6927","NYTIMES-USCENSUS"
"10/11/2021 12:00:00 AM","Lawrence County","Ohio","Midwest","East North Central","39087","38.603866","-82.517186 ","9490","137","9490","137","","2019","59463","NYTIMES-USCENSUS"
"10/11/2021 12:00:00 AM","Clark County","Arkansas","South","West South Central","05019","34.053316","-93.176208 ","3159","54","3159","54","","2019","22320","NYTIMES-USCENSUS"
"10/11/2021 12:00:00 AM","Hickman County","Tennessee","South","East South Central","47081","35.802327","-87.467116 ","4517","72","4517","72","","2019","25178","NYTIMES-USCENSUS"
"10/11/2021 12:00:00 AM","Renville County","North Dakota","Midwest","West North Central","38075","48.712781","-101.658152 ","357","14","357","14","","2019","2327","NYTIMES-USCENSUS"
"10/11/2021 12:00:00 AM","Seward County","Nebraska","Midwest","West North Central","31159","40.871944","-97.140383 ","2262","38","2262","38","","2019","17284","NYTIMES-USCENSUS"
"10/11/2021 12:00:00 AM","Fulton County","New York","Northeast","Middle Atlantic","36035","43.115609","-74.423678 ","6065","100","6065","100","","2019","53383","NYTIMES-USCENSUS"
"10/11/2021 12:00:00 AM","Hertford County","North Carolina","South","South Atlantic","37091","36.363517","-76.981616 ","2734","69","2734","69","","2019","23677","NYTIMES-USCENSUS"
"10/11/2021 12:00:00 AM","Montgomery County","Kentucky","South","East South Central","21173","38.038109","-83.912416 ","4330","50","4330","50","","2019","28157","NYTIMES-USCENSUS"
"10/11/2021 12:00:00 AM","Barnstable County","Massachusetts","Northeast","New England","25001","41.706123","-70.164823 ","17060","509","17060","509","","2019","212990","NYTIMES-USCENSUS"
"10/11/2021 12:00:00 AM","La Salle County","Texas","South","West South Central","48283","28.351098","-99.096774 ","1187","36","1187","36","","2019","7520","NYTIMES-USCENSUS"
"10/11/2021 12:00:00 AM","Windsor County","Vermont","Northeast","New England","50027","43.572448","-72.598813 ","2447","28","2447","28","","2019","55062","NYTIMES-USCENSUS"
"10/11/2021 12:00:00 AM","Oneida County","Wisconsin","Midwest","East North Central","55085","45.716176","-89.534533 ","4717","85","4717","85","","2019","35595","NYTIMES-USCENSUS"
"10/11/2021 12:00:00 AM","Kemper County","Mississippi","South","East South Central","28069","32.750136","-88.625631 ","1408","41","1408","41","","2019","9742","NYTIMES-USCENSUS"
"10/11/2021 12:00:00 AM","Briscoe County","Texas","South","West South Central","48045","34.525172","-101.205893 ","213","7","213","7","","2019","1546","NYTIMES-USCENSUS"
"10/11/2021 12:00:00 AM","Linn County","Iowa","Midwest","West North Central","19113","42.077951","-91.597674 ","28154","375","28154","375","","2019","226706","NYTIMES-USCENSUS"
"10/11/2021 12:00:00 AM","Sebastian County","Arkansas","South","West South Central","05131","35.196981","-94.274989 ","21893","360","21893","360","","2019","127827","NYTIMES-USCENSUS"
"10/11/2021 12:00:00 AM","Edmonson County","Kentucky","South","East South Central","21061","37.227514","-86.218015 ","1496","28","1496","28","","2019","12150","NYTIMES-USCENSUS"
"10/11/2021 12:00:00 AM","Saline County","Missouri","Midwest","West North Central","29195","39.13584","-93.204164 ","4031","46","4031","46","","2019","22761","NYTIMES-USCENSUS"
"10/11/2021 12:00:00 AM","Caledonia County","Vermont","Northeast","New England","50005","44.468791","-72.112168 ","1609","11","1609","11","","2019","29993","NYTIMES-USCENSUS"
"10/11/2021 12:00:00 AM","Spencer County","Kentucky","South","East South Central","21215","38.025411","-85.317174 ","2751","31","2751","31","","2019","19351","NYTIMES-USCENSUS"
"10/11/2021 12:00:00 AM","Dawson County","Nebraska","Midwest","West North Central","31047","40.86784","-99.815583 ","3494","31","3494","31","","2019","23595","NYTIMES-USCENSUS"
"10/11/2021 12:00:00 AM","Pitkin County","Colorado","West","Mountain","08097","39.217541","-106.916162 ","3058","5","3058","5","","2019","17767","NYTIMES-USCENSUS"
"10/11/2021 12:00:00 AM","Uvalde County","Texas","South","West South Central","48463","29.350308","-99.768427 ","6224","99","6224","99","","2019","26741","NYTIMES-USCENSUS"
"10/11/2021 12:00:00 AM","Winnebago County","Iowa","Midwest","West North Central","19189","43.378124","-93.743488 ","1832","32","1832","32","","2019","10354","NYTIMES-USCENSUS"
"10/11/2021 12:00:00 AM","Harrison County","Kentucky","South","East South Central","21097","38.444578","-84.334131 ","3117","30","3117","30","","2019","18886","NYTIMES-USCENSUS"
"10/11/2021 12:00:00 AM","Sioux County","Iowa","Midwest","West North Central","19167","43.082646","-96.17801 ","5568","76","5568","76","","2019","34855","NYTIMES-USCENSUS"
"10/11/2021 12:00:00 AM","Davidson County","Tennessee","South","East South Central","47037","36.169129","-86.78479 ","130442","1122","130442","1122","","2019","694144","NYTIMES-USCENSUS"
"10/11/2021 12:00:00 AM","Ida County","Iowa","Midwest","West North Central","19093","42.39186","-95.507421 ","1145","40","1145","40","","2019","6860","NYTIMES-USCENSUS"
"10/11/2021 12:00:00 AM","Fond du Lac County","Wisconsin","Midwest","East North Central","55039","43.754722","-88.493284 ","17265","154","17265","154","","2019","103403","NYTIMES-USCENSUS"
"10/11/2021 12:00:00 AM","Trempealeau County","Wisconsin","Midwest","East North Central","55121","44.30305","-91.358867 ","4762","52","4762","52","","2019","29649","NYTIMES-USCENSUS"
"10/11/2021 12:00:00 AM","Haralson County","Georgia","South","South Atlantic","13143","33.795165","-85.220063 ","3744","109","3744","109","","2019","29792","NYTIMES-USCENSUS"
"10/11/2021 12:00:00 AM","McLennan County","Texas","South","West South Central","48309","31.549596","-97.201511 ","41354","677","41354","677","","2019","256623","NYTIMES-USCENSUS"
"10/11/2021 12:00:00 AM","Benton County","Tennessee","South","East South Central","47005","36.070948","-88.071232 ","2706","50","2706","50","","2019","16160","NYTIMES-USCENSUS"
"10/11/2021 12:00:00 AM","Pasco County","Florida","South","South Atlantic","12101","28.309823","-82.511006 ","78245","1406","78245","1406","","2019","553947","NYTIMES-USCENSUS"
"10/11/2021 12:00:00 AM","New Kent County","Virginia","South","South Atlantic","51127","37.51016","-76.999331 ","2215","21","2215","21","","2019","23091","NYTIMES-USCENSUS"
"10/11/2021 12:00:00 AM","Cass County","Missouri","Midwest","West North Central","29037","38.646474","-94.354547 ","13957","154","13957","154","","2019","105780","NYTIMES-USCENSUS"
"10/11/2021 12:00:00 AM","East Feliciana Parish","Louisiana","South","West South Central","22037","30.839784","-91.043434 ","4455","142","4455","142","","2019","19135","NYTIMES-USCENSUS"
"10/11/2021 12:00:00 AM","Jefferson County","Mississippi","South","East South Central","28063","31.733633","-91.043878 ","941","34","941","34","","2019","6990","NYTIMES-USCENSUS"
"10/11/2021 12:00:00 AM","Autauga County","Alabama","South","East South Central","01001","32.532237","-86.64644 ","9851","144","9851","144","","2019","55869","NYTIMES-USCENSUS"
"10/11/2021 12:00:00 AM","Decatur County","Tennessee","South","East South Central","47039","35.603136","-88.110292 ","2386","43","2386","43","","2019","11663","NYTIMES-USCENSUS"
"10/11/2021 12:00:00 AM","Washington County","Idaho","West","Mountain","16087","44.448223","-116.797792 ","1744","41","1744","41","","2019","10194","NYTIMES-USCENSUS"
"10/11/2021 12:00:00 AM","Menominee County","Michigan","Midwest","East North Central","26109","45.535568","-87.501457 ","3117","48","3117","48","","2019","22780","NYTIMES-USCENSUS"
"10/11/2021 12:00:00 AM","El Dorado County","California","West","Pacific","06017","38.785612","-120.534225 ","16865","146","16865","146","","2019","192843","NYTIMES-USCENSUS"
"10/11/2021 12:00:00 AM","Grays Harbor County","Washington","West","Pacific","53027","47.113732","-123.826735 ","8088","117","8088","117","","2019","75061","NYTIMES-USCENSUS"
"10/11/2021 12:00:00 AM","Pierce County","North Dakota","Midwest","West North Central","38069","48.238883","-99.966497 ","732","27","732","27","","2019","3975","NYTIMES-USCENSUS"
"10/11/2021 12:00:00 AM","Snohomish County","Washington","West","Pacific","53061","48.054913","-121.765038 ","61336","716","61336","716","","2019","822083","NYTIMES-USCENSUS"
"10/11/2021 12:00:00 AM","Scotland County","North Carolina","South","South Atlantic","37165","34.840023","-79.477337 ","5602","105","5602","105","","2019","34823","NYTIMES-USCENSUS"
"10/11/2021 12:00:00 AM","Marion County","Texas","South","West South Central","48315","32.798182","-94.356853 ","1150","46","1150","46","","2019","9854","NYTIMES-USCENSUS"
"10/11/2021 12:00:00 AM","Juab County","Utah","West","Mountain","49023","39.71412","-112.790471 ","1848","17","1848","17","","2019","12017","NYTIMES-USCENSUS"
"10/11/2021 12:00:00 AM","Lincoln County","Arkansas","South","West South Central","05079","33.956385","-91.742355 ","3628","57","3628","57","","2019","13024","NYTIMES-USCENSUS"
"10/11/2021 12:00:00 AM","Clay County","Arkansas","South","West South Central","05021","36.367302","-90.418704 ","2670","64","2670","64","","2019","14551","NYTIMES-USCENSUS"
"10/11/2021 12:00:00 AM","Knox County","Illinois","Midwest","East North Central","17095","40.930945","-90.213792 ","7057","200","7057","200","","2019","49699","NYTIMES-USCENSUS"
"10/11/2021 12:00:00 AM","Coal County","Oklahoma","South","West South Central","40029","34.582861","-96.288039 ","1006","19","1006","19","","2019","5495","NYTIMES-USCENSUS"
"10/11/2021 12:00:00 AM","Moore County","Texas","South","West South Central","48341","35.835676","-101.890502 ","3343","82","3343","82","","2019","20940","NYTIMES-USCENSUS"
"10/11/2021 12:00:00 AM","Effingham County","Illinois","Midwest","East North Central","17049","39.047945","-88.592849 ","6482","108","6482","108","","2019","34008","NYTIMES-USCENSUS"
"10/11/2021 12:00:00 AM","Miami-Dade County","Florida","South","South Atlantic","12086","25.616009","-80.50375 ","665202","8504","665202","8504","","2019","2716940","NYTIMES-USCENSUS"
"10/11/2021 12:00:00 AM","Muscogee County","Georgia","South","South Atlantic","13215","32.510197","-84.874946 ","23489","585","23489","585","","2019","195769","NYTIMES-USCENSUS"
"10/11/2021 12:00:00 AM","Burke County","North Dakota","Midwest","West North Central","38013","48.786453","-102.520087 ","289","3","289","3","","2019","2115","NYTIMES-USCENSUS"
"10/11/2021 12:00:00 AM","Minnehaha County","South Dakota","Midwest","West North Central","46099","43.667472","-96.795726 ","36313","383","36313","383","","2019","193134","NYTIMES-USCENSUS"
"10/11/2021 12:00:00 AM","Hamilton County","Iowa","Midwest","West North Central","19079","42.390789","-93.70913 ","2263","53","2263","53","","2019","14773","NYTIMES-USCENSUS"
"10/11/2021 12:00:00 AM","Gray County","Kansas","Midwest","West North Central","20069","37.744513","-100.451716 ","805","15","805","15","","2019","5988","NYTIMES-USCENSUS"
"10/11/2021 12:00:00 AM","Madison County","Montana","West","Mountain","30057","45.32529","-111.913791 ","1165","8","1165","8","","2019","8600","NYTIMES-USCENSUS"
"10/11/2021 12:00:00 AM","Terrell County","Georgia","South","South Atlantic","13273","31.777191","-84.439446 ","1200","56","1200","56","","2019","8531","NYTIMES-USCENSUS"
"10/11/2021 12:00:00 AM","Jackson County","Illinois","Midwest","East North Central","17077","37.786096","-89.381212 ","7984","104","7984","104","","2019","56750","NYTIMES-USCENSUS"
"10/11/2021 12:00:00 AM","LaGrange County","Indiana","Midwest","East North Central","18087","41.642462","-85.427845 ","3471","79","3471","79","","2019","39614","NYTIMES-USCENSUS"
"10/11/2021 12:00:00 AM","Rio Arriba County","New Mexico","West","Mountain","35039","36.509669","-106.693983 ","4581","83","4581","83","","2019","38921","NYTIMES-USCENSUS"
"10/11/2021 12:00:00 AM","Catoosa County","Georgia","South","South Atlantic","13047","34.900212","-85.139385 ","9287","93","9287","93","","2019","67580","NYTIMES-USCENSUS"
"10/11/2021 12:00:00 AM","Flagler County","Florida","South","South Atlantic","12035","29.474891","-81.286253 ","14184","179","14184","179","","2019","115081","NYTIMES-USCENSUS"
"10/11/2021 12:00:00 AM","Washington County","Florida","South","South Atlantic","12133","30.602102","-85.655805 ","4520","62","4520","62","","2019","25473","NYTIMES-USCENSUS"
"10/11/2021 12:00:00 AM","Turner County","Georgia","South","South Atlantic","13287","31.7248","-83.620319 ","1674","48","1674","48","","2019","7985","NYTIMES-USCENSUS"
"10/11/2021 12:00:00 AM","Laramie County","Wyoming","West","Mountain","56021","41.29283","-104.660395 ","14924","175","14924","175","","2019","99500","NYTIMES-USCENSUS"
"10/11/2021 12:00:00 AM","Webster County","Mississippi","South","East South Central","28155","33.612061","-89.283961 ","2011","45","2011","45","","2019","9689","NYTIMES-USCENSUS"
"10/11/2021 12:00:00 AM","Greenbrier County","West Virginia","South","South Atlantic","54025","37.924418","-80.45059 ","4667","84","4667","84","","2019","34662","NYTIMES-USCENSUS"
"10/11/2021 12:00:00 AM","Tama County","Iowa","Midwest","West North Central","19171","42.074848","-92.529411 ","2586","75","2586","75","","2019","16854","NYTIMES-USCENSUS"
"10/11/2021 12:00:00 AM","Jackson County","Alabama","South","East South Central","01071","34.764114","-85.980056 ","9694","170","9694","170","","2019","51626","NYTIMES-USCENSUS"
"10/11/2021 12:00:00 AM","Montcalm County","Michigan","Midwest","East North Central","26117","43.312782","-85.149468 ","10009","128","10009","128","","2019","63888","NYTIMES-USCENSUS"
"10/11/2021 12:00:00 AM","Benton County","Oregon","West","Pacific","41003","44.493882","-123.424664 ","5180","30","5180","30","","2019","93053","NYTIMES-USCENSUS"
"10/11/2021 12:00:00 AM","Franklin County","Mississippi","South","East South Central","28037","31.477773","-90.895457 ","1187","28","1187","28","","2019","7713","NYTIMES-USCENSUS"
"10/11/2021 12:00:00 AM","Alpena County","Michigan","Midwest","East North Central","26007","44.894954","-83.426574 ","2885","69","2885","69","","2019","28405","NYTIMES-USCENSUS"
"10/11/2021 12:00:00 AM","Hopkins County","Kentucky","South","East South Central","21107","37.31107","-87.542196 ","7756","190","7756","190","","2019","44686","NYTIMES-USCENSUS"
"10/11/2021 12:00:00 AM","Kent County","Maryland","South","South Atlantic","24029","39.241279","-76.125987 ","1636","54","1636","54","","2019","19422","NYTIMES-USCENSUS"
"10/11/2021 12:00:00 AM","Edgecombe County","North Carolina","South","South Atlantic","37065","35.917077","-77.602742 ","7757","123","7757","123","","2019","51472","NYTIMES-USCENSUS"
"10/11/2021 12:00:00 AM","Marshall County","Mississippi","South","East South Central","28093","34.76619","-89.504231 ","6341","130","6341","130","","2019","35294","NYTIMES-USCENSUS"
"10/11/2021 12:00:00 AM","Kane County","Illinois","Midwest","East North Central","17089","41.939594","-88.42804 ","67368","917","67368","917","","2019","532403","NYTIMES-USCENSUS"
"10/11/2021 12:00:00 AM","Middlesex County","Connecticut","Northeast","New England","09007","41.433003","-72.52278 ","14599","389","14599","389","","2019","162436","NYTIMES-USCENSUS"
"10/11/2021 12:00:00 AM","Carson City","Nevada","West","Mountain","32510","39.15306","-119.747368 ","8536","148","8536","148","","2019","55916","NYTIMES-USCENSUS"
"10/11/2021 12:00:00 AM","Bates County","Missouri","Midwest","West North Central","29013","38.257217","-94.339246 ","2237","39","2237","39","","2019","16172","NYTIMES-USCENSUS"
"10/11/2021 12:00:00 AM","Wilkinson County","Mississippi","South","East South Central","28157","31.161091","-91.324617 ","1029","38","1029","38","","2019","8630","NYTIMES-USCENSUS"
"10/11/2021 12:00:00 AM","Tuscaloosa County","Alabama","South","East South Central","01125","33.29022","-87.522783 ","34742","586","34742","586","","2019","209355","NYTIMES-USCENSUS"
"10/11/2021 12:00:00 AM","Payne County","Oklahoma","South","West South Central","40119","36.079225","-96.975255 ","11677","97","11677","97","","2019","81784","NYTIMES-USCENSUS"
"10/11/2021 12:00:00 AM","Black Hawk County","Iowa","Midwest","West North Central","19013","42.471132","-92.3076 ","19899","345","19899","345","","2019","131228","NYTIMES-USCENSUS"
"10/11/2021 12:00:00 AM","Calhoun County","Alabama","South","East South Central","01015","33.770516","-85.827909 ","22011","448","22011","448","","2019","113605","NYTIMES-USCENSUS"
"10/11/2021 12:00:00 AM","Fayette County","West Virginia","South","South Atlantic","54019","38.030933","-81.086051 ","5779","111","5779","111","","2019","42406","NYTIMES-USCENSUS"
"10/11/2021 12:00:00 AM","Adams County","Colorado","West","Mountain","08001","39.874325","-104.331872 ","73788","859","73788","859","","2019","517421","NYTIMES-USCENSUS"
"10/11/2021 12:00:00 AM","Daviess County","Missouri","Midwest","West North Central","29061","39.962839","-93.970053 ","1011","13","1011","13","","2019","8278","NYTIMES-USCENSUS"
"10/11/2021 12:00:00 AM","Haskell County","Oklahoma","South","West South Central","40061","35.232431","-95.109642 ","1812","25","1812","25","","2019","12627","NYTIMES-USCENSUS"
"10/11/2021 12:00:00 AM","Howard County","Texas","South","West South Central","48227","32.30343","-101.438721 ","5708","127","5708","127","","2019","36664","NYTIMES-USCENSUS"
"10/11/2021 12:00:00 AM","Jo Daviess County","Illinois","Midwest","East North Central","17085","42.362391","-90.21147 ","2128","31","2128","31","","2019","21235","NYTIMES-USCENSUS"
"10/11/2021 12:00:00 AM","Plymouth County","Iowa","Midwest","West North Central","19149","42.737585","-96.215864 ","4542","87","4542","87","","2019","25177","NYTIMES-USCENSUS"
"10/11/2021 12:00:00 AM","Iron County","Missouri","Midwest","West North Central","29093","37.625971","-90.699587 ","1346","13","1346","13","","2019","10125","NYTIMES-USCENSUS"
"10/11/2021 12:00:00 AM","Cloud County","Kansas","Midwest","West North Central","20029","39.487329","-97.64139 ","1254","26","1254","26","","2019","8786","NYTIMES-USCENSUS"
"10/11/2021 12:00:00 AM","Lake County","Illinois","Midwest","East North Central","17097","42.185968","-87.805939 ","78886","1143","78886","1143","","2019","696535","NYTIMES-USCENSUS"
"10/11/2021 12:00:00 AM","Calhoun County","Georgia","South","South Atlantic","13037","31.521279","-84.62629 ","832","20","832","20","","2019","6189","NYTIMES-USCENSUS"
"10/11/2021 12:00:00 AM","Fremont County","Idaho","West","Mountain","16043","44.218091","-111.484429 ","1441","15","1441","15","","2019","13099","NYTIMES-USCENSUS"
"10/11/2021 12:00:00 AM","Knox County","Texas","South","West South Central","48275","33.61189","-99.730356 ","301","20","301","20","","2019","3664","NYTIMES-USCENSUS"
"10/11/2021 12:00:00 AM","Galax city","Virginia","South","South Atlantic","51640","36.66564","-80.914308 ","1451","60","1451","60","","2019","6347","NYTIMES-USCENSUS"
"10/11/2021 12:00:00 AM","Washington County","Rhode Island","Northeast","New England","44009","41.396792","-71.620282 ","13601","176","13601","176","","2019","125577","NYTIMES-USCENSUS"
"10/11/2021 12:00:00 AM","Crawford County","Wisconsin","Midwest","East North Central","55023","43.242768","-90.935185 ","2191","22","2191","22","","2019","16131","NYTIMES-USCENSUS"
"10/11/2021 12:00:00 AM","Pleasants County","West Virginia","South","South Atlantic","54073","39.368133","-81.161172 ","1355","27","1355","27","","2019","7460","NYTIMES-USCENSUS"
"10/11/2021 12:00:00 AM","Guernsey County","Ohio","Midwest","East North Central","39059","40.056665","-81.497875 ","5465","67","5465","67","","2019","38875","NYTIMES-USCENSUS"
"10/11/2021 12:00:00 AM","Kenai Peninsula Borough","Alaska","West","Pacific","02122","60.360766","-152.05264 ","9726","43","9726","43","","2019","58708","NYTIMES-USCENSUS"
"10/11/2021 12:00:00 AM","Clarke County","Alabama","South","East South Central","01025","31.685521","-87.818624 ","4720","80","4720","80","","2019","23622","NYTIMES-USCENSUS"
"10/11/2021 12:00:00 AM","Los Angeles County","California","West","Pacific","06037","34.196398","-118.261862 ","1472349","26338","1472349","26338","","2019","10039107","NYTIMES-USCENSUS"
"10/11/2021 12:00:00 AM","Douglas County","Nebraska","Midwest","West North Central","31055","41.297091","-96.154066 ","84526","801","84526","801","","2019","571327","NYTIMES-USCENSUS"
"10/11/2021 12:00:00 AM","San Diego County","California","West","Pacific","06073","33.023604","-116.776117 ","377873","4113","377873","4113","","2019","3338330","NYTIMES-USCENSUS"
"10/11/2021 12:00:00 AM","Hitchcock County","Nebraska","Midwest","West North Central","31087","40.176896","-101.044217 ","320","5","320","5","","2019","2762","NYTIMES-USCENSUS"
"10/11/2021 12:00:00 AM","Leelanau County","Michigan","Midwest","East North Central","26089","45.146182","-86.051574 ","1558","24","1558","24","","2019","21761","NYTIMES-USCENSUS"
"10/11/2021 12:00:00 AM","Susquehanna County","Pennsylvania","Northeast","Middle Atlantic","42115","41.819665","-75.800969 ","3388","64","3388","64","","2019","40328","NYTIMES-USCENSUS"
"10/11/2021 12:00:00 AM","Sauk County","Wisconsin","Midwest","East North Central","55111","43.428001","-89.943318 ","7982","64","7982","64","","2019","64442","NYTIMES-USCENSUS"
"10/11/2021 12:00:00 AM","Liberty County","Georgia","South","South Atlantic","13179","31.807458","-81.457871 ","7374","100","7374","100","","2019","61435","NYTIMES-USCENSUS"
"10/11/2021 12:00:00 AM","Robertson County","Tennessee","South","East South Central","47147","36.527509","-86.869354 ","13866","175","13866","175","","2019","71813","NYTIMES-USCENSUS"
"10/11/2021 12:00:00 AM","Tift County","Georgia","South","South Atlantic","13277","31.457003","-83.525931 ","8246","168","8246","168","","2019","40644","NYTIMES-USCENSUS"
"10/11/2021 12:00:00 AM","Hocking County","Ohio","Midwest","East North Central","39073","39.490342","-82.483447 ","3436","75","3436","75","","2019","28264","NYTIMES-USCENSUS"
"10/11/2021 12:00:00 AM","Paulding County","Ohio","Midwest","East North Central","39125","41.118948","-84.582125 ","2683","44","2683","44","","2019","18672","NYTIMES-USCENSUS"
"10/11/2021 12:00:00 AM","Forsyth County","North Carolina","South","South Atlantic","37067","36.132466","-80.256961 ","50324","534","50324","534","","2019","382295","NYTIMES-USCENSUS"
"10/11/2021 12:00:00 AM","Lynn County","Texas","South","West South Central","48305","33.178412","-101.818493 ","816","26","816","26","","2019","5951","NYTIMES-USCENSUS"
"10/11/2021 12:00:00 AM","Antelope County","Nebraska","Midwest","West North Central","31003","42.183225","-98.058037 ","659","8","659","8","","2019","6298","NYTIMES-USCENSUS"
"10/11/2021 12:00:00 AM","Roberts County","Texas","South","West South Central","48393","35.838596","-100.836682 ","91","1","91","1","","2019","854","NYTIMES-USCENSUS"
"10/11/2021 12:00:00 AM","Northampton County","North Carolina","South","South Atlantic","37131","36.421774","-77.398352 ","2542","62","2542","62","","2019","19483","NYTIMES-USCENSUS"
"10/11/2021 12:00:00 AM","Wise County","Texas","South","West South Central","48497","33.219095","-97.653997 ","10891","179","10891","179","","2019","69984","NYTIMES-USCENSUS"
"10/11/2021 12:00:00 AM","Crittenden County","Arkansas","South","West South Central","05035","35.197559","-90.30512 ","8652","166","8652","166","","2019","47955","NYTIMES-USCENSUS"
"10/11/2021 12:00:00 AM","Burlington County","New Jersey","Northeast","Middle Atlantic","34005","39.875786","-74.663006 ","53231","929","53231","929","","2019","445349","NYTIMES-USCENSUS"
"10/11/2021 12:00:00 AM","St. Landry Parish","Louisiana","South","West South Central","22097","30.583441","-91.989274 ","13868","341","13868","341","","2019","82124","NYTIMES-USCENSUS"
"10/11/2021 12:00:00 AM","Latimer County","Oklahoma","South","West South Central","40077","34.875137","-95.272262 ","1438","14","1438","14","","2019","10073","NYTIMES-USCENSUS"
"10/11/2021 12:00:00 AM","Bayfield County","Wisconsin","Midwest","East North Central","55007","46.634199","-91.177282 ","1550","24","1550","24","","2019","15036","NYTIMES-USCENSUS"
"10/11/2021 12:00:00 AM","Lapeer County","Michigan","Midwest","East North Central","26087","43.088633","-83.224325 ","11504","243","11504","243","","2019","87607","NYTIMES-USCENSUS"
"10/11/2021 12:00:00 AM","Herkimer County","New York","Northeast","Middle Atlantic","36043","43.571009","-74.841097 ","6477","122","6477","122","","2019","61319","NYTIMES-USCENSUS"
"10/11/2021 12:00:00 AM","Brown County","Indiana","Midwest","East North Central","18013","39.195113","-86.230121 ","1413","47","1413","47","","2019","15092","NYTIMES-USCENSUS"
"10/11/2021 12:00:00 AM","Mono County","California","West","Pacific","06051","37.915836","-118.875167 ","1612","5","1612","5","","2019","14444","NYTIMES-USCENSUS"
"10/11/2021 12:00:00 AM","Massac County","Illinois","Midwest","East North Central","17127","37.216119","-88.705658 ","2113","49","2113","49","","2019","13772","NYTIMES-USCENSUS"
"10/11/2021 12:00:00 AM","Allamakee County","Iowa","Midwest","West North Central","19005","43.274964","-91.382751 ","1893","52","1893","52","","2019","13687","NYTIMES-USCENSUS"
"10/11/2021 12:00:00 AM","Salem city","Virginia","South","South Atlantic","51775","37.285333","-80.055241 ","3224","56","3224","56","","2019","25301","NYTIMES-USCENSUS"
"10/11/2021 12:00:00 AM","Lee County","North Carolina","South","South Atlantic","37105","35.476336","-79.172117 ","9245","103","9245","103","","2019","61779","NYTIMES-USCENSUS"
"10/11/2021 12:00:00 AM","Kendall County","Texas","South","West South Central","48259","29.943525","-98.709269 ","4979","93","4979","93","","2019","47431","NYTIMES-USCENSUS"
"10/11/2021 12:00:00 AM","Harrison County","Missouri","Midwest","West North Central","29081","40.34562","-93.992582 ","1100","17","1100","17","","2019","8352","NYTIMES-USCENSUS"
"10/11/2021 12:00:00 AM","Uinta County","Wyoming","West","Mountain","56041","41.284726","-110.558947 ","3674","26","3674","26","","2019","20226","NYTIMES-USCENSUS"
"10/11/2021 12:00:00 AM","Lane County","Oregon","West","Pacific","41039","43.928334","-122.897581 ","26545","287","26545","287","","2019","382067","NYTIMES-USCENSUS"
"10/11/2021 12:00:00 AM","Madison County","Tennessee","South","East South Central","47113","35.606056","-88.833424 ","17303","297","17303","297","","2019","97984","NYTIMES-USCENSUS"
"10/11/2021 12:00:00 AM","Muskegon County","Michigan","Midwest","East North Central","26121","43.428739","-86.420908 ","22235","414","22235","414","","2019","173566","NYTIMES-USCENSUS"
"10/11/2021 12:00:00 AM","White County","Illinois","Midwest","East North Central","17193","38.087326","-88.178623 ","2747","43","2747","43","","2019","13537","NYTIMES-USCENSUS"
"10/11/2021 12:00:00 AM","Luce County","Michigan","Midwest","East North Central","26095","46.510988","-85.517552 ","1521","6","1521","6","","2019","6229","NYTIMES-USCENSUS"
"10/11/2021 12:00:00 AM","Alcorn County","Mississippi","South","East South Central","28003","34.886569","-88.581109 ","5610","97","5610","97","","2019","36953","NYTIMES-USCENSUS"
"10/11/2021 12:00:00 AM","Shannon County","Missouri","Midwest","West North Central","29203","37.152498","-91.391328 ","966","17","966","17","","2019","8166","NYTIMES-USCENSUS"
"10/11/2021 12:00:00 AM","Salt Lake County","Utah","West","Mountain","49035","40.667883","-111.92424 ","186166","1095","186166","1095","","2019","1160437","NYTIMES-USCENSUS"
"10/11/2021 12:00:00 AM","Monterey County","California","West","Pacific","06053","36.240104","-121.315578 ","50566","584","50566","584","","2019","434061","NYTIMES-USCENSUS"
"10/11/2021 12:00:00 AM","Madison County","Alabama","South","East South Central","01089","34.764238","-86.55108 ","51605","666","51605","666","","2019","372909","NYTIMES-USCENSUS"
"10/11/2021 12:00:00 AM","Bethel Census Area","Alaska","West","Pacific","02050","60.929141","-160.152625 ","5469","25","5469","25","","2019","18386","NYTIMES-USCENSUS"
"10/11/2021 12:00:00 AM","Panola County","Mississippi","South","East South Central","28107","34.365205","-89.963065 ","6429","129","6429","129","","2019","34192","NYTIMES-USCENSUS"
"10/11/2021 12:00:00 AM","Kiowa County","Kansas","Midwest","West North Central","20097","37.561231","-99.286539 ","334","5","334","5","","2019","2475","NYTIMES-USCENSUS"
"10/11/2021 12:00:00 AM","Hancock County","Iowa","Midwest","West North Central","19081","43.075411","-93.743697 ","1813","39","1813","39","","2019","10630","NYTIMES-USCENSUS"
"10/11/2021 12:00:00 AM","Wayne County","Illinois","Midwest","East North Central","17191","38.431857","-88.43243 ","2923","61","2923","61","","2019","16215","NYTIMES-USCENSUS"
"10/11/2021 12:00:00 AM","Young County","Texas","South","West South Central","48503","33.158778","-98.67839 ","2755","60","2755","60","","2019","18010","NYTIMES-USCENSUS"
"10/11/2021 12:00:00 AM","Wilson County","North Carolina","South","South Atlantic","37195","35.700357","-77.921598 ","12900","224","12900","224","","2019","81801","NYTIMES-USCENSUS"
"10/11/2021 12:00:00 AM","Parker County","Texas","South","West South Central","48367","32.777096","-97.805905 ","23251","282","23251","282","","2019","142878","NYTIMES-USCENSUS"
"10/11/2021 12:00:00 AM","Ward County","Texas","South","West South Central","48475","31.513069","-103.105113 ","1846","26","1846","26","","2019","11998","NYTIMES-USCENSUS"
"10/11/2021 12:00:00 AM","Union County","Indiana","Midwest","East North Central","18161","39.623111","-84.925152 ","1078","16","1078","16","","2019","7054","NYTIMES-USCENSUS"
"10/11/2021 12:00:00 AM","St. Clair County","Illinois","Midwest","East North Central","17163","38.470198","-89.928546 ","39925","634","39925","634","","2019","259686","NYTIMES-USCENSUS"
"10/11/2021 12:00:00 AM","Columbia County","New York","Northeast","Middle Atlantic","36021","42.247696","-73.626718 ","4901","111","4901","111","","2019","59461","NYTIMES-USCENSUS"
"10/11/2021 12:00:00 AM","Union County","Florida","South","South Atlantic","12125","30.05428","-82.366918 ","3049","78","3049","78","","2019","15237","NYTIMES-USCENSUS"
"10/11/2021 12:00:00 AM","Genesee County","Michigan","Midwest","East North Central","26049","43.021077","-83.706372 ","49156","1048","49156","1048","","2019","405813","NYTIMES-USCENSUS"
"10/11/2021 12:00:00 AM","Harrison County","Indiana","Midwest","East North Central","18061","38.186454","-86.103766 ","6366","94","6366","94","","2019","40515","NYTIMES-USCENSUS"
"10/11/2021 12:00:00 AM","Adair County","Missouri","Midwest","West North Central","29001","40.190666","-92.603592 ","3554","34","3554","34","","2019","25343","NYTIMES-USCENSUS"
"10/11/2021 12:00:00 AM","Escambia County","Florida","South","South Atlantic","12033","30.529998","-87.320322 ","53064","973","53064","973","","2019","318316","NYTIMES-USCENSUS"
"10/11/2021 12:00:00 AM","Camden County","Missouri","Midwest","West North Central","29029","38.026527","-92.765327 ","6226","122","6226","122","","2019","46305","NYTIMES-USCENSUS"
"10/11/2021 12:00:00 AM","Haskell County","Kansas","Midwest","West North Central","20081","37.554979","-100.879952 ","528","8","528","8","","2019","3968","NYTIMES-USCENSUS"
"10/11/2021 12:00:00 AM","Conejos County","Colorado","West","Mountain","08021","37.213406","-106.176447 ","937","32","937","32","","2019","8205","NYTIMES-USCENSUS"
"10/11/2021 12:00:00 AM","Carroll County","Maryland","South","South Atlantic","24013","39.563328","-77.01533 ","11423","284","11423","284","","2019","168447","NYTIMES-USCENSUS"
"10/11/2021 12:00:00 AM","Forsyth County","Georgia","South","South Atlantic","13117","34.225143","-84.127408 ","33455","250","33455","250","","2019","244252","NYTIMES-USCENSUS"
"10/11/2021 12:00:00 AM","Perry County","Indiana","Midwest","East North Central","18123","38.081436","-86.62654 ","2638","55","2638","55","","2019","19169","NYTIMES-USCENSUS"
"10/11/2021 12:00:00 AM","Rock County","Minnesota","Midwest","West North Central","27133","43.669587","-96.263238 ","1517","19","1517","19","","2019","9315","NYTIMES-USCENSUS"
"10/11/2021 12:00:00 AM","Cheyenne County","Colorado","West","Mountain","08017","38.835646","-102.601791 ","163","7","163","7","","2019","1831","NYTIMES-USCENSUS"
"10/11/2021 12:00:00 AM","Trinity County","Texas","South","West South Central","48455","31.096675","-95.151687 ","1530","56","1530","56","","2019","14651","NYTIMES-USCENSUS"
"10/11/2021 12:00:00 AM","Walker County","Georgia","South","South Atlantic","13295","34.735802","-85.305456 ","10976","131","10976","131","","2019","69761","NYTIMES-USCENSUS"
"10/11/2021 12:00:00 AM","Nelson County","North Dakota","Midwest","West North Central","38063","47.918667","-98.204428 ","533","16","533","16","","2019","2879","NYTIMES-USCENSUS"
"10/11/2021 12:00:00 AM","Faulk County","South Dakota","Midwest","West North Central","46049","45.065476","-99.153564 ","393","14","393","14","","2019","2299","NYTIMES-USCENSUS"
"10/11/2021 12:00:00 AM","Franklin County","Massachusetts","Northeast","New England","25011","42.584504","-72.591792 ","3291","121","3291","121","","2019","70180","NYTIMES-USCENSUS"
"10/11/2021 12:00:00 AM","Clayton County","Georgia","South","South Atlantic","13063","33.542686","-84.355573 ","38479","671","38479","671","","2019","292256","NYTIMES-USCENSUS"
"10/11/2021 12:00:00 AM","Washington County","Iowa","Midwest","West North Central","19183","41.329401","-91.725052 ","3553","55","3553","55","","2019","21965","NYTIMES-USCENSUS"
"10/11/2021 12:00:00 AM","Northampton County","Virginia","South","South Atlantic","51131","37.302775","-75.924018 ","1110","40","1110","40","","2019","11710","NYTIMES-USCENSUS"
"10/11/2021 12:00:00 AM","Dodge County","Minnesota","Midwest","West North Central","27039","44.020706","-92.869353 ","2614","9","2614","9","","2019","20934","NYTIMES-USCENSUS"
"10/11/2021 12:00:00 AM","Garfield County","Utah","West","Mountain","49017","37.831664","-111.450908 ","626","11","626","11","","2019","5051","NYTIMES-USCENSUS"
"10/11/2021 12:00:00 AM","St. Clair County","Michigan","Midwest","East North Central","26147","42.928803","-82.668913 ","21337","498","21337","498","","2019","159128","NYTIMES-USCENSUS"
"10/11/2021 12:00:00 AM","Pocahontas County","West Virginia","South","South Atlantic","54075","38.332606","-80.010121 ","1079","17","1079","17","","2019","8247","NYTIMES-USCENSUS"
"10/11/2021 12:00:00 AM","Durham County","North Carolina","South","South Atlantic","37063","36.033828","-78.878125 ","34275","255","34275","255","","2019","321488","NYTIMES-USCENSUS"
"10/11/2021 12:00:00 AM","Franklin County","Tennessee","South","East South Central","47051","35.155926","-86.099203 ","7761","99","7761","99","","2019","42208","NYTIMES-USCENSUS"
"10/11/2021 12:00:00 AM","Menard County","Illinois","Midwest","East North Central","17129","40.022569","-89.794133 ","1695","17","1695","17","","2019","12196","NYTIMES-USCENSUS"
"10/11/2021 12:00:00 AM","San Saba County","Texas","South","West South Central","48411","31.155138","-98.819292 ","940","26","940","26","","2019","6055","NYTIMES-USCENSUS"
"10/11/2021 12:00:00 AM","Juneau City and Borough","Alaska","West","Pacific","02110","58.37291","-134.178445 ","3438","7","3438","7","","2019","31974","NYTIMES-USCENSUS"
"10/11/2021 12:00:00 AM","Jefferson County","Oklahoma","South","West South Central","40067","34.105082","-97.83889 ","908","18","908","18","","2019","6002","NYTIMES-USCENSUS"
"10/11/2021 12:00:00 AM","Prince of Wales-Hyder Census Area","Alaska","West","Pacific","02198","55.682773","-133.162389 ","467","5","467","5","","2019","6203","NYTIMES-USCENSUS"
"10/11/2021 12:00:00 AM","Hamilton County","Texas","South","West South Central","48193","31.707342","-98.111756 ","1275","29","1275","29","","2019","8461","NYTIMES-USCENSUS"
"10/11/2021 12:00:00 AM","Bollinger County","Missouri","Midwest","West North Central","29017","37.318427","-90.024645 ","1700","19","1700","19","","2019","12133","NYTIMES-USCENSUS"
"10/11/2021 12:00:00 AM","Burke County","North Carolina","South","South Atlantic","37023","35.746182","-81.70618 ","15308","204","15308","204","","2019","90485","NYTIMES-USCENSUS"
"10/11/2021 12:00:00 AM","Fayette County","Iowa","Midwest","West North Central","19065","42.864122","-91.840376 ","2471","47","2471","47","","2019","19650","NYTIMES-USCENSUS"
"10/11/2021 12:00:00 AM","Iron County","Utah","West","Mountain","49021","37.909304","-113.30674 ","8626","52","8626","52","","2019","54839","NYTIMES-USCENSUS"
"10/11/2021 12:00:00 AM","Harrisonburg city","Virginia","South","South Atlantic","51660","38.436255","-78.873303 ","8027","101","8027","101","","2019","53016","NYTIMES-USCENSUS"
"10/11/2021 12:00:00 AM","Grand Forks County","North Dakota","Midwest","West North Central","38035","47.926003","-97.450851 ","12416","82","12416","82","","2019","69451","NYTIMES-USCENSUS"
"10/11/2021 12:00:00 AM","Kerr County","Texas","South","West South Central","48265","30.059953","-99.353339 ","6406","125","6406","125","","2019","52600","NYTIMES-USCENSUS"
"10/11/2021 12:00:00 AM","Castro County","Texas","South","West South Central","48069","34.533621","-102.258786 ","1274","34","1274","34","","2019","7530","NYTIMES-USCENSUS"
"10/11/2021 12:00:00 AM","Manassas Park city","Virginia","South","South Atlantic","51685","38.769398","-77.442323 ","1262","12","1262","12","","2019","17478","NYTIMES-USCENSUS"
"10/11/2021 12:00:00 AM","Sherman County","Oregon","West","Pacific","41055","45.399216","-120.678512 ","143","3","143","3","","2019","1780","NYTIMES-USCENSUS"
"10/11/2021 12:00:00 AM","Wright County","Missouri","Midwest","West North Central","29229","37.267633","-92.479989 ","2520","46","2520","46","","2019","18289","NYTIMES-USCENSUS"
"10/11/2021 12:00:00 AM","McCulloch County","Texas","South","West South Central","48307","31.205477","-99.359856 ","912","32","912","32","","2019","7984","NYTIMES-USCENSUS"
"10/11/2021 12:00:00 AM","Oxford County","Maine","Northeast","New England","23017","44.4945","-70.734421 ","4648","74","4648","74","","2019","57975","NYTIMES-USCENSUS"
"10/11/2021 12:00:00 AM","Spink County","South Dakota","Midwest","West North Central","46115","44.923772","-98.339615 ","981","27","981","27","","2019","6376","NYTIMES-USCENSUS"
"10/11/2021 12:00:00 AM","Taos County","New Mexico","West","Mountain","35055","36.577183","-105.638878 ","2272","62","2272","62","","2019","32723","NYTIMES-USCENSUS"
"10/11/2021 12:00:00 AM","Spalding County","Georgia","South","South Atlantic","13255","33.262348","-84.284905 ","10132","263","10132","263","","2019","66703","NYTIMES-USCENSUS"
"10/11/2021 12:00:00 AM","Kennebec County","Maine","Northeast","New England","23011","44.417012","-69.765764 ","9055","98","9055","98","","2019","122302","NYTIMES-USCENSUS"
"10/11/2021 12:00:00 AM","Hart County","Kentucky","South","East South Central","21099","37.305827","-85.878443 ","3409","61","3409","61","","2019","19035","NYTIMES-USCENSUS"
"10/11/2021 12:00:00 AM","Culpeper County","Virginia","South","South Atlantic","51047","38.48593","-77.956476 ","6196","79","6196","79","","2019","52605","NYTIMES-USCENSUS"
"10/11/2021 12:00:00 AM","Pratt County","Kansas","Midwest","West North Central","20151","37.647594","-98.74012 ","1177","26","1177","26","","2019","9164","NYTIMES-USCENSUS"
"10/11/2021 12:00:00 AM","Chippewa County","Michigan","Midwest","East North Central","26033","46.321819","-84.52063 ","6592","56","6592","56","","2019","37349","NYTIMES-USCENSUS"
"10/11/2021 12:00:00 AM","Henry County","Kentucky","South","East South Central","21103","38.451383","-85.119647 ","2468","24","2468","24","","2019","16126","NYTIMES-USCENSUS"
"10/11/2021 12:00:00 AM","Union County","New Mexico","West","Mountain","35059","36.488085","-103.475723 ","505","11","505","11","","2019","4059","NYTIMES-USCENSUS"
"10/11/2021 12:00:00 AM","Madison County","Georgia","South","South Atlantic","13195","34.128526","-83.203737 ","4882","67","4882","67","","2019","29880","NYTIMES-USCENSUS"
"10/11/2021 12:00:00 AM","Calhoun County","Michigan","Midwest","East North Central","26025","42.24299","-85.012385 ","17799","341","17799","341","","2019","134159","NYTIMES-USCENSUS"
"10/11/2021 12:00:00 AM","Tulare County","California","West","Pacific","06107","36.228834","-118.781055 ","78060","940","78060","940","","2019","466195","NYTIMES-USCENSUS"
"10/11/2021 12:00:00 AM","Phillips County","Kansas","Midwest","West North Central","20147","39.784506","-99.34215 ","816","26","816","26","","2019","5234","NYTIMES-USCENSUS"
"10/11/2021 12:00:00 AM","Sonoma County","California","West","Pacific","06097","38.525182","-122.92611 ","40535","396","40535","396","","2019","494336","NYTIMES-USCENSUS"
"10/11/2021 12:00:00 AM","McLean County","North Dakota","Midwest","West North Central","38055","47.653206","-101.421914 ","1665","33","1665","33","","2019","9450","NYTIMES-USCENSUS"
"10/11/2021 12:00:00 AM","Knox County","Ohio","Midwest","East North Central","39083","40.40362","-82.422393 ","7394","130","7394","130","","2019","62322","NYTIMES-USCENSUS"
"10/11/2021 12:00:00 AM","Shelby County","Indiana","Midwest","East North Central","18145","39.524135","-85.792174 ","8039","124","8039","124","","2019","44729","NYTIMES-USCENSUS"
"10/11/2021 12:00:00 AM","Pulaski County","Arkansas","South","West South Central","05119","34.770311","-92.312996 ","57973","893","57973","893","","2019","391911","NYTIMES-USCENSUS"
"10/11/2021 12:00:00 AM","Neosho County","Kansas","Midwest","West North Central","20133","37.564283","-95.315682 ","2486","49","2486","49","","2019","16007","NYTIMES-USCENSUS"
"10/11/2021 12:00:00 AM","Pickens County","Alabama","South","East South Central","01107","33.2968","-88.096864 ","3124","77","3124","77","","2019","19930","NYTIMES-USCENSUS"
"10/11/2021 12:00:00 AM","Delta County","Colorado","West","Mountain","08029","38.861595","-107.864892 ","3641","80","3641","80","","2019","31162","NYTIMES-USCENSUS"
"10/11/2021 12:00:00 AM","Northumberland County","Pennsylvania","Northeast","Middle Atlantic","42097","40.851524","-76.709877 ","11978","395","11978","395","","2019","90843","NYTIMES-USCENSUS"
"10/11/2021 12:00:00 AM","Washington County","Vermont","Northeast","New England","50023","44.274969","-72.609444 ","3214","18","3214","18","","2019","58409","NYTIMES-USCENSUS"
"10/11/2021 12:00:00 AM","Deaf Smith County","Texas","South","West South Central","48117","34.940766","-102.607564 ","3347","72","3347","72","","2019","18546","NYTIMES-USCENSUS"
"10/11/2021 12:00:00 AM","Carbon County","Pennsylvania","Northeast","Middle Atlantic","42025","40.918367","-75.705039 ","8296","194","8296","194","","2019","64182","NYTIMES-USCENSUS"
"10/11/2021 12:00:00 AM","Asotin County","Washington","West","Pacific","53003","46.181861","-117.227781 ","2637","47","2637","47","","2019","22582","NYTIMES-USCENSUS"
"10/11/2021 12:00:00 AM","Oldham County","Kentucky","South","East South Central","21185","38.400127","-85.45615 ","9872","91","9872","91","","2019","66799","NYTIMES-USCENSUS"
"10/11/2021 12:00:00 AM","Crawford County","Ohio","Midwest","East North Central","39033","40.848524","-82.924783 ","6045","127","6045","127","","2019","41494","NYTIMES-USCENSUS"
"10/11/2021 12:00:00 AM","Muscatine County","Iowa","Midwest","West North Central","19139","41.483776","-91.118699 ","6228","113","6228","113","","2019","42664","NYTIMES-USCENSUS"
"10/11/2021 12:00:00 AM","Marathon County","Wisconsin","Midwest","East North Central","55073","44.898036","-89.757823 ","20097","256","20097","256","","2019","135692","NYTIMES-USCENSUS"
"10/11/2021 12:00:00 AM","Keith County","Nebraska","Midwest","West North Central","31101","41.194245","-101.644449 ","896","10","896","10","","2019","8034","NYTIMES-USCENSUS"
"10/11/2021 12:00:00 AM","Lewis County","Tennessee","South","East South Central","47101","35.523244","-87.496983 ","2492","37","2492","37","","2019","12268","NYTIMES-USCENSUS"
"10/11/2021 12:00:00 AM","Bulloch County","Georgia","South","South Atlantic","13031","32.394481","-81.741618 ","11135","183","11135","183","","2019","79608","NYTIMES-USCENSUS"
"10/11/2021 12:00:00 AM","Lehigh County","Pennsylvania","Northeast","Middle Atlantic","42077","40.614241","-75.590627 ","47104","915","47104","915","","2019","369318","NYTIMES-USCENSUS"
"10/11/2021 12:00:00 AM","Oswego County","New York","Northeast","Middle Atlantic","36075","43.461443","-76.209262 ","10991","109","10991","109","","2019","117124","NYTIMES-USCENSUS"
"10/11/2021 12:00:00 AM","Perquimans County","North Carolina","South","South Atlantic","37143","36.180897","-76.403244 ","1471","15","1471","15","","2019","13463","NYTIMES-USCENSUS"
"10/11/2021 12:00:00 AM","Montgomery County","Georgia","South","South Atlantic","13209","32.172108","-82.533349 ","1498","39","1498","39","","2019","9172","NYTIMES-USCENSUS"
"10/11/2021 12:00:00 AM","Lincoln County","Minnesota","Midwest","West North Central","27081","44.408238","-96.272032 ","738","5","738","5","","2019","5639","NYTIMES-USCENSUS"
"10/11/2021 12:00:00 AM","Emporia city","Virginia","South","South Atlantic","51595","36.696182","-77.535975 ","851","42","851","42","","2019","5346","NYTIMES-USCENSUS"
"10/11/2021 12:00:00 AM","Washington County","Colorado","West","Mountain","08121","39.96579","-103.209744 ","577","15","577","15","","2019","4908","NYTIMES-USCENSUS"
"10/11/2021 12:00:00 AM","Mercer County","Ohio","Midwest","East North Central","39107","40.535333","-84.632059 ","5968","91","5968","91","","2019","41172","NYTIMES-USCENSUS"
"10/11/2021 12:00:00 AM","Cleveland County","North Carolina","South","South Atlantic","37045","35.33463","-81.557114 ","17836","295","17836","295","","2019","97947","NYTIMES-USCENSUS"
"10/11/2021 12:00:00 AM","Greene County","Arkansas","South","West South Central","05055","36.120607","-90.566346 ","9878","118","9878","118","","2019","45325","NYTIMES-USCENSUS"
"10/11/2021 12:00:00 AM","Sullivan County","Tennessee","South","East South Central","47163","36.509681","-82.301336 ","26025","407","26025","407","","2019","158348","NYTIMES-USCENSUS"
"10/11/2021 12:00:00 AM","Jackson County","West Virginia","South","South Atlantic","54035","38.834234","-81.677717 ","3695","76","3695","76","","2019","28576","NYTIMES-USCENSUS"
"10/11/2021 12:00:00 AM","Knox County","Maine","Northeast","New England","23013","44.042045","-69.038514 ","1739","12","1739","12","","2019","39772","NYTIMES-USCENSUS"
"10/11/2021 12:00:00 AM","Madera County","California","West","Pacific","06039","37.209821","-119.749802 ","23231","275","23231","275","","2019","157327","NYTIMES-USCENSUS"
"10/11/2021 12:00:00 AM","Evans County","Georgia","South","South Atlantic","13109","32.153083","-81.890153 ","1619","50","1619","50","","2019","10654","NYTIMES-USCENSUS"
"10/11/2021 12:00:00 AM","Newport News city","Virginia","South","South Atlantic","51700","37.076136","-76.52198 ","19864","283","19864","283","","2019","179225","NYTIMES-USCENSUS"
"10/11/2021 12:00:00 AM","Little River County","Arkansas","South","West South Central","05081","33.701941","-94.236287 ","1980","71","1980","71","","2019","12259","NYTIMES-USCENSUS"
"10/11/2021 12:00:00 AM","Pike County","Ohio","Midwest","East North Central","39131","39.071341","-83.052911 ","4241","56","4241","56","","2019","27772","NYTIMES-USCENSUS"
"10/11/2021 12:00:00 AM","Howard County","Indiana","Midwest","East North Central","18067","40.483537","-86.114118 ","14472","289","14472","289","","2019","82544","NYTIMES-USCENSUS"
"10/11/2021 12:00:00 AM","Adams County","Illinois","Midwest","East North Central","17001","39.986052","-91.194961 ","12983","180","12983","180","","2019","65435","NYTIMES-USCENSUS"
"10/11/2021 12:00:00 AM","Monroe County","Arkansas","South","West South Central","05095","34.679512","-91.20331 ","1179","24","1179","24","","2019","6701","NYTIMES-USCENSUS"
"10/11/2021 12:00:00 AM","Chautauqua County","Kansas","Midwest","West North Central","20019","37.154259","-96.245396 ","478","8","478","8","","2019","3250","NYTIMES-USCENSUS"
"10/11/2021 12:00:00 AM","Crawford County","Indiana","Midwest","East North Central","18025","38.289433","-86.440871 ","1565","22","1565","22","","2019","10577","NYTIMES-USCENSUS"
"10/11/2021 12:00:00 AM","Bosque County","Texas","South","West South Central","48035","31.900819","-97.637641 ","2406","52","2406","52","","2019","18685","NYTIMES-USCENSUS"
"10/11/2021 12:00:00 AM","West Feliciana Parish","Louisiana","South","West South Central","22125","30.873364","-91.421776 ","1506","39","1506","39","","2019","15568","NYTIMES-USCENSUS"
"10/11/2021 12:00:00 AM","Quitman County","Mississippi","South","East South Central","28119","34.252833","-90.290171 ","1054","27","1054","27","","2019","6792","NYTIMES-USCENSUS"
"10/11/2021 12:00:00 AM","Androscoggin County","Maine","Northeast","New England","23001","44.167681","-70.207435 ","10099","96","10099","96","","2019","108277","NYTIMES-USCENSUS"
"10/11/2021 12:00:00 AM","Cleburne County","Arkansas","South","West South Central","05023","35.566315","-92.05995 ","3633","89","3633","89","","2019","24919","NYTIMES-USCENSUS"
"10/11/2021 12:00:00 AM","Jefferson County","Texas","South","West South Central","48245","29.854","-94.149331 ","31200","655","31200","655","","2019","251565","NYTIMES-USCENSUS"
"10/11/2021 12:00:00 AM","La Paz County","Arizona","West","Mountain","04012","33.72761","-114.038806 ","3074","95","3074","95","","2019","21108","NYTIMES-USCENSUS"
"10/11/2021 12:00:00 AM","Thomas County","Georgia","South","South Atlantic","13275","30.864619","-83.919815 ","7682","169","7682","169","","2019","44451","NYTIMES-USCENSUS"
"10/11/2021 12:00:00 AM","Sussex County","Delaware","South","South Atlantic","10005","38.673227","-75.337024 ","33967","601","33967","601","","2019","234225","NYTIMES-USCENSUS"
"10/11/2021 12:00:00 AM","Presidio County","Texas","South","West South Central","48377","30.005891","-104.261619 ","895","27","895","27","","2019","6704","NYTIMES-USCENSUS"
"10/11/2021 12:00:00 AM","Juniata County","Pennsylvania","Northeast","Middle Atlantic","42067","40.530673","-77.400438 ","2726","111","2726","111","","2019","24763","NYTIMES-USCENSUS"
"10/11/2021 12:00:00 AM","Hubbard County","Minnesota","Midwest","West North Central","27057","47.095551","-94.91329 ","2735","44","2735","44","","2019","21491","NYTIMES-USCENSUS"
"10/11/2021 12:00:00 AM","Wilcox County","Georgia","South","South Atlantic","13315","31.96272","-83.438259 ","1262","53","1262","53","","2019","8635","NYTIMES-USCENSUS"
"10/11/2021 12:00:00 AM","Saunders County","Nebraska","Midwest","West North Central","31155","41.223388","-96.642097 ","3007","20","3007","20","","2019","21578","NYTIMES-USCENSUS"
"10/11/2021 12:00:00 AM","Walton County","Georgia","South","South Atlantic","13297","33.783887","-83.731829 ","14894","324","14894","324","","2019","94593","NYTIMES-USCENSUS"
"10/11/2021 12:00:00 AM","Nacogdoches County","Texas","South","West South Central","48347","31.62056","-94.62025 ","7599","215","7599","215","","2019","65204","NYTIMES-USCENSUS"
"10/11/2021 12:00:00 AM","Loudoun County","Virginia","South","South Atlantic","51107","39.0812","-77.638898 ","33175","292","33175","292","","2019","413538","NYTIMES-USCENSUS"
"10/11/2021 12:00:00 AM","Kent County","Rhode Island","Northeast","New England","44003","41.675118","-71.580282 ","21881","384","21881","384","","2019","164292","NYTIMES-USCENSUS"
"10/11/2021 12:00:00 AM","Shelby County","Texas","South","West South Central","48419","31.790139","-94.142579 ","2887","102","2887","102","","2019","25274","NYTIMES-USCENSUS"
"10/11/2021 12:00:00 AM","Langlade County","Wisconsin","Midwest","East North Central","55067","45.254863","-89.06707 ","2998","54","2998","54","","2019","19189","NYTIMES-USCENSUS"
"10/11/2021 12:00:00 AM","Butler County","Iowa","Midwest","West North Central","19023","42.734757","-92.780153 ","2003","37","2003","37","","2019","14439","NYTIMES-USCENSUS"
"10/11/2021 12:00:00 AM","Mineral County","Nevada","West","Mountain","32021","38.516647","-118.416279 ","545","11","545","11","","2019","4505","NYTIMES-USCENSUS"
"10/11/2021 12:00:00 AM","Fayette County","Pennsylvania","Northeast","Middle Atlantic","42051","39.918907","-79.640119 ","16569","365","16569","365","","2019","129274","NYTIMES-USCENSUS"
"10/11/2021 12:00:00 AM","Cotton County","Oklahoma","South","West South Central","40033","34.290676","-98.373438 ","935","20","935","20","","2019","5666","NYTIMES-USCENSUS"
"10/11/2021 12:00:00 AM","Volusia County","Florida","South","South Atlantic","12127","29.057769","-81.161792 ","74234","1209","74234","1209","","2019","553284","NYTIMES-USCENSUS"
"10/11/2021 12:00:00 AM","Norton city","Virginia","South","South Atlantic","51720","36.931549","-82.625996 ","527","12","527","12","","2019","3981","NYTIMES-USCENSUS"
"10/11/2021 12:00:00 AM","Duplin County","North Carolina","South","South Atlantic","37061","34.934403","-77.933543 ","9694","172","9694","172","","2019","58741","NYTIMES-USCENSUS"
"10/11/2021 12:00:00 AM","Petersburg city","Virginia","South","South Atlantic","51730","37.20473","-77.392368 ","5118","104","5118","104","","2019","31346","NYTIMES-USCENSUS"
"10/11/2021 12:00:00 AM","DuPage County","Illinois","Midwest","East North Central","17043","41.852058","-88.086039 ","106401","1457","106401","1457","","2019","922921","NYTIMES-USCENSUS"
"10/11/2021 12:00:00 AM","Poinsett County","Arkansas","South","West South Central","05111","35.56887","-90.681104 ","4836","98","4836","98","","2019","23528","NYTIMES-USCENSUS"
"10/11/2021 12:00:00 AM","Norfolk County","Massachusetts","Northeast","New England","25021","42.171738","-71.18111 ","62712","1849","62712","1849","","2019","706775","NYTIMES-USCENSUS"
"10/11/2021 12:00:00 AM","Le Flore County","Oklahoma","South","West South Central","40079","34.897356","-94.695074 ","7801","76","7801","76","","2019","49853","NYTIMES-USCENSUS"
"10/11/2021 12:00:00 AM","Worth County","Iowa","Midwest","West North Central","19195","43.373491","-93.248533 ","1035","8","1035","8","","2019","7381","NYTIMES-USCENSUS"
"10/11/2021 12:00:00 AM","Dallas County","Missouri","Midwest","West North Central","29059","37.683583","-93.033815 ","2232","40","2232","40","","2019","16878","NYTIMES-USCENSUS"
"10/11/2021 12:00:00 AM","St. Joseph County","Michigan","Midwest","East North Central","26149","41.911488","-85.52287 ","7925","115","7925","115","","2019","60964","NYTIMES-USCENSUS"
"10/11/2021 12:00:00 AM","Warren County","North Carolina","South","South Atlantic","37185","36.398105","-78.099899 ","2310","27","2310","27","","2019","19731","NYTIMES-USCENSUS"
"10/11/2021 12:00:00 AM","Ouray County","Colorado","West","Mountain","08091","38.154731","-107.78848 ","407","5","407","5","","2019","4952","NYTIMES-USCENSUS"
"10/11/2021 12:00:00 AM","Stewart County","Georgia","South","South Atlantic","13259","32.073225","-84.834912 ","1505","28","1505","28","","2019","6621","NYTIMES-USCENSUS"
"10/11/2021 12:00:00 AM","Boone County","Kentucky","South","East South Central","21015","38.9589","-84.736371 ","20215","197","20215","197","","2019","133581","NYTIMES-USCENSUS"
"10/11/2021 12:00:00 AM","Buffalo County","Nebraska","Midwest","West North Central","31019","40.855265","-99.074984 ","7083","57","7083","57","","2019","49659","NYTIMES-USCENSUS"
"10/11/2021 12:00:00 AM","Charles Mix County","South Dakota","Midwest","West North Central","46023","43.206185","-98.595143 ","1690","26","1690","26","","2019","9292","NYTIMES-USCENSUS"
"10/11/2021 12:00:00 AM","Hamilton County","Tennessee","South","East South Central","47065","35.163472","-85.201843 ","62738","634","62738","634","","2019","367804","NYTIMES-USCENSUS"
"10/11/2021 12:00:00 AM","Boundary County","Idaho","West","Mountain","16021","48.773131","-116.524668 ","1278","23","1278","23","","2019","12245","NYTIMES-USCENSUS"
"10/11/2021 12:00:00 AM","Wheatland County","Montana","West","Mountain","30107","46.496967","-109.857684 ","246","12","246","12","","2019","2126","NYTIMES-USCENSUS"
"10/11/2021 12:00:00 AM","Yamhill County","Oregon","West","Pacific","41071","45.247827","-123.316399 ","8387","108","8387","108","","2019","107100","NYTIMES-USCENSUS"
"10/11/2021 12:00:00 AM","Golden Valley County","Montana","West","Mountain","30037","46.380624","-109.174586 ","67","3","67","3","","2019","821","NYTIMES-USCENSUS"
"10/11/2021 12:00:00 AM","Bee County","Texas","South","West South Central","48025","28.416077","-97.742586 ","5281","119","5281","119","","2019","32565","NYTIMES-USCENSUS"
"10/11/2021 12:00:00 AM","Finney County","Kansas","Midwest","West North Central","20055","38.049808","-100.739967 ","7160","80","7160","80","","2019","36467","NYTIMES-USCENSUS"
"10/11/2021 12:00:00 AM","Marlboro County","South Carolina","South","South Atlantic","45069","34.60167","-79.679435 ","4725","77","4725","77","","2019","26118","NYTIMES-USCENSUS"
"10/11/2021 12:00:00 AM","Grant County","Wisconsin","Midwest","East North Central","55043","42.870028","-90.694229 ","7273","108","7273","108","","2019","51439","NYTIMES-USCENSUS"
