"MonitorDate","CounTYName","StateName","Region","SubRegion","FIPS","Latitude","Longitude","PeriodToDateCaseCount","PeriodToDateDeathCount","DailyCaseCount","DailyDeathCount","PreviousMonitorDate","PopulationYear","Population","Source"
"4/22/2021 12:00:00 AM","Houghton County","Michigan","Midwest","East North Central","26061","46.998427","-88.651903 ","3004","40","2","0","4/21/2021 12:00:00 AM","2019","35684","NYTIMES-USCENSUS"
"4/22/2021 12:00:00 AM","Monmouth County","New Jersey","Northeast","Middle Atlantic","34025","40.287048","-74.152446 ","73918","1560","196","2","4/21/2021 12:00:00 AM","2019","618795","NYTIMES-USCENSUS"
"4/22/2021 12:00:00 AM","Cass County","Missouri","Midwest","West North Central","29037","38.646474","-94.354547 ","8997","107","13","0","4/21/2021 12:00:00 AM","2019","105780","NYTIMES-USCENSUS"
"4/22/2021 12:00:00 AM","Eagle County","Colorado","West","Mountain","08037","39.626992","-106.695169 ","6123","22","16","0","4/21/2021 12:00:00 AM","2019","55127","NYTIMES-USCENSUS"
"4/22/2021 12:00:00 AM","Wayne County","Georgia","South","South Atlantic","13305","31.547845","-81.912376 ","3541","84","2","0","4/21/2021 12:00:00 AM","2019","29927","NYTIMES-USCENSUS"
"4/22/2021 12:00:00 AM","Niobrara County","Wyoming","West","Mountain","56027","43.062159","-104.468373 ","151","2","1","0","4/21/2021 12:00:00 AM","2019","2356","NYTIMES-USCENSUS"
"4/22/2021 12:00:00 AM","Clinton County","Michigan","Midwest","East North Central","26037","42.950455","-84.591695 ","7029","80","39","0","4/21/2021 12:00:00 AM","2019","79595","NYTIMES-USCENSUS"
"4/22/2021 12:00:00 AM","Webb County","Texas","South","West South Central","48479","27.760799","-99.340752 ","43614","833","0","0","4/21/2021 12:00:00 AM","2019","276652","NYTIMES-USCENSUS"
"4/22/2021 12:00:00 AM","Harrison County","Texas","South","West South Central","48203","32.547991","-94.374434 ","4774","106","2","1","4/21/2021 12:00:00 AM","2019","66553","NYTIMES-USCENSUS"
"4/22/2021 12:00:00 AM","Johnson County","Iowa","Midwest","West North Central","19103","41.670668","-91.590529 ","14185","81","30","0","4/21/2021 12:00:00 AM","2019","151140","NYTIMES-USCENSUS"
"4/22/2021 12:00:00 AM","Lincoln County","New Mexico","West","Mountain","35027","33.740841","-105.449805 ","1632","19","8","0","4/21/2021 12:00:00 AM","2019","19572","NYTIMES-USCENSUS"
"4/22/2021 12:00:00 AM","Richland County","Wisconsin","Midwest","East North Central","55103","43.376199","-90.435693 ","1368","15","2","0","4/21/2021 12:00:00 AM","2019","17252","NYTIMES-USCENSUS"
"4/22/2021 12:00:00 AM","Upshur County","Texas","South","West South Central","48459","32.735349","-94.941184 ","3235","74","1","0","4/21/2021 12:00:00 AM","2019","41753","NYTIMES-USCENSUS"
"4/22/2021 12:00:00 AM","Pine County","Minnesota","Midwest","West North Central","27115","46.10094","-92.763094 ","3151","21","13","0","4/21/2021 12:00:00 AM","2019","29579","NYTIMES-USCENSUS"
"4/22/2021 12:00:00 AM","Westmoreland County","Pennsylvania","Northeast","Middle Atlantic","42129","40.311068","-79.466688 ","31924","732","94","1","4/21/2021 12:00:00 AM","2019","348899","NYTIMES-USCENSUS"
"4/22/2021 12:00:00 AM","Summers County","West Virginia","South","South Atlantic","54089","37.655999","-80.856325 ","773","23","3","0","4/21/2021 12:00:00 AM","2019","12573","NYTIMES-USCENSUS"
"4/22/2021 12:00:00 AM","Forest County","Pennsylvania","Northeast","Middle Atlantic","42053","41.513304","-79.249705 ","1401","21","0","0","4/21/2021 12:00:00 AM","2019","7247","NYTIMES-USCENSUS"
"4/22/2021 12:00:00 AM","Cook County","Illinois","Midwest","East North Central","17031","41.894294","-87.645455 ","525854","10415","1262","13","4/21/2021 12:00:00 AM","2019","5150233","NYTIMES-USCENSUS"
"4/22/2021 12:00:00 AM","Pierce County","Georgia","South","South Atlantic","13229","31.353998","-82.21037 ","2434","56","2","0","4/21/2021 12:00:00 AM","2019","19465","NYTIMES-USCENSUS"
"4/22/2021 12:00:00 AM","Roane County","West Virginia","South","South Atlantic","54087","38.74295","-81.354494 ","588","8","4","0","4/21/2021 12:00:00 AM","2019","13688","NYTIMES-USCENSUS"
"4/22/2021 12:00:00 AM","Muscogee County","Georgia","South","South Atlantic","13215","32.510197","-84.874946 ","15976","438","35","1","4/21/2021 12:00:00 AM","2019","195769","NYTIMES-USCENSUS"
"4/22/2021 12:00:00 AM","Nolan County","Texas","South","West South Central","48353","32.312338","-100.418108 ","1528","51","0","0","4/21/2021 12:00:00 AM","2019","14714","NYTIMES-USCENSUS"
"4/22/2021 12:00:00 AM","Sandoval County","New Mexico","West","Mountain","35043","35.685091","-106.883119 ","11753","223","11","0","4/21/2021 12:00:00 AM","2019","146748","NYTIMES-USCENSUS"
"4/22/2021 12:00:00 AM","Knox County","Texas","South","West South Central","48275","33.61189","-99.730356 ","257","17","0","0","4/21/2021 12:00:00 AM","2019","3664","NYTIMES-USCENSUS"
"4/22/2021 12:00:00 AM","Grays Harbor County","Washington","West","Pacific","53027","47.113732","-123.826735 ","3713","62","18","0","4/21/2021 12:00:00 AM","2019","75061","NYTIMES-USCENSUS"
"4/22/2021 12:00:00 AM","Irion County","Texas","South","West South Central","48235","31.303424","-100.981304 ","123","1","0","0","4/21/2021 12:00:00 AM","2019","1536","NYTIMES-USCENSUS"
"4/22/2021 12:00:00 AM","DeKalb County","Georgia","South","South Atlantic","13089","33.770661","-84.226343 ","64512","974","108","3","4/21/2021 12:00:00 AM","2019","759297","NYTIMES-USCENSUS"
"4/22/2021 12:00:00 AM","Lincoln County","Colorado","West","Mountain","08073","38.99374","-103.507555 ","1014","4","0","0","4/21/2021 12:00:00 AM","2019","5701","NYTIMES-USCENSUS"
"4/22/2021 12:00:00 AM","Jones County","Georgia","South","South Atlantic","13169","33.021664","-83.562196 ","1988","57","6","0","4/21/2021 12:00:00 AM","2019","28735","NYTIMES-USCENSUS"
"4/22/2021 12:00:00 AM","Leslie County","Kentucky","South","East South Central","21131","37.087846","-83.388617 ","896","7","1","0","4/21/2021 12:00:00 AM","2019","9877","NYTIMES-USCENSUS"
"4/22/2021 12:00:00 AM","Strafford County","New Hampshire","Northeast","New England","33017","43.293272","-71.035589 ","9141","77","26","0","4/21/2021 12:00:00 AM","2019","130633","NYTIMES-USCENSUS"
"4/22/2021 12:00:00 AM","Schoolcraft County","Michigan","Midwest","East North Central","26153","46.021122","-86.197029 ","339","5","4","0","4/21/2021 12:00:00 AM","2019","8094","NYTIMES-USCENSUS"
"4/22/2021 12:00:00 AM","Dodge County","Nebraska","Midwest","West North Central","31053","41.577008","-96.645852 ","4894","59","3","0","4/21/2021 12:00:00 AM","2019","36565","NYTIMES-USCENSUS"
"4/22/2021 12:00:00 AM","Pershing County","Nevada","West","Mountain","32027","40.439639","-118.409477 ","953","20","0","0","4/21/2021 12:00:00 AM","2019","6725","NYTIMES-USCENSUS"
"4/22/2021 12:00:00 AM","Haskell County","Oklahoma","South","West South Central","40061","35.232431","-95.109642 ","1247","16","0","0","4/21/2021 12:00:00 AM","2019","12627","NYTIMES-USCENSUS"
"4/22/2021 12:00:00 AM","Guadalupe County","New Mexico","West","Mountain","35019","34.869782","-104.784968 ","627","9","0","0","4/21/2021 12:00:00 AM","2019","4300","NYTIMES-USCENSUS"
"4/22/2021 12:00:00 AM","Nelson County","North Dakota","Midwest","West North Central","38063","47.918667","-98.204428 ","471","14","0","0","4/21/2021 12:00:00 AM","2019","2879","NYTIMES-USCENSUS"
"4/22/2021 12:00:00 AM","Cedar County","Nebraska","Midwest","West North Central","31027","42.60456","-97.25687 ","765","11","0","0","4/21/2021 12:00:00 AM","2019","8402","NYTIMES-USCENSUS"
"4/22/2021 12:00:00 AM","Elk County","Kansas","Midwest","West North Central","20049","37.456026","-96.244642 ","179","5","0","0","4/21/2021 12:00:00 AM","2019","2530","NYTIMES-USCENSUS"
"4/22/2021 12:00:00 AM","Grant County","North Dakota","Midwest","West North Central","38037","46.357827","-101.639049 ","196","7","1","0","4/21/2021 12:00:00 AM","2019","2274","NYTIMES-USCENSUS"
"4/22/2021 12:00:00 AM","Cherokee County","Oklahoma","South","West South Central","40021","35.904367","-94.996796 ","5595","74","0","0","4/21/2021 12:00:00 AM","2019","48657","NYTIMES-USCENSUS"
"4/22/2021 12:00:00 AM","Hawaii County","Hawaii","West","Pacific","15001","19.597764","-155.502443 ","2710","53","9","0","4/21/2021 12:00:00 AM","2019","201513","NYTIMES-USCENSUS"
"4/22/2021 12:00:00 AM","LaSalle County","Illinois","Midwest","East North Central","17099","41.343341","-88.885931 ","11878","288","43","1","4/21/2021 12:00:00 AM","2019","108669","NYTIMES-USCENSUS"
"4/22/2021 12:00:00 AM","Trigg County","Kentucky","South","East South Central","21221","36.807681","-87.858652 ","1240","14","-1","0","4/21/2021 12:00:00 AM","2019","14651","NYTIMES-USCENSUS"
"4/22/2021 12:00:00 AM","Calhoun County","Iowa","Midwest","West North Central","19025","42.38617","-94.643683 ","1335","12","0","1","4/21/2021 12:00:00 AM","2019","9668","NYTIMES-USCENSUS"
"4/22/2021 12:00:00 AM","Herkimer County","New York","Northeast","Middle Atlantic","36043","43.571009","-74.841097 ","4949","107","3","0","4/21/2021 12:00:00 AM","2019","61319","NYTIMES-USCENSUS"
"4/22/2021 12:00:00 AM","Perry County","Pennsylvania","Northeast","Middle Atlantic","42099","40.39778","-77.266328 ","3534","97","6","1","4/21/2021 12:00:00 AM","2019","46272","NYTIMES-USCENSUS"
"4/22/2021 12:00:00 AM","New Madrid County","Missouri","Midwest","West North Central","29143","36.594261","-89.655948 ","2097","43","2","0","4/21/2021 12:00:00 AM","2019","17076","NYTIMES-USCENSUS"
"4/22/2021 12:00:00 AM","Jim Hogg County","Texas","South","West South Central","48247","27.053231","-98.747572 ","611","16","1","0","4/21/2021 12:00:00 AM","2019","5200","NYTIMES-USCENSUS"
"4/22/2021 12:00:00 AM","Major County","Oklahoma","South","West South Central","40093","36.313119","-98.542015 ","954","21","0","0","4/21/2021 12:00:00 AM","2019","7629","NYTIMES-USCENSUS"
"4/22/2021 12:00:00 AM","Jackson County","North Carolina","South","South Atlantic","37099","35.285454","-83.123966 ","3549","56","3","0","4/21/2021 12:00:00 AM","2019","43938","NYTIMES-USCENSUS"
"4/22/2021 12:00:00 AM","Sevier County","Arkansas","South","West South Central","05133","33.994877","-94.243279 ","2786","24","0","0","4/21/2021 12:00:00 AM","2019","17007","NYTIMES-USCENSUS"
"4/22/2021 12:00:00 AM","Pipestone County","Minnesota","Midwest","West North Central","27117","44.015361","-96.257015 ","1108","26","3","0","4/21/2021 12:00:00 AM","2019","9126","NYTIMES-USCENSUS"
"4/22/2021 12:00:00 AM","Ketchikan Gateway Borough","Alaska","West","Pacific","02130","55.449938","-131.106685 ","407","1","2","0","4/21/2021 12:00:00 AM","2019","13901","NYTIMES-USCENSUS"
"4/22/2021 12:00:00 AM","Salem County","New Jersey","Northeast","Middle Atlantic","34033","39.573828","-75.357356 ","5741","174","25","-1","4/21/2021 12:00:00 AM","2019","62385","NYTIMES-USCENSUS"
"4/22/2021 12:00:00 AM","Yukon-Koyukuk Census Area","Alaska","West","Pacific","02290","65.375727","-151.57785 ","358","4","1","0","4/21/2021 12:00:00 AM","2019","5230","NYTIMES-USCENSUS"
"4/22/2021 12:00:00 AM","Tooele County","Utah","West","Mountain","49045","40.467753","-113.123979 ","7110","41","12","0","4/21/2021 12:00:00 AM","2019","72259","NYTIMES-USCENSUS"
"4/22/2021 12:00:00 AM","Campbell County","Tennessee","South","East South Central","47013","36.401592","-84.159249 ","4112","62","7","0","4/21/2021 12:00:00 AM","2019","39842","NYTIMES-USCENSUS"
"4/22/2021 12:00:00 AM","Dukes County","Massachusetts","Northeast","New England","25007","41.38097","-70.701499 ","1208","0","15","0","4/21/2021 12:00:00 AM","2019","17332","NYTIMES-USCENSUS"
"4/22/2021 12:00:00 AM","Trumbull County","Ohio","Midwest","East North Central","39155","41.306374","-80.7704 ","15684","461","18","0","4/21/2021 12:00:00 AM","2019","197974","NYTIMES-USCENSUS"
"4/22/2021 12:00:00 AM","Quitman County","Georgia","South","South Atlantic","13239","31.862938","-85.004798 ","166","2","0","0","4/21/2021 12:00:00 AM","2019","2299","NYTIMES-USCENSUS"
"4/22/2021 12:00:00 AM","Plymouth County","Iowa","Midwest","West North Central","19149","42.737585","-96.215864 ","3990","79","4","0","4/21/2021 12:00:00 AM","2019","25177","NYTIMES-USCENSUS"
"4/22/2021 12:00:00 AM","Piute County","Utah","West","Mountain","49031","38.335881","-112.129375 ","99","2","0","0","4/21/2021 12:00:00 AM","2019","1479","NYTIMES-USCENSUS"
"4/22/2021 12:00:00 AM","Hughes County","South Dakota","Midwest","West North Central","46065","44.384452","-99.975684 ","2459","39","2","1","4/21/2021 12:00:00 AM","2019","17526","NYTIMES-USCENSUS"
"4/22/2021 12:00:00 AM","Leelanau County","Michigan","Midwest","East North Central","26089","45.146182","-86.051574 ","1165","17","1","0","4/21/2021 12:00:00 AM","2019","21761","NYTIMES-USCENSUS"
"4/22/2021 12:00:00 AM","Harrison County","Mississippi","South","East South Central","28047","30.416536","-89.083376 ","17626","306","14","2","4/21/2021 12:00:00 AM","2019","208080","NYTIMES-USCENSUS"
"4/22/2021 12:00:00 AM","Warren County","Kentucky","South","East South Central","21227","36.995634","-86.423579 ","15649","166","20","0","4/21/2021 12:00:00 AM","2019","132896","NYTIMES-USCENSUS"
"4/22/2021 12:00:00 AM","Morgan County","Alabama","South","East South Central","01103","34.454484","-86.846402 ","14183","276","3","2","4/21/2021 12:00:00 AM","2019","119679","NYTIMES-USCENSUS"
"4/22/2021 12:00:00 AM","Sullivan County","New Hampshire","Northeast","New England","33019","43.361188","-72.222084 ","1602","23","12","0","4/21/2021 12:00:00 AM","2019","43146","NYTIMES-USCENSUS"
"4/22/2021 12:00:00 AM","Lincoln County","Wyoming","West","Mountain","56023","42.229993","-110.682961 ","1388","12","1","0","4/21/2021 12:00:00 AM","2019","19830","NYTIMES-USCENSUS"
"4/22/2021 12:00:00 AM","Essex County","Virginia","South","South Atlantic","51057","37.936389","-76.933747 ","748","8","0","-1","4/21/2021 12:00:00 AM","2019","10953","NYTIMES-USCENSUS"
"4/22/2021 12:00:00 AM","Champaign County","Ohio","Midwest","East North Central","39021","40.132775","-83.767604 ","3232","57","9","0","4/21/2021 12:00:00 AM","2019","38885","NYTIMES-USCENSUS"
"4/22/2021 12:00:00 AM","Lamar County","Mississippi","South","East South Central","28073","31.197586","-89.506369 ","6164","85","4","0","4/21/2021 12:00:00 AM","2019","63343","NYTIMES-USCENSUS"
"4/22/2021 12:00:00 AM","Williamson County","Illinois","Midwest","East North Central","17199","37.730353","-88.930018 ","7236","138","7","0","4/21/2021 12:00:00 AM","2019","66597","NYTIMES-USCENSUS"
"4/22/2021 12:00:00 AM","Marion County","Oregon","West","Pacific","41047","44.900898","-122.57626 ","20503","299","110","0","4/21/2021 12:00:00 AM","2019","347818","NYTIMES-USCENSUS"
"4/22/2021 12:00:00 AM","Greenup County","Kentucky","South","East South Central","21089","38.563562","-82.93382 ","3532","57","4","0","4/21/2021 12:00:00 AM","2019","35098","NYTIMES-USCENSUS"
"4/22/2021 12:00:00 AM","Kane County","Utah","West","Mountain","49025","37.275089","-111.815329 ","658","5","0","0","4/21/2021 12:00:00 AM","2019","7886","NYTIMES-USCENSUS"
"4/22/2021 12:00:00 AM","Cherokee County","North Carolina","South","South Atlantic","37039","35.13715","-84.061449 ","2409","20","7","0","4/21/2021 12:00:00 AM","2019","28612","NYTIMES-USCENSUS"
"4/22/2021 12:00:00 AM","Nueces County","Texas","South","West South Central","48355","27.740032","-97.516214 ","41204","766","24","1","4/21/2021 12:00:00 AM","2019","362294","NYTIMES-USCENSUS"
"4/22/2021 12:00:00 AM","Platte County","Nebraska","Midwest","West North Central","31141","41.576866","-97.513467 ","4093","48","5","0","4/21/2021 12:00:00 AM","2019","33470","NYTIMES-USCENSUS"
"4/22/2021 12:00:00 AM","Washington Parish","Louisiana","South","West South Central","22117","30.852144","-90.046253 ","4345","129","10","0","4/21/2021 12:00:00 AM","2019","46194","NYTIMES-USCENSUS"
"4/22/2021 12:00:00 AM","Fall River County","South Dakota","Midwest","West North Central","46047","43.221619","-103.512609 ","587","15","1","0","4/21/2021 12:00:00 AM","2019","6713","NYTIMES-USCENSUS"
"4/22/2021 12:00:00 AM","Wayne County","North Carolina","South","South Atlantic","37191","35.35419","-78.00867 ","10844","238","13","0","4/21/2021 12:00:00 AM","2019","123131","NYTIMES-USCENSUS"
"4/22/2021 12:00:00 AM","Cole County","Missouri","Midwest","West North Central","29051","38.503233","-92.280027 ","9023","122","9","0","4/21/2021 12:00:00 AM","2019","76745","NYTIMES-USCENSUS"
"4/22/2021 12:00:00 AM","Covington County","Alabama","South","East South Central","01039","31.243987","-86.448721 ","4090","116","6","0","4/21/2021 12:00:00 AM","2019","37049","NYTIMES-USCENSUS"
"4/22/2021 12:00:00 AM","Unicoi County","Tennessee","South","East South Central","47171","36.100129","-82.418218 ","1968","49","16","0","4/21/2021 12:00:00 AM","2019","17883","NYTIMES-USCENSUS"
"4/22/2021 12:00:00 AM","Etowah County","Alabama","South","East South Central","01055","34.047641","-86.034263 ","13728","350","12","2","4/21/2021 12:00:00 AM","2019","102268","NYTIMES-USCENSUS"
"4/22/2021 12:00:00 AM","Izard County","Arkansas","South","West South Central","05065","36.094879","-91.913625 ","1675","41","1","0","4/21/2021 12:00:00 AM","2019","13629","NYTIMES-USCENSUS"
"4/22/2021 12:00:00 AM","Tunica County","Mississippi","South","East South Central","28143","34.652201","-90.37177 ","1039","25","1","0","4/21/2021 12:00:00 AM","2019","9632","NYTIMES-USCENSUS"
"4/22/2021 12:00:00 AM","McLennan County","Texas","South","West South Central","48309","31.549596","-97.201511 ","26714","468","0","1","4/21/2021 12:00:00 AM","2019","256623","NYTIMES-USCENSUS"
"4/22/2021 12:00:00 AM","Nye County","Nevada","West","Mountain","32023","37.965864","-116.459011 ","2890","106","2","0","4/21/2021 12:00:00 AM","2019","46523","NYTIMES-USCENSUS"
"4/22/2021 12:00:00 AM","Adams County","Washington","West","Pacific","53001","47.011238","-118.512861 ","2068","22","7","0","4/21/2021 12:00:00 AM","2019","19983","NYTIMES-USCENSUS"
"4/22/2021 12:00:00 AM","Freeborn County","Minnesota","Midwest","West North Central","27047","43.674202","-93.350289 ","3303","29","7","0","4/21/2021 12:00:00 AM","2019","30281","NYTIMES-USCENSUS"
"4/22/2021 12:00:00 AM","Union County","South Carolina","South","South Atlantic","45087","34.690397","-81.615896 ","3056","84","30","0","4/21/2021 12:00:00 AM","2019","27316","NYTIMES-USCENSUS"
"4/22/2021 12:00:00 AM","Webster County","Kentucky","South","East South Central","21233","37.51946","-87.68479 ","1225","20","1","0","4/21/2021 12:00:00 AM","2019","12942","NYTIMES-USCENSUS"
"4/22/2021 12:00:00 AM","Gilmer County","Georgia","South","South Atlantic","13123","34.690506","-84.454624 ","2926","83","1","0","4/21/2021 12:00:00 AM","2019","31369","NYTIMES-USCENSUS"
"4/22/2021 12:00:00 AM","Perry County","Mississippi","South","East South Central","28111","31.169307","-88.988755 ","1256","38","0","0","4/21/2021 12:00:00 AM","2019","11973","NYTIMES-USCENSUS"
"4/22/2021 12:00:00 AM","Henrico County","Virginia","South","South Atlantic","51087","37.43752","-77.300333 ","24609","596","56","1","4/21/2021 12:00:00 AM","2019","330818","NYTIMES-USCENSUS"
"4/22/2021 12:00:00 AM","Crawford County","Georgia","South","South Atlantic","13079","32.709428","-83.979187 ","657","19","2","0","4/21/2021 12:00:00 AM","2019","12404","NYTIMES-USCENSUS"
"4/22/2021 12:00:00 AM","Terrebonne Parish","Louisiana","South","West South Central","22109","29.33413","-90.843674 ","10012","219","9","0","4/21/2021 12:00:00 AM","2019","110461","NYTIMES-USCENSUS"
"4/22/2021 12:00:00 AM","Cass County","Indiana","Midwest","East North Central","18017","40.753799","-86.355168 ","5710","105","8","0","4/21/2021 12:00:00 AM","2019","37689","NYTIMES-USCENSUS"
"4/22/2021 12:00:00 AM","Adams County","Indiana","Midwest","East North Central","18001","40.745733","-84.93613 ","3445","54","2","0","4/21/2021 12:00:00 AM","2019","35777","NYTIMES-USCENSUS"
"4/22/2021 12:00:00 AM","Polk County","Arkansas","South","West South Central","05113","34.490915","-94.230884 ","1976","71","2","0","4/21/2021 12:00:00 AM","2019","19964","NYTIMES-USCENSUS"
"4/22/2021 12:00:00 AM","McKinley County","New Mexico","West","Mountain","35031","35.584062","-108.253294 ","12203","462","2","0","4/21/2021 12:00:00 AM","2019","71367","NYTIMES-USCENSUS"
"4/22/2021 12:00:00 AM","Clinton County","Ohio","Midwest","East North Central","39027","39.416681","-83.804583 ","3646","60","6","0","4/21/2021 12:00:00 AM","2019","41968","NYTIMES-USCENSUS"
"4/22/2021 12:00:00 AM","Fort Bend County","Texas","South","West South Central","48157","29.526602","-95.771015 ","66052","653","132","1","4/21/2021 12:00:00 AM","2019","811688","NYTIMES-USCENSUS"
"4/22/2021 12:00:00 AM","Smyth County","Virginia","South","South Atlantic","51173","36.842318","-81.539786 ","2766","91","6","0","4/21/2021 12:00:00 AM","2019","30104","NYTIMES-USCENSUS"
"4/22/2021 12:00:00 AM","Deaf Smith County","Texas","South","West South Central","48117","34.940766","-102.607564 ","2796","66","8","0","4/21/2021 12:00:00 AM","2019","18546","NYTIMES-USCENSUS"
"4/22/2021 12:00:00 AM","McIntosh County","Oklahoma","South","West South Central","40091","35.369108","-95.671787 ","1994","56","0","0","4/21/2021 12:00:00 AM","2019","19596","NYTIMES-USCENSUS"
"4/22/2021 12:00:00 AM","Beaverhead County","Montana","West","Mountain","30001","45.133863","-112.892869 ","904","9","0","0","4/21/2021 12:00:00 AM","2019","9453","NYTIMES-USCENSUS"
"4/22/2021 12:00:00 AM","Lincoln County","Wisconsin","Midwest","East North Central","55069","45.333148","-89.73224 ","3250","89","2","1","4/21/2021 12:00:00 AM","2019","27593","NYTIMES-USCENSUS"
"4/22/2021 12:00:00 AM","Franklin County","Pennsylvania","Northeast","Middle Atlantic","42055","39.926772","-77.724521 ","14424","352","26","3","4/21/2021 12:00:00 AM","2019","155027","NYTIMES-USCENSUS"
"4/22/2021 12:00:00 AM","Grant County","Washington","West","Pacific","53025","47.213633","-119.467788 ","9748","114","19","0","4/21/2021 12:00:00 AM","2019","97733","NYTIMES-USCENSUS"
"4/22/2021 12:00:00 AM","Nantucket County","Massachusetts","Northeast","New England","25019","41.293392","-70.102164 ","1456","0","15","0","4/21/2021 12:00:00 AM","2019","11399","NYTIMES-USCENSUS"
"4/22/2021 12:00:00 AM","Botetourt County","Virginia","South","South Atlantic","51023","37.565482","-79.797546 ","2486","36","2","0","4/21/2021 12:00:00 AM","2019","33419","NYTIMES-USCENSUS"
"4/22/2021 12:00:00 AM","Wallowa County","Oregon","West","Pacific","41063","45.593753","-117.18558 ","158","5","0","0","4/21/2021 12:00:00 AM","2019","7208","NYTIMES-USCENSUS"
"4/22/2021 12:00:00 AM","Custer County","Nebraska","Midwest","West North Central","31041","41.393893","-99.726866 ","844","18","1","0","4/21/2021 12:00:00 AM","2019","10777","NYTIMES-USCENSUS"
"4/22/2021 12:00:00 AM","Columbia County","Florida","South","South Atlantic","12023","30.221651","-82.623371 ","8031","165","5","0","4/21/2021 12:00:00 AM","2019","71686","NYTIMES-USCENSUS"
"4/22/2021 12:00:00 AM","Kenai Peninsula Borough","Alaska","West","Pacific","02122","60.360766","-152.05264 ","4351","19","14","0","4/21/2021 12:00:00 AM","2019","58708","NYTIMES-USCENSUS"
"4/22/2021 12:00:00 AM","Maverick County","Texas","South","West South Central","48323","28.729787","-100.316678 ","10407","352","0","0","4/21/2021 12:00:00 AM","2019","58722","NYTIMES-USCENSUS"
"4/22/2021 12:00:00 AM","Alpena County","Michigan","Midwest","East North Central","26007","44.894954","-83.426574 ","1974","54","13","0","4/21/2021 12:00:00 AM","2019","28405","NYTIMES-USCENSUS"
"4/22/2021 12:00:00 AM","Chatham County","Georgia","South","South Atlantic","13051","31.980404","-81.085184 ","22862","438","37","2","4/21/2021 12:00:00 AM","2019","289430","NYTIMES-USCENSUS"
"4/22/2021 12:00:00 AM","Hamilton County","Iowa","Midwest","West North Central","19079","42.390789","-93.70913 ","1785","49","1","0","4/21/2021 12:00:00 AM","2019","14773","NYTIMES-USCENSUS"
"4/22/2021 12:00:00 AM","Morris County","Kansas","Midwest","West North Central","20127","38.688204","-96.651448 ","613","22","0","0","4/21/2021 12:00:00 AM","2019","5620","NYTIMES-USCENSUS"
"4/22/2021 12:00:00 AM","Wichita County","Texas","South","West South Central","48485","33.988212","-98.70801 ","14916","374","0","0","4/21/2021 12:00:00 AM","2019","132230","NYTIMES-USCENSUS"
"4/22/2021 12:00:00 AM","East Feliciana Parish","Louisiana","South","West South Central","22037","30.839784","-91.043434 ","3121","112","2","0","4/21/2021 12:00:00 AM","2019","19135","NYTIMES-USCENSUS"
"4/22/2021 12:00:00 AM","Jones County","Texas","South","West South Central","48253","32.743709","-99.87443 ","2660","53","6","0","4/21/2021 12:00:00 AM","2019","20083","NYTIMES-USCENSUS"
"4/22/2021 12:00:00 AM","Freestone County","Texas","South","West South Central","48161","31.701749","-96.144957 ","1850","49","1","0","4/21/2021 12:00:00 AM","2019","19717","NYTIMES-USCENSUS"
"4/22/2021 12:00:00 AM","Waukesha County","Wisconsin","Midwest","East North Central","55133","43.018368","-88.30424 ","48052","566","54","2","4/21/2021 12:00:00 AM","2019","404198","NYTIMES-USCENSUS"
"4/22/2021 12:00:00 AM","Hall County","Nebraska","Midwest","West North Central","31079","40.866027","-98.502664 ","7704","116","0","0","4/21/2021 12:00:00 AM","2019","61353","NYTIMES-USCENSUS"
"4/22/2021 12:00:00 AM","Newaygo County","Michigan","Midwest","East North Central","26123","43.562712","-85.791372 ","4171","57","30","0","4/21/2021 12:00:00 AM","2019","48980","NYTIMES-USCENSUS"
"4/22/2021 12:00:00 AM","Abbeville County","South Carolina","South","South Atlantic","45001","34.229041","-82.454058 ","2534","40","0","1","4/21/2021 12:00:00 AM","2019","24527","NYTIMES-USCENSUS"
"4/22/2021 12:00:00 AM","Meade County","Kentucky","South","East South Central","21163","37.967476","-86.200863 ","1996","25","2","1","4/21/2021 12:00:00 AM","2019","28572","NYTIMES-USCENSUS"
"4/22/2021 12:00:00 AM","Woodward County","Oklahoma","South","West South Central","40153","36.425619","-99.273661 ","3145","33","0","0","4/21/2021 12:00:00 AM","2019","20211","NYTIMES-USCENSUS"
"4/22/2021 12:00:00 AM","Gregory County","South Dakota","Midwest","West North Central","46053","43.175142","-99.206591 ","579","30","0","0","4/21/2021 12:00:00 AM","2019","4185","NYTIMES-USCENSUS"
"4/22/2021 12:00:00 AM","Champaign County","Illinois","Midwest","East North Central","17019","40.138985","-88.196975 ","19921","147","19","0","4/21/2021 12:00:00 AM","2019","209689","NYTIMES-USCENSUS"
"4/22/2021 12:00:00 AM","Wayne County","Kentucky","South","East South Central","21231","36.800772","-84.82659 ","2183","46","0","0","4/21/2021 12:00:00 AM","2019","20333","NYTIMES-USCENSUS"
"4/22/2021 12:00:00 AM","Carroll County","Mississippi","South","East South Central","28015","33.440795","-89.918887 ","1212","27","0","1","4/21/2021 12:00:00 AM","2019","9947","NYTIMES-USCENSUS"
"4/22/2021 12:00:00 AM","Pacific County","Washington","West","Pacific","53049","46.556587","-123.782419 ","874","10","1","0","4/21/2021 12:00:00 AM","2019","22471","NYTIMES-USCENSUS"
"4/22/2021 12:00:00 AM","Renville County","Minnesota","Midwest","West North Central","27129","44.723697","-94.955617 ","1732","43","3","0","4/21/2021 12:00:00 AM","2019","14548","NYTIMES-USCENSUS"
"4/22/2021 12:00:00 AM","Kittson County","Minnesota","Midwest","West North Central","27069","48.77604","-96.780349 ","468","22","0","0","4/21/2021 12:00:00 AM","2019","4298","NYTIMES-USCENSUS"
"4/22/2021 12:00:00 AM","Marinette County","Wisconsin","Midwest","East North Central","55075","45.346899","-87.991198 ","4499","68","6","0","4/21/2021 12:00:00 AM","2019","40350","NYTIMES-USCENSUS"
"4/22/2021 12:00:00 AM","Lincoln County","Georgia","South","South Atlantic","13181","33.792151","-82.448299 ","798","26","2","0","4/21/2021 12:00:00 AM","2019","7921","NYTIMES-USCENSUS"
"4/22/2021 12:00:00 AM","Tillman County","Oklahoma","South","West South Central","40141","34.371085","-98.931701 ","802","17","0","0","4/21/2021 12:00:00 AM","2019","7250","NYTIMES-USCENSUS"
"4/22/2021 12:00:00 AM","Gray County","Kansas","Midwest","West North Central","20069","37.744513","-100.451716 ","611","14","0","0","4/21/2021 12:00:00 AM","2019","5988","NYTIMES-USCENSUS"
"4/22/2021 12:00:00 AM","Tuscola County","Michigan","Midwest","East North Central","26157","43.487902","-83.436618 ","5178","155","27","0","4/21/2021 12:00:00 AM","2019","52245","NYTIMES-USCENSUS"
"4/22/2021 12:00:00 AM","Gonzales County","Texas","South","West South Central","48177","29.461912","-97.49192 ","2707","57","2","0","4/21/2021 12:00:00 AM","2019","20837","NYTIMES-USCENSUS"
"4/22/2021 12:00:00 AM","Pima County","Arizona","West","Mountain","04019","32.128038","-111.783657 ","114625","2388","187","0","4/21/2021 12:00:00 AM","2019","1047279","NYTIMES-USCENSUS"
"4/22/2021 12:00:00 AM","Clinton County","Pennsylvania","Northeast","Middle Atlantic","42035","41.239508","-77.629009 ","3440","61","29","0","4/21/2021 12:00:00 AM","2019","38632","NYTIMES-USCENSUS"
"4/22/2021 12:00:00 AM","Scott County","Missouri","Midwest","West North Central","29201","37.047793","-89.568098 ","4674","83","0","0","4/21/2021 12:00:00 AM","2019","38280","NYTIMES-USCENSUS"
"4/22/2021 12:00:00 AM","Oconto County","Wisconsin","Midwest","East North Central","55083","44.996575","-88.206516 ","4897","58","4","0","4/21/2021 12:00:00 AM","2019","37930","NYTIMES-USCENSUS"
"4/22/2021 12:00:00 AM","Searcy County","Arkansas","South","West South Central","05129","35.896387","-92.695888 ","678","17","0","0","4/21/2021 12:00:00 AM","2019","7881","NYTIMES-USCENSUS"
"4/22/2021 12:00:00 AM","Clay County","Kansas","Midwest","West North Central","20027","39.344964","-97.168853 ","826","29","0","0","4/21/2021 12:00:00 AM","2019","8002","NYTIMES-USCENSUS"
"4/22/2021 12:00:00 AM","Cass County","Texas","South","West South Central","48067","33.083698","-94.357579 ","1902","81","5","0","4/21/2021 12:00:00 AM","2019","30026","NYTIMES-USCENSUS"
"4/22/2021 12:00:00 AM","Scott County","Virginia","South","South Atlantic","51169","36.712776","-82.613624 ","1786","52","3","1","4/21/2021 12:00:00 AM","2019","21566","NYTIMES-USCENSUS"
"4/22/2021 12:00:00 AM","Grainger County","Tennessee","South","East South Central","47057","36.277509","-83.509546 ","2600","49","4","0","4/21/2021 12:00:00 AM","2019","23320","NYTIMES-USCENSUS"
"4/22/2021 12:00:00 AM","Jim Wells County","Texas","South","West South Central","48249","27.733516","-98.090814 ","4196","100","8","0","4/21/2021 12:00:00 AM","2019","40482","NYTIMES-USCENSUS"
"4/22/2021 12:00:00 AM","Worth County","Missouri","Midwest","West North Central","29227","40.480499","-94.419198 ","162","2","0","0","4/21/2021 12:00:00 AM","2019","2013","NYTIMES-USCENSUS"
"4/22/2021 12:00:00 AM","Crittenden County","Arkansas","South","West South Central","05035","35.197559","-90.30512 ","5977","96","6","0","4/21/2021 12:00:00 AM","2019","47955","NYTIMES-USCENSUS"
"4/22/2021 12:00:00 AM","Chautauqua County","New York","Northeast","Middle Atlantic","36013","42.304216","-79.407595 ","8489","137","30","0","4/21/2021 12:00:00 AM","2019","126903","NYTIMES-USCENSUS"
"4/22/2021 12:00:00 AM","Franklin County","Indiana","Midwest","East North Central","18047","39.409762","-85.066964 ","1678","36","0","0","4/21/2021 12:00:00 AM","2019","22758","NYTIMES-USCENSUS"
"4/22/2021 12:00:00 AM","Dawes County","Nebraska","Midwest","West North Central","31045","42.713038","-103.135436 ","735","18","-1","0","4/21/2021 12:00:00 AM","2019","8589","NYTIMES-USCENSUS"
"4/22/2021 12:00:00 AM","Milwaukee County","Wisconsin","Midwest","East North Central","55079","42.912643","-87.862312 ","113723","1325","157","0","4/21/2021 12:00:00 AM","2019","945726","NYTIMES-USCENSUS"
"4/22/2021 12:00:00 AM","Bernalillo County","New Mexico","West","Mountain","35001","35.053628","-106.66908 ","56282","923","80","1","4/21/2021 12:00:00 AM","2019","679121","NYTIMES-USCENSUS"
"4/22/2021 12:00:00 AM","Johnson County","Georgia","South","South Atlantic","13167","32.694584","-82.66397 ","1114","49","1","0","4/21/2021 12:00:00 AM","2019","9643","NYTIMES-USCENSUS"
"4/22/2021 12:00:00 AM","Coosa County","Alabama","South","East South Central","01037","32.931445","-86.243482 ","1031","28","22","0","4/21/2021 12:00:00 AM","2019","10663","NYTIMES-USCENSUS"
"4/22/2021 12:00:00 AM","McDonough County","Illinois","Midwest","East North Central","17109","40.455808","-90.678954 ","2623","56","12","0","4/21/2021 12:00:00 AM","2019","29682","NYTIMES-USCENSUS"
"4/22/2021 12:00:00 AM","Woodruff County","Arkansas","South","West South Central","05147","35.192777","-91.244535 ","644","13","0","0","4/21/2021 12:00:00 AM","2019","6320","NYTIMES-USCENSUS"
"4/22/2021 12:00:00 AM","Crow Wing County","Minnesota","Midwest","West North Central","27035","46.491653","-94.070718 ","6265","86","23","0","4/21/2021 12:00:00 AM","2019","65055","NYTIMES-USCENSUS"
"4/22/2021 12:00:00 AM","Waynesboro city","Virginia","South","South Atlantic","51820","38.067157","-78.90142 ","2321","36","1","0","4/21/2021 12:00:00 AM","2019","22630","NYTIMES-USCENSUS"
"4/22/2021 12:00:00 AM","Licking County","Ohio","Midwest","East North Central","39089","40.091505","-82.483435 ","16206","207","21","0","4/21/2021 12:00:00 AM","2019","176862","NYTIMES-USCENSUS"
"4/22/2021 12:00:00 AM","Adams County","Mississippi","South","East South Central","28001","31.486224","-91.351797 ","2473","82","1","0","4/21/2021 12:00:00 AM","2019","30693","NYTIMES-USCENSUS"
"4/22/2021 12:00:00 AM","Terrell County","Georgia","South","South Atlantic","13273","31.777191","-84.439446 ","791","47","1","0","4/21/2021 12:00:00 AM","2019","8531","NYTIMES-USCENSUS"
"4/22/2021 12:00:00 AM","Lowndes County","Georgia","South","South Atlantic","13185","30.833145","-83.268995 ","12493","204","8","1","4/21/2021 12:00:00 AM","2019","117406","NYTIMES-USCENSUS"
"4/22/2021 12:00:00 AM","Rapides Parish","Louisiana","South","West South Central","22079","31.193204","-92.535953 ","11857","312","10","0","4/21/2021 12:00:00 AM","2019","129648","NYTIMES-USCENSUS"
"4/22/2021 12:00:00 AM","Isle of Wight County","Virginia","South","South Atlantic","51093","36.901418","-76.707569 ","3077","65","3","0","4/21/2021 12:00:00 AM","2019","37109","NYTIMES-USCENSUS"
"4/22/2021 12:00:00 AM","Cumberland County","Virginia","South","South Atlantic","51049","37.520189","-78.252836 ","451","9","0","0","4/21/2021 12:00:00 AM","2019","9932","NYTIMES-USCENSUS"
"4/22/2021 12:00:00 AM","Cass County","Iowa","Midwest","West North Central","19029","41.333824","-94.933302 ","1354","54","2","0","4/21/2021 12:00:00 AM","2019","12836","NYTIMES-USCENSUS"
"4/22/2021 12:00:00 AM","Bartow County","Georgia","South","South Atlantic","13015","34.240917","-84.838188 ","14535","223","40","0","4/21/2021 12:00:00 AM","2019","107738","NYTIMES-USCENSUS"
"4/22/2021 12:00:00 AM","Valley County","Nebraska","Midwest","West North Central","31175","41.564094","-98.983484 ","325","3","1","0","4/21/2021 12:00:00 AM","2019","4158","NYTIMES-USCENSUS"
"4/22/2021 12:00:00 AM","Graham County","North Carolina","South","South Atlantic","37075","35.348364","-83.830915 ","574","12","0","0","4/21/2021 12:00:00 AM","2019","8441","NYTIMES-USCENSUS"
"4/22/2021 12:00:00 AM","Mobile County","Alabama","South","East South Central","01097","30.684572","-88.196568 ","40509","800","251","0","4/21/2021 12:00:00 AM","2019","413210","NYTIMES-USCENSUS"
"4/22/2021 12:00:00 AM","Weber County","Utah","West","Mountain","49057","41.270325","-111.876883 ","28536","194","0","0","4/21/2021 12:00:00 AM","2019","260213","NYTIMES-USCENSUS"
"4/22/2021 12:00:00 AM","Marshall County","Oklahoma","South","West South Central","40095","34.027007","-96.770533 ","2042","22","0","0","4/21/2021 12:00:00 AM","2019","16931","NYTIMES-USCENSUS"
"4/22/2021 12:00:00 AM","Wood County","West Virginia","South","South Atlantic","54107","39.211602","-81.516234 ","7600","168","9","0","4/21/2021 12:00:00 AM","2019","83518","NYTIMES-USCENSUS"
"4/22/2021 12:00:00 AM","Watauga County","North Carolina","South","South Atlantic","37189","36.235368","-81.709888 ","4425","31","26","0","4/21/2021 12:00:00 AM","2019","56177","NYTIMES-USCENSUS"
"4/22/2021 12:00:00 AM","Cleveland County","Oklahoma","South","West South Central","40027","35.206376","-97.323088 ","30684","393","0","0","4/21/2021 12:00:00 AM","2019","284014","NYTIMES-USCENSUS"
"4/22/2021 12:00:00 AM","Washington County","Arkansas","South","West South Central","05143","35.978001","-94.217269 ","30624","345","6","0","4/21/2021 12:00:00 AM","2019","239187","NYTIMES-USCENSUS"
"4/22/2021 12:00:00 AM","Madison County","Indiana","Midwest","East North Central","18095","40.166203","-85.722454 ","12408","356","12","0","4/21/2021 12:00:00 AM","2019","129569","NYTIMES-USCENSUS"
"4/22/2021 12:00:00 AM","Bandera County","Texas","South","West South Central","48019","29.756389","-99.248285 ","1369","27","7","0","4/21/2021 12:00:00 AM","2019","23112","NYTIMES-USCENSUS"
"4/22/2021 12:00:00 AM","Carroll County","Missouri","Midwest","West North Central","29033","39.427375","-93.500227 ","1027","23","2","0","4/21/2021 12:00:00 AM","2019","8679","NYTIMES-USCENSUS"
"4/22/2021 12:00:00 AM","Wharton County","Texas","South","West South Central","48481","29.27848","-96.229674 ","4042","114","14","1","4/21/2021 12:00:00 AM","2019","41556","NYTIMES-USCENSUS"
"4/22/2021 12:00:00 AM","Lake County","Minnesota","Midwest","West North Central","27075","47.517111","-91.411704 ","792","19","4","0","4/21/2021 12:00:00 AM","2019","10641","NYTIMES-USCENSUS"
"4/22/2021 12:00:00 AM","Zavala County","Texas","South","West South Central","48507","28.864652","-99.75983 ","1883","43","0","0","4/21/2021 12:00:00 AM","2019","11840","NYTIMES-USCENSUS"
"4/22/2021 12:00:00 AM","Magoffin County","Kentucky","South","East South Central","21153","37.698983","-83.069721 ","932","14","1","0","4/21/2021 12:00:00 AM","2019","12161","NYTIMES-USCENSUS"
"4/22/2021 12:00:00 AM","Marshall County","South Dakota","Midwest","West North Central","46091","45.737044","-97.58087 ","366","6","0","0","4/21/2021 12:00:00 AM","2019","4935","NYTIMES-USCENSUS"
"4/22/2021 12:00:00 AM","Marion County","West Virginia","South","South Atlantic","54049","39.505839","-80.243402 ","4195","49","11","0","4/21/2021 12:00:00 AM","2019","56072","NYTIMES-USCENSUS"
"4/22/2021 12:00:00 AM","Mercer County","Pennsylvania","Northeast","Middle Atlantic","42085","41.300014","-80.252786 ","8994","253","16","0","4/21/2021 12:00:00 AM","2019","109424","NYTIMES-USCENSUS"
"4/22/2021 12:00:00 AM","Cayuga County","New York","Northeast","Middle Atlantic","36011","43.008546","-76.574587 ","5934","90","19","0","4/21/2021 12:00:00 AM","2019","76576","NYTIMES-USCENSUS"
"4/22/2021 12:00:00 AM","Kankakee County","Illinois","Midwest","East North Central","17091","41.13951","-87.861117 ","13622","207","46","0","4/21/2021 12:00:00 AM","2019","109862","NYTIMES-USCENSUS"
"4/22/2021 12:00:00 AM","Kings County","California","West","Pacific","06031","36.072478","-119.81553 ","22811","246","15","0","4/21/2021 12:00:00 AM","2019","152940","NYTIMES-USCENSUS"
"4/22/2021 12:00:00 AM","Beauregard Parish","Louisiana","South","West South Central","22011","30.645018","-93.340253 ","3142","75","7","0","4/21/2021 12:00:00 AM","2019","37497","NYTIMES-USCENSUS"
"4/22/2021 12:00:00 AM","Morgan County","Ohio","Midwest","East North Central","39115","39.624946","-81.861697 ","1077","23","0","0","4/21/2021 12:00:00 AM","2019","14508","NYTIMES-USCENSUS"
"4/22/2021 12:00:00 AM","Ringgold County","Iowa","Midwest","West North Central","19159","40.735334","-94.244251 ","536","24","0","0","4/21/2021 12:00:00 AM","2019","4894","NYTIMES-USCENSUS"
"4/22/2021 12:00:00 AM","Goochland County","Virginia","South","South Atlantic","51075","37.718814","-77.917626 ","1406","23","5","0","4/21/2021 12:00:00 AM","2019","23753","NYTIMES-USCENSUS"
"4/22/2021 12:00:00 AM","Bryan County","Oklahoma","South","West South Central","40013","33.964004","-96.265135 ","6080","70","0","0","4/21/2021 12:00:00 AM","2019","47995","NYTIMES-USCENSUS"
"4/22/2021 12:00:00 AM","Jackson County","South Dakota","Midwest","West North Central","46071","43.677506","-101.626323 ","289","14","0","0","4/21/2021 12:00:00 AM","2019","3344","NYTIMES-USCENSUS"
"4/22/2021 12:00:00 AM","Gallatin County","Illinois","Midwest","East North Central","17059","37.768677","-88.227964 ","453","5","0","0","4/21/2021 12:00:00 AM","2019","4828","NYTIMES-USCENSUS"
"4/22/2021 12:00:00 AM","Edwards County","Kansas","Midwest","West North Central","20047","37.883595","-99.304746 ","262","12","0","0","4/21/2021 12:00:00 AM","2019","2798","NYTIMES-USCENSUS"
"4/22/2021 12:00:00 AM","Ray County","Missouri","Midwest","West North Central","29177","39.308401","-93.995746 ","1925","27","1","0","4/21/2021 12:00:00 AM","2019","23018","NYTIMES-USCENSUS"
"4/22/2021 12:00:00 AM","Tuscaloosa County","Alabama","South","East South Central","01125","33.29022","-87.522783 ","25469","445","21","0","4/21/2021 12:00:00 AM","2019","209355","NYTIMES-USCENSUS"
"4/22/2021 12:00:00 AM","Carroll County","Virginia","South","South Atlantic","51035","36.731963","-80.727831 ","2543","67","13","0","4/21/2021 12:00:00 AM","2019","29791","NYTIMES-USCENSUS"
"4/22/2021 12:00:00 AM","Iberville Parish","Louisiana","South","West South Central","22047","30.270653","-91.365872 ","3773","98","-2","0","4/21/2021 12:00:00 AM","2019","32511","NYTIMES-USCENSUS"
"4/22/2021 12:00:00 AM","Fayette County","Texas","South","West South Central","48149","29.877886","-96.921231 ","2654","60","6","0","4/21/2021 12:00:00 AM","2019","25346","NYTIMES-USCENSUS"
"4/22/2021 12:00:00 AM","Mitchell County","Kansas","Midwest","West North Central","20123","39.393026","-98.207362 ","561","18","0","0","4/21/2021 12:00:00 AM","2019","5979","NYTIMES-USCENSUS"
"4/22/2021 12:00:00 AM","Orange County","Florida","South","South Atlantic","12095","28.514391","-81.323284 ","133210","1230","495","0","4/21/2021 12:00:00 AM","2019","1393452","NYTIMES-USCENSUS"
"4/22/2021 12:00:00 AM","Hancock County","Mississippi","South","East South Central","28045","30.391641","-89.482791 ","3747","85","2","0","4/21/2021 12:00:00 AM","2019","47632","NYTIMES-USCENSUS"
"4/22/2021 12:00:00 AM","Hooker County","Nebraska","Midwest","West North Central","31091","41.920317","-101.117324 ","54","2","0","0","4/21/2021 12:00:00 AM","2019","682","NYTIMES-USCENSUS"
"4/22/2021 12:00:00 AM","Warren County","Iowa","Midwest","West North Central","19181","41.332446","-93.568751 ","5615","86","23","0","4/21/2021 12:00:00 AM","2019","51466","NYTIMES-USCENSUS"
"4/22/2021 12:00:00 AM","Comanche County","Texas","South","West South Central","48093","31.951645","-98.549617 ","1525","51","1","0","4/21/2021 12:00:00 AM","2019","13635","NYTIMES-USCENSUS"
"4/22/2021 12:00:00 AM","Cheatham County","Tennessee","South","East South Central","47021","36.255169","-87.100808 ","4485","55","26","1","4/21/2021 12:00:00 AM","2019","40667","NYTIMES-USCENSUS"
"4/22/2021 12:00:00 AM","Scott County","Arkansas","South","West South Central","05127","34.858869","-94.063641 ","930","14","2","0","4/21/2021 12:00:00 AM","2019","10281","NYTIMES-USCENSUS"
"4/22/2021 12:00:00 AM","Greenbrier County","West Virginia","South","South Atlantic","54025","37.924418","-80.45059 ","2659","65","16","0","4/21/2021 12:00:00 AM","2019","34662","NYTIMES-USCENSUS"
"4/22/2021 12:00:00 AM","Murray County","Oklahoma","South","West South Central","40099","34.485766","-97.071557 ","2007","37","0","0","4/21/2021 12:00:00 AM","2019","14073","NYTIMES-USCENSUS"
"4/22/2021 12:00:00 AM","Smith County","Tennessee","South","East South Central","47159","36.256645","-85.941915 ","2753","39","1","1","4/21/2021 12:00:00 AM","2019","20157","NYTIMES-USCENSUS"
"4/22/2021 12:00:00 AM","San Diego County","California","West","Pacific","06073","33.023604","-116.776117 ","275695","3681","263","7","4/21/2021 12:00:00 AM","2019","3338330","NYTIMES-USCENSUS"
"4/22/2021 12:00:00 AM","Orange County","New York","Northeast","Middle Atlantic","36071","41.40241","-74.306252 ","46555","698","152","0","4/21/2021 12:00:00 AM","2019","384940","NYTIMES-USCENSUS"
"4/22/2021 12:00:00 AM","Bleckley County","Georgia","South","South Atlantic","13023","32.435403","-83.331717 ","1462","51","2","0","4/21/2021 12:00:00 AM","2019","12873","NYTIMES-USCENSUS"
"4/22/2021 12:00:00 AM","Meade County","Kansas","Midwest","West North Central","20119","37.243886","-100.360094 ","510","12","0","0","4/21/2021 12:00:00 AM","2019","4033","NYTIMES-USCENSUS"
"4/22/2021 12:00:00 AM","Richmond city","Virginia","South","South Atlantic","51760","37.531399","-77.476009 ","16592","256","43","0","4/21/2021 12:00:00 AM","2019","230436","NYTIMES-USCENSUS"
"4/22/2021 12:00:00 AM","Greene County","Tennessee","South","East South Central","47059","36.179487","-82.847523 ","7777","152","31","0","4/21/2021 12:00:00 AM","2019","69069","NYTIMES-USCENSUS"
"4/22/2021 12:00:00 AM","Stephenson County","Illinois","Midwest","East North Central","17177","42.349726","-89.665994 ","4559","100","17","1","4/21/2021 12:00:00 AM","2019","44498","NYTIMES-USCENSUS"
"4/22/2021 12:00:00 AM","Fulton County","Kentucky","South","East South Central","21075","36.552511","-89.187659 ","505","14","0","0","4/21/2021 12:00:00 AM","2019","5969","NYTIMES-USCENSUS"
"4/22/2021 12:00:00 AM","Dougherty County","Georgia","South","South Atlantic","13095","31.532588","-84.20904 ","7421","299","11","3","4/21/2021 12:00:00 AM","2019","87956","NYTIMES-USCENSUS"
"4/22/2021 12:00:00 AM","Polk County","Minnesota","Midwest","West North Central","27119","47.774254","-96.400027 ","3690","67","11","0","4/21/2021 12:00:00 AM","2019","31364","NYTIMES-USCENSUS"
"4/22/2021 12:00:00 AM","Johnson County","Kansas","Midwest","West North Central","20091","38.883907","-94.82233 ","57317","744","0","0","4/21/2021 12:00:00 AM","2019","602401","NYTIMES-USCENSUS"
"4/22/2021 12:00:00 AM","Henry County","Missouri","Midwest","West North Central","29083","38.386491","-93.792628 ","1991","38","4","0","4/21/2021 12:00:00 AM","2019","21824","NYTIMES-USCENSUS"
"4/22/2021 12:00:00 AM","Miami County","Ohio","Midwest","East North Central","39109","40.053326","-84.228413 ","10579","214","11","0","4/21/2021 12:00:00 AM","2019","106987","NYTIMES-USCENSUS"
"4/22/2021 12:00:00 AM","Anderson County","Kansas","Midwest","West North Central","20003","38.215114","-95.292046 ","834","18","0","0","4/21/2021 12:00:00 AM","2019","7858","NYTIMES-USCENSUS"
"4/22/2021 12:00:00 AM","Bourbon County","Kentucky","South","East South Central","21017","38.202562","-84.20986 ","1658","18","1","0","4/21/2021 12:00:00 AM","2019","19788","NYTIMES-USCENSUS"
"4/22/2021 12:00:00 AM","Miami-Dade County","Florida","South","South Atlantic","12086","25.616009","-80.50375 ","475230","6077","1162","18","4/21/2021 12:00:00 AM","2019","2716940","NYTIMES-USCENSUS"
"4/22/2021 12:00:00 AM","Butler County","Missouri","Midwest","West North Central","29023","36.71518","-90.40313 ","4147","42","2","0","4/21/2021 12:00:00 AM","2019","42478","NYTIMES-USCENSUS"
"4/22/2021 12:00:00 AM","Platte County","Wyoming","West","Mountain","56031","42.131593","-104.953963 ","618","11","0","0","4/21/2021 12:00:00 AM","2019","8393","NYTIMES-USCENSUS"
"4/22/2021 12:00:00 AM","Bibb County","Alabama","South","East South Central","01007","33.015893","-87.127148 ","2573","62","4","1","4/21/2021 12:00:00 AM","2019","22394","NYTIMES-USCENSUS"
"4/22/2021 12:00:00 AM","Red River County","Texas","South","West South Central","48387","33.619625","-95.048429 ","681","37","2","0","4/21/2021 12:00:00 AM","2019","12023","NYTIMES-USCENSUS"
"4/22/2021 12:00:00 AM","Teton County","Idaho","West","Mountain","16081","43.760994","-111.211765 ","1200","4","3","0","4/21/2021 12:00:00 AM","2019","12142","NYTIMES-USCENSUS"
"4/22/2021 12:00:00 AM","Bexar County","Texas","South","West South Central","48029","29.448671","-98.520147 ","214643","3441","249","4","4/21/2021 12:00:00 AM","2019","2003554","NYTIMES-USCENSUS"
"4/22/2021 12:00:00 AM","Jackson County","Tennessee","South","East South Central","47087","36.35425","-85.674128 ","1309","35","9","0","4/21/2021 12:00:00 AM","2019","11786","NYTIMES-USCENSUS"
"4/22/2021 12:00:00 AM","Catahoula Parish","Louisiana","South","West South Central","22025","31.666517","-91.846703 ","1139","38","9","0","4/21/2021 12:00:00 AM","2019","9494","NYTIMES-USCENSUS"
"4/22/2021 12:00:00 AM","Richardson County","Nebraska","Midwest","West North Central","31147","40.123743","-95.718603 ","721","19","0","0","4/21/2021 12:00:00 AM","2019","7865","NYTIMES-USCENSUS"
"4/22/2021 12:00:00 AM","St. Charles County","Missouri","Midwest","West North Central","29183","38.781102","-90.674915 ","41904","477","66","0","4/21/2021 12:00:00 AM","2019","402022","NYTIMES-USCENSUS"
"4/22/2021 12:00:00 AM","Lauderdale County","Alabama","South","East South Central","01077","34.904122","-87.650997 ","9301","235","8","1","4/21/2021 12:00:00 AM","2019","92729","NYTIMES-USCENSUS"
"4/22/2021 12:00:00 AM","Roanoke city","Virginia","South","South Atlantic","51770","37.278458","-79.958174 ","8283","187","6","0","4/21/2021 12:00:00 AM","2019","99143","NYTIMES-USCENSUS"
"4/22/2021 12:00:00 AM","Anderson County","Kentucky","South","East South Central","21005","38.005396","-84.986417 ","1713","20","2","0","4/21/2021 12:00:00 AM","2019","22747","NYTIMES-USCENSUS"
"4/22/2021 12:00:00 AM","Huron County","Ohio","Midwest","East North Central","39077","41.14508","-82.594641 ","5341","114","8","0","4/21/2021 12:00:00 AM","2019","58266","NYTIMES-USCENSUS"
"4/22/2021 12:00:00 AM","Lyon County","Minnesota","Midwest","West North Central","27083","44.409195","-95.847268 ","3500","48","3","0","4/21/2021 12:00:00 AM","2019","25474","NYTIMES-USCENSUS"
"4/22/2021 12:00:00 AM","Nobles County","Minnesota","Midwest","West North Central","27105","43.677686","-95.763132 ","4019","48","0","0","4/21/2021 12:00:00 AM","2019","21629","NYTIMES-USCENSUS"
"4/22/2021 12:00:00 AM","Clay County","North Carolina","South","South Atlantic","37043","35.052997","-83.752264 ","716","18","4","0","4/21/2021 12:00:00 AM","2019","11231","NYTIMES-USCENSUS"
"4/22/2021 12:00:00 AM","Jefferson Parish","Louisiana","South","West South Central","22051","29.5033","-90.036231 ","45665","888","67","2","4/21/2021 12:00:00 AM","2019","432493","NYTIMES-USCENSUS"
"4/22/2021 12:00:00 AM","Tensas Parish","Louisiana","South","West South Central","22107","32.001489","-91.342576 ","357","8","0","0","4/21/2021 12:00:00 AM","2019","4334","NYTIMES-USCENSUS"
"4/22/2021 12:00:00 AM","McDowell County","North Carolina","South","South Atlantic","37111","35.682271","-82.048044 ","5146","63","9","0","4/21/2021 12:00:00 AM","2019","45756","NYTIMES-USCENSUS"
"4/22/2021 12:00:00 AM","Yellow Medicine County","Minnesota","Midwest","West North Central","27173","44.715736","-95.862756 ","1113","19","0","0","4/21/2021 12:00:00 AM","2019","9709","NYTIMES-USCENSUS"
"4/22/2021 12:00:00 AM","Berrien County","Georgia","South","South Atlantic","13019","31.288652","-83.22787 ","1820","43","0","0","4/21/2021 12:00:00 AM","2019","19397","NYTIMES-USCENSUS"
"4/22/2021 12:00:00 AM","Conecuh County","Alabama","South","East South Central","01035","31.430926","-86.988722 ","1098","28","0","0","4/21/2021 12:00:00 AM","2019","12067","NYTIMES-USCENSUS"
"4/22/2021 12:00:00 AM","McIntosh County","Georgia","South","South Atlantic","13191","31.485629","-81.372141 ","851","16","2","0","4/21/2021 12:00:00 AM","2019","14378","NYTIMES-USCENSUS"
"4/22/2021 12:00:00 AM","Franklin County","Nebraska","Midwest","West North Central","31061","40.183203","-98.96208 ","241","4","1","0","4/21/2021 12:00:00 AM","2019","2979","NYTIMES-USCENSUS"
"4/22/2021 12:00:00 AM","Madison County","Iowa","Midwest","West North Central","19121","41.330622","-94.015184 ","1554","19","6","0","4/21/2021 12:00:00 AM","2019","16338","NYTIMES-USCENSUS"
"4/22/2021 12:00:00 AM","Grant County","South Dakota","Midwest","West North Central","46051","45.172637","-96.772261 ","1031","42","1","0","4/21/2021 12:00:00 AM","2019","7052","NYTIMES-USCENSUS"
"4/22/2021 12:00:00 AM","Dodge County","Georgia","South","South Atlantic","13091","32.164369","-83.167866 ","2126","101","0","0","4/21/2021 12:00:00 AM","2019","20605","NYTIMES-USCENSUS"
"4/22/2021 12:00:00 AM","Clay County","South Dakota","Midwest","West North Central","46027","42.91615","-96.980468 ","1903","15","2","0","4/21/2021 12:00:00 AM","2019","14070","NYTIMES-USCENSUS"
"4/22/2021 12:00:00 AM","Eau Claire County","Wisconsin","Midwest","East North Central","55035","44.726355","-91.286414 ","11760","118","6","0","4/21/2021 12:00:00 AM","2019","104646","NYTIMES-USCENSUS"
"4/22/2021 12:00:00 AM","Shelby County","Kentucky","South","East South Central","21211","38.239011","-85.228247 ","4571","70","5","0","4/21/2021 12:00:00 AM","2019","49024","NYTIMES-USCENSUS"
"4/22/2021 12:00:00 AM","Harrison County","Kentucky","South","East South Central","21097","38.444578","-84.334131 ","1650","22","0","0","4/21/2021 12:00:00 AM","2019","18886","NYTIMES-USCENSUS"
"4/22/2021 12:00:00 AM","Brown County","Illinois","Midwest","East North Central","17009","39.962069","-90.750309 ","689","12","-2","0","4/21/2021 12:00:00 AM","2019","6578","NYTIMES-USCENSUS"
"4/22/2021 12:00:00 AM","Baldwin County","Georgia","South","South Atlantic","13009","33.05949","-83.255457 ","4468","127","0","0","4/21/2021 12:00:00 AM","2019","44890","NYTIMES-USCENSUS"
"4/22/2021 12:00:00 AM","Phelps County","Nebraska","Midwest","West North Central","31137","40.516365","-99.406557 ","993","9","3","0","4/21/2021 12:00:00 AM","2019","9034","NYTIMES-USCENSUS"
"4/22/2021 12:00:00 AM","Nicholas County","West Virginia","South","South Atlantic","54067","38.291432","-80.797515 ","1530","20","8","1","4/21/2021 12:00:00 AM","2019","24496","NYTIMES-USCENSUS"
"4/22/2021 12:00:00 AM","Casey County","Kentucky","South","East South Central","21045","37.321962","-84.92822 ","1399","36","5","2","4/21/2021 12:00:00 AM","2019","16159","NYTIMES-USCENSUS"
"4/22/2021 12:00:00 AM","Okeechobee County","Florida","South","South Atlantic","12093","27.385592","-80.887388 ","3921","88","5","0","4/21/2021 12:00:00 AM","2019","42168","NYTIMES-USCENSUS"
"4/22/2021 12:00:00 AM","Richland County","Ohio","Midwest","East North Central","39139","40.774159","-82.542781 ","11110","198","8","0","4/21/2021 12:00:00 AM","2019","121154","NYTIMES-USCENSUS"
"4/22/2021 12:00:00 AM","Iron County","Utah","West","Mountain","49021","37.909304","-113.30674 ","5621","32","0","0","4/21/2021 12:00:00 AM","2019","54839","NYTIMES-USCENSUS"
"4/22/2021 12:00:00 AM","Jefferson County","Ohio","Midwest","East North Central","39081","40.399384","-80.763527 ","5389","149","17","0","4/21/2021 12:00:00 AM","2019","65325","NYTIMES-USCENSUS"
"4/22/2021 12:00:00 AM","Howard County","Nebraska","Midwest","West North Central","31093","41.216851","-98.513342 ","540","17","0","0","4/21/2021 12:00:00 AM","2019","6445","NYTIMES-USCENSUS"
"4/22/2021 12:00:00 AM","Sherman County","Texas","South","West South Central","48421","36.278593","-101.899265 ","221","12","0","0","4/21/2021 12:00:00 AM","2019","3022","NYTIMES-USCENSUS"
"4/22/2021 12:00:00 AM","Taylor County","West Virginia","South","South Atlantic","54091","39.332478","-80.046554 ","1204","23","3","0","4/21/2021 12:00:00 AM","2019","16695","NYTIMES-USCENSUS"
"4/22/2021 12:00:00 AM","Walla Walla County","Washington","West","Pacific","53071","46.254606","-118.48037 ","4985","64","14","0","4/21/2021 12:00:00 AM","2019","60760","NYTIMES-USCENSUS"
"4/22/2021 12:00:00 AM","Calloway County","Kentucky","South","East South Central","21035","36.620978","-88.274086 ","3487","50","1","0","4/21/2021 12:00:00 AM","2019","39001","NYTIMES-USCENSUS"
"4/22/2021 12:00:00 AM","Brown County","South Dakota","Midwest","West North Central","46013","45.589254","-98.352175 ","5450","91","5","0","4/21/2021 12:00:00 AM","2019","38839","NYTIMES-USCENSUS"
"4/22/2021 12:00:00 AM","Franklin County","Missouri","Midwest","West North Central","29071","38.413003","-91.072832 ","10461","179","14","0","4/21/2021 12:00:00 AM","2019","103967","NYTIMES-USCENSUS"
"4/22/2021 12:00:00 AM","Brown County","Indiana","Midwest","East North Central","18013","39.195113","-86.230121 ","1007","40","0","0","4/21/2021 12:00:00 AM","2019","15092","NYTIMES-USCENSUS"
"4/22/2021 12:00:00 AM","Grand Traverse County","Michigan","Midwest","East North Central","26055","44.718688","-85.553848 ","6005","85","24","0","4/21/2021 12:00:00 AM","2019","93088","NYTIMES-USCENSUS"
"4/22/2021 12:00:00 AM","Columbiana County","Ohio","Midwest","East North Central","39029","40.770073","-80.778455 ","8600","226","11","0","4/21/2021 12:00:00 AM","2019","101883","NYTIMES-USCENSUS"
"4/22/2021 12:00:00 AM","Montgomery County","Kentucky","South","East South Central","21173","38.038109","-83.912416 ","2547","30","8","0","4/21/2021 12:00:00 AM","2019","28157","NYTIMES-USCENSUS"
"4/22/2021 12:00:00 AM","Hennepin County","Minnesota","Midwest","West North Central","27053","45.006121","-93.475228 ","117078","1693","357","3","4/21/2021 12:00:00 AM","2019","1265843","NYTIMES-USCENSUS"
"4/22/2021 12:00:00 AM","Sitka City and Borough","Alaska","West","Pacific","02220","57.193204","-135.367396 ","336","0","0","0","4/21/2021 12:00:00 AM","2019","8493","NYTIMES-USCENSUS"
"4/22/2021 12:00:00 AM","Waupaca County","Wisconsin","Midwest","East North Central","55135","44.478004","-88.967005 ","5966","161","4","0","4/21/2021 12:00:00 AM","2019","50990","NYTIMES-USCENSUS"
"4/22/2021 12:00:00 AM","Christian County","Missouri","Midwest","West North Central","29043","36.969739","-93.187614 ","8809","91","0","0","4/21/2021 12:00:00 AM","2019","88595","NYTIMES-USCENSUS"
"4/22/2021 12:00:00 AM","Butler County","Pennsylvania","Northeast","Middle Atlantic","42019","40.913847","-79.918978 ","16421","402","34","1","4/21/2021 12:00:00 AM","2019","187853","NYTIMES-USCENSUS"
"4/22/2021 12:00:00 AM","Menominee County","Michigan","Midwest","East North Central","26109","45.535568","-87.501457 ","2025","41","4","0","4/21/2021 12:00:00 AM","2019","22780","NYTIMES-USCENSUS"
"4/22/2021 12:00:00 AM","Pondera County","Montana","West","Mountain","30073","48.228604","-112.220761 ","462","4","1","0","4/21/2021 12:00:00 AM","2019","5911","NYTIMES-USCENSUS"
"4/22/2021 12:00:00 AM","Gratiot County","Michigan","Midwest","East North Central","26057","43.292326","-84.60469 ","6421","113","21","0","4/21/2021 12:00:00 AM","2019","40711","NYTIMES-USCENSUS"
"4/22/2021 12:00:00 AM","Polk County","Nebraska","Midwest","West North Central","31143","41.187925","-97.570663 ","582","18","-2","0","4/21/2021 12:00:00 AM","2019","5213","NYTIMES-USCENSUS"
"4/22/2021 12:00:00 AM","Dent County","Missouri","Midwest","West North Central","29065","37.603072","-91.489717 ","947","17","2","0","4/21/2021 12:00:00 AM","2019","15573","NYTIMES-USCENSUS"
"4/22/2021 12:00:00 AM","Cheshire County","New Hampshire","Northeast","New England","33005","42.92546","-72.248183 ","3422","33","16","0","4/21/2021 12:00:00 AM","2019","76085","NYTIMES-USCENSUS"
"4/22/2021 12:00:00 AM","Oglala Lakota County","South Dakota","Midwest","West North Central","46102","43.333393","-102.561486 ","2102","49","1","0","4/21/2021 12:00:00 AM","2019","14177","NYTIMES-USCENSUS"
"4/22/2021 12:00:00 AM","Riverside County","California","West","Pacific","06065","33.729828","-116.002239 ","297770","4555","139","8","4/21/2021 12:00:00 AM","2019","2470546","NYTIMES-USCENSUS"
"4/22/2021 12:00:00 AM","Jackson County","Indiana","Midwest","East North Central","18071","38.911957","-86.042516 ","4950","73","5","0","4/21/2021 12:00:00 AM","2019","44231","NYTIMES-USCENSUS"
"4/22/2021 12:00:00 AM","Johnson County","Wyoming","West","Mountain","56019","44.044048","-106.588541 ","717","10","0","0","4/21/2021 12:00:00 AM","2019","8445","NYTIMES-USCENSUS"
"4/22/2021 12:00:00 AM","Tulare County","California","West","Pacific","06107","36.228834","-118.781055 ","49469","831","25","0","4/21/2021 12:00:00 AM","2019","466195","NYTIMES-USCENSUS"
"4/22/2021 12:00:00 AM","Fairfax County","Virginia","South","South Atlantic","51059","38.82952","-77.273252 ","74988","1067","148","2","4/21/2021 12:00:00 AM","2019","1147532","NYTIMES-USCENSUS"
"4/22/2021 12:00:00 AM","Colleton County","South Carolina","South","South Atlantic","45029","32.835018","-80.655244 ","3534","125","10","0","4/21/2021 12:00:00 AM","2019","37677","NYTIMES-USCENSUS"
"4/22/2021 12:00:00 AM","Costilla County","Colorado","West","Mountain","08023","37.277547","-105.42894 ","206","2","1","0","4/21/2021 12:00:00 AM","2019","3887","NYTIMES-USCENSUS"
"4/22/2021 12:00:00 AM","Onondaga County","New York","Northeast","Middle Atlantic","36067","43.006516","-76.196134 ","36344","663","90","0","4/21/2021 12:00:00 AM","2019","460528","NYTIMES-USCENSUS"
"4/22/2021 12:00:00 AM","North Slope Borough","Alaska","West","Pacific","02185","69.449343","-153.47283 ","1053","4","0","0","4/21/2021 12:00:00 AM","2019","9832","NYTIMES-USCENSUS"
"4/22/2021 12:00:00 AM","Pleasants County","West Virginia","South","South Atlantic","54073","39.368133","-81.161172 ","841","17","4","0","4/21/2021 12:00:00 AM","2019","7460","NYTIMES-USCENSUS"
"4/22/2021 12:00:00 AM","Holt County","Missouri","Midwest","West North Central","29087","40.095724","-95.219072 ","437","13","0","0","4/21/2021 12:00:00 AM","2019","4403","NYTIMES-USCENSUS"
"4/22/2021 12:00:00 AM","Washington County","Kentucky","South","East South Central","21229","37.754209","-85.175416 ","1420","36","1","0","4/21/2021 12:00:00 AM","2019","12095","NYTIMES-USCENSUS"
"4/22/2021 12:00:00 AM","Crook County","Oregon","West","Pacific","41013","44.163054","-120.371585 ","907","19","12","0","4/21/2021 12:00:00 AM","2019","24404","NYTIMES-USCENSUS"
"4/22/2021 12:00:00 AM","Dorchester County","South Carolina","South","South Atlantic","45035","33.082186","-80.404697 ","17254","213","47","0","4/21/2021 12:00:00 AM","2019","162809","NYTIMES-USCENSUS"
"4/22/2021 12:00:00 AM","Tishomingo County","Mississippi","South","East South Central","28141","34.738835","-88.234827 ","2235","67","1","0","4/21/2021 12:00:00 AM","2019","19383","NYTIMES-USCENSUS"
"4/22/2021 12:00:00 AM","Spencer County","Kentucky","South","East South Central","21215","38.025411","-85.317174 ","1574","18","3","0","4/21/2021 12:00:00 AM","2019","19351","NYTIMES-USCENSUS"
"4/22/2021 12:00:00 AM","Oneida County","New York","Northeast","Middle Atlantic","36065","43.242727","-75.434282 ","21597","498","41","0","4/21/2021 12:00:00 AM","2019","228671","NYTIMES-USCENSUS"
"4/22/2021 12:00:00 AM","Jefferson County","Alabama","South","East South Central","01073","33.553444","-86.896536 ","75729","1498","78","2","4/21/2021 12:00:00 AM","2019","658573","NYTIMES-USCENSUS"
"4/22/2021 12:00:00 AM","Staunton city","Virginia","South","South Atlantic","51790","38.157978","-79.061876 ","2482","68","4","0","4/21/2021 12:00:00 AM","2019","24932","NYTIMES-USCENSUS"
"4/22/2021 12:00:00 AM","Tift County","Georgia","South","South Atlantic","13277","31.457003","-83.525931 ","4849","125","1","0","4/21/2021 12:00:00 AM","2019","40644","NYTIMES-USCENSUS"
"4/22/2021 12:00:00 AM","Adams County","Colorado","West","Mountain","08001","39.874325","-104.331872 ","55656","692","222","0","4/21/2021 12:00:00 AM","2019","517421","NYTIMES-USCENSUS"
"4/22/2021 12:00:00 AM","Madison County","Missouri","Midwest","West North Central","29123","37.474481","-90.343413 ","1610","16","1","0","4/21/2021 12:00:00 AM","2019","12088","NYTIMES-USCENSUS"
"4/22/2021 12:00:00 AM","Grundy County","Iowa","Midwest","West North Central","19075","42.403339","-92.790244 ","1355","32","0","0","4/21/2021 12:00:00 AM","2019","12232","NYTIMES-USCENSUS"
"4/22/2021 12:00:00 AM","Decatur County","Indiana","Midwest","East North Central","18031","39.30598","-85.499831 ","2853","96","2","0","4/21/2021 12:00:00 AM","2019","26559","NYTIMES-USCENSUS"
"4/22/2021 12:00:00 AM","Reynolds County","Missouri","Midwest","West North Central","29179","37.366464","-90.972282 ","473","4","1","0","4/21/2021 12:00:00 AM","2019","6270","NYTIMES-USCENSUS"
"4/22/2021 12:00:00 AM","Newton County","Indiana","Midwest","East North Central","18111","40.962399","-87.402172 ","1046","36","2","0","4/21/2021 12:00:00 AM","2019","13984","NYTIMES-USCENSUS"
"4/22/2021 12:00:00 AM","Dickens County","Texas","South","West South Central","48125","33.615363","-100.787617 ","180","10","1","0","4/21/2021 12:00:00 AM","2019","2211","NYTIMES-USCENSUS"
"4/22/2021 12:00:00 AM","Jackson County","Michigan","Midwest","East North Central","26075","42.248474","-84.420868 ","19514","283","68","3","4/21/2021 12:00:00 AM","2019","158510","NYTIMES-USCENSUS"
"4/22/2021 12:00:00 AM","Victoria County","Texas","South","West South Central","48469","28.79637","-96.971198 ","8461","201","14","1","4/21/2021 12:00:00 AM","2019","92084","NYTIMES-USCENSUS"
"4/22/2021 12:00:00 AM","Norton County","Kansas","Midwest","West North Central","20137","39.783867","-99.899235 ","1221","27","0","0","4/21/2021 12:00:00 AM","2019","5361","NYTIMES-USCENSUS"
"4/22/2021 12:00:00 AM","Sheridan County","Kansas","Midwest","West North Central","20179","39.350547","-100.441228 ","432","13","0","0","4/21/2021 12:00:00 AM","2019","2521","NYTIMES-USCENSUS"
"4/22/2021 12:00:00 AM","Fayette County","Kentucky","South","East South Central","21067","38.040678","-84.458272 ","34986","303","54","6","4/21/2021 12:00:00 AM","2019","323152","NYTIMES-USCENSUS"
"4/22/2021 12:00:00 AM","Yates County","New York","Northeast","Middle Atlantic","36123","42.638237","-77.104324 ","1112","26","0","0","4/21/2021 12:00:00 AM","2019","24913","NYTIMES-USCENSUS"
"4/22/2021 12:00:00 AM","Runnels County","Texas","South","West South Central","48399","31.845119","-99.982715 ","1273","37","0","0","4/21/2021 12:00:00 AM","2019","10264","NYTIMES-USCENSUS"
"4/22/2021 12:00:00 AM","Shasta County","California","West","Pacific","06089","40.760514","-122.043556 ","11779","219","32","0","4/21/2021 12:00:00 AM","2019","180080","NYTIMES-USCENSUS"
"4/22/2021 12:00:00 AM","Montgomery County","Illinois","Midwest","East North Central","17135","39.228068","-89.478141 ","3647","79","0","0","4/21/2021 12:00:00 AM","2019","28414","NYTIMES-USCENSUS"
"4/22/2021 12:00:00 AM","Buena Vista city","Virginia","South","South Atlantic","51530","37.729345","-79.358134 ","879","19","0","0","4/21/2021 12:00:00 AM","2019","6478","NYTIMES-USCENSUS"
"4/22/2021 12:00:00 AM","Canadian County","Oklahoma","South","West South Central","40017","35.543354","-97.979889 ","16909","165","0","0","4/21/2021 12:00:00 AM","2019","148306","NYTIMES-USCENSUS"
"4/22/2021 12:00:00 AM","Missoula County","Montana","West","Mountain","30063","47.027263","-113.892691 ","8932","93","10","0","4/21/2021 12:00:00 AM","2019","119600","NYTIMES-USCENSUS"
"4/22/2021 12:00:00 AM","San Patricio County","Texas","South","West South Central","48409","28.011794","-97.517157 ","4299","147","0","0","4/21/2021 12:00:00 AM","2019","66730","NYTIMES-USCENSUS"
"4/22/2021 12:00:00 AM","Pierce County","Washington","West","Pacific","53053","47.051413","-122.15324 ","47157","636","285","0","4/21/2021 12:00:00 AM","2019","904980","NYTIMES-USCENSUS"
"4/22/2021 12:00:00 AM","Trego County","Kansas","Midwest","West North Central","20195","38.921302","-99.865423 ","407","8","0","0","4/21/2021 12:00:00 AM","2019","2803","NYTIMES-USCENSUS"
"4/22/2021 12:00:00 AM","Trousdale County","Tennessee","South","East South Central","47169","36.39303","-86.156691 ","2493","22","2","0","4/21/2021 12:00:00 AM","2019","11284","NYTIMES-USCENSUS"
"4/22/2021 12:00:00 AM","Baltimore city","Maryland","South","South Atlantic","24510","39.300032","-76.610476 ","49790","1005","175","2","4/21/2021 12:00:00 AM","2019","593490","NYTIMES-USCENSUS"
"4/22/2021 12:00:00 AM","St. Croix County","Wisconsin","Midwest","East North Central","55109","45.028959","-92.447284 ","9080","57","37","0","4/21/2021 12:00:00 AM","2019","90687","NYTIMES-USCENSUS"
"4/22/2021 12:00:00 AM","Kane County","Illinois","Midwest","East North Central","17089","41.939594","-88.42804 ","56108","808","153","3","4/21/2021 12:00:00 AM","2019","532403","NYTIMES-USCENSUS"
"4/22/2021 12:00:00 AM","Rockdale County","Georgia","South","South Atlantic","13247","33.652081","-84.02637 ","7466","170","16","0","4/21/2021 12:00:00 AM","2019","90896","NYTIMES-USCENSUS"
"4/22/2021 12:00:00 AM","Grayson County","Kentucky","South","East South Central","21085","37.458577","-86.344011 ","2124","52","1","0","4/21/2021 12:00:00 AM","2019","26427","NYTIMES-USCENSUS"
"4/22/2021 12:00:00 AM","Otsego County","Michigan","Midwest","East North Central","26137","45.021787","-84.576603 ","2478","34","18","0","4/21/2021 12:00:00 AM","2019","24668","NYTIMES-USCENSUS"
"4/22/2021 12:00:00 AM","Holt County","Nebraska","Midwest","West North Central","31089","42.459287","-98.784766 ","849","16","1","0","4/21/2021 12:00:00 AM","2019","10067","NYTIMES-USCENSUS"
"4/22/2021 12:00:00 AM","Rowan County","Kentucky","South","East South Central","21205","38.204266","-83.428079 ","2169","20","3","0","4/21/2021 12:00:00 AM","2019","24460","NYTIMES-USCENSUS"
"4/22/2021 12:00:00 AM","Desha County","Arkansas","South","West South Central","05041","33.828752","-91.244103 ","1361","24","0","0","4/21/2021 12:00:00 AM","2019","11361","NYTIMES-USCENSUS"
"4/22/2021 12:00:00 AM","Cherokee County","Texas","South","West South Central","48073","31.843881","-95.156343 ","4143","136","4","0","4/21/2021 12:00:00 AM","2019","52646","NYTIMES-USCENSUS"
"4/22/2021 12:00:00 AM","Jefferson County","Arkansas","South","West South Central","05069","34.277239","-91.929673 ","8832","166","8","0","4/21/2021 12:00:00 AM","2019","66824","NYTIMES-USCENSUS"
"4/22/2021 12:00:00 AM","Doniphan County","Kansas","Midwest","West North Central","20043","39.788502","-95.147225 ","965","23","0","0","4/21/2021 12:00:00 AM","2019","7600","NYTIMES-USCENSUS"
"4/22/2021 12:00:00 AM","Big Horn County","Montana","West","Mountain","30003","45.407868","-107.518162 ","2521","75","0","0","4/21/2021 12:00:00 AM","2019","13319","NYTIMES-USCENSUS"
"4/22/2021 12:00:00 AM","Putnam County","Illinois","Midwest","East North Central","17155","41.198961","-89.298347 ","453","4","5","0","4/21/2021 12:00:00 AM","2019","5739","NYTIMES-USCENSUS"
"4/22/2021 12:00:00 AM","Cumberland County","Kentucky","South","East South Central","21057","36.782372","-85.388484 ","696","12","1","1","4/21/2021 12:00:00 AM","2019","6614","NYTIMES-USCENSUS"
"4/22/2021 12:00:00 AM","Sumter County","Georgia","South","South Atlantic","13261","32.042266","-84.204294 ","2531","99","0","0","4/21/2021 12:00:00 AM","2019","29524","NYTIMES-USCENSUS"
"4/22/2021 12:00:00 AM","Osage County","Missouri","Midwest","West North Central","29151","38.464253","-91.859504 ","1610","15","1","1","4/21/2021 12:00:00 AM","2019","13615","NYTIMES-USCENSUS"
"4/22/2021 12:00:00 AM","Wilkinson County","Georgia","South","South Atlantic","13319","32.804266","-83.175512 ","921","28","0","0","4/21/2021 12:00:00 AM","2019","8954","NYTIMES-USCENSUS"
"4/22/2021 12:00:00 AM","Washington County","New York","Northeast","Middle Atlantic","36115","43.312377","-73.439428 ","2892","55","13","0","4/21/2021 12:00:00 AM","2019","61204","NYTIMES-USCENSUS"
"4/22/2021 12:00:00 AM","Washington County","Florida","South","South Atlantic","12133","30.602102","-85.655805 ","2704","51","3","0","4/21/2021 12:00:00 AM","2019","25473","NYTIMES-USCENSUS"
"4/22/2021 12:00:00 AM","Colorado County","Texas","South","West South Central","48089","29.596296","-96.508935 ","1704","30","1","0","4/21/2021 12:00:00 AM","2019","21493","NYTIMES-USCENSUS"
"4/22/2021 12:00:00 AM","Macomb County","Michigan","Midwest","East North Central","26099","42.671553","-82.911456 ","91589","2153","654","19","4/21/2021 12:00:00 AM","2019","873972","NYTIMES-USCENSUS"
"4/22/2021 12:00:00 AM","Essex County","New York","Northeast","Middle Atlantic","36031","44.109601","-73.778431 ","1518","26","2","0","4/21/2021 12:00:00 AM","2019","36885","NYTIMES-USCENSUS"
"4/22/2021 12:00:00 AM","Duval County","Florida","South","South Atlantic","12031","30.335245","-81.648113 ","95943","1357","205","1","4/21/2021 12:00:00 AM","2019","957755","NYTIMES-USCENSUS"
"4/22/2021 12:00:00 AM","Kalamazoo County","Michigan","Midwest","East North Central","26077","42.246266","-85.532854 ","20675","346","95","0","4/21/2021 12:00:00 AM","2019","265066","NYTIMES-USCENSUS"
"4/22/2021 12:00:00 AM","Webster County","Mississippi","South","East South Central","28155","33.612061","-89.283961 ","1142","32","1","0","4/21/2021 12:00:00 AM","2019","9689","NYTIMES-USCENSUS"
"4/22/2021 12:00:00 AM","Daviess County","Kentucky","South","East South Central","21059","37.731671","-87.087139 ","10478","179","20","0","4/21/2021 12:00:00 AM","2019","101511","NYTIMES-USCENSUS"
"4/22/2021 12:00:00 AM","Dade County","Georgia","South","South Atlantic","13083","34.852424","-85.506201 ","1424","12","3","0","4/21/2021 12:00:00 AM","2019","16116","NYTIMES-USCENSUS"
"4/22/2021 12:00:00 AM","Jefferson County","Pennsylvania","Northeast","Middle Atlantic","42065","41.138028","-79.012419 ","3173","94","1","0","4/21/2021 12:00:00 AM","2019","43425","NYTIMES-USCENSUS"
"4/22/2021 12:00:00 AM","Portsmouth city","Virginia","South","South Atlantic","51740","36.859339","-76.356973 ","8752","187","15","1","4/21/2021 12:00:00 AM","2019","94398","NYTIMES-USCENSUS"
"4/22/2021 12:00:00 AM","Santa Barbara County","California","West","Pacific","06083","34.536677","-120.038364 ","33926","445","0","0","4/21/2021 12:00:00 AM","2019","446499","NYTIMES-USCENSUS"
"4/22/2021 12:00:00 AM","Mason County","West Virginia","South","South Atlantic","54053","38.770914","-82.029007 ","1942","40","5","0","4/21/2021 12:00:00 AM","2019","26516","NYTIMES-USCENSUS"
"4/22/2021 12:00:00 AM","Hopkins County","Texas","South","West South Central","48223","33.148967","-95.565434 ","3059","109","1","1","4/21/2021 12:00:00 AM","2019","37084","NYTIMES-USCENSUS"
"4/22/2021 12:00:00 AM","Erie County","Ohio","Midwest","East North Central","39043","41.394143","-82.586835 ","7672","154","28","0","4/21/2021 12:00:00 AM","2019","74266","NYTIMES-USCENSUS"
"4/22/2021 12:00:00 AM","Dane County","Wisconsin","Midwest","East North Central","55025","43.067468","-89.417852 ","45235","316","96","0","4/21/2021 12:00:00 AM","2019","546695","NYTIMES-USCENSUS"
"4/22/2021 12:00:00 AM","Boone County","Nebraska","Midwest","West North Central","31011","41.703934","-98.070476 ","577","4","0","0","4/21/2021 12:00:00 AM","2019","5192","NYTIMES-USCENSUS"
"4/22/2021 12:00:00 AM","Clarendon County","South Carolina","South","South Atlantic","45027","33.664682","-80.217889 ","3378","109","8","0","4/21/2021 12:00:00 AM","2019","33745","NYTIMES-USCENSUS"
"4/22/2021 12:00:00 AM","Shelby County","Tennessee","South","East South Central","47157","35.184553","-89.894612 ","94219","1600","150","0","4/21/2021 12:00:00 AM","2019","937166","NYTIMES-USCENSUS"
"4/22/2021 12:00:00 AM","Juneau City and Borough","Alaska","West","Pacific","02110","58.37291","-134.178445 ","1337","3","4","0","4/21/2021 12:00:00 AM","2019","31974","NYTIMES-USCENSUS"
"4/22/2021 12:00:00 AM","Delaware County","Iowa","Midwest","West North Central","19055","42.472937","-91.366767 ","2046","39","1","0","4/21/2021 12:00:00 AM","2019","17011","NYTIMES-USCENSUS"
"4/22/2021 12:00:00 AM","Harrison County","Ohio","Midwest","East North Central","39067","40.292318","-81.091565 ","1061","36","2","0","4/21/2021 12:00:00 AM","2019","15040","NYTIMES-USCENSUS"
"4/22/2021 12:00:00 AM","Antelope County","Nebraska","Midwest","West North Central","31003","42.183225","-98.058037 ","522","6","2","0","4/21/2021 12:00:00 AM","2019","6298","NYTIMES-USCENSUS"
"4/22/2021 12:00:00 AM","Burke County","North Dakota","Midwest","West North Central","38013","48.786453","-102.520087 ","233","1","0","0","4/21/2021 12:00:00 AM","2019","2115","NYTIMES-USCENSUS"
"4/22/2021 12:00:00 AM","Allegany County","New York","Northeast","Middle Atlantic","36003","42.247853","-78.026153 ","3220","83","16","0","4/21/2021 12:00:00 AM","2019","46091","NYTIMES-USCENSUS"
"4/22/2021 12:00:00 AM","Escambia County","Alabama","South","East South Central","01053","31.122287","-87.16841 ","3904","75","1","0","4/21/2021 12:00:00 AM","2019","36633","NYTIMES-USCENSUS"
"4/22/2021 12:00:00 AM","Allen County","Ohio","Midwest","East North Central","39003","40.771627","-84.106103 ","11387","229","13","0","4/21/2021 12:00:00 AM","2019","102351","NYTIMES-USCENSUS"
"4/22/2021 12:00:00 AM","Willacy County","Texas","South","West South Central","48489","26.481861","-97.594731 ","2601","88","-1","0","4/21/2021 12:00:00 AM","2019","21358","NYTIMES-USCENSUS"
"4/22/2021 12:00:00 AM","Genesee County","New York","Northeast","Middle Atlantic","36037","43.00091","-78.192778 ","5117","121","15","0","4/21/2021 12:00:00 AM","2019","57280","NYTIMES-USCENSUS"
"4/22/2021 12:00:00 AM","Vilas County","Wisconsin","Midwest","East North Central","55125","46.049848","-89.501254 ","2365","41","-1","0","4/21/2021 12:00:00 AM","2019","22195","NYTIMES-USCENSUS"
"4/22/2021 12:00:00 AM","Honolulu County","Hawaii","West","Pacific","15003","21.461365","-158.201974 ","24869","371","72","1","4/21/2021 12:00:00 AM","2019","974563","NYTIMES-USCENSUS"
"4/22/2021 12:00:00 AM","Union County","Oregon","West","Pacific","41061","45.304081","-117.999149 ","1420","24","2","0","4/21/2021 12:00:00 AM","2019","26835","NYTIMES-USCENSUS"
"4/22/2021 12:00:00 AM","Hampden County","Massachusetts","Northeast","New England","25013","42.136198","-72.635648 ","49611","1484","182","1","4/21/2021 12:00:00 AM","2019","466372","NYTIMES-USCENSUS"
"4/22/2021 12:00:00 AM","Skagit County","Washington","West","Pacific","53057","48.493292","-121.81577 ","5156","67","16","0","4/21/2021 12:00:00 AM","2019","129205","NYTIMES-USCENSUS"
"4/22/2021 12:00:00 AM","Webster County","Georgia","South","South Atlantic","13307","32.046691","-84.553828 ","144","4","0","0","4/21/2021 12:00:00 AM","2019","2607","NYTIMES-USCENSUS"
"4/22/2021 12:00:00 AM","Waseca County","Minnesota","Midwest","West North Central","27161","44.01846","-93.589844 ","2321","21","2","0","4/21/2021 12:00:00 AM","2019","18612","NYTIMES-USCENSUS"
"4/22/2021 12:00:00 AM","Vermilion Parish","Louisiana","South","West South Central","22113","29.789722","-92.291568 ","5261","119","9","1","4/21/2021 12:00:00 AM","2019","59511","NYTIMES-USCENSUS"
"4/22/2021 12:00:00 AM","Campbell County","Kentucky","South","East South Central","21037","38.946981","-84.379583 ","8663","82","4","0","4/21/2021 12:00:00 AM","2019","93584","NYTIMES-USCENSUS"
"4/22/2021 12:00:00 AM","Phelps County","Missouri","Midwest","West North Central","29161","37.866326","-91.790349 ","3782","128","10","0","4/21/2021 12:00:00 AM","2019","44573","NYTIMES-USCENSUS"
"4/22/2021 12:00:00 AM","Knox County","Kentucky","South","East South Central","21121","36.8885","-83.855551 ","3332","34","6","0","4/21/2021 12:00:00 AM","2019","31145","NYTIMES-USCENSUS"
"4/22/2021 12:00:00 AM","Talladega County","Alabama","South","East South Central","01121","33.369314","-86.17593 ","8124","174","-7","1","4/21/2021 12:00:00 AM","2019","79978","NYTIMES-USCENSUS"
"4/22/2021 12:00:00 AM","Jessamine County","Kentucky","South","East South Central","21113","37.873291","-84.58396 ","4490","62","1","0","4/21/2021 12:00:00 AM","2019","54115","NYTIMES-USCENSUS"
"4/22/2021 12:00:00 AM","Hart County","Kentucky","South","East South Central","21099","37.305827","-85.878443 ","1942","45","0","0","4/21/2021 12:00:00 AM","2019","19035","NYTIMES-USCENSUS"
"4/22/2021 12:00:00 AM","Bell County","Kentucky","South","East South Central","21013","36.728928","-83.680718 ","3064","52","6","0","4/21/2021 12:00:00 AM","2019","26032","NYTIMES-USCENSUS"
"4/22/2021 12:00:00 AM","Fayette County","Illinois","Midwest","East North Central","17051","39.001125","-89.017923 ","3141","57","1","0","4/21/2021 12:00:00 AM","2019","21336","NYTIMES-USCENSUS"
"4/22/2021 12:00:00 AM","Tama County","Iowa","Midwest","West North Central","19171","42.074848","-92.529411 ","2071","71","2","0","4/21/2021 12:00:00 AM","2019","16854","NYTIMES-USCENSUS"
"4/22/2021 12:00:00 AM","Harrison County","Iowa","Midwest","West North Central","19085","41.688584","-95.827149 ","1772","73","5","0","4/21/2021 12:00:00 AM","2019","14049","NYTIMES-USCENSUS"
"4/22/2021 12:00:00 AM","Broward County","Florida","South","South Atlantic","12011","26.193535","-80.476683 ","231050","2848","738","35","4/21/2021 12:00:00 AM","2019","1952778","NYTIMES-USCENSUS"
"4/22/2021 12:00:00 AM","Porter County","Indiana","Midwest","East North Central","18127","41.509914","-87.071313 ","18063","312","56","0","4/21/2021 12:00:00 AM","2019","170389","NYTIMES-USCENSUS"
"4/22/2021 12:00:00 AM","Howard County","Missouri","Midwest","West North Central","29089","39.143365","-92.695926 ","1042","7","0","0","4/21/2021 12:00:00 AM","2019","10001","NYTIMES-USCENSUS"
"4/22/2021 12:00:00 AM","Bonner County","Idaho","West","Mountain","16017","48.316796","-116.612362 ","3201","39","6","0","4/21/2021 12:00:00 AM","2019","45739","NYTIMES-USCENSUS"
"4/22/2021 12:00:00 AM","Huron County","Michigan","Midwest","East North Central","26063","43.907616","-82.857045 ","3714","71","18","0","4/21/2021 12:00:00 AM","2019","30981","NYTIMES-USCENSUS"
"4/22/2021 12:00:00 AM","Claiborne County","Mississippi","South","East South Central","28021","31.97281","-90.915424 ","1016","30","1","0","4/21/2021 12:00:00 AM","2019","8988","NYTIMES-USCENSUS"
"4/22/2021 12:00:00 AM","Wilkinson County","Mississippi","South","East South Central","28157","31.161091","-91.324617 ","659","29","0","0","4/21/2021 12:00:00 AM","2019","8630","NYTIMES-USCENSUS"
"4/22/2021 12:00:00 AM","Scotland County","North Carolina","South","South Atlantic","37165","34.840023","-79.477337 ","3671","83","13","1","4/21/2021 12:00:00 AM","2019","34823","NYTIMES-USCENSUS"
"4/22/2021 12:00:00 AM","Washington County","Colorado","West","Mountain","08121","39.96579","-103.209744 ","442","12","0","0","4/21/2021 12:00:00 AM","2019","4908","NYTIMES-USCENSUS"
"4/22/2021 12:00:00 AM","Ellsworth County","Kansas","Midwest","West North Central","20053","38.700845","-98.205355 ","1218","25","0","0","4/21/2021 12:00:00 AM","2019","6102","NYTIMES-USCENSUS"
"4/22/2021 12:00:00 AM","Muskogee County","Oklahoma","South","West South Central","40101","35.617551","-95.383911 ","9293","163","0","0","4/21/2021 12:00:00 AM","2019","67997","NYTIMES-USCENSUS"
"4/22/2021 12:00:00 AM","Bannock County","Idaho","West","Mountain","16005","42.692921","-112.228982 ","8630","105","12","0","4/21/2021 12:00:00 AM","2019","87808","NYTIMES-USCENSUS"
"4/22/2021 12:00:00 AM","Oswego County","New York","Northeast","Middle Atlantic","36075","43.461443","-76.209262 ","7052","90","18","0","4/21/2021 12:00:00 AM","2019","117124","NYTIMES-USCENSUS"
"4/22/2021 12:00:00 AM","Walsh County","North Dakota","Midwest","West North Central","38099","48.376979","-97.72223 ","1874","25","4","0","4/21/2021 12:00:00 AM","2019","10641","NYTIMES-USCENSUS"
"4/22/2021 12:00:00 AM","Morton County","North Dakota","Midwest","West North Central","38059","46.710819","-101.298265 ","5162","98","10","0","4/21/2021 12:00:00 AM","2019","31364","NYTIMES-USCENSUS"
"4/22/2021 12:00:00 AM","Tyler County","West Virginia","South","South Atlantic","54095","39.465634","-80.877219 ","677","9","1","0","4/21/2021 12:00:00 AM","2019","8591","NYTIMES-USCENSUS"
"4/22/2021 12:00:00 AM","Oklahoma County","Oklahoma","South","West South Central","40109","35.554611","-97.409401 ","85619","1174","0","0","4/21/2021 12:00:00 AM","2019","797434","NYTIMES-USCENSUS"
"4/22/2021 12:00:00 AM","Aroostook County","Maine","Northeast","New England","23003","46.709193","-68.612409 ","1595","45","15","0","4/21/2021 12:00:00 AM","2019","67055","NYTIMES-USCENSUS"
"4/22/2021 12:00:00 AM","St. Tammany Parish","Louisiana","South","West South Central","22103","30.410022","-89.951962 ","25415","519","62","1","4/21/2021 12:00:00 AM","2019","260419","NYTIMES-USCENSUS"
"4/22/2021 12:00:00 AM","Bollinger County","Missouri","Midwest","West North Central","29017","37.318427","-90.024645 ","1102","12","0","0","4/21/2021 12:00:00 AM","2019","12133","NYTIMES-USCENSUS"
"4/22/2021 12:00:00 AM","Baraga County","Michigan","Midwest","East North Central","26013","46.695859","-88.36181 ","827","34","4","0","4/21/2021 12:00:00 AM","2019","8209","NYTIMES-USCENSUS"
"4/22/2021 12:00:00 AM","Will County","Illinois","Midwest","East North Central","17197","41.448474","-87.978456 ","72414","1041","205","0","4/21/2021 12:00:00 AM","2019","690743","NYTIMES-USCENSUS"
"4/22/2021 12:00:00 AM","Echols County","Georgia","South","South Atlantic","13101","30.714008","-82.897376 ","471","9","0","0","4/21/2021 12:00:00 AM","2019","4006","NYTIMES-USCENSUS"
"4/22/2021 12:00:00 AM","Macon County","Tennessee","South","East South Central","47111","36.537757","-86.00096 ","3590","77","4","0","4/21/2021 12:00:00 AM","2019","24602","NYTIMES-USCENSUS"
"4/22/2021 12:00:00 AM","Gilmer County","West Virginia","South","South Atlantic","54021","38.915867","-80.849413 ","741","8","2","0","4/21/2021 12:00:00 AM","2019","7823","NYTIMES-USCENSUS"
"4/22/2021 12:00:00 AM","Cass County","North Dakota","Midwest","West North Central","38017","46.927003","-97.252375 ","23963","202","39","0","4/21/2021 12:00:00 AM","2019","181923","NYTIMES-USCENSUS"
"4/22/2021 12:00:00 AM","Garrard County","Kentucky","South","East South Central","21079","37.630162","-84.545856 ","1500","33","0","0","4/21/2021 12:00:00 AM","2019","17666","NYTIMES-USCENSUS"
"4/22/2021 12:00:00 AM","Prince George's County","Maryland","South","South Atlantic","24033","38.829278","-76.848188 ","81893","1429","163","1","4/21/2021 12:00:00 AM","2019","909327","NYTIMES-USCENSUS"
"4/22/2021 12:00:00 AM","Pierce County","North Dakota","Midwest","West North Central","38069","48.238883","-99.966497 ","537","25","0","0","4/21/2021 12:00:00 AM","2019","3975","NYTIMES-USCENSUS"
"4/22/2021 12:00:00 AM","Lancaster County","South Carolina","South","South Atlantic","45057","34.686818","-80.703688 ","10486","165","12","0","4/21/2021 12:00:00 AM","2019","98012","NYTIMES-USCENSUS"
"4/22/2021 12:00:00 AM","Mills County","Texas","South","West South Central","48333","31.494888","-98.594623 ","654","21","0","0","4/21/2021 12:00:00 AM","2019","4873","NYTIMES-USCENSUS"
"4/22/2021 12:00:00 AM","Albany County","Wyoming","West","Mountain","56001","41.665514","-105.721883 ","4170","11","15","0","4/21/2021 12:00:00 AM","2019","38880","NYTIMES-USCENSUS"
"4/22/2021 12:00:00 AM","Cleburne County","Alabama","South","East South Central","01029","33.671964","-85.516126 ","1473","41","2","0","4/21/2021 12:00:00 AM","2019","14910","NYTIMES-USCENSUS"
"4/22/2021 12:00:00 AM","Henry County","Iowa","Midwest","West North Central","19087","40.984802","-91.547259 ","2874","37","7","0","4/21/2021 12:00:00 AM","2019","19954","NYTIMES-USCENSUS"
"4/22/2021 12:00:00 AM","Loup County","Nebraska","Midwest","West North Central","31115","41.903183","-99.509852 ","40","0","0","0","4/21/2021 12:00:00 AM","2019","664","NYTIMES-USCENSUS"
"4/22/2021 12:00:00 AM","Fairbanks North Star Borough","Alaska","West","Pacific","02090","64.676044","-146.548159 ","7113","36","110","0","4/21/2021 12:00:00 AM","2019","96849","NYTIMES-USCENSUS"
"4/22/2021 12:00:00 AM","Miami County","Indiana","Midwest","East North Central","18103","40.772883","-86.044258 ","3747","66","8","0","4/21/2021 12:00:00 AM","2019","35516","NYTIMES-USCENSUS"
"4/22/2021 12:00:00 AM","McCracken County","Kentucky","South","East South Central","21145","37.054111","-88.712454 ","6399","119","19","0","4/21/2021 12:00:00 AM","2019","65418","NYTIMES-USCENSUS"
"4/22/2021 12:00:00 AM","Boyle County","Kentucky","South","East South Central","21021","37.618104","-84.868352 ","3371","69","5","0","4/21/2021 12:00:00 AM","2019","30060","NYTIMES-USCENSUS"
"4/22/2021 12:00:00 AM","Dallas County","Iowa","Midwest","West North Central","19049","41.68532","-94.040706 ","10961","96","18","0","4/21/2021 12:00:00 AM","2019","93453","NYTIMES-USCENSUS"
"4/22/2021 12:00:00 AM","Morrison County","Minnesota","Midwest","West North Central","27097","46.020484","-94.266619 ","3983","59","8","0","4/21/2021 12:00:00 AM","2019","33386","NYTIMES-USCENSUS"
"4/22/2021 12:00:00 AM","Fremont County","Colorado","West","Mountain","08043","38.45517","-105.424958 ","5868","54","24","0","4/21/2021 12:00:00 AM","2019","47839","NYTIMES-USCENSUS"
"4/22/2021 12:00:00 AM","Rappahannock County","Virginia","South","South Atlantic","51157","38.684522","-78.168824 ","334","2","1","0","4/21/2021 12:00:00 AM","2019","7370","NYTIMES-USCENSUS"
"4/22/2021 12:00:00 AM","Washington County","Maine","Northeast","New England","23029","44.967009","-67.609354 ","819","15","1","0","4/21/2021 12:00:00 AM","2019","31379","NYTIMES-USCENSUS"
"4/22/2021 12:00:00 AM","Colusa County","California","West","Pacific","06011","39.177739","-122.237563 ","2208","16","0","0","4/21/2021 12:00:00 AM","2019","21547","NYTIMES-USCENSUS"
"4/22/2021 12:00:00 AM","Anne Arundel County","Maryland","South","South Atlantic","24003","38.991617","-76.560894 ","41757","589","133","3","4/21/2021 12:00:00 AM","2019","579234","NYTIMES-USCENSUS"
"4/22/2021 12:00:00 AM","Otter Tail County","Minnesota","Midwest","West North Central","27111","46.405727","-95.714581 ","5491","73","15","0","4/21/2021 12:00:00 AM","2019","58746","NYTIMES-USCENSUS"
"4/22/2021 12:00:00 AM","Washington County","Illinois","Midwest","East North Central","17189","38.35314","-89.417187 ","1628","31","0","0","4/21/2021 12:00:00 AM","2019","13887","NYTIMES-USCENSUS"
"4/22/2021 12:00:00 AM","Sawyer County","Wisconsin","Midwest","East North Central","55113","45.864911","-91.147133 ","1663","25","5","0","4/21/2021 12:00:00 AM","2019","16558","NYTIMES-USCENSUS"
"4/22/2021 12:00:00 AM","Santa Cruz County","California","West","Pacific","06087","37.012347","-122.007789 ","15759","204","40","0","4/21/2021 12:00:00 AM","2019","273213","NYTIMES-USCENSUS"
"4/22/2021 12:00:00 AM","Kanabec County","Minnesota","Midwest","West North Central","27065","45.94776","-93.297788 ","1355","22","19","0","4/21/2021 12:00:00 AM","2019","16337","NYTIMES-USCENSUS"
"4/22/2021 12:00:00 AM","Lincoln County","Kentucky","South","East South Central","21137","37.457174","-84.658335 ","2262","46","3","0","4/21/2021 12:00:00 AM","2019","24549","NYTIMES-USCENSUS"
"4/22/2021 12:00:00 AM","Sussex County","New Jersey","Northeast","Middle Atlantic","34037","41.137461","-74.691914 ","13335","290","58","0","4/21/2021 12:00:00 AM","2019","140488","NYTIMES-USCENSUS"
"4/22/2021 12:00:00 AM","Houston County","Georgia","South","South Atlantic","13153","32.458287","-83.662522 ","14387","249","14","0","4/21/2021 12:00:00 AM","2019","157863","NYTIMES-USCENSUS"
"4/22/2021 12:00:00 AM","Allen County","Kentucky","South","East South Central","21003","36.75077","-86.192458 ","2032","39","3","0","4/21/2021 12:00:00 AM","2019","21315","NYTIMES-USCENSUS"
"4/22/2021 12:00:00 AM","Kiowa County","Kansas","Midwest","West North Central","20097","37.561231","-99.286539 ","271","5","0","0","4/21/2021 12:00:00 AM","2019","2475","NYTIMES-USCENSUS"
"4/22/2021 12:00:00 AM","Clay County","Georgia","South","South Atlantic","13061","31.619831","-84.992583 ","237","3","0","0","4/21/2021 12:00:00 AM","2019","2834","NYTIMES-USCENSUS"
"4/22/2021 12:00:00 AM","Rains County","Texas","South","West South Central","48379","32.870457","-95.795613 ","790","25","2","0","4/21/2021 12:00:00 AM","2019","12514","NYTIMES-USCENSUS"
"4/22/2021 12:00:00 AM","Miller County","Missouri","Midwest","West North Central","29131","38.21668","-92.429876 ","2519","54","0","0","4/21/2021 12:00:00 AM","2019","25619","NYTIMES-USCENSUS"
"4/22/2021 12:00:00 AM","Halifax County","North Carolina","South","South Atlantic","37083","36.251438","-77.644842 ","5436","108","14","0","4/21/2021 12:00:00 AM","2019","50010","NYTIMES-USCENSUS"
"4/22/2021 12:00:00 AM","Monroe County","Mississippi","South","East South Central","28095","33.89003","-88.485038 ","4067","132","1","0","4/21/2021 12:00:00 AM","2019","35252","NYTIMES-USCENSUS"
"4/22/2021 12:00:00 AM","Moultrie County","Illinois","Midwest","East North Central","17139","39.636896","-88.625726 ","1578","34","3","0","4/21/2021 12:00:00 AM","2019","14501","NYTIMES-USCENSUS"
"4/22/2021 12:00:00 AM","West Carroll Parish","Louisiana","South","West South Central","22123","32.79248","-91.451998 ","1169","41","-1","0","4/21/2021 12:00:00 AM","2019","10830","NYTIMES-USCENSUS"
"4/22/2021 12:00:00 AM","Baker County","Florida","South","South Atlantic","12003","30.324442","-82.302284 ","3452","60","7","0","4/21/2021 12:00:00 AM","2019","29210","NYTIMES-USCENSUS"
"4/22/2021 12:00:00 AM","Windham County","Vermont","Northeast","New England","50025","42.995335","-72.721955 ","1263","14","4","0","4/21/2021 12:00:00 AM","2019","42222","NYTIMES-USCENSUS"
"4/22/2021 12:00:00 AM","Shiawassee County","Michigan","Midwest","East North Central","26155","42.951545","-84.146352 ","5743","93","44","0","4/21/2021 12:00:00 AM","2019","68122","NYTIMES-USCENSUS"
"4/22/2021 12:00:00 AM","Darke County","Ohio","Midwest","East North Central","39037","40.131467","-84.621191 ","5294","121","9","0","4/21/2021 12:00:00 AM","2019","51113","NYTIMES-USCENSUS"
"4/22/2021 12:00:00 AM","Currituck County","North Carolina","South","South Atlantic","37053","36.372174","-75.941224 ","1498","16","1","0","4/21/2021 12:00:00 AM","2019","27763","NYTIMES-USCENSUS"
"4/22/2021 12:00:00 AM","Fredericksburg city","Virginia","South","South Atlantic","51630","38.299272","-77.486658 ","2022","22","15","0","4/21/2021 12:00:00 AM","2019","29036","NYTIMES-USCENSUS"
"4/22/2021 12:00:00 AM","Breathitt County","Kentucky","South","East South Central","21025","37.517807","-83.317158 ","991","8","0","0","4/21/2021 12:00:00 AM","2019","12630","NYTIMES-USCENSUS"
"4/22/2021 12:00:00 AM","Montgomery County","Georgia","South","South Atlantic","13209","32.172108","-82.533349 ","879","23","1","0","4/21/2021 12:00:00 AM","2019","9172","NYTIMES-USCENSUS"
"4/22/2021 12:00:00 AM","DeSoto County","Mississippi","South","East South Central","28033","34.874922","-89.991211 ","21120","253","46","2","4/21/2021 12:00:00 AM","2019","184945","NYTIMES-USCENSUS"
"4/22/2021 12:00:00 AM","Garfield County","Utah","West","Mountain","49017","37.831664","-111.450908 ","468","10","0","0","4/21/2021 12:00:00 AM","2019","5051","NYTIMES-USCENSUS"
"4/22/2021 12:00:00 AM","Yavapai County","Arizona","West","Mountain","04025","34.631071","-112.577225 ","18565","501","7","3","4/21/2021 12:00:00 AM","2019","235099","NYTIMES-USCENSUS"
"4/22/2021 12:00:00 AM","Johnson County","Nebraska","Midwest","West North Central","31097","40.394955","-96.265264 ","638","9","0","0","4/21/2021 12:00:00 AM","2019","5071","NYTIMES-USCENSUS"
"4/22/2021 12:00:00 AM","Arthur County","Nebraska","Midwest","West North Central","31005","41.57193","-101.695917 ","22","1","0","0","4/21/2021 12:00:00 AM","2019","463","NYTIMES-USCENSUS"
"4/22/2021 12:00:00 AM","Webster County","Nebraska","Midwest","West North Central","31181","40.180646","-98.49859 ","380","6","1","0","4/21/2021 12:00:00 AM","2019","3487","NYTIMES-USCENSUS"
"4/22/2021 12:00:00 AM","Hamilton County","Texas","South","West South Central","48193","31.707342","-98.111756 ","768","26","1","0","4/21/2021 12:00:00 AM","2019","8461","NYTIMES-USCENSUS"
"4/22/2021 12:00:00 AM","Grady County","Oklahoma","South","West South Central","40051","35.021058","-97.88689 ","5912","120","0","0","4/21/2021 12:00:00 AM","2019","55834","NYTIMES-USCENSUS"
"4/22/2021 12:00:00 AM","Maui County","Hawaii","West","Pacific","15009","20.855931","-156.60155 ","4189","48","9","1","4/21/2021 12:00:00 AM","2019","167417","NYTIMES-USCENSUS"
"4/22/2021 12:00:00 AM","Indiana County","Pennsylvania","Northeast","Middle Atlantic","42063","40.651432","-79.087545 ","5798","165","15","0","4/21/2021 12:00:00 AM","2019","84073","NYTIMES-USCENSUS"
"4/22/2021 12:00:00 AM","DeKalb County","Indiana","Midwest","East North Central","18033","41.39676","-85.002697 ","4148","87","12","0","4/21/2021 12:00:00 AM","2019","43475","NYTIMES-USCENSUS"
"4/22/2021 12:00:00 AM","Marshall County","Tennessee","South","East South Central","47117","35.468343","-86.765865 ","4139","58","16","0","4/21/2021 12:00:00 AM","2019","34375","NYTIMES-USCENSUS"
"4/22/2021 12:00:00 AM","Alfalfa County","Oklahoma","South","West South Central","40003","36.729703","-98.323445 ","1156","7","0","0","4/21/2021 12:00:00 AM","2019","5702","NYTIMES-USCENSUS"
"4/22/2021 12:00:00 AM","Liberty County","Montana","West","Mountain","30051","48.559654","-111.036924 ","117","1","0","0","4/21/2021 12:00:00 AM","2019","2337","NYTIMES-USCENSUS"
"4/22/2021 12:00:00 AM","Henry County","Tennessee","South","East South Central","47079","36.325295","-88.300288 ","3131","75","5","0","4/21/2021 12:00:00 AM","2019","32345","NYTIMES-USCENSUS"
"4/22/2021 12:00:00 AM","Pitkin County","Colorado","West","Mountain","08097","39.217541","-106.916162 ","2561","4","0","0","4/21/2021 12:00:00 AM","2019","17767","NYTIMES-USCENSUS"
"4/22/2021 12:00:00 AM","Oxford County","Maine","Northeast","New England","23017","44.4945","-70.734421 ","3058","61","31","0","4/21/2021 12:00:00 AM","2019","57975","NYTIMES-USCENSUS"
"4/22/2021 12:00:00 AM","Cherokee County","Kansas","Midwest","West North Central","20021","37.169392","-94.845698 ","2455","52","0","0","4/21/2021 12:00:00 AM","2019","19939","NYTIMES-USCENSUS"
"4/22/2021 12:00:00 AM","Fairfield County","South Carolina","South","South Atlantic","45039","34.395669","-81.127001 ","2350","79","1","0","4/21/2021 12:00:00 AM","2019","22347","NYTIMES-USCENSUS"
"4/22/2021 12:00:00 AM","Oconee County","South Carolina","South","South Atlantic","45073","34.748766","-83.06154 ","9293","132","16","0","4/21/2021 12:00:00 AM","2019","79546","NYTIMES-USCENSUS"
"4/22/2021 12:00:00 AM","Liberty County","Georgia","South","South Atlantic","13179","31.807458","-81.457871 ","3898","62","18","0","4/21/2021 12:00:00 AM","2019","61435","NYTIMES-USCENSUS"
"4/22/2021 12:00:00 AM","Norman County","Minnesota","Midwest","West North Central","27107","47.329453","-96.463776 ","523","9","1","0","4/21/2021 12:00:00 AM","2019","6375","NYTIMES-USCENSUS"
"4/22/2021 12:00:00 AM","Hickman County","Tennessee","South","East South Central","47081","35.802327","-87.467116 ","2811","46","4","0","4/21/2021 12:00:00 AM","2019","25178","NYTIMES-USCENSUS"
"4/22/2021 12:00:00 AM","Madison County","Georgia","South","South Atlantic","13195","34.128526","-83.203737 ","3207","56","1","0","4/21/2021 12:00:00 AM","2019","29880","NYTIMES-USCENSUS"
"4/22/2021 12:00:00 AM","Jefferson County","Oregon","West","Pacific","41031","44.645151","-121.178632 ","2083","32","6","0","4/21/2021 12:00:00 AM","2019","24658","NYTIMES-USCENSUS"
"4/22/2021 12:00:00 AM","Santa Cruz County","Arizona","West","Mountain","04023","31.525733","-110.845228 ","7904","174","0","0","4/21/2021 12:00:00 AM","2019","46498","NYTIMES-USCENSUS"
"4/22/2021 12:00:00 AM","Craven County","North Carolina","South","South Atlantic","37049","35.116829","-77.08132 ","9124","123","16","0","4/21/2021 12:00:00 AM","2019","102139","NYTIMES-USCENSUS"
"4/22/2021 12:00:00 AM","Polk County","Oregon","West","Pacific","41053","44.900372","-123.39864 ","3503","52","19","0","4/21/2021 12:00:00 AM","2019","86085","NYTIMES-USCENSUS"
"4/22/2021 12:00:00 AM","Crenshaw County","Alabama","South","East South Central","01041","31.730311","-86.320038 ","1498","57","-1","0","4/21/2021 12:00:00 AM","2019","13772","NYTIMES-USCENSUS"
"4/22/2021 12:00:00 AM","Norfolk city","Virginia","South","South Atlantic","51710","36.923015","-76.244641 ","17107","247","51","2","4/21/2021 12:00:00 AM","2019","242742","NYTIMES-USCENSUS"
"4/22/2021 12:00:00 AM","Dickinson County","Iowa","Midwest","West North Central","19059","43.389611","-95.196057 ","2443","43","6","0","4/21/2021 12:00:00 AM","2019","17258","NYTIMES-USCENSUS"
