"monitor_date","county","state_name","region","subregion","fips","latitude","longitude","case_count_to_date","death_count_to_date","case_count","death_count","previous_monitor_date","population_year","population","source"
"2/7/2022 12:00:00 AM","Anoka County","Minnesota","Midwest","West North Central","27003","45.27411","-93.242723 ","94568","746","346","1","2/6/2022 12:00:00 AM","2019","356921","NYTIMES-USCENSUS"
"2/7/2022 12:00:00 AM","Montgomery County","Mississippi","South","East South Central","28097","33.500714","-89.639625 ","2862","67","34","0","2/6/2022 12:00:00 AM","2019","9775","NYTIMES-USCENSUS"
"2/7/2022 12:00:00 AM","Boone County","Iowa","Midwest","West North Central","19015","42.038642","-93.938603 ","5182","48","0","0","2/6/2022 12:00:00 AM","2019","26234","NYTIMES-USCENSUS"
"2/7/2022 12:00:00 AM","Butte County","California","West","Pacific","06007","39.665336","-121.603209 ","37214","355","288","0","2/6/2022 12:00:00 AM","2019","219186","NYTIMES-USCENSUS"
"2/7/2022 12:00:00 AM","Northampton County","North Carolina","South","South Atlantic","37131","36.421774","-77.398352 ","4175","73","25","-1","2/6/2022 12:00:00 AM","2019","19483","NYTIMES-USCENSUS"
"2/7/2022 12:00:00 AM","Union County","New Mexico","West","Mountain","35059","36.488085","-103.475723 ","956","12","7","0","2/6/2022 12:00:00 AM","2019","4059","NYTIMES-USCENSUS"
"2/7/2022 12:00:00 AM","Todd County","Minnesota","Midwest","West North Central","27153","46.066569","-94.900576 ","6338","54","43","0","2/6/2022 12:00:00 AM","2019","24664","NYTIMES-USCENSUS"
"2/7/2022 12:00:00 AM","Madison County","Idaho","West","Mountain","16065","43.788614","-111.656993 ","12375","44","20","0","2/6/2022 12:00:00 AM","2019","39907","NYTIMES-USCENSUS"
"2/7/2022 12:00:00 AM","Mississippi County","Missouri","Midwest","West North Central","29133","36.826264","-89.295929 ","3032","52","1","0","2/6/2022 12:00:00 AM","2019","13180","NYTIMES-USCENSUS"
"2/7/2022 12:00:00 AM","Stutsman County","North Dakota","Midwest","West North Central","38093","46.972223","-98.956123 ","6697","95","20","0","2/6/2022 12:00:00 AM","2019","20704","NYTIMES-USCENSUS"
"2/7/2022 12:00:00 AM","Adams County","Mississippi","South","East South Central","28001","31.486224","-91.351797 ","6946","133","309","0","2/6/2022 12:00:00 AM","2019","30693","NYTIMES-USCENSUS"
"2/7/2022 12:00:00 AM","Quay County","New Mexico","West","Mountain","35037","35.107018","-103.548071 ","1932","39","8","0","2/6/2022 12:00:00 AM","2019","8253","NYTIMES-USCENSUS"
"2/7/2022 12:00:00 AM","Quitman County","Georgia","South","South Atlantic","13239","31.862938","-85.004798 ","402","4","4","0","2/6/2022 12:00:00 AM","2019","2299","NYTIMES-USCENSUS"
"2/7/2022 12:00:00 AM","Crisp County","Georgia","South","South Atlantic","13081","31.920268","-83.75653 ","4581","129","25","0","2/6/2022 12:00:00 AM","2019","22372","NYTIMES-USCENSUS"
"2/7/2022 12:00:00 AM","Bullitt County","Kentucky","South","East South Central","21029","37.969945","-85.702635 ","20132","176","105","0","2/6/2022 12:00:00 AM","2019","81676","NYTIMES-USCENSUS"
"2/7/2022 12:00:00 AM","Jasper County","Iowa","Midwest","West North Central","19099","41.685551","-93.054147 ","8185","99","0","0","2/6/2022 12:00:00 AM","2019","37185","NYTIMES-USCENSUS"
"2/7/2022 12:00:00 AM","Jerauld County","South Dakota","Midwest","West North Central","46073","44.06341","-98.62317 ","399","19","3","0","2/6/2022 12:00:00 AM","2019","2013","NYTIMES-USCENSUS"
"2/7/2022 12:00:00 AM","Roosevelt County","New Mexico","West","Mountain","35041","34.021207","-103.483004 ","4772","89","45","1","2/6/2022 12:00:00 AM","2019","18500","NYTIMES-USCENSUS"
"2/7/2022 12:00:00 AM","Simpson County","Kentucky","South","East South Central","21213","36.740937","-86.581793 ","5349","79","41","0","2/6/2022 12:00:00 AM","2019","18572","NYTIMES-USCENSUS"
"2/7/2022 12:00:00 AM","Charlevoix County","Michigan","Midwest","East North Central","26029","45.618554","-85.543684 ","4768","56","12","0","2/6/2022 12:00:00 AM","2019","26143","NYTIMES-USCENSUS"
"2/7/2022 12:00:00 AM","Baltimore County","Maryland","South","South Atlantic","24005","39.443167","-76.616569 ","125924","2323","89","0","2/6/2022 12:00:00 AM","2019","827370","NYTIMES-USCENSUS"
"2/7/2022 12:00:00 AM","Worcester County","Maryland","South","South Atlantic","24047","38.222133","-75.309931 ","8258","147","7","0","2/6/2022 12:00:00 AM","2019","52276","NYTIMES-USCENSUS"
"2/7/2022 12:00:00 AM","Madison County","Nebraska","Midwest","West North Central","31119","41.909929","-97.606856 ","9168","60","33","2","2/6/2022 12:00:00 AM","2019","35099","NYTIMES-USCENSUS"
"2/7/2022 12:00:00 AM","Cobb County","Georgia","South","South Atlantic","13067","33.939929","-84.574121 ","166247","1583","894","10","2/6/2022 12:00:00 AM","2019","760141","NYTIMES-USCENSUS"
"2/7/2022 12:00:00 AM","Grayson County","Texas","South","West South Central","48181","33.624524","-96.675693 ","26640","567","22","0","2/6/2022 12:00:00 AM","2019","136212","NYTIMES-USCENSUS"
"2/7/2022 12:00:00 AM","Pulaski County","Illinois","Midwest","East North Central","17153","37.215615","-89.127755 ","1669","16","2","0","2/6/2022 12:00:00 AM","2019","5335","NYTIMES-USCENSUS"
"2/7/2022 12:00:00 AM","Troup County","Georgia","South","South Atlantic","13285","33.034482","-85.02836 ","15172","350","52","2","2/6/2022 12:00:00 AM","2019","69922","NYTIMES-USCENSUS"
"2/7/2022 12:00:00 AM","Seneca County","New York","Northeast","Middle Atlantic","36099","42.782294","-76.827088 ","5558","89","8","0","2/6/2022 12:00:00 AM","2019","34016","NYTIMES-USCENSUS"
"2/7/2022 12:00:00 AM","Wilcox County","Georgia","South","South Atlantic","13315","31.96272","-83.438259 ","1930","62","7","0","2/6/2022 12:00:00 AM","2019","8635","NYTIMES-USCENSUS"
"2/7/2022 12:00:00 AM","Genesee County","Michigan","Midwest","East North Central","26049","43.021077","-83.706372 ","97764","1556","454","4","2/6/2022 12:00:00 AM","2019","405813","NYTIMES-USCENSUS"
"2/7/2022 12:00:00 AM","Henry County","Kentucky","South","East South Central","21103","38.451383","-85.119647 ","4558","44","29","0","2/6/2022 12:00:00 AM","2019","16126","NYTIMES-USCENSUS"
"2/7/2022 12:00:00 AM","Wood County","West Virginia","South","South Atlantic","54107","39.211602","-81.516234 ","20903","301","49","1","2/6/2022 12:00:00 AM","2019","83518","NYTIMES-USCENSUS"
"2/7/2022 12:00:00 AM","Chesterfield County","South Carolina","South","South Atlantic","45025","34.637018","-80.159227 ","11308","172","111","1","2/6/2022 12:00:00 AM","2019","45650","NYTIMES-USCENSUS"
"2/7/2022 12:00:00 AM","Falls County","Texas","South","West South Central","48145","31.25193","-96.934127 ","3638","57","0","0","2/6/2022 12:00:00 AM","2019","17297","NYTIMES-USCENSUS"
"2/7/2022 12:00:00 AM","Alpena County","Michigan","Midwest","East North Central","26007","44.894954","-83.426574 ","5321","125","35","1","2/6/2022 12:00:00 AM","2019","28405","NYTIMES-USCENSUS"
"2/7/2022 12:00:00 AM","Pike County","Illinois","Midwest","East North Central","17149","39.625106","-90.889034 ","4896","67","22","1","2/6/2022 12:00:00 AM","2019","15561","NYTIMES-USCENSUS"
"2/7/2022 12:00:00 AM","Louisa County","Iowa","Midwest","West North Central","19115","41.218211","-91.256994 ","2380","58","0","0","2/6/2022 12:00:00 AM","2019","11035","NYTIMES-USCENSUS"
"2/7/2022 12:00:00 AM","Henry County","Georgia","South","South Atlantic","13151","33.452947","-84.154021 ","56353","603","210","9","2/6/2022 12:00:00 AM","2019","234561","NYTIMES-USCENSUS"
"2/7/2022 12:00:00 AM","Hancock County","Tennessee","South","East South Central","47067","36.521353","-83.227493 ","1789","29","0","0","2/6/2022 12:00:00 AM","2019","6620","NYTIMES-USCENSUS"
"2/7/2022 12:00:00 AM","Pope County","Arkansas","South","West South Central","05115","35.456557","-93.026818 ","17753","180","21","1","2/6/2022 12:00:00 AM","2019","64072","NYTIMES-USCENSUS"
"2/7/2022 12:00:00 AM","Santa Rosa County","Florida","South","South Atlantic","12113","30.675348","-87.018919 ","45838","546","0","0","2/6/2022 12:00:00 AM","2019","184313","NYTIMES-USCENSUS"
"2/7/2022 12:00:00 AM","Hamilton County","Nebraska","Midwest","West North Central","31081","40.872817","-98.022329 ","2111","22","16","0","2/6/2022 12:00:00 AM","2019","9324","NYTIMES-USCENSUS"
"2/7/2022 12:00:00 AM","Rockwall County","Texas","South","West South Central","48397","32.899886","-96.41205 ","25588","242","31","0","2/6/2022 12:00:00 AM","2019","104915","NYTIMES-USCENSUS"
"2/7/2022 12:00:00 AM","Livingston Parish","Louisiana","South","West South Central","22063","30.440419","-90.727474 ","36119","431","388","0","2/6/2022 12:00:00 AM","2019","140789","NYTIMES-USCENSUS"
"2/7/2022 12:00:00 AM","Salt Lake County","Utah","West","Mountain","49035","40.667883","-111.92424 ","332179","1474","1978","9","2/6/2022 12:00:00 AM","2019","1160437","NYTIMES-USCENSUS"
"2/7/2022 12:00:00 AM","Marshall County","Minnesota","Midwest","West North Central","27089","48.362728","-96.357761 ","1915","23","7","0","2/6/2022 12:00:00 AM","2019","9336","NYTIMES-USCENSUS"
"2/7/2022 12:00:00 AM","Washington County","Minnesota","Midwest","West North Central","27163","45.037929","-92.890117 ","63571","457","296","4","2/6/2022 12:00:00 AM","2019","262440","NYTIMES-USCENSUS"
"2/7/2022 12:00:00 AM","Josephine County","Oregon","West","Pacific","41033","42.386983","-123.57162 ","15029","305","132","0","2/6/2022 12:00:00 AM","2019","87487","NYTIMES-USCENSUS"
"2/7/2022 12:00:00 AM","Archuleta County","Colorado","West","Mountain","08007","37.202395","-107.050863 ","2768","9","-1","0","2/6/2022 12:00:00 AM","2019","14029","NYTIMES-USCENSUS"
"2/7/2022 12:00:00 AM","Barton County","Kansas","Midwest","West North Central","20009","38.481239","-98.767837 ","6348","85","56","0","2/6/2022 12:00:00 AM","2019","25779","NYTIMES-USCENSUS"
"2/7/2022 12:00:00 AM","Ionia County","Michigan","Midwest","East North Central","26067","42.94465","-85.073766 ","18872","170","99","0","2/6/2022 12:00:00 AM","2019","64697","NYTIMES-USCENSUS"
"2/7/2022 12:00:00 AM","Laurens County","Georgia","South","South Atlantic","13175","32.39322","-82.926317 ","13567","274","49","1","2/6/2022 12:00:00 AM","2019","47546","NYTIMES-USCENSUS"
"2/7/2022 12:00:00 AM","Williamson County","Texas","South","West South Central","48491","30.649082","-97.605065 ","127639","817","1294","3","2/6/2022 12:00:00 AM","2019","590551","NYTIMES-USCENSUS"
"2/7/2022 12:00:00 AM","Trinity County","Texas","South","West South Central","48455","31.096675","-95.151687 ","2379","67","5","0","2/6/2022 12:00:00 AM","2019","14651","NYTIMES-USCENSUS"
"2/7/2022 12:00:00 AM","Moniteau County","Missouri","Midwest","West North Central","29135","38.633037","-92.583642 ","3717","49","1","0","2/6/2022 12:00:00 AM","2019","16132","NYTIMES-USCENSUS"
"2/7/2022 12:00:00 AM","Cass County","Missouri","Midwest","West North Central","29037","38.646474","-94.354547 ","23858","263","50","0","2/6/2022 12:00:00 AM","2019","105780","NYTIMES-USCENSUS"
"2/7/2022 12:00:00 AM","Wilson County","Texas","South","West South Central","48493","29.173883","-98.086734 ","10388","151","15","0","2/6/2022 12:00:00 AM","2019","51070","NYTIMES-USCENSUS"
"2/7/2022 12:00:00 AM","McIntosh County","Georgia","South","South Atlantic","13191","31.485629","-81.372141 ","2308","35","21","0","2/6/2022 12:00:00 AM","2019","14378","NYTIMES-USCENSUS"
"2/7/2022 12:00:00 AM","Norton city","Virginia","South","South Atlantic","51720","36.931549","-82.625996 ","1145","21","18","1","2/6/2022 12:00:00 AM","2019","3981","NYTIMES-USCENSUS"
"2/7/2022 12:00:00 AM","Pushmataha County","Oklahoma","South","West South Central","40127","34.377899","-95.408082 ","2445","42","0","0","2/6/2022 12:00:00 AM","2019","11096","NYTIMES-USCENSUS"
"2/7/2022 12:00:00 AM","Emporia city","Virginia","South","South Atlantic","51595","36.696182","-77.535975 ","1077","49","32","1","2/6/2022 12:00:00 AM","2019","5346","NYTIMES-USCENSUS"
"2/7/2022 12:00:00 AM","Penobscot County","Maine","Northeast","New England","23019","45.409284","-68.666616 ","20308","264","0","0","2/6/2022 12:00:00 AM","2019","152148","NYTIMES-USCENSUS"
"2/7/2022 12:00:00 AM","Caribou County","Idaho","West","Mountain","16029","42.786072","-111.544273 ","1444","25","4","0","2/6/2022 12:00:00 AM","2019","7155","NYTIMES-USCENSUS"
"2/7/2022 12:00:00 AM","Gratiot County","Michigan","Midwest","East North Central","26057","43.292326","-84.60469 ","13103","176","49","0","2/6/2022 12:00:00 AM","2019","40711","NYTIMES-USCENSUS"
"2/7/2022 12:00:00 AM","Beaver County","Oklahoma","South","West South Central","40007","36.748334","-100.483056 ","894","10","0","0","2/6/2022 12:00:00 AM","2019","5311","NYTIMES-USCENSUS"
"2/7/2022 12:00:00 AM","Fairfield County","Connecticut","Northeast","New England","09001","41.227413","-73.367061 ","195214","2581","489","1","2/6/2022 12:00:00 AM","2019","943332","NYTIMES-USCENSUS"
"2/7/2022 12:00:00 AM","Durham County","North Carolina","South","South Atlantic","37063","36.033828","-78.878125 ","67802","291","599","1","2/6/2022 12:00:00 AM","2019","321488","NYTIMES-USCENSUS"
"2/7/2022 12:00:00 AM","Taylor County","Texas","South","West South Central","48441","32.297126","-99.89043 ","32090","659","154","0","2/6/2022 12:00:00 AM","2019","138034","NYTIMES-USCENSUS"
"2/7/2022 12:00:00 AM","Gem County","Idaho","West","Mountain","16045","44.061473","-116.398784 ","3357","77","11","0","2/6/2022 12:00:00 AM","2019","18112","NYTIMES-USCENSUS"
"2/7/2022 12:00:00 AM","Lyon County","Minnesota","Midwest","West North Central","27083","44.409195","-95.847268 ","6844","70","23","0","2/6/2022 12:00:00 AM","2019","25474","NYTIMES-USCENSUS"
"2/7/2022 12:00:00 AM","Schuyler County","Illinois","Midwest","East North Central","17169","40.156905","-90.613464 ","1915","29","8","0","2/6/2022 12:00:00 AM","2019","6768","NYTIMES-USCENSUS"
"2/7/2022 12:00:00 AM","Lee County","Arkansas","South","West South Central","05077","34.779505","-90.779717 ","2814","54","1","0","2/6/2022 12:00:00 AM","2019","8857","NYTIMES-USCENSUS"
"2/7/2022 12:00:00 AM","Kitsap County","Washington","West","Pacific","53035","47.639595","-122.649634 ","36773","294","393","5","2/6/2022 12:00:00 AM","2019","271473","NYTIMES-USCENSUS"
"2/7/2022 12:00:00 AM","Morgan County","Georgia","South","South Atlantic","13211","33.598696","-83.499435 ","4493","53","12","0","2/6/2022 12:00:00 AM","2019","19276","NYTIMES-USCENSUS"
"2/7/2022 12:00:00 AM","Wahkiakum County","Washington","West","Pacific","53069","46.294638","-123.424458 ","501","5","10","0","2/6/2022 12:00:00 AM","2019","4488","NYTIMES-USCENSUS"
"2/7/2022 12:00:00 AM","Ashe County","North Carolina","South","South Atlantic","37009","36.443469","-81.499334 ","5764","67","98","0","2/6/2022 12:00:00 AM","2019","27203","NYTIMES-USCENSUS"
"2/7/2022 12:00:00 AM","Kootenai County","Idaho","West","Mountain","16055","47.675957","-116.695919 ","37274","538","274","8","2/6/2022 12:00:00 AM","2019","165697","NYTIMES-USCENSUS"
"2/7/2022 12:00:00 AM","Crowley County","Colorado","West","Mountain","08025","38.30618","-103.772736 ","3029","28","80","0","2/6/2022 12:00:00 AM","2019","6061","NYTIMES-USCENSUS"
"2/7/2022 12:00:00 AM","Dunn County","North Dakota","Midwest","West North Central","38025","47.354557","-102.612322 ","991","8","5","0","2/6/2022 12:00:00 AM","2019","4424","NYTIMES-USCENSUS"
"2/7/2022 12:00:00 AM","Davis County","Iowa","Midwest","West North Central","19051","40.748089","-92.410345 ","1532","27","0","0","2/6/2022 12:00:00 AM","2019","9000","NYTIMES-USCENSUS"
"2/7/2022 12:00:00 AM","Callaway County","Missouri","Midwest","West North Central","29027","38.835547","-91.923446 ","11490","105","17","0","2/6/2022 12:00:00 AM","2019","44743","NYTIMES-USCENSUS"
"2/7/2022 12:00:00 AM","Alexander County","Illinois","Midwest","East North Central","17003","37.183658","-89.349516 ","1248","13","8","0","2/6/2022 12:00:00 AM","2019","5761","NYTIMES-USCENSUS"
"2/7/2022 12:00:00 AM","Lincoln County","Kentucky","South","East South Central","21137","37.457174","-84.658335 ","5791","115","56","2","2/6/2022 12:00:00 AM","2019","24549","NYTIMES-USCENSUS"
"2/7/2022 12:00:00 AM","Onondaga County","New York","Northeast","Middle Atlantic","36067","43.006516","-76.196134 ","104107","989","139","0","2/6/2022 12:00:00 AM","2019","460528","NYTIMES-USCENSUS"
"2/7/2022 12:00:00 AM","Butler County","Iowa","Midwest","West North Central","19023","42.734757","-92.780153 ","3057","48","0","0","2/6/2022 12:00:00 AM","2019","14439","NYTIMES-USCENSUS"
"2/7/2022 12:00:00 AM","Chisago County","Minnesota","Midwest","West North Central","27025","45.505444","-92.903849 ","13716","114","74","0","2/6/2022 12:00:00 AM","2019","56579","NYTIMES-USCENSUS"
"2/7/2022 12:00:00 AM","Liberty County","Florida","South","South Atlantic","12077","30.259849","-84.86858 ","2439","25","0","0","2/6/2022 12:00:00 AM","2019","8354","NYTIMES-USCENSUS"
"2/7/2022 12:00:00 AM","Gallatin County","Illinois","Midwest","East North Central","17059","37.768677","-88.227964 ","1325","13","23","0","2/6/2022 12:00:00 AM","2019","4828","NYTIMES-USCENSUS"
"2/7/2022 12:00:00 AM","Nash County","North Carolina","South","South Atlantic","37127","35.965945","-77.987555 ","26295","280","231","1","2/6/2022 12:00:00 AM","2019","94298","NYTIMES-USCENSUS"
"2/7/2022 12:00:00 AM","Okeechobee County","Florida","South","South Atlantic","12093","27.385592","-80.887388 ","10310","164","0","0","2/6/2022 12:00:00 AM","2019","42168","NYTIMES-USCENSUS"
"2/7/2022 12:00:00 AM","Lynchburg city","Virginia","South","South Atlantic","51680","37.399016","-79.195458 ","18455","241","222","0","2/6/2022 12:00:00 AM","2019","82168","NYTIMES-USCENSUS"
"2/7/2022 12:00:00 AM","Monroe County","Wisconsin","Midwest","East North Central","55081","43.945175","-90.619969 ","11544","78","56","1","2/6/2022 12:00:00 AM","2019","46253","NYTIMES-USCENSUS"
"2/7/2022 12:00:00 AM","Hood River County","Oregon","West","Pacific","41027","45.511775","-121.655976 ","3302","41","22","0","2/6/2022 12:00:00 AM","2019","23382","NYTIMES-USCENSUS"
"2/7/2022 12:00:00 AM","Ohio County","West Virginia","South","South Atlantic","54069","40.100323","-80.6199 ","10588","146","12","0","2/6/2022 12:00:00 AM","2019","41411","NYTIMES-USCENSUS"
"2/7/2022 12:00:00 AM","Lewis County","Tennessee","South","East South Central","47101","35.523244","-87.496983 ","3257","49","0","0","2/6/2022 12:00:00 AM","2019","12268","NYTIMES-USCENSUS"
"2/7/2022 12:00:00 AM","Douglas County","Nevada","West","Mountain","32005","38.905129","-119.609019 ","7653","82","0","0","2/6/2022 12:00:00 AM","2019","48905","NYTIMES-USCENSUS"
"2/7/2022 12:00:00 AM","Suffolk city","Virginia","South","South Atlantic","51800","36.697157","-76.634781 ","18182","267","70","3","2/6/2022 12:00:00 AM","2019","92108","NYTIMES-USCENSUS"
"2/7/2022 12:00:00 AM","Panola County","Mississippi","South","East South Central","28107","34.365205","-89.963065 ","10191","150","278","2","2/6/2022 12:00:00 AM","2019","34192","NYTIMES-USCENSUS"
"2/7/2022 12:00:00 AM","Kane County","Illinois","Midwest","East North Central","17089","41.939594","-88.42804 ","122127","1104","720","2","2/6/2022 12:00:00 AM","2019","532403","NYTIMES-USCENSUS"
"2/7/2022 12:00:00 AM","Pocahontas County","Iowa","Midwest","West North Central","19151","42.734033","-94.678279 ","1537","26","0","0","2/6/2022 12:00:00 AM","2019","6619","NYTIMES-USCENSUS"
"2/7/2022 12:00:00 AM","Bosque County","Texas","South","West South Central","48035","31.900819","-97.637641 ","3819","63","3","0","2/6/2022 12:00:00 AM","2019","18685","NYTIMES-USCENSUS"
"2/7/2022 12:00:00 AM","Lawrence County","Missouri","Midwest","West North Central","29109","37.10659","-93.830551 ","7491","146","9","0","2/6/2022 12:00:00 AM","2019","38355","NYTIMES-USCENSUS"
"2/7/2022 12:00:00 AM","St. Clair County","Michigan","Midwest","East North Central","26147","42.928803","-82.668913 ","39248","765","54","0","2/6/2022 12:00:00 AM","2019","159128","NYTIMES-USCENSUS"
"2/7/2022 12:00:00 AM","Isanti County","Minnesota","Midwest","West North Central","27059","45.562431","-93.296339 ","9677","109","48","0","2/6/2022 12:00:00 AM","2019","40596","NYTIMES-USCENSUS"
"2/7/2022 12:00:00 AM","Cumberland County","Virginia","South","South Atlantic","51049","37.520189","-78.252836 ","1157","21","5","0","2/6/2022 12:00:00 AM","2019","9932","NYTIMES-USCENSUS"
"2/7/2022 12:00:00 AM","Henry County","Ohio","Midwest","East North Central","39069","41.331584","-84.0689 ","6305","98","8","0","2/6/2022 12:00:00 AM","2019","27006","NYTIMES-USCENSUS"
"2/7/2022 12:00:00 AM","Caledonia County","Vermont","Northeast","New England","50005","44.468791","-72.112168 ","4362","22","25","0","2/6/2022 12:00:00 AM","2019","29993","NYTIMES-USCENSUS"
"2/7/2022 12:00:00 AM","Jones County","Mississippi","South","East South Central","28067","31.616601","-89.168532 ","20604","267","326","1","2/6/2022 12:00:00 AM","2019","68098","NYTIMES-USCENSUS"
"2/7/2022 12:00:00 AM","Madison County","Ohio","Midwest","East North Central","39097","39.896607","-83.400885 ","9446","121","6","0","2/6/2022 12:00:00 AM","2019","44731","NYTIMES-USCENSUS"
"2/7/2022 12:00:00 AM","Lowndes County","Mississippi","South","East South Central","28087","33.471424","-88.439723 ","17070","216","442","0","2/6/2022 12:00:00 AM","2019","58595","NYTIMES-USCENSUS"
"2/7/2022 12:00:00 AM","Clark County","Kentucky","South","East South Central","21049","37.970314","-84.145115 ","9110","51","69","0","2/6/2022 12:00:00 AM","2019","36263","NYTIMES-USCENSUS"
"2/7/2022 12:00:00 AM","Centre County","Pennsylvania","Northeast","Middle Atlantic","42027","40.909128","-77.847877 ","33997","327","138","1","2/6/2022 12:00:00 AM","2019","162385","NYTIMES-USCENSUS"
"2/7/2022 12:00:00 AM","Cass County","Nebraska","Midwest","West North Central","31025","40.909878","-96.140609 ","5804","38","31","0","2/6/2022 12:00:00 AM","2019","26248","NYTIMES-USCENSUS"
"2/7/2022 12:00:00 AM","Pasquotank County","North Carolina","South","South Atlantic","37139","36.265199","-76.260691 ","7732","111","75","0","2/6/2022 12:00:00 AM","2019","39824","NYTIMES-USCENSUS"
"2/7/2022 12:00:00 AM","Linn County","Oregon","West","Pacific","41043","44.488898","-122.537208 ","24569","222","380","0","2/6/2022 12:00:00 AM","2019","129749","NYTIMES-USCENSUS"
"2/7/2022 12:00:00 AM","Pickens County","Georgia","South","South Atlantic","13227","34.456746","-84.490351 ","7973","143","59","0","2/6/2022 12:00:00 AM","2019","32591","NYTIMES-USCENSUS"
"2/7/2022 12:00:00 AM","Orange County","Virginia","South","South Atlantic","51137","38.249326","-78.011092 ","6646","82","73","3","2/6/2022 12:00:00 AM","2019","37051","NYTIMES-USCENSUS"
"2/7/2022 12:00:00 AM","Sussex County","Virginia","South","South Atlantic","51183","36.926645","-77.259732 ","2349","32","-14","0","2/6/2022 12:00:00 AM","2019","11159","NYTIMES-USCENSUS"
"2/7/2022 12:00:00 AM","Tyler County","Texas","South","West South Central","48457","30.769295","-94.375656 ","3312","76","1","0","2/6/2022 12:00:00 AM","2019","21672","NYTIMES-USCENSUS"
"2/7/2022 12:00:00 AM","Morrison County","Minnesota","Midwest","West North Central","27097","46.020484","-94.266619 ","8619","97","36","2","2/6/2022 12:00:00 AM","2019","33386","NYTIMES-USCENSUS"
"2/7/2022 12:00:00 AM","Chelan County","Washington","West","Pacific","53007","47.860974","-120.619041 ","19111","145","180","2","2/6/2022 12:00:00 AM","2019","77200","NYTIMES-USCENSUS"
"2/7/2022 12:00:00 AM","Cayuga County","New York","Northeast","Middle Atlantic","36011","43.008546","-76.574587 ","15241","136","11","1","2/6/2022 12:00:00 AM","2019","76576","NYTIMES-USCENSUS"
"2/7/2022 12:00:00 AM","Henry County","Virginia","South","South Atlantic","51089","36.620612","-79.980662 ","10525","224","73","3","2/6/2022 12:00:00 AM","2019","50557","NYTIMES-USCENSUS"
"2/7/2022 12:00:00 AM","Will County","Illinois","Midwest","East North Central","17197","41.448474","-87.978456 ","157322","1495","685","13","2/6/2022 12:00:00 AM","2019","690743","NYTIMES-USCENSUS"
"2/7/2022 12:00:00 AM","Allamakee County","Iowa","Midwest","West North Central","19005","43.274964","-91.382751 ","2740","58","0","0","2/6/2022 12:00:00 AM","2019","13687","NYTIMES-USCENSUS"
"2/7/2022 12:00:00 AM","Juneau City and Borough","Alaska","West","Pacific","02110","58.37291","-134.178445 ","7381","16","101","0","2/6/2022 12:00:00 AM","2019","31974","NYTIMES-USCENSUS"
"2/7/2022 12:00:00 AM","Mineral County","Nevada","West","Mountain","32021","38.516647","-118.416279 ","913","15","2","0","2/6/2022 12:00:00 AM","2019","4505","NYTIMES-USCENSUS"
"2/7/2022 12:00:00 AM","Richland County","Montana","West","Mountain","30083","47.785633","-104.563408 ","2457","30","8","0","2/6/2022 12:00:00 AM","2019","10803","NYTIMES-USCENSUS"
"2/7/2022 12:00:00 AM","Stewart County","Georgia","South","South Atlantic","13259","32.073225","-84.834912 ","2051","31","24","0","2/6/2022 12:00:00 AM","2019","6621","NYTIMES-USCENSUS"
"2/7/2022 12:00:00 AM","Whitley County","Indiana","Midwest","East North Central","18183","41.136426","-85.501892 ","9522","77","25","0","2/6/2022 12:00:00 AM","2019","33964","NYTIMES-USCENSUS"
"2/7/2022 12:00:00 AM","Ouachita Parish","Louisiana","South","West South Central","22073","32.480932","-92.151581 ","49257","666","243","1","2/6/2022 12:00:00 AM","2019","153279","NYTIMES-USCENSUS"
"2/7/2022 12:00:00 AM","Fairbanks North Star Borough","Alaska","West","Pacific","02090","64.676044","-146.548159 ","25785","124","265","0","2/6/2022 12:00:00 AM","2019","96849","NYTIMES-USCENSUS"
"2/7/2022 12:00:00 AM","Andrews County","Texas","South","West South Central","48003","32.312258","-102.640206 ","3755","69","2","0","2/6/2022 12:00:00 AM","2019","18705","NYTIMES-USCENSUS"
"2/7/2022 12:00:00 AM","King and Queen County","Virginia","South","South Atlantic","51097","37.717772","-76.905581 ","1094","10","10","0","2/6/2022 12:00:00 AM","2019","7025","NYTIMES-USCENSUS"
"2/7/2022 12:00:00 AM","Crockett County","Tennessee","South","East South Central","47033","35.818795","-89.132494 ","4698","75","0","0","2/6/2022 12:00:00 AM","2019","14230","NYTIMES-USCENSUS"
"2/7/2022 12:00:00 AM","Pondera County","Montana","West","Mountain","30073","48.228604","-112.220761 ","1093","6","14","0","2/6/2022 12:00:00 AM","2019","5911","NYTIMES-USCENSUS"
"2/7/2022 12:00:00 AM","Iberia Parish","Louisiana","South","West South Central","22045","29.606013","-91.842706 ","18531","245","279","0","2/6/2022 12:00:00 AM","2019","69830","NYTIMES-USCENSUS"
"2/7/2022 12:00:00 AM","Antelope County","Nebraska","Midwest","West North Central","31003","42.183225","-98.058037 ","1021","12","3","0","2/6/2022 12:00:00 AM","2019","6298","NYTIMES-USCENSUS"
"2/7/2022 12:00:00 AM","Kendall County","Texas","South","West South Central","48259","29.943525","-98.709269 ","7688","108","15","0","2/6/2022 12:00:00 AM","2019","47431","NYTIMES-USCENSUS"
"2/7/2022 12:00:00 AM","Wilson County","Kansas","Midwest","West North Central","20205","37.558515","-95.745175 ","2720","36","18","0","2/6/2022 12:00:00 AM","2019","8525","NYTIMES-USCENSUS"
"2/7/2022 12:00:00 AM","Erie County","New York","Northeast","Middle Atlantic","36029","42.752759","-78.778192 ","202610","2506","205","3","2/6/2022 12:00:00 AM","2019","918702","NYTIMES-USCENSUS"
"2/7/2022 12:00:00 AM","Dare County","North Carolina","South","South Atlantic","37055","35.606269","-75.767536 ","7028","21","53","3","2/6/2022 12:00:00 AM","2019","37009","NYTIMES-USCENSUS"
"2/7/2022 12:00:00 AM","Mills County","Texas","South","West South Central","48333","31.494888","-98.594623 ","1431","30","3","0","2/6/2022 12:00:00 AM","2019","4873","NYTIMES-USCENSUS"
"2/7/2022 12:00:00 AM","Chambers County","Texas","South","West South Central","48071","29.696374","-94.669445 ","11430","106","48","0","2/6/2022 12:00:00 AM","2019","43837","NYTIMES-USCENSUS"
"2/7/2022 12:00:00 AM","Douglas County","Illinois","Midwest","East North Central","17041","39.766078","-88.222866 ","6302","56","12","0","2/6/2022 12:00:00 AM","2019","19465","NYTIMES-USCENSUS"
"2/7/2022 12:00:00 AM","Chickasaw County","Mississippi","South","East South Central","28017","33.933277","-88.947558 ","5374","85","74","0","2/6/2022 12:00:00 AM","2019","17103","NYTIMES-USCENSUS"
"2/7/2022 12:00:00 AM","Washita County","Oklahoma","South","West South Central","40149","35.289497","-98.991436 ","2507","38","0","0","2/6/2022 12:00:00 AM","2019","10916","NYTIMES-USCENSUS"
"2/7/2022 12:00:00 AM","Kiowa County","Kansas","Midwest","West North Central","20097","37.561231","-99.286539 ","647","7","1","0","2/6/2022 12:00:00 AM","2019","2475","NYTIMES-USCENSUS"
"2/7/2022 12:00:00 AM","Muskegon County","Michigan","Midwest","East North Central","26121","43.428739","-86.420908 ","40366","589","168","4","2/6/2022 12:00:00 AM","2019","173566","NYTIMES-USCENSUS"
"2/7/2022 12:00:00 AM","Gosper County","Nebraska","Midwest","West North Central","31073","40.509095","-99.823206 ","349","7","0","0","2/6/2022 12:00:00 AM","2019","1990","NYTIMES-USCENSUS"
"2/7/2022 12:00:00 AM","Stevens County","Minnesota","Midwest","West North Central","27149","45.593461","-95.992315 ","2493","12","16","0","2/6/2022 12:00:00 AM","2019","9805","NYTIMES-USCENSUS"
"2/7/2022 12:00:00 AM","Dickinson County","Kansas","Midwest","West North Central","20041","38.867735","-97.157943 ","4637","69","18","0","2/6/2022 12:00:00 AM","2019","18466","NYTIMES-USCENSUS"
"2/7/2022 12:00:00 AM","Crawford County","Arkansas","South","West South Central","05033","35.583011","-94.236219 ","15316","217","9","3","2/6/2022 12:00:00 AM","2019","63257","NYTIMES-USCENSUS"
"2/7/2022 12:00:00 AM","Falls Church city","Virginia","South","South Atlantic","51610","38.884722","-77.175603 ","1836","14","23","0","2/6/2022 12:00:00 AM","2019","14617","NYTIMES-USCENSUS"
"2/7/2022 12:00:00 AM","Union County","Ohio","Midwest","East North Central","39159","40.295901","-83.367042 ","15114","87","32","0","2/6/2022 12:00:00 AM","2019","58988","NYTIMES-USCENSUS"
"2/7/2022 12:00:00 AM","Cottle County","Texas","South","West South Central","48101","34.091906","-100.276442 ","275","9","0","0","2/6/2022 12:00:00 AM","2019","1398","NYTIMES-USCENSUS"
"2/7/2022 12:00:00 AM","Love County","Oklahoma","South","West South Central","40085","33.957804","-97.245093 ","2887","31","0","0","2/6/2022 12:00:00 AM","2019","10253","NYTIMES-USCENSUS"
"2/7/2022 12:00:00 AM","Jefferson County","Alabama","South","East South Central","01073","33.553444","-86.896536 ","178525","2106","384","0","2/6/2022 12:00:00 AM","2019","658573","NYTIMES-USCENSUS"
"2/7/2022 12:00:00 AM","Sharp County","Arkansas","South","West South Central","05135","36.173399","-91.471069 ","4308","86","0","0","2/6/2022 12:00:00 AM","2019","17442","NYTIMES-USCENSUS"
"2/7/2022 12:00:00 AM","Elmore County","Alabama","South","East South Central","01051","32.597229","-86.142735 ","22491","314","41","0","2/6/2022 12:00:00 AM","2019","81209","NYTIMES-USCENSUS"
"2/7/2022 12:00:00 AM","Seward County","Nebraska","Midwest","West North Central","31159","40.871944","-97.140383 ","3021","41","4","1","2/6/2022 12:00:00 AM","2019","17284","NYTIMES-USCENSUS"
"2/7/2022 12:00:00 AM","Randall County","Texas","South","West South Central","48381","34.962529","-101.895547 ","36749","450","210","0","2/6/2022 12:00:00 AM","2019","137713","NYTIMES-USCENSUS"
"2/7/2022 12:00:00 AM","Brookings County","South Dakota","Midwest","West North Central","46011","44.376675","-96.797797 ","7941","44","10","0","2/6/2022 12:00:00 AM","2019","35077","NYTIMES-USCENSUS"
"2/7/2022 12:00:00 AM","Kern County","California","West","Pacific","06029","35.346629","-118.729506 ","221944","2032","1855","1","2/6/2022 12:00:00 AM","2019","900202","NYTIMES-USCENSUS"
"2/7/2022 12:00:00 AM","Ottawa County","Oklahoma","South","West South Central","40115","36.835764","-94.802681 ","8588","111","0","0","2/6/2022 12:00:00 AM","2019","31127","NYTIMES-USCENSUS"
"2/7/2022 12:00:00 AM","Golden Valley County","Montana","West","Mountain","30037","46.380624","-109.174586 ","145","5","2","0","2/6/2022 12:00:00 AM","2019","821","NYTIMES-USCENSUS"
"2/7/2022 12:00:00 AM","Kodiak Island Borough","Alaska","West","Pacific","02150","57.7044","-153.918372 ","4507","10","68","0","2/6/2022 12:00:00 AM","2019","12998","NYTIMES-USCENSUS"
"2/7/2022 12:00:00 AM","Carbon County","Montana","West","Mountain","30009","45.224468","-109.028554 ","1939","27","5","0","2/6/2022 12:00:00 AM","2019","10725","NYTIMES-USCENSUS"
"2/7/2022 12:00:00 AM","Clay County","Iowa","Midwest","West North Central","19041","43.081224","-95.149875 ","3940","40","0","0","2/6/2022 12:00:00 AM","2019","16016","NYTIMES-USCENSUS"
"2/7/2022 12:00:00 AM","Giles County","Virginia","South","South Atlantic","51071","37.318072","-80.698321 ","3679","42","75","0","2/6/2022 12:00:00 AM","2019","16720","NYTIMES-USCENSUS"
"2/7/2022 12:00:00 AM","Scott County","Mississippi","South","East South Central","28123","32.411959","-89.533486 ","6398","106","45","0","2/6/2022 12:00:00 AM","2019","28124","NYTIMES-USCENSUS"
"2/7/2022 12:00:00 AM","Lawrence County","Ohio","Midwest","East North Central","39087","38.603866","-82.517186 ","16828","198","68","0","2/6/2022 12:00:00 AM","2019","59463","NYTIMES-USCENSUS"
"2/7/2022 12:00:00 AM","Tom Green County","Texas","South","West South Central","48451","31.398823","-100.463788 ","40296","421","41","0","2/6/2022 12:00:00 AM","2019","119200","NYTIMES-USCENSUS"
"2/7/2022 12:00:00 AM","Henderson County","Kentucky","South","East South Central","21101","37.792542","-87.572577 ","12891","144","50","2","2/6/2022 12:00:00 AM","2019","45210","NYTIMES-USCENSUS"
"2/7/2022 12:00:00 AM","Polk County","Texas","South","West South Central","48373","30.784553","-94.837338 ","7614","230","22","0","2/6/2022 12:00:00 AM","2019","51353","NYTIMES-USCENSUS"
"2/7/2022 12:00:00 AM","Wheeler County","Texas","South","West South Central","48483","35.392593","-100.253107 ","1120","18","2","0","2/6/2022 12:00:00 AM","2019","5056","NYTIMES-USCENSUS"
"2/7/2022 12:00:00 AM","Holt County","Missouri","Midwest","West North Central","29087","40.095724","-95.219072 ","1010","25","2","0","2/6/2022 12:00:00 AM","2019","4403","NYTIMES-USCENSUS"
"2/7/2022 12:00:00 AM","Edmunds County","South Dakota","Midwest","West North Central","46045","45.41168","-99.205362 ","912","16","3","0","2/6/2022 12:00:00 AM","2019","3829","NYTIMES-USCENSUS"
"2/7/2022 12:00:00 AM","Carroll County","Tennessee","South","East South Central","47017","35.965748","-88.452379 ","8246","137","0","0","2/6/2022 12:00:00 AM","2019","27767","NYTIMES-USCENSUS"
"2/7/2022 12:00:00 AM","Dinwiddie County","Virginia","South","South Atlantic","51053","37.073498","-77.635492 ","5043","68","34","4","2/6/2022 12:00:00 AM","2019","28544","NYTIMES-USCENSUS"
"2/7/2022 12:00:00 AM","Ste. Genevieve County","Missouri","Midwest","West North Central","29186","37.885845","-90.161531 ","3545","36","11","0","2/6/2022 12:00:00 AM","2019","17894","NYTIMES-USCENSUS"
"2/7/2022 12:00:00 AM","Montgomery County","Georgia","South","South Atlantic","13209","32.172108","-82.533349 ","1950","47","5","0","2/6/2022 12:00:00 AM","2019","9172","NYTIMES-USCENSUS"
"2/7/2022 12:00:00 AM","Madison County","Florida","South","South Atlantic","12079","30.447233","-83.470416 ","5574","69","0","0","2/6/2022 12:00:00 AM","2019","18493","NYTIMES-USCENSUS"
"2/7/2022 12:00:00 AM","Palm Beach County","Florida","South","South Atlantic","12099","26.649126","-80.448354 ","353799","4535","0","0","2/6/2022 12:00:00 AM","2019","1496770","NYTIMES-USCENSUS"
"2/7/2022 12:00:00 AM","Phillips County","Arkansas","South","West South Central","05107","34.423687","-90.855593 ","4638","84","3","0","2/6/2022 12:00:00 AM","2019","17782","NYTIMES-USCENSUS"
"2/7/2022 12:00:00 AM","Oconto County","Wisconsin","Midwest","East North Central","55083","44.996575","-88.206516 ","11184","98","33","0","2/6/2022 12:00:00 AM","2019","37930","NYTIMES-USCENSUS"
"2/7/2022 12:00:00 AM","Kinney County","Texas","South","West South Central","48271","29.347086","-100.4177 ","714","10","2","0","2/6/2022 12:00:00 AM","2019","3667","NYTIMES-USCENSUS"
"2/7/2022 12:00:00 AM","Yamhill County","Oregon","West","Pacific","41071","45.247827","-123.316399 ","16768","184","191","1","2/6/2022 12:00:00 AM","2019","107100","NYTIMES-USCENSUS"
"2/7/2022 12:00:00 AM","Worth County","Missouri","Midwest","West North Central","29227","40.480499","-94.419198 ","393","3","0","0","2/6/2022 12:00:00 AM","2019","2013","NYTIMES-USCENSUS"
"2/7/2022 12:00:00 AM","Toole County","Montana","West","Mountain","30101","48.645125","-111.733472 ","1198","22","18","0","2/6/2022 12:00:00 AM","2019","4736","NYTIMES-USCENSUS"
"2/7/2022 12:00:00 AM","Miller County","Georgia","South","South Atlantic","13201","31.162931","-84.730398 ","1671","26","6","0","2/6/2022 12:00:00 AM","2019","5718","NYTIMES-USCENSUS"
"2/7/2022 12:00:00 AM","Fayette County","Georgia","South","South Atlantic","13113","33.412717","-84.493941 ","21465","288","111","3","2/6/2022 12:00:00 AM","2019","114421","NYTIMES-USCENSUS"
"2/7/2022 12:00:00 AM","Rogers County","Oklahoma","South","West South Central","40131","36.377794","-95.601383 ","24139","336","0","0","2/6/2022 12:00:00 AM","2019","92459","NYTIMES-USCENSUS"
"2/7/2022 12:00:00 AM","Piute County","Utah","West","Mountain","49031","38.335881","-112.129375 ","296","6","1","0","2/6/2022 12:00:00 AM","2019","1479","NYTIMES-USCENSUS"
"2/7/2022 12:00:00 AM","Terry County","Texas","South","West South Central","48445","33.171229","-102.339284 ","2254","81","1","0","2/6/2022 12:00:00 AM","2019","12337","NYTIMES-USCENSUS"
"2/7/2022 12:00:00 AM","Chariton County","Missouri","Midwest","West North Central","29041","39.517968","-92.96162 ","1614","33","0","0","2/6/2022 12:00:00 AM","2019","7426","NYTIMES-USCENSUS"
"2/7/2022 12:00:00 AM","Sumter County","South Carolina","South","South Atlantic","45085","33.91614","-80.382376 ","26707","353","420","9","2/6/2022 12:00:00 AM","2019","106721","NYTIMES-USCENSUS"
"2/7/2022 12:00:00 AM","Wilkes County","Georgia","South","South Atlantic","13317","33.779031","-82.747921 ","2212","44","7","1","2/6/2022 12:00:00 AM","2019","9777","NYTIMES-USCENSUS"
"2/7/2022 12:00:00 AM","Skagit County","Washington","West","Pacific","53057","48.493292","-121.81577 ","21028","174","247","2","2/6/2022 12:00:00 AM","2019","129205","NYTIMES-USCENSUS"
"2/7/2022 12:00:00 AM","Smith County","Tennessee","South","East South Central","47159","36.256645","-85.941915 ","5523","71","0","0","2/6/2022 12:00:00 AM","2019","20157","NYTIMES-USCENSUS"
"2/7/2022 12:00:00 AM","Manitowoc County","Wisconsin","Midwest","East North Central","55071","44.156137","-87.577352 ","19879","169","110","0","2/6/2022 12:00:00 AM","2019","78981","NYTIMES-USCENSUS"
"2/7/2022 12:00:00 AM","Loudoun County","Virginia","South","South Atlantic","51107","39.0812","-77.638898 ","63454","331","352","8","2/6/2022 12:00:00 AM","2019","413538","NYTIMES-USCENSUS"
"2/7/2022 12:00:00 AM","Providence County","Rhode Island","Northeast","New England","44007","41.869768","-71.578625 ","209760","2392","0","0","2/6/2022 12:00:00 AM","2019","638931","NYTIMES-USCENSUS"
"2/7/2022 12:00:00 AM","Carroll County","Maryland","South","South Atlantic","24013","39.563328","-77.01533 ","20279","377","21","0","2/6/2022 12:00:00 AM","2019","168447","NYTIMES-USCENSUS"
"2/7/2022 12:00:00 AM","Talladega County","Alabama","South","East South Central","01121","33.369314","-86.17593 ","21322","330","45","0","2/6/2022 12:00:00 AM","2019","79978","NYTIMES-USCENSUS"
"2/7/2022 12:00:00 AM","Pike County","Arkansas","South","West South Central","05109","34.158191","-93.658659 ","2478","39","0","0","2/6/2022 12:00:00 AM","2019","10718","NYTIMES-USCENSUS"
"2/7/2022 12:00:00 AM","Gogebic County","Michigan","Midwest","East North Central","26053","46.488054","-89.788314 ","3162","65","8","0","2/6/2022 12:00:00 AM","2019","13975","NYTIMES-USCENSUS"
"2/7/2022 12:00:00 AM","Vanderburgh County","Indiana","Midwest","East North Central","18163","38.02007","-87.586166 ","55677","569","317","7","2/6/2022 12:00:00 AM","2019","181451","NYTIMES-USCENSUS"
"2/7/2022 12:00:00 AM","Finney County","Kansas","Midwest","West North Central","20055","38.049808","-100.739967 ","11056","105","28","0","2/6/2022 12:00:00 AM","2019","36467","NYTIMES-USCENSUS"
"2/7/2022 12:00:00 AM","Clinton County","Iowa","Midwest","West North Central","19045","41.898073","-90.534243 ","11117","133","0","0","2/6/2022 12:00:00 AM","2019","46429","NYTIMES-USCENSUS"
"2/7/2022 12:00:00 AM","Le Sueur County","Minnesota","Midwest","West North Central","27079","44.373424","-93.730143 ","6119","47","33","0","2/6/2022 12:00:00 AM","2019","28887","NYTIMES-USCENSUS"
"2/7/2022 12:00:00 AM","Chester County","Tennessee","South","East South Central","47023","35.420253","-88.611353 ","5224","86","0","0","2/6/2022 12:00:00 AM","2019","17297","NYTIMES-USCENSUS"
"2/7/2022 12:00:00 AM","Hopkins County","Texas","South","West South Central","48223","33.148967","-95.565434 ","6976","163","11","0","2/6/2022 12:00:00 AM","2019","37084","NYTIMES-USCENSUS"
"2/7/2022 12:00:00 AM","Montgomery County","New York","Northeast","Middle Atlantic","36057","42.900891","-74.435357 ","11334","191","12","2","2/6/2022 12:00:00 AM","2019","49221","NYTIMES-USCENSUS"
"2/7/2022 12:00:00 AM","Mecklenburg County","Virginia","South","South Atlantic","51117","36.687256","-78.368959 ","5513","106","33","1","2/6/2022 12:00:00 AM","2019","30587","NYTIMES-USCENSUS"
"2/7/2022 12:00:00 AM","Portage County","Ohio","Midwest","East North Central","39133","41.16897","-81.196962 ","33251","406","49","0","2/6/2022 12:00:00 AM","2019","162466","NYTIMES-USCENSUS"
"2/7/2022 12:00:00 AM","Jackson County","Michigan","Midwest","East North Central","26075","42.248474","-84.420868 ","43604","522","151","0","2/6/2022 12:00:00 AM","2019","158510","NYTIMES-USCENSUS"
"2/7/2022 12:00:00 AM","La Plata County","Colorado","West","Mountain","08067","37.287367","-107.839718 ","11940","75","75","2","2/6/2022 12:00:00 AM","2019","56221","NYTIMES-USCENSUS"
"2/7/2022 12:00:00 AM","Wythe County","Virginia","South","South Atlantic","51197","36.899867","-81.083001 ","6882","127","93","4","2/6/2022 12:00:00 AM","2019","28684","NYTIMES-USCENSUS"
"2/7/2022 12:00:00 AM","Washtenaw County","Michigan","Midwest","East North Central","26161","42.252217","-83.843423 ","70796","488","476","1","2/6/2022 12:00:00 AM","2019","367601","NYTIMES-USCENSUS"
"2/7/2022 12:00:00 AM","Saluda County","South Carolina","South","South Atlantic","45081","34.005278","-81.727903 ","3815","67","22","0","2/6/2022 12:00:00 AM","2019","20473","NYTIMES-USCENSUS"
"2/7/2022 12:00:00 AM","Lee County","Mississippi","South","East South Central","28081","34.29237","-88.682439 ","25815","271","368","0","2/6/2022 12:00:00 AM","2019","85436","NYTIMES-USCENSUS"
"2/7/2022 12:00:00 AM","Des Moines County","Iowa","Midwest","West North Central","19057","40.915339","-91.186925 ","8690","123","0","0","2/6/2022 12:00:00 AM","2019","38967","NYTIMES-USCENSUS"
"2/7/2022 12:00:00 AM","Cuyahoga County","Ohio","Midwest","East North Central","39035","41.555037","-81.604957 ","264255","3390","97","0","2/6/2022 12:00:00 AM","2019","1235072","NYTIMES-USCENSUS"
"2/7/2022 12:00:00 AM","Duval County","Florida","South","South Atlantic","12031","30.335245","-81.648113 ","242794","2980","0","0","2/6/2022 12:00:00 AM","2019","957755","NYTIMES-USCENSUS"
"2/7/2022 12:00:00 AM","Atchison County","Kansas","Midwest","West North Central","20005","39.532544","-95.313397 ","4167","32","17","0","2/6/2022 12:00:00 AM","2019","16073","NYTIMES-USCENSUS"
"2/7/2022 12:00:00 AM","Essex County","Virginia","South","South Atlantic","51057","37.936389","-76.933747 ","2168","24","23","0","2/6/2022 12:00:00 AM","2019","10953","NYTIMES-USCENSUS"
"2/7/2022 12:00:00 AM","Lewis County","New York","Northeast","Middle Atlantic","36049","43.782681","-75.44414 ","5967","46","2","0","2/6/2022 12:00:00 AM","2019","26296","NYTIMES-USCENSUS"
"2/7/2022 12:00:00 AM","Moore County","Texas","South","West South Central","48341","35.835676","-101.890502 ","5148","104","5","0","2/6/2022 12:00:00 AM","2019","20940","NYTIMES-USCENSUS"
"2/7/2022 12:00:00 AM","Wabash County","Indiana","Midwest","East North Central","18169","40.843747","-85.795192 ","8483","144","35","0","2/6/2022 12:00:00 AM","2019","30996","NYTIMES-USCENSUS"
"2/7/2022 12:00:00 AM","Goshen County","Wyoming","West","Mountain","56015","42.089455","-104.35354 ","3446","53","14","0","2/6/2022 12:00:00 AM","2019","13211","NYTIMES-USCENSUS"
"2/7/2022 12:00:00 AM","Boulder County","Colorado","West","Mountain","08013","40.094962","-105.397704 ","59216","352","377","0","2/6/2022 12:00:00 AM","2019","326196","NYTIMES-USCENSUS"
"2/7/2022 12:00:00 AM","Androscoggin County","Maine","Northeast","New England","23001","44.167681","-70.207435 ","18232","197","0","0","2/6/2022 12:00:00 AM","2019","108277","NYTIMES-USCENSUS"
"2/7/2022 12:00:00 AM","Dodge County","Minnesota","Midwest","West North Central","27039","44.020706","-92.869353 ","5366","15","24","0","2/6/2022 12:00:00 AM","2019","20934","NYTIMES-USCENSUS"
"2/7/2022 12:00:00 AM","Grimes County","Texas","South","West South Central","48185","30.543231","-95.988082 ","8224","114","10","0","2/6/2022 12:00:00 AM","2019","28880","NYTIMES-USCENSUS"
"2/7/2022 12:00:00 AM","Winchester city","Virginia","South","South Atlantic","51840","39.173869","-78.176356 ","6139","69","37","2","2/6/2022 12:00:00 AM","2019","28078","NYTIMES-USCENSUS"
"2/7/2022 12:00:00 AM","Hamilton County","Illinois","Midwest","East North Central","17065","38.085227","-88.539009 ","2104","31","7","0","2/6/2022 12:00:00 AM","2019","8116","NYTIMES-USCENSUS"
"2/7/2022 12:00:00 AM","Overton County","Tennessee","South","East South Central","47133","36.34485","-85.283076 ","6404","118","0","0","2/6/2022 12:00:00 AM","2019","22241","NYTIMES-USCENSUS"
"2/7/2022 12:00:00 AM","Montgomery County","Iowa","Midwest","West North Central","19137","41.021735","-95.15779 ","2091","50","0","0","2/6/2022 12:00:00 AM","2019","9917","NYTIMES-USCENSUS"
"2/7/2022 12:00:00 AM","Livingston County","Kentucky","South","East South Central","21139","37.209517","-88.363426 ","2122","51","11","0","2/6/2022 12:00:00 AM","2019","9194","NYTIMES-USCENSUS"
"2/7/2022 12:00:00 AM","Sutter County","California","West","Pacific","06101","39.03619","-121.70394 ","21269","211","194","0","2/6/2022 12:00:00 AM","2019","96971","NYTIMES-USCENSUS"
"2/7/2022 12:00:00 AM","Dixie County","Florida","South","South Atlantic","12029","29.552675","-83.236232 ","3822","52","0","0","2/6/2022 12:00:00 AM","2019","16826","NYTIMES-USCENSUS"
"2/7/2022 12:00:00 AM","Blaine County","Oklahoma","South","West South Central","40011","35.877795","-98.429031 ","2329","34","0","0","2/6/2022 12:00:00 AM","2019","9429","NYTIMES-USCENSUS"
"2/7/2022 12:00:00 AM","Union County","New Jersey","Northeast","Middle Atlantic","34039","40.659871","-74.308696 ","138455","2247","31","1","2/6/2022 12:00:00 AM","2019","556341","NYTIMES-USCENSUS"
"2/7/2022 12:00:00 AM","Montgomery County","Ohio","Midwest","East North Central","39113","39.753736","-84.290591 ","124004","1762","132","0","2/6/2022 12:00:00 AM","2019","531687","NYTIMES-USCENSUS"
"2/7/2022 12:00:00 AM","Portsmouth city","Virginia","South","South Atlantic","51740","36.859339","-76.356973 ","20163","273","84","6","2/6/2022 12:00:00 AM","2019","94398","NYTIMES-USCENSUS"
"2/7/2022 12:00:00 AM","Ellis County","Kansas","Midwest","West North Central","20051","38.914597","-99.317313 ","6950","79","32","0","2/6/2022 12:00:00 AM","2019","28553","NYTIMES-USCENSUS"
"2/7/2022 12:00:00 AM","Perry County","Alabama","South","East South Central","01105","32.639005","-87.293827 ","1983","41","2","0","2/6/2022 12:00:00 AM","2019","8923","NYTIMES-USCENSUS"
"2/7/2022 12:00:00 AM","Fremont County","Wyoming","West","Mountain","56013","43.054831","-108.608935 ","13125","170","128","0","2/6/2022 12:00:00 AM","2019","39261","NYTIMES-USCENSUS"
"2/7/2022 12:00:00 AM","Yuma County","Colorado","West","Mountain","08125","40.00077","-102.421649 ","1798","22","14","0","2/6/2022 12:00:00 AM","2019","10019","NYTIMES-USCENSUS"
"2/7/2022 12:00:00 AM","Sumter County","Florida","South","South Atlantic","12119","28.715444","-82.069952 ","20225","498","0","0","2/6/2022 12:00:00 AM","2019","132420","NYTIMES-USCENSUS"
"2/7/2022 12:00:00 AM","Forest County","Pennsylvania","Northeast","Middle Atlantic","42053","41.513304","-79.249705 ","2166","34","5","0","2/6/2022 12:00:00 AM","2019","7247","NYTIMES-USCENSUS"
"2/7/2022 12:00:00 AM","Lumpkin County","Georgia","South","South Atlantic","13187","34.56814","-83.998925 ","6987","115","73","1","2/6/2022 12:00:00 AM","2019","33610","NYTIMES-USCENSUS"
"2/7/2022 12:00:00 AM","Morehouse Parish","Louisiana","South","West South Central","22067","32.820008","-91.800399 ","6669","127","33","0","2/6/2022 12:00:00 AM","2019","24874","NYTIMES-USCENSUS"
"2/7/2022 12:00:00 AM","Northampton County","Virginia","South","South Atlantic","51131","37.302775","-75.924018 ","2086","53","27","0","2/6/2022 12:00:00 AM","2019","11710","NYTIMES-USCENSUS"
"2/7/2022 12:00:00 AM","Simpson County","Mississippi","South","East South Central","28127","31.902505","-89.917709 ","6743","134","214","1","2/6/2022 12:00:00 AM","2019","26658","NYTIMES-USCENSUS"
"2/7/2022 12:00:00 AM","Iron County","Wisconsin","Midwest","East North Central","55051","46.32655","-90.261298 ","1446","45","10","0","2/6/2022 12:00:00 AM","2019","5687","NYTIMES-USCENSUS"
"2/7/2022 12:00:00 AM","Sawyer County","Wisconsin","Midwest","East North Central","55113","45.864911","-91.147133 ","4421","55","7","0","2/6/2022 12:00:00 AM","2019","16558","NYTIMES-USCENSUS"
"2/7/2022 12:00:00 AM","Delta County","Michigan","Midwest","East North Central","26041","45.805229","-86.901938 ","9625","148","52","0","2/6/2022 12:00:00 AM","2019","35784","NYTIMES-USCENSUS"
"2/7/2022 12:00:00 AM","Shelby County","Alabama","South","East South Central","01117","33.263043","-86.678089 ","57479","403","139","1","2/6/2022 12:00:00 AM","2019","217702","NYTIMES-USCENSUS"
"2/7/2022 12:00:00 AM","Torrance County","New Mexico","West","Mountain","35057","34.554978","-105.890557 ","2928","48","28","0","2/6/2022 12:00:00 AM","2019","15461","NYTIMES-USCENSUS"
"2/7/2022 12:00:00 AM","Wyandotte County","Kansas","Midwest","West North Central","20209","39.115384","-94.763087 ","45548","459","184","0","2/6/2022 12:00:00 AM","2019","165429","NYTIMES-USCENSUS"
"2/7/2022 12:00:00 AM","Cowlitz County","Washington","West","Pacific","53015","46.196785","-122.67846 ","20890","313","269","2","2/6/2022 12:00:00 AM","2019","110593","NYTIMES-USCENSUS"
"2/7/2022 12:00:00 AM","Douglas County","Wisconsin","Midwest","East North Central","55031","46.463218","-91.892477 ","10999","72","95","0","2/6/2022 12:00:00 AM","2019","43150","NYTIMES-USCENSUS"
"2/7/2022 12:00:00 AM","Randolph County","Arkansas","South","West South Central","05121","36.341298","-91.028441 ","4725","73","9","0","2/6/2022 12:00:00 AM","2019","17958","NYTIMES-USCENSUS"
"2/7/2022 12:00:00 AM","Lee County","North Carolina","South","South Atlantic","37105","35.476336","-79.172117 ","15377","129","106","0","2/6/2022 12:00:00 AM","2019","61779","NYTIMES-USCENSUS"
"2/7/2022 12:00:00 AM","Labette County","Kansas","Midwest","West North Central","20099","37.191468","-95.297473 ","6347","71","22","0","2/6/2022 12:00:00 AM","2019","19618","NYTIMES-USCENSUS"
"2/7/2022 12:00:00 AM","Lake County","Ohio","Midwest","East North Central","39085","41.778142","-81.19733 ","48178","666","16","0","2/6/2022 12:00:00 AM","2019","230149","NYTIMES-USCENSUS"
"2/7/2022 12:00:00 AM","Essex County","Vermont","Northeast","New England","50009","44.724021","-71.732736 ","1071","3","3","0","2/6/2022 12:00:00 AM","2019","6163","NYTIMES-USCENSUS"
"2/7/2022 12:00:00 AM","Sarpy County","Nebraska","Midwest","West North Central","31153","41.115064","-96.109125 ","47575","235","238","0","2/6/2022 12:00:00 AM","2019","187196","NYTIMES-USCENSUS"
"2/7/2022 12:00:00 AM","Union County","South Dakota","Midwest","West North Central","46127","42.831106","-96.650829 ","3926","49","15","0","2/6/2022 12:00:00 AM","2019","15932","NYTIMES-USCENSUS"
"2/7/2022 12:00:00 AM","Kings County","California","West","Pacific","06031","36.072478","-119.81553 ","50850","403","131","1","2/6/2022 12:00:00 AM","2019","152940","NYTIMES-USCENSUS"
"2/7/2022 12:00:00 AM","Sully County","South Dakota","Midwest","West North Central","46119","44.722325","-100.131399 ","241","3","1","0","2/6/2022 12:00:00 AM","2019","1391","NYTIMES-USCENSUS"
"2/7/2022 12:00:00 AM","Lawrence County","Mississippi","South","East South Central","28077","31.550009","-90.10753 ","3449","46","89","0","2/6/2022 12:00:00 AM","2019","12586","NYTIMES-USCENSUS"
"2/7/2022 12:00:00 AM","Chittenden County","Vermont","Northeast","New England","50007","44.463329","-73.06941 ","24799","151","140","0","2/6/2022 12:00:00 AM","2019","163774","NYTIMES-USCENSUS"
"2/7/2022 12:00:00 AM","Philadelphia County","Pennsylvania","Northeast","Middle Atlantic","42101","40.009376","-75.133346 ","298975","4794","252","6","2/6/2022 12:00:00 AM","2019","1584064","NYTIMES-USCENSUS"
"2/7/2022 12:00:00 AM","Lemhi County","Idaho","West","Mountain","16059","44.928506","-113.887042 ","1224","25","8","0","2/6/2022 12:00:00 AM","2019","8027","NYTIMES-USCENSUS"
"2/7/2022 12:00:00 AM","Oglala Lakota County","South Dakota","Midwest","West North Central","46102","43.333393","-102.561486 ","3729","59","15","0","2/6/2022 12:00:00 AM","2019","14177","NYTIMES-USCENSUS"
"2/7/2022 12:00:00 AM","Forsyth County","Georgia","South","South Atlantic","13117","34.225143","-84.127408 ","52662","331","397","2","2/6/2022 12:00:00 AM","2019","244252","NYTIMES-USCENSUS"
"2/7/2022 12:00:00 AM","Hampden County","Massachusetts","Northeast","New England","25013","42.136198","-72.635648 ","128561","1958","708","3","2/6/2022 12:00:00 AM","2019","466372","NYTIMES-USCENSUS"
"2/7/2022 12:00:00 AM","Virginia Beach city","Virginia","South","South Atlantic","51810","36.779525","-76.029142 ","86863","694","493","17","2/6/2022 12:00:00 AM","2019","449974","NYTIMES-USCENSUS"
"2/7/2022 12:00:00 AM","Morrow County","Ohio","Midwest","East North Central","39117","40.525266","-82.797729 ","7569","88","7","0","2/6/2022 12:00:00 AM","2019","35328","NYTIMES-USCENSUS"
"2/7/2022 12:00:00 AM","Pontotoc County","Oklahoma","South","West South Central","40123","34.721415","-96.69178 ","11137","112","0","0","2/6/2022 12:00:00 AM","2019","38284","NYTIMES-USCENSUS"
"2/7/2022 12:00:00 AM","Navarro County","Texas","South","West South Central","48349","32.048448","-96.476909 ","11891","209","16","0","2/6/2022 12:00:00 AM","2019","50113","NYTIMES-USCENSUS"
"2/7/2022 12:00:00 AM","Hamilton County","Texas","South","West South Central","48193","31.707342","-98.111756 ","1933","29","2","0","2/6/2022 12:00:00 AM","2019","8461","NYTIMES-USCENSUS"
"2/7/2022 12:00:00 AM","Dearborn County","Indiana","Midwest","East North Central","18029","39.140897","-84.975868 ","13092","125","34","0","2/6/2022 12:00:00 AM","2019","49458","NYTIMES-USCENSUS"
"2/7/2022 12:00:00 AM","Ketchikan Gateway Borough","Alaska","West","Pacific","02130","55.449938","-131.106685 ","3548","15","57","0","2/6/2022 12:00:00 AM","2019","13901","NYTIMES-USCENSUS"
"2/7/2022 12:00:00 AM","Custer County","Idaho","West","Mountain","16037","44.273351","-114.252267 ","510","7","4","0","2/6/2022 12:00:00 AM","2019","4315","NYTIMES-USCENSUS"
"2/7/2022 12:00:00 AM","Ontario County","New York","Northeast","Middle Atlantic","36069","42.856357","-77.303497 ","18937","166","31","0","2/6/2022 12:00:00 AM","2019","109777","NYTIMES-USCENSUS"
"2/7/2022 12:00:00 AM","Davis County","Utah","West","Mountain","49011","41.037559","-112.201943 ","97254","349","612","1","2/6/2022 12:00:00 AM","2019","355481","NYTIMES-USCENSUS"
"2/7/2022 12:00:00 AM","Guadalupe County","Texas","South","West South Central","48187","29.582671","-97.948995 ","35406","365","71","0","2/6/2022 12:00:00 AM","2019","166847","NYTIMES-USCENSUS"
"2/7/2022 12:00:00 AM","Jackson County","Kansas","Midwest","West North Central","20085","39.411145","-95.794485 ","3788","26","15","0","2/6/2022 12:00:00 AM","2019","13171","NYTIMES-USCENSUS"
"2/7/2022 12:00:00 AM","Perry County","Pennsylvania","Northeast","Middle Atlantic","42099","40.39778","-77.266328 ","8601","174","22","0","2/6/2022 12:00:00 AM","2019","46272","NYTIMES-USCENSUS"
"2/7/2022 12:00:00 AM","Greene County","Mississippi","South","East South Central","28041","31.212845","-88.634811 ","3089","51","112","0","2/6/2022 12:00:00 AM","2019","13586","NYTIMES-USCENSUS"
"2/7/2022 12:00:00 AM","Waynesboro city","Virginia","South","South Atlantic","51820","38.067157","-78.90142 ","5119","57","36","1","2/6/2022 12:00:00 AM","2019","22630","NYTIMES-USCENSUS"
"2/7/2022 12:00:00 AM","Bradford County","Pennsylvania","Northeast","Middle Atlantic","42015","41.791504","-76.502123 ","14368","188","15","0","2/6/2022 12:00:00 AM","2019","60323","NYTIMES-USCENSUS"
"2/7/2022 12:00:00 AM","Madison County","Georgia","South","South Atlantic","13195","34.128526","-83.203737 ","6840","86","35","0","2/6/2022 12:00:00 AM","2019","29880","NYTIMES-USCENSUS"
"2/7/2022 12:00:00 AM","Osage County","Missouri","Midwest","West North Central","29151","38.464253","-91.859504 ","3083","39","-1","0","2/6/2022 12:00:00 AM","2019","13615","NYTIMES-USCENSUS"
"2/7/2022 12:00:00 AM","Gray County","Texas","South","West South Central","48179","35.402542","-100.812374 ","5910","110","2","0","2/6/2022 12:00:00 AM","2019","21886","NYTIMES-USCENSUS"
"2/7/2022 12:00:00 AM","Walthall County","Mississippi","South","East South Central","28147","31.164492","-90.103431 ","3448","72","86","0","2/6/2022 12:00:00 AM","2019","14286","NYTIMES-USCENSUS"
"2/7/2022 12:00:00 AM","Lane County","Oregon","West","Pacific","41039","43.928334","-122.897581 ","52905","424","774","4","2/6/2022 12:00:00 AM","2019","382067","NYTIMES-USCENSUS"
"2/7/2022 12:00:00 AM","Johnston County","Oklahoma","South","West South Central","40069","34.313455","-96.654254 ","2859","49","0","0","2/6/2022 12:00:00 AM","2019","11085","NYTIMES-USCENSUS"
"2/7/2022 12:00:00 AM","Sauk County","Wisconsin","Midwest","East North Central","55111","43.428001","-89.943318 ","15461","102","127","3","2/6/2022 12:00:00 AM","2019","64442","NYTIMES-USCENSUS"
"2/7/2022 12:00:00 AM","Young County","Texas","South","West South Central","48503","33.158778","-98.67839 ","3726","82","0","0","2/6/2022 12:00:00 AM","2019","18010","NYTIMES-USCENSUS"
"2/7/2022 12:00:00 AM","Chippewa County","Minnesota","Midwest","West North Central","27023","45.028625","-95.564108 ","2888","46","12","0","2/6/2022 12:00:00 AM","2019","11800","NYTIMES-USCENSUS"
"2/7/2022 12:00:00 AM","Currituck County","North Carolina","South","South Atlantic","37053","36.372174","-75.941224 ","4584","32","32","0","2/6/2022 12:00:00 AM","2019","27763","NYTIMES-USCENSUS"
"2/7/2022 12:00:00 AM","Thurston County","Nebraska","Midwest","West North Central","31173","42.154061","-96.533943 ","1673","20","44","1","2/6/2022 12:00:00 AM","2019","7224","NYTIMES-USCENSUS"
"2/7/2022 12:00:00 AM","Starr County","Texas","South","West South Central","48427","26.530903","-98.740235 ","17401","342","123","0","2/6/2022 12:00:00 AM","2019","64633","NYTIMES-USCENSUS"
"2/7/2022 12:00:00 AM","Kennebec County","Maine","Northeast","New England","23011","44.417012","-69.765764 ","17411","190","0","0","2/6/2022 12:00:00 AM","2019","122302","NYTIMES-USCENSUS"
"2/7/2022 12:00:00 AM","Adams County","Ohio","Midwest","East North Central","39001","38.834468","-83.478082 ","6711","132","21","0","2/6/2022 12:00:00 AM","2019","27698","NYTIMES-USCENSUS"
"2/7/2022 12:00:00 AM","Bartow County","Georgia","South","South Atlantic","13015","34.240917","-84.838188 ","28162","421","104","4","2/6/2022 12:00:00 AM","2019","107738","NYTIMES-USCENSUS"
"2/7/2022 12:00:00 AM","Oklahoma County","Oklahoma","South","West South Central","40109","35.554611","-97.409401 ","185532","2065","0","0","2/6/2022 12:00:00 AM","2019","797434","NYTIMES-USCENSUS"
"2/7/2022 12:00:00 AM","Marion County","Mississippi","South","East South Central","28091","31.230167","-89.821712 ","6789","128","102","0","2/6/2022 12:00:00 AM","2019","24573","NYTIMES-USCENSUS"
"2/7/2022 12:00:00 AM","Hancock County","Mississippi","South","East South Central","28045","30.391641","-89.482791 ","11828","145","489","0","2/6/2022 12:00:00 AM","2019","47632","NYTIMES-USCENSUS"
"2/7/2022 12:00:00 AM","Marion County","Illinois","Midwest","East North Central","17121","38.648236","-88.920362 ","11491","199","61","1","2/6/2022 12:00:00 AM","2019","37205","NYTIMES-USCENSUS"
"2/7/2022 12:00:00 AM","Claiborne County","Mississippi","South","East South Central","28021","31.97281","-90.915424 ","2103","45","23","0","2/6/2022 12:00:00 AM","2019","8988","NYTIMES-USCENSUS"
"2/7/2022 12:00:00 AM","Doniphan County","Kansas","Midwest","West North Central","20043","39.788502","-95.147225 ","2372","32","18","0","2/6/2022 12:00:00 AM","2019","7600","NYTIMES-USCENSUS"
"2/7/2022 12:00:00 AM","Fentress County","Tennessee","South","East South Central","47049","36.369892","-84.937764 ","5041","109","0","0","2/6/2022 12:00:00 AM","2019","18523","NYTIMES-USCENSUS"
"2/7/2022 12:00:00 AM","Cape Girardeau County","Missouri","Midwest","West North Central","29031","37.384141","-89.685658 ","17903","215","13","0","2/6/2022 12:00:00 AM","2019","78871","NYTIMES-USCENSUS"
"2/7/2022 12:00:00 AM","McLean County","North Dakota","Midwest","West North Central","38055","47.653206","-101.421914 ","2666","49","9","0","2/6/2022 12:00:00 AM","2019","9450","NYTIMES-USCENSUS"
"2/7/2022 12:00:00 AM","Chicot County","Arkansas","South","West South Central","05017","33.267139","-91.297158 ","2692","51","1","1","2/6/2022 12:00:00 AM","2019","10118","NYTIMES-USCENSUS"
"2/7/2022 12:00:00 AM","Jackson County","Ohio","Midwest","East North Central","39079","39.013477","-82.614142 ","8456","127","16","0","2/6/2022 12:00:00 AM","2019","32413","NYTIMES-USCENSUS"
"2/7/2022 12:00:00 AM","Teton County","Wyoming","West","Mountain","56039","44.048662","-110.426087 ","9477","15","36","0","2/6/2022 12:00:00 AM","2019","23464","NYTIMES-USCENSUS"
"2/7/2022 12:00:00 AM","Union County","North Carolina","South","South Atlantic","37179","34.99182","-80.530426 ","59101","428","466","2","2/6/2022 12:00:00 AM","2019","239859","NYTIMES-USCENSUS"
"2/7/2022 12:00:00 AM","Walla Walla County","Washington","West","Pacific","53071","46.254606","-118.48037 ","14604","126","168","0","2/6/2022 12:00:00 AM","2019","60760","NYTIMES-USCENSUS"
"2/7/2022 12:00:00 AM","Mecosta County","Michigan","Midwest","East North Central","26107","43.635295","-85.332751 ","8297","92","54","0","2/6/2022 12:00:00 AM","2019","43453","NYTIMES-USCENSUS"
"2/7/2022 12:00:00 AM","Jefferson County","Oklahoma","South","West South Central","40067","34.105082","-97.83889 ","1228","21","0","0","2/6/2022 12:00:00 AM","2019","6002","NYTIMES-USCENSUS"
"2/7/2022 12:00:00 AM","Clarke County","Alabama","South","East South Central","01025","31.685521","-87.818624 ","6900","93","12","0","2/6/2022 12:00:00 AM","2019","23622","NYTIMES-USCENSUS"
"2/7/2022 12:00:00 AM","Jefferson Davis County","Mississippi","South","East South Central","28065","31.564808","-89.827086 ","2741","46","51","0","2/6/2022 12:00:00 AM","2019","11128","NYTIMES-USCENSUS"
"2/7/2022 12:00:00 AM","Bladen County","North Carolina","South","South Atlantic","37017","34.591938","-78.539489 ","8995","110","105","1","2/6/2022 12:00:00 AM","2019","32722","NYTIMES-USCENSUS"
"2/7/2022 12:00:00 AM","La Paz County","Arizona","West","Mountain","04012","33.72761","-114.038806 ","4935","120","10","0","2/6/2022 12:00:00 AM","2019","21108","NYTIMES-USCENSUS"
"2/7/2022 12:00:00 AM","Emery County","Utah","West","Mountain","49015","39.009025","-110.7211 ","2421","25","0","0","2/6/2022 12:00:00 AM","2019","10012","NYTIMES-USCENSUS"
"2/7/2022 12:00:00 AM","Walker County","Georgia","South","South Atlantic","13295","34.735802","-85.305456 ","15729","202","79","2","2/6/2022 12:00:00 AM","2019","69761","NYTIMES-USCENSUS"
"2/7/2022 12:00:00 AM","Noble County","Indiana","Midwest","East North Central","18113","41.404679","-85.417271 ","12839","149","42","0","2/6/2022 12:00:00 AM","2019","47744","NYTIMES-USCENSUS"
"2/7/2022 12:00:00 AM","Lamar County","Texas","South","West South Central","48277","33.667263","-95.570348 ","12047","235","0","0","2/6/2022 12:00:00 AM","2019","49859","NYTIMES-USCENSUS"
"2/7/2022 12:00:00 AM","Evans County","Georgia","South","South Atlantic","13109","32.153083","-81.890153 ","2217","61","9","0","2/6/2022 12:00:00 AM","2019","10654","NYTIMES-USCENSUS"
"2/7/2022 12:00:00 AM","Washington County","Vermont","Northeast","New England","50023","44.274969","-72.609444 ","8088","44","65","0","2/6/2022 12:00:00 AM","2019","58409","NYTIMES-USCENSUS"
"2/7/2022 12:00:00 AM","Floyd County","Iowa","Midwest","West North Central","19067","43.052741","-92.787367 ","3385","59","0","0","2/6/2022 12:00:00 AM","2019","15642","NYTIMES-USCENSUS"
"2/7/2022 12:00:00 AM","Charleston County","South Carolina","South","South Atlantic","45019","32.800458","-79.94248 ","108526","835","1044","4","2/6/2022 12:00:00 AM","2019","411406","NYTIMES-USCENSUS"
"2/7/2022 12:00:00 AM","Tattnall County","Georgia","South","South Atlantic","13267","32.043768","-82.059208 ","4871","123","91","1","2/6/2022 12:00:00 AM","2019","25286","NYTIMES-USCENSUS"
"2/7/2022 12:00:00 AM","Baraga County","Michigan","Midwest","East North Central","26013","46.695859","-88.36181 ","2139","53","9","0","2/6/2022 12:00:00 AM","2019","8209","NYTIMES-USCENSUS"
"2/7/2022 12:00:00 AM","Jefferson County","Pennsylvania","Northeast","Middle Atlantic","42065","41.138028","-79.012419 ","8589","209","25","0","2/6/2022 12:00:00 AM","2019","43425","NYTIMES-USCENSUS"
"2/7/2022 12:00:00 AM","Webster County","Kentucky","South","East South Central","21233","37.51946","-87.68479 ","3681","46","12","0","2/6/2022 12:00:00 AM","2019","12942","NYTIMES-USCENSUS"
"2/7/2022 12:00:00 AM","Hamlin County","South Dakota","Midwest","West North Central","46057","44.680619","-97.178598 ","1461","40","1","0","2/6/2022 12:00:00 AM","2019","6164","NYTIMES-USCENSUS"
"2/7/2022 12:00:00 AM","Perry County","Kentucky","South","East South Central","21193","37.241282","-83.217772 ","9031","141","165","3","2/6/2022 12:00:00 AM","2019","25758","NYTIMES-USCENSUS"
"2/7/2022 12:00:00 AM","Greene County","Pennsylvania","Northeast","Middle Atlantic","42059","39.847707","-80.225655 ","8113","92","65","0","2/6/2022 12:00:00 AM","2019","36233","NYTIMES-USCENSUS"
"2/7/2022 12:00:00 AM","Casey County","Kentucky","South","East South Central","21045","37.321962","-84.92822 ","3579","65","18","0","2/6/2022 12:00:00 AM","2019","16159","NYTIMES-USCENSUS"
"2/7/2022 12:00:00 AM","Benton County","Indiana","Midwest","East North Central","18007","40.600939","-87.314786 ","2410","21","5","0","2/6/2022 12:00:00 AM","2019","8748","NYTIMES-USCENSUS"
"2/7/2022 12:00:00 AM","Shelby County","Missouri","Midwest","West North Central","29205","39.797531","-92.088719 ","1452","14","2","0","2/6/2022 12:00:00 AM","2019","5930","NYTIMES-USCENSUS"
"2/7/2022 12:00:00 AM","Bryan County","Oklahoma","South","West South Central","40013","33.964004","-96.265135 ","12916","121","0","0","2/6/2022 12:00:00 AM","2019","47995","NYTIMES-USCENSUS"
"2/7/2022 12:00:00 AM","Sebastian County","Arkansas","South","West South Central","05131","35.196981","-94.274989 ","31780","449","25","2","2/6/2022 12:00:00 AM","2019","127827","NYTIMES-USCENSUS"
"2/7/2022 12:00:00 AM","Tyrrell County","North Carolina","South","South Atlantic","37177","35.87042","-76.165345 ","932","7","11","0","2/6/2022 12:00:00 AM","2019","4016","NYTIMES-USCENSUS"
"2/7/2022 12:00:00 AM","Uinta County","Wyoming","West","Mountain","56041","41.284726","-110.558947 ","5523","35","26","0","2/6/2022 12:00:00 AM","2019","20226","NYTIMES-USCENSUS"
"2/7/2022 12:00:00 AM","Gadsden County","Florida","South","South Atlantic","12039","30.578687","-84.612607 ","12931","165","0","0","2/6/2022 12:00:00 AM","2019","45660","NYTIMES-USCENSUS"
"2/7/2022 12:00:00 AM","St. Bernard Parish","Louisiana","South","West South Central","22087","29.91811","-89.263494 ","10958","106","44","0","2/6/2022 12:00:00 AM","2019","47244","NYTIMES-USCENSUS"
"2/7/2022 12:00:00 AM","Ascension Parish","Louisiana","South","West South Central","22005","30.206444","-90.912502 ","34045","271","161","0","2/6/2022 12:00:00 AM","2019","126604","NYTIMES-USCENSUS"
"2/7/2022 12:00:00 AM","Pearl River County","Mississippi","South","East South Central","28109","30.774793","-89.586904 ","14613","253","385","2","2/6/2022 12:00:00 AM","2019","55535","NYTIMES-USCENSUS"
"2/7/2022 12:00:00 AM","San Juan County","Washington","West","Pacific","53055","48.50719","-123.103769 ","1013","1","10","0","2/6/2022 12:00:00 AM","2019","17582","NYTIMES-USCENSUS"
"2/7/2022 12:00:00 AM","Stephenson County","Illinois","Midwest","East North Central","17177","42.349726","-89.665994 ","11096","171","71","1","2/6/2022 12:00:00 AM","2019","44498","NYTIMES-USCENSUS"
"2/7/2022 12:00:00 AM","Hancock County","Ohio","Midwest","East North Central","39063","41.000217","-83.665947 ","16763","248","11","0","2/6/2022 12:00:00 AM","2019","75783","NYTIMES-USCENSUS"
"2/7/2022 12:00:00 AM","Wells County","Indiana","Midwest","East North Central","18179","40.735273","-85.212974 ","6416","127","19","0","2/6/2022 12:00:00 AM","2019","28296","NYTIMES-USCENSUS"
"2/7/2022 12:00:00 AM","Columbia County","New York","Northeast","Middle Atlantic","36021","42.247696","-73.626718 ","9594","136","12","0","2/6/2022 12:00:00 AM","2019","59461","NYTIMES-USCENSUS"
"2/7/2022 12:00:00 AM","Monroe County","New York","Northeast","Middle Atlantic","36055","43.250347","-77.700518 ","147112","1503","163","3","2/6/2022 12:00:00 AM","2019","741770","NYTIMES-USCENSUS"
"2/7/2022 12:00:00 AM","Macon County","Tennessee","South","East South Central","47111","36.537757","-86.00096 ","7627","126","0","0","2/6/2022 12:00:00 AM","2019","24602","NYTIMES-USCENSUS"
"2/7/2022 12:00:00 AM","Wells County","North Dakota","Midwest","West North Central","38103","47.580851","-99.682213 ","987","11","2","0","2/6/2022 12:00:00 AM","2019","3834","NYTIMES-USCENSUS"
"2/7/2022 12:00:00 AM","Elk County","Pennsylvania","Northeast","Middle Atlantic","42047","41.427332","-78.653937 ","6915","86","42","0","2/6/2022 12:00:00 AM","2019","29910","NYTIMES-USCENSUS"
"2/7/2022 12:00:00 AM","Ballard County","Kentucky","South","East South Central","21007","37.051323","-89.010367 ","1205","27","9","1","2/6/2022 12:00:00 AM","2019","7888","NYTIMES-USCENSUS"
"2/7/2022 12:00:00 AM","Benzie County","Michigan","Midwest","East North Central","26019","44.636844","-86.231999 ","3316","61","38","1","2/6/2022 12:00:00 AM","2019","17766","NYTIMES-USCENSUS"
"2/7/2022 12:00:00 AM","Tensas Parish","Louisiana","South","West South Central","22107","32.001489","-91.342576 ","951","10","7","0","2/6/2022 12:00:00 AM","2019","4334","NYTIMES-USCENSUS"
"2/7/2022 12:00:00 AM","Hudspeth County","Texas","South","West South Central","48229","31.450868","-105.377549 ","943","16","2","0","2/6/2022 12:00:00 AM","2019","4886","NYTIMES-USCENSUS"
"2/7/2022 12:00:00 AM","Garfield County","Utah","West","Mountain","49017","37.831664","-111.450908 ","895","12","3","0","2/6/2022 12:00:00 AM","2019","5051","NYTIMES-USCENSUS"
"2/7/2022 12:00:00 AM","Lauderdale County","Mississippi","South","East South Central","28075","32.403998","-88.660449 ","18102","337","239","0","2/6/2022 12:00:00 AM","2019","74125","NYTIMES-USCENSUS"
"2/7/2022 12:00:00 AM","Jackson County","Iowa","Midwest","West North Central","19097","42.164226","-90.574582 ","4455","65","0","0","2/6/2022 12:00:00 AM","2019","19439","NYTIMES-USCENSUS"
"2/7/2022 12:00:00 AM","Humphreys County","Mississippi","South","East South Central","28053","33.130996","-90.523421 ","1974","40","27","0","2/6/2022 12:00:00 AM","2019","8064","NYTIMES-USCENSUS"
"2/7/2022 12:00:00 AM","Greene County","Iowa","Midwest","West North Central","19073","42.042513","-94.388727 ","1634","19","0","0","2/6/2022 12:00:00 AM","2019","8888","NYTIMES-USCENSUS"
"2/7/2022 12:00:00 AM","Charlottesville city","Virginia","South","South Atlantic","51540","38.037658","-78.485381 ","9371","65","115","0","2/6/2022 12:00:00 AM","2019","47266","NYTIMES-USCENSUS"
"2/7/2022 12:00:00 AM","Marquette County","Michigan","Midwest","East North Central","26103","46.656596","-87.584028 ","15209","113","81","1","2/6/2022 12:00:00 AM","2019","66699","NYTIMES-USCENSUS"
"2/7/2022 12:00:00 AM","Dakota County","Minnesota","Midwest","West North Central","27037","44.670893","-93.062481 ","104727","723","490","3","2/6/2022 12:00:00 AM","2019","429021","NYTIMES-USCENSUS"
"2/7/2022 12:00:00 AM","Clinton County","Missouri","Midwest","West North Central","29049","39.608723","-94.395803 ","4515","109","4","0","2/6/2022 12:00:00 AM","2019","20387","NYTIMES-USCENSUS"
"2/7/2022 12:00:00 AM","Polk County","Georgia","South","South Atlantic","13233","33.996015","-85.188338 ","11508","172","44","0","2/6/2022 12:00:00 AM","2019","42613","NYTIMES-USCENSUS"
"2/7/2022 12:00:00 AM","Calhoun County","Georgia","South","South Atlantic","13037","31.521279","-84.62629 ","1341","22","8","0","2/6/2022 12:00:00 AM","2019","6189","NYTIMES-USCENSUS"
"2/7/2022 12:00:00 AM","Bell County","Texas","South","West South Central","48027","31.04275","-97.481268 ","64913","794","91","1","2/6/2022 12:00:00 AM","2019","362924","NYTIMES-USCENSUS"
"2/7/2022 12:00:00 AM","Bradford County","Florida","South","South Atlantic","12007","29.952386","-82.166698 ","7142","130","0","0","2/6/2022 12:00:00 AM","2019","28201","NYTIMES-USCENSUS"
"2/7/2022 12:00:00 AM","Walworth County","Wisconsin","Midwest","East North Central","55127","42.66811","-88.541731 ","26014","259","15","1","2/6/2022 12:00:00 AM","2019","103868","NYTIMES-USCENSUS"
"2/7/2022 12:00:00 AM","Dubuque County","Iowa","Midwest","West North Central","19061","42.463481","-90.878771 ","24764","280","0","0","2/6/2022 12:00:00 AM","2019","97311","NYTIMES-USCENSUS"
"2/7/2022 12:00:00 AM","Leake County","Mississippi","South","East South Central","28079","32.76063","-89.52225 ","6073","105","179","1","2/6/2022 12:00:00 AM","2019","22786","NYTIMES-USCENSUS"
"2/7/2022 12:00:00 AM","Leflore County","Mississippi","South","East South Central","28083","33.54979","-90.294934 ","7227","157","112","1","2/6/2022 12:00:00 AM","2019","28183","NYTIMES-USCENSUS"
"2/7/2022 12:00:00 AM","Lauderdale County","Tennessee","South","East South Central","47097","35.762951","-89.627732 ","7303","86","0","0","2/6/2022 12:00:00 AM","2019","25633","NYTIMES-USCENSUS"
"2/7/2022 12:00:00 AM","Abbeville County","South Carolina","South","South Atlantic","45001","34.229041","-82.454058 ","6421","62","54","1","2/6/2022 12:00:00 AM","2019","24527","NYTIMES-USCENSUS"
"2/7/2022 12:00:00 AM","Oneida County","Wisconsin","Midwest","East North Central","55085","45.716176","-89.534533 ","8245","124","29","0","2/6/2022 12:00:00 AM","2019","35595","NYTIMES-USCENSUS"
"2/7/2022 12:00:00 AM","Putnam County","New York","Northeast","Middle Atlantic","36079","41.427907","-73.743861 ","22993","120","15","0","2/6/2022 12:00:00 AM","2019","98320","NYTIMES-USCENSUS"
"2/7/2022 12:00:00 AM","Big Horn County","Montana","West","Mountain","30003","45.407868","-107.518162 ","4259","89","65","0","2/6/2022 12:00:00 AM","2019","13319","NYTIMES-USCENSUS"
"2/7/2022 12:00:00 AM","Hamilton County","Florida","South","South Atlantic","12047","30.491187","-82.951071 ","3678","49","0","0","2/6/2022 12:00:00 AM","2019","14428","NYTIMES-USCENSUS"
"2/7/2022 12:00:00 AM","Dubois County","Indiana","Midwest","East North Central","18037","38.373344","-86.873385 ","12554","158","40","1","2/6/2022 12:00:00 AM","2019","42736","NYTIMES-USCENSUS"
"2/7/2022 12:00:00 AM","Washington County","Mississippi","South","East South Central","28151","33.273174","-90.944446 ","9844","181","162","2","2/6/2022 12:00:00 AM","2019","43909","NYTIMES-USCENSUS"
"2/7/2022 12:00:00 AM","Missaukee County","Michigan","Midwest","East North Central","26113","44.325424","-85.085471 ","2783","57","20","0","2/6/2022 12:00:00 AM","2019","15118","NYTIMES-USCENSUS"
"2/7/2022 12:00:00 AM","St. Lawrence County","New York","Northeast","Middle Atlantic","36089","44.488112","-75.074311 ","19579","170","24","3","2/6/2022 12:00:00 AM","2019","107740","NYTIMES-USCENSUS"
"2/7/2022 12:00:00 AM","Lackawanna County","Pennsylvania","Northeast","Middle Atlantic","42069","41.440284","-75.609666 ","41571","687","132","1","2/6/2022 12:00:00 AM","2019","209674","NYTIMES-USCENSUS"
"2/7/2022 12:00:00 AM","Crawford County","Indiana","Midwest","East North Central","18025","38.289433","-86.440871 ","2431","35","11","0","2/6/2022 12:00:00 AM","2019","10577","NYTIMES-USCENSUS"
"2/7/2022 12:00:00 AM","Morrow County","Oregon","West","Pacific","41049","45.425496","-119.602311 ","2886","26","13","0","2/6/2022 12:00:00 AM","2019","11603","NYTIMES-USCENSUS"
"2/7/2022 12:00:00 AM","Oldham County","Kentucky","South","East South Central","21185","38.400127","-85.45615 ","17113","121","73","0","2/6/2022 12:00:00 AM","2019","66799","NYTIMES-USCENSUS"
"2/7/2022 12:00:00 AM","Montgomery County","Kansas","Midwest","West North Central","20125","37.189537","-95.742403 ","9158","138","41","1","2/6/2022 12:00:00 AM","2019","31829","NYTIMES-USCENSUS"
"2/7/2022 12:00:00 AM","McKinley County","New Mexico","West","Mountain","35031","35.584062","-108.253294 ","24675","558","235","0","2/6/2022 12:00:00 AM","2019","71367","NYTIMES-USCENSUS"
"2/7/2022 12:00:00 AM","Leelanau County","Michigan","Midwest","East North Central","26089","45.146182","-86.051574 ","3428","47","26","0","2/6/2022 12:00:00 AM","2019","21761","NYTIMES-USCENSUS"
"2/7/2022 12:00:00 AM","Maury County","Tennessee","South","East South Central","47119","35.615696","-87.077763 ","27145","289","0","0","2/6/2022 12:00:00 AM","2019","96387","NYTIMES-USCENSUS"
"2/7/2022 12:00:00 AM","Jasper County","Missouri","Midwest","West North Central","29097","37.205197","-94.337259 ","19626","275","13","0","2/6/2022 12:00:00 AM","2019","121328","NYTIMES-USCENSUS"
"2/7/2022 12:00:00 AM","Beckham County","Oklahoma","South","West South Central","40009","35.270601","-99.690057 ","5624","90","0","0","2/6/2022 12:00:00 AM","2019","21859","NYTIMES-USCENSUS"
"2/7/2022 12:00:00 AM","McClain County","Oklahoma","South","West South Central","40087","35.016436","-97.449803 ","11079","115","0","0","2/6/2022 12:00:00 AM","2019","40474","NYTIMES-USCENSUS"
"2/7/2022 12:00:00 AM","Montgomery County","Arkansas","South","West South Central","05097","34.545656","-93.664153 ","1458","53","0","0","2/6/2022 12:00:00 AM","2019","8986","NYTIMES-USCENSUS"
"2/7/2022 12:00:00 AM","Cabell County","West Virginia","South","South Atlantic","54011","38.419578","-82.243397 ","25842","328","61","0","2/6/2022 12:00:00 AM","2019","91945","NYTIMES-USCENSUS"
"2/7/2022 12:00:00 AM","Montgomery County","Texas","South","West South Central","48339","30.298801","-95.50295 ","131991","1224","250","2","2/6/2022 12:00:00 AM","2019","607391","NYTIMES-USCENSUS"
"2/7/2022 12:00:00 AM","Perry County","Arkansas","South","West South Central","05105","34.946363","-92.926877 ","2389","30","2","1","2/6/2022 12:00:00 AM","2019","10455","NYTIMES-USCENSUS"
"2/7/2022 12:00:00 AM","Decatur County","Iowa","Midwest","West North Central","19053","40.736379","-93.78458 ","1430","22","0","0","2/6/2022 12:00:00 AM","2019","7870","NYTIMES-USCENSUS"
"2/7/2022 12:00:00 AM","Swift County","Minnesota","Midwest","West North Central","27151","45.27581","-95.690124 ","2143","31","11","0","2/6/2022 12:00:00 AM","2019","9266","NYTIMES-USCENSUS"
"2/7/2022 12:00:00 AM","Grays Harbor County","Washington","West","Pacific","53027","47.113732","-123.826735 ","15298","179","318","0","2/6/2022 12:00:00 AM","2019","75061","NYTIMES-USCENSUS"
"2/7/2022 12:00:00 AM","Marion County","Kansas","Midwest","West North Central","20115","38.359647","-97.102771 ","3234","39","20","0","2/6/2022 12:00:00 AM","2019","11884","NYTIMES-USCENSUS"
"2/7/2022 12:00:00 AM","Codington County","South Dakota","Midwest","West North Central","46029","44.966285","-97.198837 ","8171","94","30","0","2/6/2022 12:00:00 AM","2019","28009","NYTIMES-USCENSUS"
"2/7/2022 12:00:00 AM","Weston County","Wyoming","West","Mountain","56045","43.846213","-104.57002 ","1508","17","12","0","2/6/2022 12:00:00 AM","2019","6927","NYTIMES-USCENSUS"
"2/7/2022 12:00:00 AM","Clay County","Alabama","South","East South Central","01027","33.2704","-85.863525 ","3966","72","9","0","2/6/2022 12:00:00 AM","2019","13235","NYTIMES-USCENSUS"
"2/7/2022 12:00:00 AM","Jasper County","Texas","South","West South Central","48241","30.752932","-94.022294 ","5898","170","7","0","2/6/2022 12:00:00 AM","2019","35529","NYTIMES-USCENSUS"
"2/7/2022 12:00:00 AM","La Salle County","Texas","South","West South Central","48283","28.351098","-99.096774 ","2138","42","5","0","2/6/2022 12:00:00 AM","2019","7520","NYTIMES-USCENSUS"
"2/7/2022 12:00:00 AM","Wilkin County","Minnesota","Midwest","West North Central","27167","46.362335","-96.476657 ","1521","22","6","1","2/6/2022 12:00:00 AM","2019","6207","NYTIMES-USCENSUS"
"2/7/2022 12:00:00 AM","Logan County","Oklahoma","South","West South Central","40083","35.914277","-97.450952 ","10177","140","0","0","2/6/2022 12:00:00 AM","2019","48011","NYTIMES-USCENSUS"
"2/7/2022 12:00:00 AM","Natchitoches Parish","Louisiana","South","West South Central","22069","31.732509","-93.082546 ","9840","152","47","0","2/6/2022 12:00:00 AM","2019","38158","NYTIMES-USCENSUS"
"2/7/2022 12:00:00 AM","Slope County","North Dakota","Midwest","West North Central","38087","46.445834","-103.462462 ","62","0","0","0","2/6/2022 12:00:00 AM","2019","750","NYTIMES-USCENSUS"
"2/7/2022 12:00:00 AM","Windsor County","Vermont","Northeast","New England","50027","43.572448","-72.598813 ","7010","47","31","0","2/6/2022 12:00:00 AM","2019","55062","NYTIMES-USCENSUS"
"2/7/2022 12:00:00 AM","Smith County","Texas","South","West South Central","48423","32.377016","-95.270041 ","44190","882","60","0","2/6/2022 12:00:00 AM","2019","232751","NYTIMES-USCENSUS"
"2/7/2022 12:00:00 AM","Bullock County","Alabama","South","East South Central","01011","32.101759","-85.717261 ","2258","49","3","0","2/6/2022 12:00:00 AM","2019","10101","NYTIMES-USCENSUS"
"2/7/2022 12:00:00 AM","Hamblen County","Tennessee","South","East South Central","47063","36.218397","-83.266071 ","18184","311","0","0","2/6/2022 12:00:00 AM","2019","64934","NYTIMES-USCENSUS"
"2/7/2022 12:00:00 AM","Gallatin County","Kentucky","South","East South Central","21077","38.755663","-84.865143 ","2106","45","4","0","2/6/2022 12:00:00 AM","2019","8869","NYTIMES-USCENSUS"
"2/7/2022 12:00:00 AM","Conejos County","Colorado","West","Mountain","08021","37.213406","-106.176447 ","1614","49","6","0","2/6/2022 12:00:00 AM","2019","8205","NYTIMES-USCENSUS"
"2/7/2022 12:00:00 AM","Oxford County","Maine","Northeast","New England","23017","44.4945","-70.734421 ","8849","121","0","0","2/6/2022 12:00:00 AM","2019","57975","NYTIMES-USCENSUS"
"2/7/2022 12:00:00 AM","Holmes County","Mississippi","South","East South Central","28051","33.125942","-90.091197 ","4298","98","56","0","2/6/2022 12:00:00 AM","2019","17010","NYTIMES-USCENSUS"
"2/7/2022 12:00:00 AM","Champaign County","Illinois","Midwest","East North Central","17019","40.138985","-88.196975 ","59898","274","515","1","2/6/2022 12:00:00 AM","2019","209689","NYTIMES-USCENSUS"
"2/7/2022 12:00:00 AM","Le Flore County","Oklahoma","South","West South Central","40079","34.897356","-94.695074 ","11543","98","0","0","2/6/2022 12:00:00 AM","2019","49853","NYTIMES-USCENSUS"
"2/7/2022 12:00:00 AM","Cedar County","Nebraska","Midwest","West North Central","31027","42.60456","-97.25687 ","1420","11","3","0","2/6/2022 12:00:00 AM","2019","8402","NYTIMES-USCENSUS"
"2/7/2022 12:00:00 AM","Franklin County","Indiana","Midwest","East North Central","18047","39.409762","-85.066964 ","4281","60","22","0","2/6/2022 12:00:00 AM","2019","22758","NYTIMES-USCENSUS"
"2/7/2022 12:00:00 AM","Hempstead County","Arkansas","South","West South Central","05057","33.735953","-93.664355 ","4346","52","10","0","2/6/2022 12:00:00 AM","2019","21532","NYTIMES-USCENSUS"
"2/7/2022 12:00:00 AM","Bay County","Florida","South","South Atlantic","12005","30.15914","-85.534395 ","43866","729","0","0","2/6/2022 12:00:00 AM","2019","174705","NYTIMES-USCENSUS"
"2/7/2022 12:00:00 AM","Chambers County","Alabama","South","East South Central","01017","32.915504","-85.394032 ","8303","149","13","0","2/6/2022 12:00:00 AM","2019","33254","NYTIMES-USCENSUS"
"2/7/2022 12:00:00 AM","Gonzales County","Texas","South","West South Central","48177","29.461912","-97.49192 ","4620","92","2","0","2/6/2022 12:00:00 AM","2019","20837","NYTIMES-USCENSUS"
"2/7/2022 12:00:00 AM","Jackson County","Georgia","South","South Atlantic","13157","34.130905","-83.562557 ","20864","256","125","1","2/6/2022 12:00:00 AM","2019","72977","NYTIMES-USCENSUS"
"2/7/2022 12:00:00 AM","Burleson County","Texas","South","West South Central","48051","30.493487","-96.622091 ","4851","63","6","0","2/6/2022 12:00:00 AM","2019","18443","NYTIMES-USCENSUS"
"2/7/2022 12:00:00 AM","Cheyenne County","Nebraska","Midwest","West North Central","31033","41.214236","-103.011929 ","1882","23","16","0","2/6/2022 12:00:00 AM","2019","8910","NYTIMES-USCENSUS"
"2/7/2022 12:00:00 AM","Danville city","Virginia","South","South Atlantic","51590","36.583334","-79.408071 ","10277","225","98","2","2/6/2022 12:00:00 AM","2019","40044","NYTIMES-USCENSUS"
"2/7/2022 12:00:00 AM","Brooke County","West Virginia","South","South Atlantic","54009","40.272645","-80.578691 ","4731","97","1","0","2/6/2022 12:00:00 AM","2019","21939","NYTIMES-USCENSUS"
"2/7/2022 12:00:00 AM","Bledsoe County","Tennessee","South","East South Central","47007","35.593561","-85.20591 ","4326","43","0","0","2/6/2022 12:00:00 AM","2019","15064","NYTIMES-USCENSUS"
"2/7/2022 12:00:00 AM","Twiggs County","Georgia","South","South Atlantic","13289","32.665847","-83.425879 ","1499","64","17","0","2/6/2022 12:00:00 AM","2019","8120","NYTIMES-USCENSUS"
"2/7/2022 12:00:00 AM","Sharkey County","Mississippi","South","East South Central","28125","32.892395","-90.827613 ","926","21","20","0","2/6/2022 12:00:00 AM","2019","4321","NYTIMES-USCENSUS"
"2/7/2022 12:00:00 AM","Carter County","Oklahoma","South","West South Central","40019","34.251848","-97.287927 ","13021","208","0","0","2/6/2022 12:00:00 AM","2019","48111","NYTIMES-USCENSUS"
"2/7/2022 12:00:00 AM","Deer Lodge County","Montana","West","Mountain","30023","46.094672","-113.141624 ","2273","29","31","0","2/6/2022 12:00:00 AM","2019","9140","NYTIMES-USCENSUS"
"2/7/2022 12:00:00 AM","Montgomery County","Missouri","Midwest","West North Central","29139","38.935184","-91.465427 ","2327","50","3","0","2/6/2022 12:00:00 AM","2019","11551","NYTIMES-USCENSUS"
"2/7/2022 12:00:00 AM","Wise County","Virginia","South","South Atlantic","51195","36.974561","-82.62156 ","9085","162","137","0","2/6/2022 12:00:00 AM","2019","37383","NYTIMES-USCENSUS"
"2/7/2022 12:00:00 AM","Cass County","Minnesota","Midwest","West North Central","27021","46.951745","-94.333705 ","6441","71","23","1","2/6/2022 12:00:00 AM","2019","29779","NYTIMES-USCENSUS"
"2/7/2022 12:00:00 AM","White Pine County","Nevada","West","Mountain","32033","39.418176","-114.900565 ","1840","18","0","0","2/6/2022 12:00:00 AM","2019","9580","NYTIMES-USCENSUS"
"2/7/2022 12:00:00 AM","Ralls County","Missouri","Midwest","West North Central","29173","39.553455","-91.524787 ","2372","19","5","0","2/6/2022 12:00:00 AM","2019","10309","NYTIMES-USCENSUS"
"2/7/2022 12:00:00 AM","Effingham County","Illinois","Midwest","East North Central","17049","39.047945","-88.592849 ","10367","137","30","0","2/6/2022 12:00:00 AM","2019","34008","NYTIMES-USCENSUS"
"2/7/2022 12:00:00 AM","Sangamon County","Illinois","Midwest","East North Central","17167","39.756886","-89.662435 ","52887","391","188","1","2/6/2022 12:00:00 AM","2019","194672","NYTIMES-USCENSUS"
"2/7/2022 12:00:00 AM","Cook County","Georgia","South","South Atlantic","13075","31.152516","-83.429445 ","4812","67","25","1","2/6/2022 12:00:00 AM","2019","17270","NYTIMES-USCENSUS"
"2/7/2022 12:00:00 AM","Arapahoe County","Colorado","West","Mountain","08005","39.644554","-104.331706 ","145995","1202","375","18","2/6/2022 12:00:00 AM","2019","656590","NYTIMES-USCENSUS"
"2/7/2022 12:00:00 AM","Stone County","Mississippi","South","East South Central","28131","30.790184","-89.112297 ","5251","67","88","0","2/6/2022 12:00:00 AM","2019","18336","NYTIMES-USCENSUS"
"2/7/2022 12:00:00 AM","Carson City","Nevada","West","Mountain","32510","39.15306","-119.747368 ","13917","191","0","0","2/6/2022 12:00:00 AM","2019","55916","NYTIMES-USCENSUS"
"2/7/2022 12:00:00 AM","Hickman County","Tennessee","South","East South Central","47081","35.802327","-87.467116 ","6289","97","0","0","2/6/2022 12:00:00 AM","2019","25178","NYTIMES-USCENSUS"
"2/7/2022 12:00:00 AM","Dawson County","Texas","South","West South Central","48115","32.742528","-101.948771 ","2425","91","2","0","2/6/2022 12:00:00 AM","2019","12728","NYTIMES-USCENSUS"
"2/7/2022 12:00:00 AM","Columbia County","Arkansas","South","West South Central","05027","33.223038","-93.232843 ","5036","77","0","0","2/6/2022 12:00:00 AM","2019","23457","NYTIMES-USCENSUS"
"2/7/2022 12:00:00 AM","Sanilac County","Michigan","Midwest","East North Central","26151","43.449155","-82.642815 ","8390","175","43","0","2/6/2022 12:00:00 AM","2019","41170","NYTIMES-USCENSUS"
"2/7/2022 12:00:00 AM","Clark County","Arkansas","South","West South Central","05019","34.053316","-93.176208 ","5002","72","6","1","2/6/2022 12:00:00 AM","2019","22320","NYTIMES-USCENSUS"
"2/7/2022 12:00:00 AM","Johnson County","Kentucky","South","East South Central","21115","37.847756","-82.830121 ","5434","86","57","0","2/6/2022 12:00:00 AM","2019","22188","NYTIMES-USCENSUS"
"2/7/2022 12:00:00 AM","White County","Georgia","South","South Atlantic","13311","34.644182","-83.743 ","6643","148","38","1","2/6/2022 12:00:00 AM","2019","30798","NYTIMES-USCENSUS"
"2/7/2022 12:00:00 AM","Choctaw County","Alabama","South","East South Central","01023","31.990954","-88.248889 ","1867","33","9","0","2/6/2022 12:00:00 AM","2019","12589","NYTIMES-USCENSUS"
"2/7/2022 12:00:00 AM","Oscoda County","Michigan","Midwest","East North Central","26135","44.687257","-84.126905 ","1402","53","7","0","2/6/2022 12:00:00 AM","2019","8241","NYTIMES-USCENSUS"
"2/7/2022 12:00:00 AM","Blount County","Alabama","South","East South Central","01009","33.977358","-86.56644 ","14366","211","37","1","2/6/2022 12:00:00 AM","2019","57826","NYTIMES-USCENSUS"
"2/7/2022 12:00:00 AM","Johnson County","Indiana","Midwest","East North Central","18081","39.496092","-86.094264 ","41585","577","105","1","2/6/2022 12:00:00 AM","2019","158167","NYTIMES-USCENSUS"
"2/7/2022 12:00:00 AM","Chaves County","New Mexico","West","Mountain","35005","33.361604","-104.469837 ","21297","274","107","0","2/6/2022 12:00:00 AM","2019","64615","NYTIMES-USCENSUS"
"2/7/2022 12:00:00 AM","Walworth County","South Dakota","Midwest","West North Central","46129","45.427605","-100.027856 ","1282","23","7","0","2/6/2022 12:00:00 AM","2019","5435","NYTIMES-USCENSUS"
"2/7/2022 12:00:00 AM","Beltrami County","Minnesota","Midwest","West North Central","27007","47.879508","-95.00505 ","10795","116","44","1","2/6/2022 12:00:00 AM","2019","47188","NYTIMES-USCENSUS"
"2/7/2022 12:00:00 AM","Goochland County","Virginia","South","South Atlantic","51075","37.718814","-77.917626 ","3671","40","50","0","2/6/2022 12:00:00 AM","2019","23753","NYTIMES-USCENSUS"
"2/7/2022 12:00:00 AM","Bossier Parish","Louisiana","South","West South Central","22015","32.698481","-93.626561 ","36628","438","142","0","2/6/2022 12:00:00 AM","2019","127039","NYTIMES-USCENSUS"
"2/7/2022 12:00:00 AM","Cleburne County","Alabama","South","East South Central","01029","33.671964","-85.516126 ","3442","65","9","0","2/6/2022 12:00:00 AM","2019","14910","NYTIMES-USCENSUS"
"2/7/2022 12:00:00 AM","Monmouth County","New Jersey","Northeast","Middle Atlantic","34025","40.287048","-74.152446 ","159135","2056","117","1","2/6/2022 12:00:00 AM","2019","618795","NYTIMES-USCENSUS"
"2/7/2022 12:00:00 AM","Salem city","Virginia","South","South Atlantic","51775","37.285333","-80.055241 ","6476","93","54","5","2/6/2022 12:00:00 AM","2019","25301","NYTIMES-USCENSUS"
"2/7/2022 12:00:00 AM","Lee County","Iowa","Midwest","West North Central","19111","40.647588","-91.477157 ","7558","121","0","0","2/6/2022 12:00:00 AM","2019","33657","NYTIMES-USCENSUS"
"2/7/2022 12:00:00 AM","Treutlen County","Georgia","South","South Atlantic","13283","32.409586","-82.570882 ","1594","58","6","0","2/6/2022 12:00:00 AM","2019","6901","NYTIMES-USCENSUS"
"2/7/2022 12:00:00 AM","Coleman County","Texas","South","West South Central","48083","31.914205","-99.346622 ","1556","65","3","0","2/6/2022 12:00:00 AM","2019","8175","NYTIMES-USCENSUS"
"2/7/2022 12:00:00 AM","Phillips County","Colorado","West","Mountain","08095","40.594712","-102.345105 ","817","16","5","1","2/6/2022 12:00:00 AM","2019","4265","NYTIMES-USCENSUS"
"2/7/2022 12:00:00 AM","Cloud County","Kansas","Midwest","West North Central","20029","39.487329","-97.64139 ","2166","36","9","0","2/6/2022 12:00:00 AM","2019","8786","NYTIMES-USCENSUS"
"2/7/2022 12:00:00 AM","Alexander County","North Carolina","South","South Atlantic","37003","35.920951","-81.177467 ","10014","125","121","1","2/6/2022 12:00:00 AM","2019","37497","NYTIMES-USCENSUS"
"2/7/2022 12:00:00 AM","Barnes County","North Dakota","Midwest","West North Central","38003","46.94255","-98.070195 ","2860","45","8","0","2/6/2022 12:00:00 AM","2019","10415","NYTIMES-USCENSUS"
"2/7/2022 12:00:00 AM","New Kent County","Virginia","South","South Atlantic","51127","37.51016","-76.999331 ","4433","30","46","1","2/6/2022 12:00:00 AM","2019","23091","NYTIMES-USCENSUS"
"2/7/2022 12:00:00 AM","Henry County","Missouri","Midwest","West North Central","29083","38.386491","-93.792628 ","5515","74","3","0","2/6/2022 12:00:00 AM","2019","21824","NYTIMES-USCENSUS"
"2/7/2022 12:00:00 AM","Murray County","Minnesota","Midwest","West North Central","27101","44.015594","-95.761581 ","1955","15","1","0","2/6/2022 12:00:00 AM","2019","8194","NYTIMES-USCENSUS"
"2/7/2022 12:00:00 AM","Howard County","Arkansas","South","West South Central","05061","34.083064","-93.990931 ","3636","44","1","1","2/6/2022 12:00:00 AM","2019","13202","NYTIMES-USCENSUS"
"2/7/2022 12:00:00 AM","Kleberg County","Texas","South","West South Central","48273","27.438735","-97.66062 ","6580","136","31","0","2/6/2022 12:00:00 AM","2019","30680","NYTIMES-USCENSUS"
"2/7/2022 12:00:00 AM","Cochran County","Texas","South","West South Central","48079","33.60844","-102.830449 ","822","21","1","0","2/6/2022 12:00:00 AM","2019","2853","NYTIMES-USCENSUS"
"2/7/2022 12:00:00 AM","Roberts County","Texas","South","West South Central","48393","35.838596","-100.836682 ","161","1","0","0","2/6/2022 12:00:00 AM","2019","854","NYTIMES-USCENSUS"
"2/7/2022 12:00:00 AM","Hampshire County","Massachusetts","Northeast","New England","25015","42.339459","-72.663694 ","24930","383","215","2","2/6/2022 12:00:00 AM","2019","160830","NYTIMES-USCENSUS"
"2/7/2022 12:00:00 AM","Harrison County","Kentucky","South","East South Central","21097","38.444578","-84.334131 ","5786","58","51","0","2/6/2022 12:00:00 AM","2019","18886","NYTIMES-USCENSUS"
"2/7/2022 12:00:00 AM","Routt County","Colorado","West","Mountain","08107","40.483664","-106.987702 ","6022","24","17","0","2/6/2022 12:00:00 AM","2019","25638","NYTIMES-USCENSUS"
"2/7/2022 12:00:00 AM","Freestone County","Texas","South","West South Central","48161","31.701749","-96.144957 ","3767","80","5","0","2/6/2022 12:00:00 AM","2019","19717","NYTIMES-USCENSUS"
"2/7/2022 12:00:00 AM","Jefferson County","Mississippi","South","East South Central","28063","31.733633","-91.043878 ","1455","35","46","0","2/6/2022 12:00:00 AM","2019","6990","NYTIMES-USCENSUS"
"2/7/2022 12:00:00 AM","Rusk County","Wisconsin","Midwest","East North Central","55107","45.472734","-91.136745 ","3345","47","17","0","2/6/2022 12:00:00 AM","2019","14178","NYTIMES-USCENSUS"
"2/7/2022 12:00:00 AM","McCormick County","South Carolina","South","South Atlantic","45065","33.897599","-82.316196 ","2120","35","15","0","2/6/2022 12:00:00 AM","2019","9463","NYTIMES-USCENSUS"
"2/7/2022 12:00:00 AM","Winona County","Minnesota","Midwest","West North Central","27169","43.981353","-91.777044 ","11712","68","87","0","2/6/2022 12:00:00 AM","2019","50484","NYTIMES-USCENSUS"
"2/7/2022 12:00:00 AM","Spencer County","Kentucky","South","East South Central","21215","38.025411","-85.317174 ","5035","48","32","0","2/6/2022 12:00:00 AM","2019","19351","NYTIMES-USCENSUS"
"2/7/2022 12:00:00 AM","Franklin County","Iowa","Midwest","West North Central","19069","42.736545","-93.271415 ","2395","39","0","0","2/6/2022 12:00:00 AM","2019","10070","NYTIMES-USCENSUS"
"2/7/2022 12:00:00 AM","Taylor County","Wisconsin","Midwest","East North Central","55119","45.211656","-90.504853 ","4729","65","23","0","2/6/2022 12:00:00 AM","2019","20343","NYTIMES-USCENSUS"
"2/7/2022 12:00:00 AM","Wheatland County","Montana","West","Mountain","30107","46.496967","-109.857684 ","353","13","6","0","2/6/2022 12:00:00 AM","2019","2126","NYTIMES-USCENSUS"
"2/7/2022 12:00:00 AM","Inyo County","California","West","Pacific","06027","36.56216","-117.404209 ","4429","51","22","0","2/6/2022 12:00:00 AM","2019","18039","NYTIMES-USCENSUS"
"2/7/2022 12:00:00 AM","Pittsylvania County","Virginia","South","South Atlantic","51143","36.821721","-79.398502 ","12295","167","189","2","2/6/2022 12:00:00 AM","2019","60354","NYTIMES-USCENSUS"
"2/7/2022 12:00:00 AM","Pierce County","Georgia","South","South Atlantic","13229","31.353998","-82.21037 ","5336","111","19","1","2/6/2022 12:00:00 AM","2019","19465","NYTIMES-USCENSUS"
"2/7/2022 12:00:00 AM","Jackson County","Arkansas","South","West South Central","05067","35.596467","-91.223205 ","5786","53","2","0","2/6/2022 12:00:00 AM","2019","16719","NYTIMES-USCENSUS"
"2/7/2022 12:00:00 AM","San Juan County","New Mexico","West","Mountain","35045","36.511624","-108.324578 ","38705","699","357","2","2/6/2022 12:00:00 AM","2019","123958","NYTIMES-USCENSUS"
"2/7/2022 12:00:00 AM","Snyder County","Pennsylvania","Northeast","Middle Atlantic","42109","40.755407","-77.072929 ","7870","147","15","0","2/6/2022 12:00:00 AM","2019","40372","NYTIMES-USCENSUS"
"2/7/2022 12:00:00 AM","Glasscock County","Texas","South","West South Central","48173","31.868006","-101.521494 ","193","3","1","0","2/6/2022 12:00:00 AM","2019","1409","NYTIMES-USCENSUS"
"2/7/2022 12:00:00 AM","Marshall County","South Dakota","Midwest","West North Central","46091","45.737044","-97.58087 ","749","11","4","0","2/6/2022 12:00:00 AM","2019","4935","NYTIMES-USCENSUS"
"2/7/2022 12:00:00 AM","Matagorda County","Texas","South","West South Central","48321","28.77476","-96.001532 ","7911","170","8","0","2/6/2022 12:00:00 AM","2019","36643","NYTIMES-USCENSUS"
"2/7/2022 12:00:00 AM","Asotin County","Washington","West","Pacific","53003","46.181861","-117.227781 ","4097","57","-12","1","2/6/2022 12:00:00 AM","2019","22582","NYTIMES-USCENSUS"
"2/7/2022 12:00:00 AM","Carroll County","Arkansas","South","West South Central","05015","36.33737","-93.540972 ","5848","87","5","0","2/6/2022 12:00:00 AM","2019","28380","NYTIMES-USCENSUS"
"2/7/2022 12:00:00 AM","Warren County","Ohio","Midwest","East North Central","39165","39.425663","-84.16994 ","56189","517","56","0","2/6/2022 12:00:00 AM","2019","234602","NYTIMES-USCENSUS"
