"monitor_date","county","state_name","region","subregion","fips","latitude","longitude","case_count_to_date","death_count_to_date","case_count","death_count","previous_monitor_date","population_year","population","source"
"2/5/2022 12:00:00 AM","Jefferson County","Tennessee","South","East South Central","47089","36.048338","-83.441143 ","14227","232","0","0","2/4/2022 12:00:00 AM","2019","54495","NYTIMES-USCENSUS"
"2/5/2022 12:00:00 AM","Cochise County","Arizona","West","Mountain","04003","31.840129","-109.775163 ","29216","519","145","2","2/4/2022 12:00:00 AM","2019","125922","NYTIMES-USCENSUS"
"2/5/2022 12:00:00 AM","Toombs County","Georgia","South","South Atlantic","13279","32.117753","-82.330597 ","6726","181","0","0","2/4/2022 12:00:00 AM","2019","26830","NYTIMES-USCENSUS"
"2/5/2022 12:00:00 AM","Monroe County","Florida","South","South Atlantic","12087","25.58612","-81.022603 ","17370","105","0","0","2/4/2022 12:00:00 AM","2019","74228","NYTIMES-USCENSUS"
"2/5/2022 12:00:00 AM","Delta County","Colorado","West","Mountain","08029","38.861595","-107.864892 ","5597","124","0","0","2/4/2022 12:00:00 AM","2019","31162","NYTIMES-USCENSUS"
"2/5/2022 12:00:00 AM","Chisago County","Minnesota","Midwest","West North Central","27025","45.505444","-92.903849 ","13642","114","0","0","2/4/2022 12:00:00 AM","2019","56579","NYTIMES-USCENSUS"
"2/5/2022 12:00:00 AM","Montgomery County","Missouri","Midwest","West North Central","29139","38.935184","-91.465427 ","2323","50","14","0","2/4/2022 12:00:00 AM","2019","11551","NYTIMES-USCENSUS"
"2/5/2022 12:00:00 AM","Jefferson County","Illinois","Midwest","East North Central","17081","38.30078","-88.92421 ","10560","163","0","0","2/4/2022 12:00:00 AM","2019","37684","NYTIMES-USCENSUS"
"2/5/2022 12:00:00 AM","Shasta County","California","West","Pacific","06089","40.760514","-122.043556 ","34556","529","0","0","2/4/2022 12:00:00 AM","2019","180080","NYTIMES-USCENSUS"
"2/5/2022 12:00:00 AM","Morgan County","Ohio","Midwest","East North Central","39115","39.624946","-81.861697 ","3114","50","5","0","2/4/2022 12:00:00 AM","2019","14508","NYTIMES-USCENSUS"
"2/5/2022 12:00:00 AM","Anderson County","Tennessee","South","East South Central","47001","36.116731","-84.195418 ","19504","289","0","0","2/4/2022 12:00:00 AM","2019","76978","NYTIMES-USCENSUS"
"2/5/2022 12:00:00 AM","Canyon County","Idaho","West","Mountain","16027","43.625796","-116.709058 ","54568","637","152","0","2/4/2022 12:00:00 AM","2019","229849","NYTIMES-USCENSUS"
"2/5/2022 12:00:00 AM","Perry County","Missouri","Midwest","West North Central","29157","37.71113","-89.802125 ","4685","44","11","0","2/4/2022 12:00:00 AM","2019","19136","NYTIMES-USCENSUS"
"2/5/2022 12:00:00 AM","Clark County","Wisconsin","Midwest","East North Central","55019","44.739346","-90.609953 ","7399","114","0","0","2/4/2022 12:00:00 AM","2019","34774","NYTIMES-USCENSUS"
"2/5/2022 12:00:00 AM","Clark County","Washington","West","Pacific","53011","45.77173","-122.485953 ","78248","701","0","0","2/4/2022 12:00:00 AM","2019","488241","NYTIMES-USCENSUS"
"2/5/2022 12:00:00 AM","Otero County","Colorado","West","Mountain","08089","37.88417","-103.72126 ","4052","123","0","0","2/4/2022 12:00:00 AM","2019","18278","NYTIMES-USCENSUS"
"2/5/2022 12:00:00 AM","Moore County","North Carolina","South","South Atlantic","37125","35.308272","-79.492725 ","22951","284","0","0","2/4/2022 12:00:00 AM","2019","100880","NYTIMES-USCENSUS"
"2/5/2022 12:00:00 AM","Clinton County","Kentucky","South","East South Central","21053","36.727258","-85.136098 ","3126","41","0","0","2/4/2022 12:00:00 AM","2019","10218","NYTIMES-USCENSUS"
"2/5/2022 12:00:00 AM","Los Angeles County","California","West","Pacific","06037","34.196398","-118.261862 ","2720920","29364","9854","84","2/4/2022 12:00:00 AM","2019","10039107","NYTIMES-USCENSUS"
"2/5/2022 12:00:00 AM","Lanier County","Georgia","South","South Atlantic","13173","31.038197","-83.063164 ","2213","18","0","0","2/4/2022 12:00:00 AM","2019","10423","NYTIMES-USCENSUS"
"2/5/2022 12:00:00 AM","Olmsted County","Minnesota","Midwest","West North Central","27109","43.999499","-92.410098 ","37640","156","0","0","2/4/2022 12:00:00 AM","2019","158293","NYTIMES-USCENSUS"
"2/5/2022 12:00:00 AM","Traverse County","Minnesota","Midwest","West North Central","27155","45.769935","-96.474832 ","758","9","0","0","2/4/2022 12:00:00 AM","2019","3259","NYTIMES-USCENSUS"
"2/5/2022 12:00:00 AM","Northampton County","Virginia","South","South Atlantic","51131","37.302775","-75.924018 ","2059","53","0","0","2/4/2022 12:00:00 AM","2019","11710","NYTIMES-USCENSUS"
"2/5/2022 12:00:00 AM","Murray County","Minnesota","Midwest","West North Central","27101","44.015594","-95.761581 ","1954","15","0","0","2/4/2022 12:00:00 AM","2019","8194","NYTIMES-USCENSUS"
"2/5/2022 12:00:00 AM","Big Stone County","Minnesota","Midwest","West North Central","27011","45.419925","-96.402226 ","1296","8","0","0","2/4/2022 12:00:00 AM","2019","4991","NYTIMES-USCENSUS"
"2/5/2022 12:00:00 AM","Columbia County","Oregon","West","Pacific","41009","45.941932","-123.081079 ","6894","71","0","0","2/4/2022 12:00:00 AM","2019","52354","NYTIMES-USCENSUS"
"2/5/2022 12:00:00 AM","Rock County","Minnesota","Midwest","West North Central","27133","43.669587","-96.263238 ","2265","32","0","0","2/4/2022 12:00:00 AM","2019","9315","NYTIMES-USCENSUS"
"2/5/2022 12:00:00 AM","Adair County","Missouri","Midwest","West North Central","29001","40.190666","-92.603592 ","5800","58","0","0","2/4/2022 12:00:00 AM","2019","25343","NYTIMES-USCENSUS"
"2/5/2022 12:00:00 AM","St. Clair County","Alabama","South","East South Central","01115","33.719491","-86.311327 ","24316","381","32","0","2/4/2022 12:00:00 AM","2019","89512","NYTIMES-USCENSUS"
"2/5/2022 12:00:00 AM","Clark County","Kansas","Midwest","West North Central","20025","37.233831","-99.813869 ","481","7","0","0","2/4/2022 12:00:00 AM","2019","1994","NYTIMES-USCENSUS"
"2/5/2022 12:00:00 AM","Hardeman County","Texas","South","West South Central","48197","34.289904","-99.745697 ","549","14","2","0","2/4/2022 12:00:00 AM","2019","3933","NYTIMES-USCENSUS"
"2/5/2022 12:00:00 AM","Craig County","Virginia","South","South Atlantic","51045","37.473603","-80.231051 ","1008","12","0","0","2/4/2022 12:00:00 AM","2019","5131","NYTIMES-USCENSUS"
"2/5/2022 12:00:00 AM","Dickinson County","Iowa","Midwest","West North Central","19059","43.389611","-95.196057 ","4006","66","0","0","2/4/2022 12:00:00 AM","2019","17258","NYTIMES-USCENSUS"
"2/5/2022 12:00:00 AM","Yuma County","Colorado","West","Mountain","08125","40.00077","-102.421649 ","1784","22","0","0","2/4/2022 12:00:00 AM","2019","10019","NYTIMES-USCENSUS"
"2/5/2022 12:00:00 AM","Carlton County","Minnesota","Midwest","West North Central","27017","46.603818","-92.671044 ","8037","85","0","0","2/4/2022 12:00:00 AM","2019","35871","NYTIMES-USCENSUS"
"2/5/2022 12:00:00 AM","Johnson County","Tennessee","South","East South Central","47091","36.453203","-81.861247 ","4742","73","0","0","2/4/2022 12:00:00 AM","2019","17788","NYTIMES-USCENSUS"
"2/5/2022 12:00:00 AM","Coleman County","Texas","South","West South Central","48083","31.914205","-99.346622 ","1553","65","3","0","2/4/2022 12:00:00 AM","2019","8175","NYTIMES-USCENSUS"
"2/5/2022 12:00:00 AM","Tate County","Mississippi","South","East South Central","28137","34.649553","-89.943105 ","6903","131","0","0","2/4/2022 12:00:00 AM","2019","28321","NYTIMES-USCENSUS"
"2/5/2022 12:00:00 AM","Wise County","Virginia","South","South Atlantic","51195","36.974561","-82.62156 ","8948","162","0","0","2/4/2022 12:00:00 AM","2019","37383","NYTIMES-USCENSUS"
"2/5/2022 12:00:00 AM","Ogle County","Illinois","Midwest","East North Central","17141","42.041884","-89.320176 ","13403","134","0","0","2/4/2022 12:00:00 AM","2019","50643","NYTIMES-USCENSUS"
"2/5/2022 12:00:00 AM","Riverside County","California","West","Pacific","06065","33.729828","-116.002239 ","591645","5941","0","0","2/4/2022 12:00:00 AM","2019","2470546","NYTIMES-USCENSUS"
"2/5/2022 12:00:00 AM","De Baca County","New Mexico","West","Mountain","35011","34.359273","-104.368696 ","530","5","0","0","2/4/2022 12:00:00 AM","2019","1748","NYTIMES-USCENSUS"
"2/5/2022 12:00:00 AM","Williamsburg city","Virginia","South","South Atlantic","51830","37.269481","-76.708193 ","1594","13","0","0","2/4/2022 12:00:00 AM","2019","14954","NYTIMES-USCENSUS"
"2/5/2022 12:00:00 AM","Bell County","Texas","South","West South Central","48027","31.04275","-97.481268 ","64657","792","2970","1","2/4/2022 12:00:00 AM","2019","362924","NYTIMES-USCENSUS"
"2/5/2022 12:00:00 AM","Jackson County","Mississippi","South","East South Central","28059","30.456005","-88.625101 ","35160","409","0","0","2/4/2022 12:00:00 AM","2019","143617","NYTIMES-USCENSUS"
"2/5/2022 12:00:00 AM","Douglas County","Nebraska","Midwest","West North Central","31055","41.297091","-96.154066 ","139298","1021","0","0","2/4/2022 12:00:00 AM","2019","571327","NYTIMES-USCENSUS"
"2/5/2022 12:00:00 AM","Alamosa County","Colorado","West","Mountain","08003","37.568442","-105.788041 ","4188","58","0","0","2/4/2022 12:00:00 AM","2019","16233","NYTIMES-USCENSUS"
"2/5/2022 12:00:00 AM","St. Bernard Parish","Louisiana","South","West South Central","22087","29.91811","-89.263494 ","10914","106","0","0","2/4/2022 12:00:00 AM","2019","47244","NYTIMES-USCENSUS"
"2/5/2022 12:00:00 AM","Sussex County","Virginia","South","South Atlantic","51183","36.926645","-77.259732 ","2363","32","0","0","2/4/2022 12:00:00 AM","2019","11159","NYTIMES-USCENSUS"
"2/5/2022 12:00:00 AM","Curry County","New Mexico","West","Mountain","35009","34.572984","-103.346055 ","11989","161","0","0","2/4/2022 12:00:00 AM","2019","48954","NYTIMES-USCENSUS"
"2/5/2022 12:00:00 AM","Washington County","Texas","South","West South Central","48477","30.215075","-96.410272 ","8761","140","13","0","2/4/2022 12:00:00 AM","2019","35882","NYTIMES-USCENSUS"
"2/5/2022 12:00:00 AM","Sunflower County","Mississippi","South","East South Central","28133","33.605529","-90.59509 ","5606","114","0","0","2/4/2022 12:00:00 AM","2019","25110","NYTIMES-USCENSUS"
"2/5/2022 12:00:00 AM","Tift County","Georgia","South","South Atlantic","13277","31.457003","-83.525931 ","11272","202","0","0","2/4/2022 12:00:00 AM","2019","40644","NYTIMES-USCENSUS"
"2/5/2022 12:00:00 AM","Greene County","Georgia","South","South Atlantic","13133","33.576704","-83.166625 ","3808","75","0","0","2/4/2022 12:00:00 AM","2019","18324","NYTIMES-USCENSUS"
"2/5/2022 12:00:00 AM","Boone County","Iowa","Midwest","West North Central","19015","42.038642","-93.938603 ","5182","48","0","0","2/4/2022 12:00:00 AM","2019","26234","NYTIMES-USCENSUS"
"2/5/2022 12:00:00 AM","Nantucket County","Massachusetts","Northeast","New England","25019","41.293392","-70.102164 ","3282","0","0","0","2/4/2022 12:00:00 AM","2019","11399","NYTIMES-USCENSUS"
"2/5/2022 12:00:00 AM","Pendleton County","Kentucky","South","East South Central","21191","38.696284","-84.351943 ","3295","33","0","0","2/4/2022 12:00:00 AM","2019","14590","NYTIMES-USCENSUS"
"2/5/2022 12:00:00 AM","Jefferson County","Pennsylvania","Northeast","Middle Atlantic","42065","41.138028","-79.012419 ","8552","208","29","2","2/4/2022 12:00:00 AM","2019","43425","NYTIMES-USCENSUS"
"2/5/2022 12:00:00 AM","Liberty County","Texas","South","West South Central","48291","30.158508","-94.844061 ","16885","382","22","2","2/4/2022 12:00:00 AM","2019","88219","NYTIMES-USCENSUS"
"2/5/2022 12:00:00 AM","Gonzales County","Texas","South","West South Central","48177","29.461912","-97.49192 ","4611","92","269","0","2/4/2022 12:00:00 AM","2019","20837","NYTIMES-USCENSUS"
"2/5/2022 12:00:00 AM","Polk County","Georgia","South","South Atlantic","13233","33.996015","-85.188338 ","11464","172","0","0","2/4/2022 12:00:00 AM","2019","42613","NYTIMES-USCENSUS"
"2/5/2022 12:00:00 AM","Calhoun County","Georgia","South","South Atlantic","13037","31.521279","-84.62629 ","1333","22","0","0","2/4/2022 12:00:00 AM","2019","6189","NYTIMES-USCENSUS"
"2/5/2022 12:00:00 AM","El Dorado County","California","West","Pacific","06017","38.785612","-120.534225 ","27839","185","0","0","2/4/2022 12:00:00 AM","2019","192843","NYTIMES-USCENSUS"
"2/5/2022 12:00:00 AM","Ashe County","North Carolina","South","South Atlantic","37009","36.443469","-81.499334 ","5666","67","0","0","2/4/2022 12:00:00 AM","2019","27203","NYTIMES-USCENSUS"
"2/5/2022 12:00:00 AM","Nacogdoches County","Texas","South","West South Central","48347","31.62056","-94.62025 ","11477","247","50","0","2/4/2022 12:00:00 AM","2019","65204","NYTIMES-USCENSUS"
"2/5/2022 12:00:00 AM","Cumberland County","Virginia","South","South Atlantic","51049","37.520189","-78.252836 ","1152","21","0","0","2/4/2022 12:00:00 AM","2019","9932","NYTIMES-USCENSUS"
"2/5/2022 12:00:00 AM","Mecklenburg County","North Carolina","South","South Atlantic","37119","35.246862","-80.833832 ","265078","1470","0","0","2/4/2022 12:00:00 AM","2019","1110356","NYTIMES-USCENSUS"
"2/5/2022 12:00:00 AM","Noxubee County","Mississippi","South","East South Central","28103","33.106606","-88.566152 ","2647","47","0","0","2/4/2022 12:00:00 AM","2019","10417","NYTIMES-USCENSUS"
"2/5/2022 12:00:00 AM","Carbon County","Montana","West","Mountain","30009","45.224468","-109.028554 ","1934","27","0","0","2/4/2022 12:00:00 AM","2019","10725","NYTIMES-USCENSUS"
"2/5/2022 12:00:00 AM","Garfield County","Utah","West","Mountain","49017","37.831664","-111.450908 ","892","12","0","0","2/4/2022 12:00:00 AM","2019","5051","NYTIMES-USCENSUS"
"2/5/2022 12:00:00 AM","Clinton County","Illinois","Midwest","East North Central","17027","38.606295","-89.426228 ","11515","119","0","0","2/4/2022 12:00:00 AM","2019","37562","NYTIMES-USCENSUS"
"2/5/2022 12:00:00 AM","Stevens County","Minnesota","Midwest","West North Central","27149","45.593461","-95.992315 ","2477","12","0","0","2/4/2022 12:00:00 AM","2019","9805","NYTIMES-USCENSUS"
"2/5/2022 12:00:00 AM","Harlan County","Nebraska","Midwest","West North Central","31083","40.178766","-99.403418 ","375","2","0","0","2/4/2022 12:00:00 AM","2019","3380","NYTIMES-USCENSUS"
"2/5/2022 12:00:00 AM","Hardin County","Iowa","Midwest","West North Central","19083","42.390208","-93.241669 ","3938","57","0","0","2/4/2022 12:00:00 AM","2019","16846","NYTIMES-USCENSUS"
"2/5/2022 12:00:00 AM","San Juan County","Washington","West","Pacific","53055","48.50719","-123.103769 ","1003","1","0","0","2/4/2022 12:00:00 AM","2019","17582","NYTIMES-USCENSUS"
"2/5/2022 12:00:00 AM","Jackson County","Michigan","Midwest","East North Central","26075","42.248474","-84.420868 ","43453","522","0","0","2/4/2022 12:00:00 AM","2019","158510","NYTIMES-USCENSUS"
"2/5/2022 12:00:00 AM","Perry County","Arkansas","South","West South Central","05105","34.946363","-92.926877 ","2383","29","0","0","2/4/2022 12:00:00 AM","2019","10455","NYTIMES-USCENSUS"
"2/5/2022 12:00:00 AM","Barrow County","Georgia","South","South Atlantic","13013","33.992009","-83.712303 ","21362","226","0","0","2/4/2022 12:00:00 AM","2019","83240","NYTIMES-USCENSUS"
"2/5/2022 12:00:00 AM","Tazewell County","Virginia","South","South Atlantic","51185","37.125395","-81.562924 ","8966","132","0","0","2/4/2022 12:00:00 AM","2019","40595","NYTIMES-USCENSUS"
"2/5/2022 12:00:00 AM","Marquette County","Michigan","Midwest","East North Central","26103","46.656596","-87.584028 ","15128","112","0","0","2/4/2022 12:00:00 AM","2019","66699","NYTIMES-USCENSUS"
"2/5/2022 12:00:00 AM","Plymouth County","Iowa","Midwest","West North Central","19149","42.737585","-96.215864 ","6148","93","0","0","2/4/2022 12:00:00 AM","2019","25177","NYTIMES-USCENSUS"
"2/5/2022 12:00:00 AM","Bedford County","Pennsylvania","Northeast","Middle Atlantic","42009","39.998634","-78.494747 ","10559","256","70","0","2/4/2022 12:00:00 AM","2019","47888","NYTIMES-USCENSUS"
"2/5/2022 12:00:00 AM","Clearwater County","Minnesota","Midwest","West North Central","27029","47.575873","-95.371117 ","2013","29","0","0","2/4/2022 12:00:00 AM","2019","8818","NYTIMES-USCENSUS"
"2/5/2022 12:00:00 AM","Douglas County","Missouri","Midwest","West North Central","29067","36.946517","-92.515892 ","2434","69","7","0","2/4/2022 12:00:00 AM","2019","13185","NYTIMES-USCENSUS"
"2/5/2022 12:00:00 AM","Camden County","North Carolina","South","South Atlantic","37029","36.342344","-76.162488 ","1614","9","0","0","2/4/2022 12:00:00 AM","2019","10867","NYTIMES-USCENSUS"
"2/5/2022 12:00:00 AM","Dale County","Alabama","South","East South Central","01045","31.430654","-85.609476 ","12049","207","24","0","2/4/2022 12:00:00 AM","2019","49172","NYTIMES-USCENSUS"
"2/5/2022 12:00:00 AM","Johnson County","Wyoming","West","Mountain","56019","44.044048","-106.588541 ","1815","18","0","0","2/4/2022 12:00:00 AM","2019","8445","NYTIMES-USCENSUS"
"2/5/2022 12:00:00 AM","Bergen County","New Jersey","Northeast","Middle Atlantic","34003","40.959698","-74.074727 ","214510","3341","245","4","2/4/2022 12:00:00 AM","2019","932202","NYTIMES-USCENSUS"
"2/5/2022 12:00:00 AM","Talbot County","Maryland","South","South Atlantic","24041","38.748349","-76.178476 ","5269","75","23","0","2/4/2022 12:00:00 AM","2019","37181","NYTIMES-USCENSUS"
"2/5/2022 12:00:00 AM","Hancock County","Indiana","Midwest","East North Central","18059","39.822529","-85.77315 ","20258","239","0","0","2/4/2022 12:00:00 AM","2019","78168","NYTIMES-USCENSUS"
"2/5/2022 12:00:00 AM","Spink County","South Dakota","Midwest","West North Central","46115","44.923772","-98.339615 ","1359","32","0","0","2/4/2022 12:00:00 AM","2019","6376","NYTIMES-USCENSUS"
"2/5/2022 12:00:00 AM","Valley County","Idaho","West","Mountain","16085","44.85596","-115.618061 ","2335","15","41","0","2/4/2022 12:00:00 AM","2019","11392","NYTIMES-USCENSUS"
"2/5/2022 12:00:00 AM","Horry County","South Carolina","South","South Atlantic","45051","33.909269","-78.976675 ","92096","1027","0","0","2/4/2022 12:00:00 AM","2019","354081","NYTIMES-USCENSUS"
"2/5/2022 12:00:00 AM","Chicot County","Arkansas","South","West South Central","05017","33.267139","-91.297158 ","2689","50","1","0","2/4/2022 12:00:00 AM","2019","10118","NYTIMES-USCENSUS"
"2/5/2022 12:00:00 AM","Chatham County","North Carolina","South","South Atlantic","37037","35.704994","-79.251454 ","11825","103","0","0","2/4/2022 12:00:00 AM","2019","74470","NYTIMES-USCENSUS"
"2/5/2022 12:00:00 AM","Clay County","Iowa","Midwest","West North Central","19041","43.081224","-95.149875 ","3940","40","0","0","2/4/2022 12:00:00 AM","2019","16016","NYTIMES-USCENSUS"
"2/5/2022 12:00:00 AM","Yazoo County","Mississippi","South","East South Central","28163","32.765675","-90.387928 ","7800","97","0","0","2/4/2022 12:00:00 AM","2019","29690","NYTIMES-USCENSUS"
"2/5/2022 12:00:00 AM","Sabine Parish","Louisiana","South","West South Central","22085","31.560402","-93.559579 ","6150","106","0","0","2/4/2022 12:00:00 AM","2019","23884","NYTIMES-USCENSUS"
"2/5/2022 12:00:00 AM","Rush County","Indiana","Midwest","East North Central","18139","39.622362","-85.466529 ","4750","47","0","0","2/4/2022 12:00:00 AM","2019","16581","NYTIMES-USCENSUS"
"2/5/2022 12:00:00 AM","Kings County","California","West","Pacific","06031","36.072478","-119.81553 ","50719","402","0","0","2/4/2022 12:00:00 AM","2019","152940","NYTIMES-USCENSUS"
"2/5/2022 12:00:00 AM","Vinton County","Ohio","Midwest","East North Central","39163","39.252042","-82.485961 ","2787","51","10","0","2/4/2022 12:00:00 AM","2019","13085","NYTIMES-USCENSUS"
"2/5/2022 12:00:00 AM","Barnes County","North Dakota","Midwest","West North Central","38003","46.94255","-98.070195 ","2852","45","14","0","2/4/2022 12:00:00 AM","2019","10415","NYTIMES-USCENSUS"
"2/5/2022 12:00:00 AM","Ringgold County","Iowa","Midwest","West North Central","19159","40.735334","-94.244251 ","1072","33","0","0","2/4/2022 12:00:00 AM","2019","4894","NYTIMES-USCENSUS"
"2/5/2022 12:00:00 AM","Richland County","Illinois","Midwest","East North Central","17159","38.712187","-88.085452 ","5031","80","0","0","2/4/2022 12:00:00 AM","2019","15513","NYTIMES-USCENSUS"
"2/5/2022 12:00:00 AM","Kimball County","Nebraska","Midwest","West North Central","31105","41.199274","-103.703153 ","710","9","0","0","2/4/2022 12:00:00 AM","2019","3632","NYTIMES-USCENSUS"
"2/5/2022 12:00:00 AM","Queen Anne's County","Maryland","South","South Atlantic","24035","39.040693","-76.082405 ","6768","106","12","0","2/4/2022 12:00:00 AM","2019","50381","NYTIMES-USCENSUS"
"2/5/2022 12:00:00 AM","Camas County","Idaho","West","Mountain","16025","43.502552","-114.772135 ","129","2","0","0","2/4/2022 12:00:00 AM","2019","1106","NYTIMES-USCENSUS"
"2/5/2022 12:00:00 AM","Adams County","Idaho","West","Mountain","16003","44.877004","-116.461624 ","647","14","0","0","2/4/2022 12:00:00 AM","2019","4294","NYTIMES-USCENSUS"
"2/5/2022 12:00:00 AM","Jackson County","Tennessee","South","East South Central","47087","36.35425","-85.674128 ","2864","52","0","0","2/4/2022 12:00:00 AM","2019","11786","NYTIMES-USCENSUS"
"2/5/2022 12:00:00 AM","Zavala County","Texas","South","West South Central","48507","28.864652","-99.75983 ","3872","59","7","0","2/4/2022 12:00:00 AM","2019","11840","NYTIMES-USCENSUS"
"2/5/2022 12:00:00 AM","Washington County","Oregon","West","Pacific","41067","45.553542","-123.097615 ","79186","482","0","0","2/4/2022 12:00:00 AM","2019","601592","NYTIMES-USCENSUS"
"2/5/2022 12:00:00 AM","Nassau County","Florida","South","South Atlantic","12089","30.605963","-81.765087 ","20871","258","0","0","2/4/2022 12:00:00 AM","2019","88625","NYTIMES-USCENSUS"
"2/5/2022 12:00:00 AM","Ashland County","Ohio","Midwest","East North Central","39005","40.843273","-82.270127 ","11685","200","20","0","2/4/2022 12:00:00 AM","2019","53484","NYTIMES-USCENSUS"
"2/5/2022 12:00:00 AM","Zapata County","Texas","South","West South Central","48505","26.996981","-99.182603 ","3141","47","63","0","2/4/2022 12:00:00 AM","2019","14179","NYTIMES-USCENSUS"
"2/5/2022 12:00:00 AM","Travis County","Texas","South","West South Central","48453","30.239513","-97.69127 ","213368","1593","345","8","2/4/2022 12:00:00 AM","2019","1273954","NYTIMES-USCENSUS"
"2/5/2022 12:00:00 AM","Reno County","Kansas","Midwest","West North Central","20155","37.948185","-98.078346 ","18020","211","0","0","2/4/2022 12:00:00 AM","2019","61998","NYTIMES-USCENSUS"
"2/5/2022 12:00:00 AM","Callaway County","Missouri","Midwest","West North Central","29027","38.835547","-91.923446 ","11453","105","29","0","2/4/2022 12:00:00 AM","2019","44743","NYTIMES-USCENSUS"
"2/5/2022 12:00:00 AM","Pushmataha County","Oklahoma","South","West South Central","40127","34.377899","-95.408082 ","2445","42","0","0","2/4/2022 12:00:00 AM","2019","11096","NYTIMES-USCENSUS"
"2/5/2022 12:00:00 AM","Wichita County","Kansas","Midwest","West North Central","20203","38.481922","-101.347434 ","483","8","0","0","2/4/2022 12:00:00 AM","2019","2119","NYTIMES-USCENSUS"
"2/5/2022 12:00:00 AM","Richmond County","Virginia","South","South Atlantic","51159","37.942894","-76.730561 ","2544","18","0","0","2/4/2022 12:00:00 AM","2019","9023","NYTIMES-USCENSUS"
"2/5/2022 12:00:00 AM","Clatsop County","Oregon","West","Pacific","41007","46.024509","-123.705037 ","4231","38","0","0","2/4/2022 12:00:00 AM","2019","40224","NYTIMES-USCENSUS"
"2/5/2022 12:00:00 AM","Orange County","New York","Northeast","Middle Atlantic","36071","41.40241","-74.306252 ","103890","921","148","0","2/4/2022 12:00:00 AM","2019","384940","NYTIMES-USCENSUS"
"2/5/2022 12:00:00 AM","Grady County","Georgia","South","South Atlantic","13131","30.875908","-84.24508 ","5520","98","0","0","2/4/2022 12:00:00 AM","2019","24633","NYTIMES-USCENSUS"
"2/5/2022 12:00:00 AM","Cotton County","Oklahoma","South","West South Central","40033","34.290676","-98.373438 ","1342","24","0","0","2/4/2022 12:00:00 AM","2019","5666","NYTIMES-USCENSUS"
"2/5/2022 12:00:00 AM","Washita County","Oklahoma","South","West South Central","40149","35.289497","-98.991436 ","2507","38","0","0","2/4/2022 12:00:00 AM","2019","10916","NYTIMES-USCENSUS"
"2/5/2022 12:00:00 AM","Putnam County","West Virginia","South","South Atlantic","54079","38.510518","-81.906109 ","15493","153","137","0","2/4/2022 12:00:00 AM","2019","56450","NYTIMES-USCENSUS"
"2/5/2022 12:00:00 AM","Orangeburg County","South Carolina","South","South Atlantic","45075","33.436135","-80.802913 ","22429","373","0","0","2/4/2022 12:00:00 AM","2019","86175","NYTIMES-USCENSUS"
"2/5/2022 12:00:00 AM","Wood County","Ohio","Midwest","East North Central","39173","41.360183","-83.622682 ","30541","311","20","0","2/4/2022 12:00:00 AM","2019","130817","NYTIMES-USCENSUS"
"2/5/2022 12:00:00 AM","Alcona County","Michigan","Midwest","East North Central","26001","44.657509","-83.29458 ","1644","67","0","0","2/4/2022 12:00:00 AM","2019","10405","NYTIMES-USCENSUS"
"2/5/2022 12:00:00 AM","Clark County","Kentucky","South","East South Central","21049","37.970314","-84.145115 ","9041","51","0","0","2/4/2022 12:00:00 AM","2019","36263","NYTIMES-USCENSUS"
"2/5/2022 12:00:00 AM","Wadena County","Minnesota","Midwest","West North Central","27159","46.586986","-94.988608 ","3912","48","0","0","2/4/2022 12:00:00 AM","2019","13682","NYTIMES-USCENSUS"
"2/5/2022 12:00:00 AM","Davison County","South Dakota","Midwest","West North Central","46035","43.680439","-98.155868 ","5732","79","0","0","2/4/2022 12:00:00 AM","2019","19775","NYTIMES-USCENSUS"
"2/5/2022 12:00:00 AM","Ashtabula County","Ohio","Midwest","East North Central","39007","41.906637","-80.745592 ","19147","382","59","0","2/4/2022 12:00:00 AM","2019","97241","NYTIMES-USCENSUS"
"2/5/2022 12:00:00 AM","Grant County","South Dakota","Midwest","West North Central","46051","45.172637","-96.772261 ","1997","48","0","0","2/4/2022 12:00:00 AM","2019","7052","NYTIMES-USCENSUS"
"2/5/2022 12:00:00 AM","Stanley County","South Dakota","Midwest","West North Central","46117","44.413984","-100.747822 ","625","6","0","0","2/4/2022 12:00:00 AM","2019","3098","NYTIMES-USCENSUS"
"2/5/2022 12:00:00 AM","Nottoway County","Virginia","South","South Atlantic","51135","37.141167","-78.053866 ","3728","75","0","0","2/4/2022 12:00:00 AM","2019","15232","NYTIMES-USCENSUS"
"2/5/2022 12:00:00 AM","Hoke County","North Carolina","South","South Atlantic","37093","35.017233","-79.241964 ","13733","95","0","0","2/4/2022 12:00:00 AM","2019","55234","NYTIMES-USCENSUS"
"2/5/2022 12:00:00 AM","Yakima County","Washington","West","Pacific","53077","46.456558","-120.740145 ","69313","700","0","0","2/4/2022 12:00:00 AM","2019","250873","NYTIMES-USCENSUS"
"2/5/2022 12:00:00 AM","Marathon County","Wisconsin","Midwest","East North Central","55073","44.898036","-89.757823 ","37956","452","0","0","2/4/2022 12:00:00 AM","2019","135692","NYTIMES-USCENSUS"
"2/5/2022 12:00:00 AM","Pickett County","Tennessee","South","East South Central","47137","36.559364","-85.075741 ","1627","29","0","0","2/4/2022 12:00:00 AM","2019","5048","NYTIMES-USCENSUS"
"2/5/2022 12:00:00 AM","Williams County","North Dakota","Midwest","West North Central","38105","48.355765","-103.501333 ","10122","67","23","0","2/4/2022 12:00:00 AM","2019","37589","NYTIMES-USCENSUS"
"2/5/2022 12:00:00 AM","Pendleton County","West Virginia","South","South Atlantic","54071","38.67445","-79.340617 ","1835","16","7","0","2/4/2022 12:00:00 AM","2019","6969","NYTIMES-USCENSUS"
"2/5/2022 12:00:00 AM","DuPage County","Illinois","Midwest","East North Central","17043","41.852058","-88.086039 ","200020","1696","0","0","2/4/2022 12:00:00 AM","2019","922921","NYTIMES-USCENSUS"
"2/5/2022 12:00:00 AM","Barren County","Kentucky","South","East South Central","21009","36.962805","-85.932108 ","11846","193","0","0","2/4/2022 12:00:00 AM","2019","44249","NYTIMES-USCENSUS"
"2/5/2022 12:00:00 AM","Huntington County","Indiana","Midwest","East North Central","18069","40.826394","-85.478597 ","11218","146","0","0","2/4/2022 12:00:00 AM","2019","36520","NYTIMES-USCENSUS"
"2/5/2022 12:00:00 AM","Wood County","Wisconsin","Midwest","East North Central","55141","44.461413","-90.038825 ","20008","200","0","0","2/4/2022 12:00:00 AM","2019","72999","NYTIMES-USCENSUS"
"2/5/2022 12:00:00 AM","Fayette County","Alabama","South","East South Central","01057","33.716157","-87.764292 ","4450","87","1","0","2/4/2022 12:00:00 AM","2019","16302","NYTIMES-USCENSUS"
"2/5/2022 12:00:00 AM","McDonald County","Missouri","Midwest","West North Central","29119","36.627955","-94.343716 ","5524","64","0","0","2/4/2022 12:00:00 AM","2019","22837","NYTIMES-USCENSUS"
"2/5/2022 12:00:00 AM","Ohio County","Indiana","Midwest","East North Central","18115","38.940527","-84.964299 ","1408","17","0","0","2/4/2022 12:00:00 AM","2019","5875","NYTIMES-USCENSUS"
"2/5/2022 12:00:00 AM","Wirt County","West Virginia","South","South Atlantic","54105","39.020034","-81.382975 ","1364","19","3","0","2/4/2022 12:00:00 AM","2019","5821","NYTIMES-USCENSUS"
"2/5/2022 12:00:00 AM","Chester County","Pennsylvania","Northeast","Middle Atlantic","42029","39.974029","-75.749751 ","88534","1083","302","4","2/4/2022 12:00:00 AM","2019","524989","NYTIMES-USCENSUS"
"2/5/2022 12:00:00 AM","Douglas County","South Dakota","Midwest","West North Central","46043","43.391506","-98.358433 ","673","16","0","0","2/4/2022 12:00:00 AM","2019","2921","NYTIMES-USCENSUS"
"2/5/2022 12:00:00 AM","Dutchess County","New York","Northeast","Middle Atlantic","36027","41.75477","-73.740041 ","62194","620","106","0","2/4/2022 12:00:00 AM","2019","294218","NYTIMES-USCENSUS"
"2/5/2022 12:00:00 AM","Walton County","Georgia","South","South Atlantic","13297","33.783887","-83.731829 ","21540","386","0","0","2/4/2022 12:00:00 AM","2019","94593","NYTIMES-USCENSUS"
"2/5/2022 12:00:00 AM","Ray County","Missouri","Midwest","West North Central","29177","39.308401","-93.995746 ","4916","84","11","0","2/4/2022 12:00:00 AM","2019","23018","NYTIMES-USCENSUS"
"2/5/2022 12:00:00 AM","Phillips County","Arkansas","South","West South Central","05107","34.423687","-90.855593 ","4632","84","2","0","2/4/2022 12:00:00 AM","2019","17782","NYTIMES-USCENSUS"
"2/5/2022 12:00:00 AM","Kern County","California","West","Pacific","06029","35.346629","-118.729506 ","220089","2031","0","0","2/4/2022 12:00:00 AM","2019","900202","NYTIMES-USCENSUS"
"2/5/2022 12:00:00 AM","Ouray County","Colorado","West","Mountain","08091","38.154731","-107.78848 ","817","6","0","0","2/4/2022 12:00:00 AM","2019","4952","NYTIMES-USCENSUS"
"2/5/2022 12:00:00 AM","Ada County","Idaho","West","Mountain","16001","43.451477","-116.244376 ","109890","934","693","0","2/4/2022 12:00:00 AM","2019","481587","NYTIMES-USCENSUS"
"2/5/2022 12:00:00 AM","Highland County","Virginia","South","South Atlantic","51091","38.366243","-79.564472 ","340","5","0","0","2/4/2022 12:00:00 AM","2019","2190","NYTIMES-USCENSUS"
"2/5/2022 12:00:00 AM","Amelia County","Virginia","South","South Atlantic","51007","37.331927","-77.977462 ","2455","50","0","0","2/4/2022 12:00:00 AM","2019","13145","NYTIMES-USCENSUS"
"2/5/2022 12:00:00 AM","East Baton Rouge Parish","Louisiana","South","West South Central","22033","30.54393","-91.093131 ","107417","1254","0","0","2/4/2022 12:00:00 AM","2019","440059","NYTIMES-USCENSUS"
"2/5/2022 12:00:00 AM","Benzie County","Michigan","Midwest","East North Central","26019","44.636844","-86.231999 ","3278","60","0","0","2/4/2022 12:00:00 AM","2019","17766","NYTIMES-USCENSUS"
"2/5/2022 12:00:00 AM","Breckinridge County","Kentucky","South","East South Central","21027","37.777988","-86.432919 ","4735","63","0","0","2/4/2022 12:00:00 AM","2019","20477","NYTIMES-USCENSUS"
"2/5/2022 12:00:00 AM","North Slope Borough","Alaska","West","Pacific","02185","69.449343","-153.47283 ","3859","10","0","0","2/4/2022 12:00:00 AM","2019","9832","NYTIMES-USCENSUS"
"2/5/2022 12:00:00 AM","Mesa County","Colorado","West","Mountain","08077","39.019524","-108.460571 ","39302","503","0","0","2/4/2022 12:00:00 AM","2019","154210","NYTIMES-USCENSUS"
"2/5/2022 12:00:00 AM","Bowie County","Texas","South","West South Central","48037","33.446065","-94.422393 ","18460","377","112","1","2/4/2022 12:00:00 AM","2019","93245","NYTIMES-USCENSUS"
"2/5/2022 12:00:00 AM","Coshocton County","Ohio","Midwest","East North Central","39031","40.29671","-81.930109 ","7752","139","9","0","2/4/2022 12:00:00 AM","2019","36600","NYTIMES-USCENSUS"
"2/5/2022 12:00:00 AM","Stephens County","Texas","South","West South Central","48429","32.738052","-98.839344 ","1748","39","1","0","2/4/2022 12:00:00 AM","2019","9366","NYTIMES-USCENSUS"
"2/5/2022 12:00:00 AM","Shawnee County","Kansas","Midwest","West North Central","20177","39.041805","-95.755664 ","46353","544","0","0","2/4/2022 12:00:00 AM","2019","176875","NYTIMES-USCENSUS"
"2/5/2022 12:00:00 AM","Logan County","Arkansas","South","West South Central","05083","35.218654","-93.72091 ","4848","59","18","0","2/4/2022 12:00:00 AM","2019","21466","NYTIMES-USCENSUS"
"2/5/2022 12:00:00 AM","McCormick County","South Carolina","South","South Atlantic","45065","33.897599","-82.316196 ","2105","35","0","0","2/4/2022 12:00:00 AM","2019","9463","NYTIMES-USCENSUS"
"2/5/2022 12:00:00 AM","Cabell County","West Virginia","South","South Atlantic","54011","38.419578","-82.243397 ","25670","328","217","0","2/4/2022 12:00:00 AM","2019","91945","NYTIMES-USCENSUS"
"2/5/2022 12:00:00 AM","Laclede County","Missouri","Midwest","West North Central","29105","37.659698","-92.594843 ","7861","161","10","0","2/4/2022 12:00:00 AM","2019","35723","NYTIMES-USCENSUS"
"2/5/2022 12:00:00 AM","Orange County","Virginia","South","South Atlantic","51137","38.249326","-78.011092 ","6573","79","0","0","2/4/2022 12:00:00 AM","2019","37051","NYTIMES-USCENSUS"
"2/5/2022 12:00:00 AM","Turner County","South Dakota","Midwest","West North Central","46125","43.30867","-97.150185 ","1930","62","0","0","2/4/2022 12:00:00 AM","2019","8384","NYTIMES-USCENSUS"
"2/5/2022 12:00:00 AM","Stephens County","Oklahoma","South","West South Central","40137","34.481361","-97.855607 ","10123","166","0","0","2/4/2022 12:00:00 AM","2019","43143","NYTIMES-USCENSUS"
"2/5/2022 12:00:00 AM","Schuyler County","Missouri","Midwest","West North Central","29197","40.469361","-92.519016 ","677","24","5","0","2/4/2022 12:00:00 AM","2019","4660","NYTIMES-USCENSUS"
"2/5/2022 12:00:00 AM","Jeff Davis County","Georgia","South","South Atlantic","13161","31.811615","-82.636825 ","3762","66","0","0","2/4/2022 12:00:00 AM","2019","15115","NYTIMES-USCENSUS"
"2/5/2022 12:00:00 AM","Mountrail County","North Dakota","Midwest","West North Central","38061","48.210073","-102.364895 ","3078","33","15","0","2/4/2022 12:00:00 AM","2019","10545","NYTIMES-USCENSUS"
"2/5/2022 12:00:00 AM","Brazos County","Texas","South","West South Central","48041","30.656713","-96.302394 ","58121","382","73","1","2/4/2022 12:00:00 AM","2019","229211","NYTIMES-USCENSUS"
"2/5/2022 12:00:00 AM","Portsmouth city","Virginia","South","South Atlantic","51740","36.859339","-76.356973 ","20079","267","0","0","2/4/2022 12:00:00 AM","2019","94398","NYTIMES-USCENSUS"
"2/5/2022 12:00:00 AM","Bell County","Kentucky","South","East South Central","21013","36.728928","-83.680718 ","8063","123","0","0","2/4/2022 12:00:00 AM","2019","26032","NYTIMES-USCENSUS"
"2/5/2022 12:00:00 AM","Vermilion County","Illinois","Midwest","East North Central","17183","40.186754","-87.726778 ","27151","287","0","0","2/4/2022 12:00:00 AM","2019","75758","NYTIMES-USCENSUS"
"2/5/2022 12:00:00 AM","Vermillion County","Indiana","Midwest","East North Central","18165","39.854045","-87.462071 ","3940","68","0","0","2/4/2022 12:00:00 AM","2019","15498","NYTIMES-USCENSUS"
"2/5/2022 12:00:00 AM","Weston County","Wyoming","West","Mountain","56045","43.846213","-104.57002 ","1496","17","0","0","2/4/2022 12:00:00 AM","2019","6927","NYTIMES-USCENSUS"
"2/5/2022 12:00:00 AM","Peoria County","Illinois","Midwest","East North Central","17143","40.785972","-89.766993 ","44879","532","0","8","2/4/2022 12:00:00 AM","2019","179179","NYTIMES-USCENSUS"
"2/5/2022 12:00:00 AM","Macon County","North Carolina","South","South Atlantic","37113","35.152959","-83.421901 ","6880","98","0","0","2/4/2022 12:00:00 AM","2019","35858","NYTIMES-USCENSUS"
"2/5/2022 12:00:00 AM","Bristol County","Massachusetts","Northeast","New England","25005","41.748588","-71.088894 ","145215","2326","0","0","2/4/2022 12:00:00 AM","2019","565217","NYTIMES-USCENSUS"
"2/5/2022 12:00:00 AM","Lawrence County","South Dakota","Midwest","West North Central","46081","44.348514","-103.806362 ","6338","79","0","0","2/4/2022 12:00:00 AM","2019","25844","NYTIMES-USCENSUS"
"2/5/2022 12:00:00 AM","Madison County","Kentucky","South","East South Central","21151","37.725511","-84.278362 ","25628","231","0","0","2/4/2022 12:00:00 AM","2019","92987","NYTIMES-USCENSUS"
"2/5/2022 12:00:00 AM","Bee County","Texas","South","West South Central","48025","28.416077","-97.742586 ","7854","142","14","0","2/4/2022 12:00:00 AM","2019","32565","NYTIMES-USCENSUS"
"2/5/2022 12:00:00 AM","Jones County","Texas","South","West South Central","48253","32.743709","-99.87443 ","4348","86","6","0","2/4/2022 12:00:00 AM","2019","20083","NYTIMES-USCENSUS"
"2/5/2022 12:00:00 AM","Stutsman County","North Dakota","Midwest","West North Central","38093","46.972223","-98.956123 ","6677","95","58","1","2/4/2022 12:00:00 AM","2019","20704","NYTIMES-USCENSUS"
"2/5/2022 12:00:00 AM","Henderson County","Kentucky","South","East South Central","21101","37.792542","-87.572577 ","12841","142","0","0","2/4/2022 12:00:00 AM","2019","45210","NYTIMES-USCENSUS"
"2/5/2022 12:00:00 AM","Hunt County","Texas","South","West South Central","48231","33.123308","-96.08423 ","15322","334","54","2","2/4/2022 12:00:00 AM","2019","98594","NYTIMES-USCENSUS"
"2/5/2022 12:00:00 AM","Greensville County","Virginia","South","South Atlantic","51081","36.680336","-77.560277 ","3214","31","0","0","2/4/2022 12:00:00 AM","2019","11336","NYTIMES-USCENSUS"
"2/5/2022 12:00:00 AM","Larimer County","Colorado","West","Mountain","08069","40.658093","-105.486764 ","70483","436","0","0","2/4/2022 12:00:00 AM","2019","356899","NYTIMES-USCENSUS"
"2/5/2022 12:00:00 AM","Rice County","Kansas","Midwest","West North Central","20159","38.347178","-98.201415 ","2503","19","0","0","2/4/2022 12:00:00 AM","2019","9537","NYTIMES-USCENSUS"
"2/5/2022 12:00:00 AM","Alamance County","North Carolina","South","South Atlantic","37001","36.043954","-79.400573 ","44154","415","0","0","2/4/2022 12:00:00 AM","2019","169509","NYTIMES-USCENSUS"
"2/5/2022 12:00:00 AM","Beadle County","South Dakota","Midwest","West North Central","46005","44.418265","-98.279422 ","4474","52","0","0","2/4/2022 12:00:00 AM","2019","18453","NYTIMES-USCENSUS"
"2/5/2022 12:00:00 AM","Fleming County","Kentucky","South","East South Central","21069","38.367848","-83.699205 ","3357","44","0","0","2/4/2022 12:00:00 AM","2019","14581","NYTIMES-USCENSUS"
"2/5/2022 12:00:00 AM","Delaware County","Pennsylvania","Northeast","Middle Atlantic","42045","39.916685","-75.398818 ","107313","1754","343","7","2/4/2022 12:00:00 AM","2019","566747","NYTIMES-USCENSUS"
"2/5/2022 12:00:00 AM","San Miguel County","New Mexico","West","Mountain","35047","35.476859","-104.803519 ","5321","46","0","0","2/4/2022 12:00:00 AM","2019","27277","NYTIMES-USCENSUS"
"2/5/2022 12:00:00 AM","Harvey County","Kansas","Midwest","West North Central","20079","38.050144","-97.436706 ","9189","115","0","0","2/4/2022 12:00:00 AM","2019","34429","NYTIMES-USCENSUS"
"2/5/2022 12:00:00 AM","Otsego County","New York","Northeast","Middle Atlantic","36077","42.629776","-75.028841 ","9272","82","40","0","2/4/2022 12:00:00 AM","2019","59493","NYTIMES-USCENSUS"
"2/5/2022 12:00:00 AM","Buena Vista County","Iowa","Midwest","West North Central","19021","42.741522","-95.141432 ","6268","51","0","0","2/4/2022 12:00:00 AM","2019","19620","NYTIMES-USCENSUS"
"2/5/2022 12:00:00 AM","Scott County","Tennessee","South","East South Central","47151","36.435234","-84.50352 ","7744","99","0","0","2/4/2022 12:00:00 AM","2019","22068","NYTIMES-USCENSUS"
"2/5/2022 12:00:00 AM","Jackson County","Iowa","Midwest","West North Central","19097","42.164226","-90.574582 ","4455","65","0","0","2/4/2022 12:00:00 AM","2019","19439","NYTIMES-USCENSUS"
"2/5/2022 12:00:00 AM","Jasper County","Indiana","Midwest","East North Central","18073","41.017688","-87.118814 ","8817","135","0","0","2/4/2022 12:00:00 AM","2019","33562","NYTIMES-USCENSUS"
"2/5/2022 12:00:00 AM","Clinton County","Iowa","Midwest","West North Central","19045","41.898073","-90.534243 ","11117","133","0","0","2/4/2022 12:00:00 AM","2019","46429","NYTIMES-USCENSUS"
"2/5/2022 12:00:00 AM","Winona County","Minnesota","Midwest","West North Central","27169","43.981353","-91.777044 ","11625","68","0","0","2/4/2022 12:00:00 AM","2019","50484","NYTIMES-USCENSUS"
"2/5/2022 12:00:00 AM","Caldwell Parish","Louisiana","South","West South Central","22021","32.101219","-92.114231 ","2910","45","0","0","2/4/2022 12:00:00 AM","2019","9918","NYTIMES-USCENSUS"
"2/5/2022 12:00:00 AM","Mayes County","Oklahoma","South","West South Central","40097","36.303804","-95.235638 ","9704","140","0","0","2/4/2022 12:00:00 AM","2019","41100","NYTIMES-USCENSUS"
"2/5/2022 12:00:00 AM","Scott County","Virginia","South","South Atlantic","51169","36.712776","-82.613624 ","5135","95","0","0","2/4/2022 12:00:00 AM","2019","21566","NYTIMES-USCENSUS"
"2/5/2022 12:00:00 AM","Sweetwater County","Wyoming","West","Mountain","56037","41.660328","-108.875677 ","10571","119","0","0","2/4/2022 12:00:00 AM","2019","42343","NYTIMES-USCENSUS"
"2/5/2022 12:00:00 AM","Warren County","Mississippi","South","East South Central","28149","32.356095","-90.852384 ","9758","190","0","0","2/4/2022 12:00:00 AM","2019","45381","NYTIMES-USCENSUS"
"2/5/2022 12:00:00 AM","Lee County","South Carolina","South","South Atlantic","45061","34.15864","-80.251209 ","4110","88","0","0","2/4/2022 12:00:00 AM","2019","16828","NYTIMES-USCENSUS"
"2/5/2022 12:00:00 AM","Wyoming County","Pennsylvania","Northeast","Middle Atlantic","42131","41.525173","-76.008731 ","4858","97","15","1","2/4/2022 12:00:00 AM","2019","26794","NYTIMES-USCENSUS"
"2/5/2022 12:00:00 AM","McDowell County","North Carolina","South","South Atlantic","37111","35.682271","-82.048044 ","12374","142","0","0","2/4/2022 12:00:00 AM","2019","45756","NYTIMES-USCENSUS"
"2/5/2022 12:00:00 AM","Alpena County","Michigan","Midwest","East North Central","26007","44.894954","-83.426574 ","5286","124","0","0","2/4/2022 12:00:00 AM","2019","28405","NYTIMES-USCENSUS"
"2/5/2022 12:00:00 AM","Terrebonne Parish","Louisiana","South","West South Central","22109","29.33413","-90.843674 ","29854","383","0","0","2/4/2022 12:00:00 AM","2019","110461","NYTIMES-USCENSUS"
"2/5/2022 12:00:00 AM","Crawford County","Michigan","Midwest","East North Central","26039","44.680175","-84.611343 ","2416","24","0","0","2/4/2022 12:00:00 AM","2019","14029","NYTIMES-USCENSUS"
"2/5/2022 12:00:00 AM","McMinn County","Tennessee","South","East South Central","47107","35.424472","-84.619949 ","15201","213","0","0","2/4/2022 12:00:00 AM","2019","53794","NYTIMES-USCENSUS"
"2/5/2022 12:00:00 AM","Rock Island County","Illinois","Midwest","East North Central","17161","41.468421","-90.572125 ","31908","492","0","0","2/4/2022 12:00:00 AM","2019","141879","NYTIMES-USCENSUS"
"2/5/2022 12:00:00 AM","Weld County","Colorado","West","Mountain","08123","40.555961","-104.383666 ","77941","632","0","0","2/4/2022 12:00:00 AM","2019","324492","NYTIMES-USCENSUS"
"2/5/2022 12:00:00 AM","Hendry County","Florida","South","South Atlantic","12051","26.539967","-81.152114 ","11398","147","0","0","2/4/2022 12:00:00 AM","2019","42022","NYTIMES-USCENSUS"
"2/5/2022 12:00:00 AM","McKenzie County","North Dakota","Midwest","West North Central","38053","47.742475","-103.403215 ","3148","25","9","0","2/4/2022 12:00:00 AM","2019","15024","NYTIMES-USCENSUS"
"2/5/2022 12:00:00 AM","Wayne County","Nebraska","Midwest","West North Central","31179","42.210746","-97.126243 ","1656","11","0","0","2/4/2022 12:00:00 AM","2019","9385","NYTIMES-USCENSUS"
"2/5/2022 12:00:00 AM","Tattnall County","Georgia","South","South Atlantic","13267","32.043768","-82.059208 ","4780","122","0","0","2/4/2022 12:00:00 AM","2019","25286","NYTIMES-USCENSUS"
"2/5/2022 12:00:00 AM","Jefferson County","West Virginia","South","South Atlantic","54037","39.307398","-77.86322 ","13691","117","40","0","2/4/2022 12:00:00 AM","2019","57146","NYTIMES-USCENSUS"
"2/5/2022 12:00:00 AM","Marshall County","Illinois","Midwest","East North Central","17123","41.031119","-89.342371 ","2654","31","0","0","2/4/2022 12:00:00 AM","2019","11438","NYTIMES-USCENSUS"
"2/5/2022 12:00:00 AM","Weber County","Utah","West","Mountain","49057","41.270325","-111.876883 ","68547","377","0","0","2/4/2022 12:00:00 AM","2019","260213","NYTIMES-USCENSUS"
"2/5/2022 12:00:00 AM","Manatee County","Florida","South","South Atlantic","12081","27.475556","-82.393144 ","90834","1271","0","0","2/4/2022 12:00:00 AM","2019","403253","NYTIMES-USCENSUS"
"2/5/2022 12:00:00 AM","Conway County","Arkansas","South","West South Central","05029","35.265702","-92.689248 ","5220","51","10","0","2/4/2022 12:00:00 AM","2019","20846","NYTIMES-USCENSUS"
"2/5/2022 12:00:00 AM","Cleveland County","Arkansas","South","West South Central","05025","33.893201","-92.188714 ","2190","33","0","0","2/4/2022 12:00:00 AM","2019","7956","NYTIMES-USCENSUS"
"2/5/2022 12:00:00 AM","Lake County","Illinois","Midwest","East North Central","17097","42.185968","-87.805939 ","142547","1322","0","0","2/4/2022 12:00:00 AM","2019","696535","NYTIMES-USCENSUS"
"2/5/2022 12:00:00 AM","Colfax County","New Mexico","West","Mountain","35007","36.612964","-104.64011 ","2546","60","0","0","2/4/2022 12:00:00 AM","2019","11941","NYTIMES-USCENSUS"
"2/5/2022 12:00:00 AM","Potter County","Texas","South","West South Central","48375","35.398675","-101.893804 ","34363","647","0","0","2/4/2022 12:00:00 AM","2019","117415","NYTIMES-USCENSUS"
"2/5/2022 12:00:00 AM","Buchanan County","Missouri","Midwest","West North Central","29021","39.660369","-94.808173 ","23695","277","0","0","2/4/2022 12:00:00 AM","2019","87364","NYTIMES-USCENSUS"
"2/5/2022 12:00:00 AM","Burnett County","Wisconsin","Midwest","East North Central","55013","45.866897","-92.37573 ","3793","39","0","0","2/4/2022 12:00:00 AM","2019","15414","NYTIMES-USCENSUS"
"2/5/2022 12:00:00 AM","Lawrence County","Arkansas","South","West South Central","05075","36.041098","-91.101153 ","4817","66","4","0","2/4/2022 12:00:00 AM","2019","16406","NYTIMES-USCENSUS"
"2/5/2022 12:00:00 AM","Essex County","New Jersey","Northeast","Middle Atlantic","34013","40.7874","-74.246292 ","206309","3490","160","11","2/4/2022 12:00:00 AM","2019","798975","NYTIMES-USCENSUS"
"2/5/2022 12:00:00 AM","Iron County","Missouri","Midwest","West North Central","29093","37.625971","-90.699587 ","2066","35","4","0","2/4/2022 12:00:00 AM","2019","10125","NYTIMES-USCENSUS"
"2/5/2022 12:00:00 AM","Faulk County","South Dakota","Midwest","West North Central","46049","45.065476","-99.153564 ","530","16","0","0","2/4/2022 12:00:00 AM","2019","2299","NYTIMES-USCENSUS"
"2/5/2022 12:00:00 AM","Colfax County","Nebraska","Midwest","West North Central","31037","41.57496","-97.088945 ","2554","26","0","0","2/4/2022 12:00:00 AM","2019","10709","NYTIMES-USCENSUS"
"2/5/2022 12:00:00 AM","Glascock County","Georgia","South","South Atlantic","13125","33.227491","-82.606913 ","587","23","0","0","2/4/2022 12:00:00 AM","2019","2971","NYTIMES-USCENSUS"
"2/5/2022 12:00:00 AM","Wyoming County","West Virginia","South","South Atlantic","54109","37.60366","-81.549032 ","6292","85","46","0","2/4/2022 12:00:00 AM","2019","20394","NYTIMES-USCENSUS"
"2/5/2022 12:00:00 AM","Leake County","Mississippi","South","East South Central","28079","32.76063","-89.52225 ","5894","104","0","0","2/4/2022 12:00:00 AM","2019","22786","NYTIMES-USCENSUS"
"2/5/2022 12:00:00 AM","Garden County","Nebraska","Midwest","West North Central","31069","41.633364","-102.302985 ","345","1","0","0","2/4/2022 12:00:00 AM","2019","1837","NYTIMES-USCENSUS"
"2/5/2022 12:00:00 AM","Logan County","Ohio","Midwest","East North Central","39091","40.387553","-83.766343 ","9909","151","7","0","2/4/2022 12:00:00 AM","2019","45672","NYTIMES-USCENSUS"
"2/5/2022 12:00:00 AM","Adair County","Kentucky","South","East South Central","21001","37.105559","-85.28138 ","4982","95","0","0","2/4/2022 12:00:00 AM","2019","19202","NYTIMES-USCENSUS"
"2/5/2022 12:00:00 AM","Hardeman County","Tennessee","South","East South Central","47069","35.218785","-88.988697 ","6873","106","0","0","2/4/2022 12:00:00 AM","2019","25050","NYTIMES-USCENSUS"
"2/5/2022 12:00:00 AM","Kearny County","Kansas","Midwest","West North Central","20093","37.994461","-101.308136 ","1216","18","0","0","2/4/2022 12:00:00 AM","2019","3838","NYTIMES-USCENSUS"
"2/5/2022 12:00:00 AM","Kent County","Delaware","South","South Atlantic","10001","39.097088","-75.502982 ","48336","567","107","2","2/4/2022 12:00:00 AM","2019","180786","NYTIMES-USCENSUS"
"2/5/2022 12:00:00 AM","Clear Creek County","Colorado","West","Mountain","08019","39.689403","-105.670783 ","1466","10","0","0","2/4/2022 12:00:00 AM","2019","9700","NYTIMES-USCENSUS"
"2/5/2022 12:00:00 AM","Nicollet County","Minnesota","Midwest","West North Central","27103","44.35882","-94.245684 ","7455","66","0","0","2/4/2022 12:00:00 AM","2019","34274","NYTIMES-USCENSUS"
"2/5/2022 12:00:00 AM","Guthrie County","Iowa","Midwest","West North Central","19077","41.683573","-94.501272 ","2261","42","0","0","2/4/2022 12:00:00 AM","2019","10689","NYTIMES-USCENSUS"
"2/5/2022 12:00:00 AM","Richland Parish","Louisiana","South","West South Central","22083","32.413158","-91.748353 ","6261","85","0","0","2/4/2022 12:00:00 AM","2019","20122","NYTIMES-USCENSUS"
"2/5/2022 12:00:00 AM","Bay County","Florida","South","South Atlantic","12005","30.15914","-85.534395 ","43866","729","0","0","2/4/2022 12:00:00 AM","2019","174705","NYTIMES-USCENSUS"
"2/5/2022 12:00:00 AM","West Baton Rouge Parish","Louisiana","South","West South Central","22121","30.464052","-91.309808 ","7039","82","0","0","2/4/2022 12:00:00 AM","2019","26465","NYTIMES-USCENSUS"
"2/5/2022 12:00:00 AM","King County","Washington","West","Pacific","53033","47.490552","-121.833977 ","351932","2401","0","0","2/4/2022 12:00:00 AM","2019","2252782","NYTIMES-USCENSUS"
"2/5/2022 12:00:00 AM","Napa County","California","West","Pacific","06055","38.5071","-122.325904 ","23884","118","0","0","2/4/2022 12:00:00 AM","2019","137744","NYTIMES-USCENSUS"
"2/5/2022 12:00:00 AM","Sumter County","Florida","South","South Atlantic","12119","28.715444","-82.069952 ","20225","498","0","0","2/4/2022 12:00:00 AM","2019","132420","NYTIMES-USCENSUS"
"2/5/2022 12:00:00 AM","Tioga County","Pennsylvania","Northeast","Middle Atlantic","42117","41.766859","-77.257288 ","7621","186","30","0","2/4/2022 12:00:00 AM","2019","40591","NYTIMES-USCENSUS"
"2/5/2022 12:00:00 AM","Grant County","Kentucky","South","East South Central","21081","38.649167","-84.625924 ","7180","53","0","0","2/4/2022 12:00:00 AM","2019","25069","NYTIMES-USCENSUS"
"2/5/2022 12:00:00 AM","Avoyelles Parish","Louisiana","South","West South Central","22009","31.088503","-91.983275 ","11237","189","0","0","2/4/2022 12:00:00 AM","2019","40144","NYTIMES-USCENSUS"
"2/5/2022 12:00:00 AM","Hanover County","Virginia","South","South Atlantic","51085","37.760215","-77.491317 ","20274","222","0","0","2/4/2022 12:00:00 AM","2019","107766","NYTIMES-USCENSUS"
"2/5/2022 12:00:00 AM","Latimer County","Oklahoma","South","West South Central","40077","34.875137","-95.272262 ","2169","31","0","0","2/4/2022 12:00:00 AM","2019","10073","NYTIMES-USCENSUS"
"2/5/2022 12:00:00 AM","Dare County","North Carolina","South","South Atlantic","37055","35.606269","-75.767536 ","6975","18","0","0","2/4/2022 12:00:00 AM","2019","37009","NYTIMES-USCENSUS"
"2/5/2022 12:00:00 AM","Saline County","Arkansas","South","West South Central","05125","34.648525","-92.674463 ","29485","283","12","1","2/4/2022 12:00:00 AM","2019","122437","NYTIMES-USCENSUS"
"2/5/2022 12:00:00 AM","DeKalb County","Tennessee","South","East South Central","47041","35.982219","-85.833596 ","5694","91","0","0","2/4/2022 12:00:00 AM","2019","20490","NYTIMES-USCENSUS"
"2/5/2022 12:00:00 AM","Brown County","Wisconsin","Midwest","East North Central","55009","44.474024","-87.99613 ","81897","434","0","0","2/4/2022 12:00:00 AM","2019","264542","NYTIMES-USCENSUS"
"2/5/2022 12:00:00 AM","Ward County","North Dakota","Midwest","West North Central","38101","48.216686","-101.540537 ","19883","243","76","0","2/4/2022 12:00:00 AM","2019","67641","NYTIMES-USCENSUS"
"2/5/2022 12:00:00 AM","Gunnison County","Colorado","West","Mountain","08051","38.670499","-107.05688 ","3121","13","0","0","2/4/2022 12:00:00 AM","2019","17462","NYTIMES-USCENSUS"
"2/5/2022 12:00:00 AM","Adams County","Nebraska","Midwest","West North Central","31001","40.520632","-98.500044 ","6097","69","0","0","2/4/2022 12:00:00 AM","2019","31363","NYTIMES-USCENSUS"
"2/5/2022 12:00:00 AM","Shelby County","Texas","South","West South Central","48419","31.790139","-94.142579 ","4195","120","10","1","2/4/2022 12:00:00 AM","2019","25274","NYTIMES-USCENSUS"
"2/5/2022 12:00:00 AM","Gilpin County","Colorado","West","Mountain","08047","39.861156","-105.528878 ","899","4","0","0","2/4/2022 12:00:00 AM","2019","6243","NYTIMES-USCENSUS"
"2/5/2022 12:00:00 AM","Lincoln County","Tennessee","South","East South Central","47103","35.142784","-86.593403 ","9310","137","0","0","2/4/2022 12:00:00 AM","2019","34366","NYTIMES-USCENSUS"
"2/5/2022 12:00:00 AM","Alexander County","Illinois","Midwest","East North Central","17003","37.183658","-89.349516 ","1240","13","0","0","2/4/2022 12:00:00 AM","2019","5761","NYTIMES-USCENSUS"
"2/5/2022 12:00:00 AM","Koochiching County","Minnesota","Midwest","West North Central","27071","48.245374","-93.782896 ","2523","34","0","0","2/4/2022 12:00:00 AM","2019","12229","NYTIMES-USCENSUS"
"2/5/2022 12:00:00 AM","Bourbon County","Kansas","Midwest","West North Central","20011","37.8561","-94.850928 ","4254","46","0","0","2/4/2022 12:00:00 AM","2019","14534","NYTIMES-USCENSUS"
"2/5/2022 12:00:00 AM","Rensselaer County","New York","Northeast","Middle Atlantic","36083","42.710421","-73.513845 ","29900","239","80","2","2/4/2022 12:00:00 AM","2019","158714","NYTIMES-USCENSUS"
"2/5/2022 12:00:00 AM","Kauai County","Hawaii","West","Pacific","15007","22.012038","-159.705965 ","10341","22","135","0","2/4/2022 12:00:00 AM","2019","72293","NYTIMES-USCENSUS"
"2/5/2022 12:00:00 AM","Ascension Parish","Louisiana","South","West South Central","22005","30.206444","-90.912502 ","33884","271","0","0","2/4/2022 12:00:00 AM","2019","126604","NYTIMES-USCENSUS"
"2/5/2022 12:00:00 AM","Uintah County","Utah","West","Mountain","49047","40.125887","-109.517748 ","7745","57","0","0","2/4/2022 12:00:00 AM","2019","35734","NYTIMES-USCENSUS"
"2/5/2022 12:00:00 AM","Saguache County","Colorado","West","Mountain","08109","38.031651","-106.234666 ","1060","11","0","0","2/4/2022 12:00:00 AM","2019","6824","NYTIMES-USCENSUS"
"2/5/2022 12:00:00 AM","Washington County","Illinois","Midwest","East North Central","17189","38.35314","-89.417187 ","3329","39","0","0","2/4/2022 12:00:00 AM","2019","13887","NYTIMES-USCENSUS"
"2/5/2022 12:00:00 AM","Sumner County","Tennessee","South","East South Central","47165","36.472423","-86.458405 ","49665","631","0","0","2/4/2022 12:00:00 AM","2019","191283","NYTIMES-USCENSUS"
"2/5/2022 12:00:00 AM","Pipestone County","Minnesota","Midwest","West North Central","27117","44.015361","-96.257015 ","1911","33","0","0","2/4/2022 12:00:00 AM","2019","9126","NYTIMES-USCENSUS"
"2/5/2022 12:00:00 AM","Osborne County","Kansas","Midwest","West North Central","20141","39.348261","-98.767942 ","764","16","0","0","2/4/2022 12:00:00 AM","2019","3421","NYTIMES-USCENSUS"
"2/5/2022 12:00:00 AM","Atchison County","Kansas","Midwest","West North Central","20005","39.532544","-95.313397 ","4150","32","0","0","2/4/2022 12:00:00 AM","2019","16073","NYTIMES-USCENSUS"
"2/5/2022 12:00:00 AM","Stanton County","Kansas","Midwest","West North Central","20187","37.565932","-101.789383 ","423","7","0","0","2/4/2022 12:00:00 AM","2019","2006","NYTIMES-USCENSUS"
"2/5/2022 12:00:00 AM","Penobscot County","Maine","Northeast","New England","23019","45.409284","-68.666616 ","20308","264","77","0","2/4/2022 12:00:00 AM","2019","152148","NYTIMES-USCENSUS"
"2/5/2022 12:00:00 AM","Russell County","Alabama","South","East South Central","01113","32.289811","-85.18698 ","9618","74","17","0","2/4/2022 12:00:00 AM","2019","57961","NYTIMES-USCENSUS"
"2/5/2022 12:00:00 AM","Clarion County","Pennsylvania","Northeast","Middle Atlantic","42031","41.198159","-79.420369 ","7983","190","25","0","2/4/2022 12:00:00 AM","2019","38438","NYTIMES-USCENSUS"
"2/5/2022 12:00:00 AM","Blackford County","Indiana","Midwest","East North Central","18009","40.472672","-85.32373 ","3032","66","0","0","2/4/2022 12:00:00 AM","2019","11758","NYTIMES-USCENSUS"
"2/5/2022 12:00:00 AM","Grenada County","Mississippi","South","East South Central","28043","33.770031","-89.80274 ","5265","122","0","0","2/4/2022 12:00:00 AM","2019","20758","NYTIMES-USCENSUS"
"2/5/2022 12:00:00 AM","Fannin County","Texas","South","West South Central","48147","33.591161","-96.104988 ","6483","166","15","1","2/4/2022 12:00:00 AM","2019","35514","NYTIMES-USCENSUS"
"2/5/2022 12:00:00 AM","Box Elder County","Utah","West","Mountain","49003","41.622623","-113.060252 ","13613","104","0","0","2/4/2022 12:00:00 AM","2019","56046","NYTIMES-USCENSUS"
"2/5/2022 12:00:00 AM","Hancock County","Ohio","Midwest","East North Central","39063","41.000217","-83.665947 ","16722","248","19","0","2/4/2022 12:00:00 AM","2019","75783","NYTIMES-USCENSUS"
"2/5/2022 12:00:00 AM","Barbour County","West Virginia","South","South Atlantic","54001","39.139725","-79.996947 ","4330","63","21","0","2/4/2022 12:00:00 AM","2019","16441","NYTIMES-USCENSUS"
"2/5/2022 12:00:00 AM","Culpeper County","Virginia","South","South Atlantic","51047","38.48593","-77.956476 ","10953","113","0","0","2/4/2022 12:00:00 AM","2019","52605","NYTIMES-USCENSUS"
"2/5/2022 12:00:00 AM","Hillsborough County","Florida","South","South Atlantic","12057","27.88761","-82.374417 ","355347","3275","0","0","2/4/2022 12:00:00 AM","2019","1471968","NYTIMES-USCENSUS"
"2/5/2022 12:00:00 AM","Edwards County","Illinois","Midwest","East North Central","17047","38.417095","-88.047941 ","1732","26","0","0","2/4/2022 12:00:00 AM","2019","6395","NYTIMES-USCENSUS"
"2/5/2022 12:00:00 AM","Dunn County","North Dakota","Midwest","West North Central","38025","47.354557","-102.612322 ","986","8","1","0","2/4/2022 12:00:00 AM","2019","4424","NYTIMES-USCENSUS"
"2/5/2022 12:00:00 AM","Taylor County","Florida","South","South Atlantic","12123","29.967146","-83.639573 ","6701","84","0","0","2/4/2022 12:00:00 AM","2019","21569","NYTIMES-USCENSUS"
"2/5/2022 12:00:00 AM","Boone County","Kentucky","South","East South Central","21015","38.9589","-84.736371 ","37453","257","0","0","2/4/2022 12:00:00 AM","2019","133581","NYTIMES-USCENSUS"
"2/5/2022 12:00:00 AM","Fillmore County","Nebraska","Midwest","West North Central","31059","40.52504","-97.596705 ","1072","13","0","0","2/4/2022 12:00:00 AM","2019","5462","NYTIMES-USCENSUS"
"2/5/2022 12:00:00 AM","Kitsap County","Washington","West","Pacific","53035","47.639595","-122.649634 ","36380","289","0","0","2/4/2022 12:00:00 AM","2019","271473","NYTIMES-USCENSUS"
"2/5/2022 12:00:00 AM","San Jacinto County","Texas","South","West South Central","48407","30.574388","-95.163136 ","5103","92","12","1","2/4/2022 12:00:00 AM","2019","28859","NYTIMES-USCENSUS"
"2/5/2022 12:00:00 AM","Knox County","Texas","South","West South Central","48275","33.61189","-99.730356 ","475","22","0","0","2/4/2022 12:00:00 AM","2019","3664","NYTIMES-USCENSUS"
"2/5/2022 12:00:00 AM","Lincoln County","Nevada","West","Mountain","32017","37.634605","-114.863037 ","929","5","0","0","2/4/2022 12:00:00 AM","2019","5183","NYTIMES-USCENSUS"
"2/5/2022 12:00:00 AM","Wythe County","Virginia","South","South Atlantic","51197","36.899867","-81.083001 ","6789","123","0","0","2/4/2022 12:00:00 AM","2019","28684","NYTIMES-USCENSUS"
"2/5/2022 12:00:00 AM","Howard County","Indiana","Midwest","East North Central","18067","40.483537","-86.114118 ","24782","411","0","0","2/4/2022 12:00:00 AM","2019","82544","NYTIMES-USCENSUS"
"2/5/2022 12:00:00 AM","Leflore County","Mississippi","South","East South Central","28083","33.54979","-90.294934 ","7115","156","0","0","2/4/2022 12:00:00 AM","2019","28183","NYTIMES-USCENSUS"
"2/5/2022 12:00:00 AM","Berkshire County","Massachusetts","Northeast","New England","25003","42.371493","-73.217928 ","21178","381","0","0","2/4/2022 12:00:00 AM","2019","124944","NYTIMES-USCENSUS"
"2/5/2022 12:00:00 AM","Clay County","West Virginia","South","South Atlantic","54015","38.459826","-81.081866 ","2152","31","6","0","2/4/2022 12:00:00 AM","2019","8508","NYTIMES-USCENSUS"
"2/5/2022 12:00:00 AM","Daviess County","Indiana","Midwest","East North Central","18027","38.69609","-87.076943 ","7278","135","0","0","2/4/2022 12:00:00 AM","2019","33351","NYTIMES-USCENSUS"
"2/5/2022 12:00:00 AM","Charlotte County","Florida","South","South Atlantic","12015","26.906396","-82.003657 ","33275","683","0","0","2/4/2022 12:00:00 AM","2019","188910","NYTIMES-USCENSUS"
"2/5/2022 12:00:00 AM","Mitchell County","North Carolina","South","South Atlantic","37121","36.013102","-82.163554 ","3043","31","0","0","2/4/2022 12:00:00 AM","2019","14964","NYTIMES-USCENSUS"
"2/5/2022 12:00:00 AM","Madison County","Texas","South","West South Central","48313","30.966878","-95.930372 ","3603","50","2","1","2/4/2022 12:00:00 AM","2019","14284","NYTIMES-USCENSUS"
"2/5/2022 12:00:00 AM","Fremont County","Wyoming","West","Mountain","56013","43.054831","-108.608935 ","12997","170","0","0","2/4/2022 12:00:00 AM","2019","39261","NYTIMES-USCENSUS"
"2/5/2022 12:00:00 AM","Barry County","Michigan","Midwest","East North Central","26015","42.582811","-85.31455 ","13794","150","0","0","2/4/2022 12:00:00 AM","2019","61550","NYTIMES-USCENSUS"
"2/5/2022 12:00:00 AM","Wood County","West Virginia","South","South Atlantic","54107","39.211602","-81.516234 ","20817","300","100","0","2/4/2022 12:00:00 AM","2019","83518","NYTIMES-USCENSUS"
"2/5/2022 12:00:00 AM","Essex County","Massachusetts","Northeast","New England","25009","42.642708","-70.864909 ","199398","3000","0","0","2/4/2022 12:00:00 AM","2019","789034","NYTIMES-USCENSUS"
"2/5/2022 12:00:00 AM","Newport County","Rhode Island","Northeast","New England","44005","41.501045","-71.283063 ","18416","72","0","0","2/4/2022 12:00:00 AM","2019","82082","NYTIMES-USCENSUS"
"2/5/2022 12:00:00 AM","Dorchester County","Maryland","South","South Atlantic","24019","38.429196","-76.047433 ","7294","103","25","1","2/4/2022 12:00:00 AM","2019","31929","NYTIMES-USCENSUS"
"2/5/2022 12:00:00 AM","Cameron County","Texas","South","West South Central","48061","26.102923","-97.478958 ","93611","2029","261","0","2/4/2022 12:00:00 AM","2019","423163","NYTIMES-USCENSUS"
"2/5/2022 12:00:00 AM","Caldwell County","Texas","South","West South Central","48055","29.832399","-97.628141 ","13629","167","318","0","2/4/2022 12:00:00 AM","2019","43664","NYTIMES-USCENSUS"
"2/5/2022 12:00:00 AM","Madera County","California","West","Pacific","06039","37.209821","-119.749802 ","39854","339","0","0","2/4/2022 12:00:00 AM","2019","157327","NYTIMES-USCENSUS"
"2/5/2022 12:00:00 AM","Nash County","North Carolina","South","South Atlantic","37127","35.965945","-77.987555 ","26064","279","0","0","2/4/2022 12:00:00 AM","2019","94298","NYTIMES-USCENSUS"
"2/5/2022 12:00:00 AM","Sibley County","Minnesota","Midwest","West North Central","27143","44.575734","-94.230123 ","3293","23","0","0","2/4/2022 12:00:00 AM","2019","14865","NYTIMES-USCENSUS"
"2/5/2022 12:00:00 AM","Delta County","Michigan","Midwest","East North Central","26041","45.805229","-86.901938 ","9573","148","0","0","2/4/2022 12:00:00 AM","2019","35784","NYTIMES-USCENSUS"
"2/5/2022 12:00:00 AM","Lancaster County","Pennsylvania","Northeast","Middle Atlantic","42071","40.041992","-76.250198 ","118004","1769","430","6","2/4/2022 12:00:00 AM","2019","545724","NYTIMES-USCENSUS"
"2/5/2022 12:00:00 AM","Morgan County","Georgia","South","South Atlantic","13211","33.598696","-83.499435 ","4481","53","0","0","2/4/2022 12:00:00 AM","2019","19276","NYTIMES-USCENSUS"
"2/5/2022 12:00:00 AM","Boyd County","Nebraska","Midwest","West North Central","31015","42.894448","-98.773022 ","372","6","0","0","2/4/2022 12:00:00 AM","2019","1919","NYTIMES-USCENSUS"
"2/5/2022 12:00:00 AM","Sampson County","North Carolina","South","South Atlantic","37163","34.989298","-78.371261 ","17429","147","0","0","2/4/2022 12:00:00 AM","2019","63531","NYTIMES-USCENSUS"
"2/5/2022 12:00:00 AM","St. Louis city","Missouri","Midwest","West North Central","29510","38.635699","-90.244582 ","54354","710","55","0","2/4/2022 12:00:00 AM","2019","300576","NYTIMES-USCENSUS"
"2/5/2022 12:00:00 AM","Wahkiakum County","Washington","West","Pacific","53069","46.294638","-123.424458 ","491","5","0","0","2/4/2022 12:00:00 AM","2019","4488","NYTIMES-USCENSUS"
"2/5/2022 12:00:00 AM","Martin County","Texas","South","West South Central","48317","32.30983","-101.961836 ","1110","25","0","0","2/4/2022 12:00:00 AM","2019","5771","NYTIMES-USCENSUS"
"2/5/2022 12:00:00 AM","Bon Homme County","South Dakota","Midwest","West North Central","46009","42.985799","-97.884199 ","2266","36","0","0","2/4/2022 12:00:00 AM","2019","6901","NYTIMES-USCENSUS"
"2/5/2022 12:00:00 AM","Hocking County","Ohio","Midwest","East North Central","39073","39.490342","-82.483447 ","6313","109","5","0","2/4/2022 12:00:00 AM","2019","28264","NYTIMES-USCENSUS"
"2/5/2022 12:00:00 AM","Gregg County","Texas","South","West South Central","48183","32.486401","-94.816277 ","22527","612","38","3","2/4/2022 12:00:00 AM","2019","123945","NYTIMES-USCENSUS"
"2/5/2022 12:00:00 AM","Hutchinson County","South Dakota","Midwest","West North Central","46067","43.33671","-97.749383 ","1711","33","0","0","2/4/2022 12:00:00 AM","2019","7291","NYTIMES-USCENSUS"
"2/5/2022 12:00:00 AM","Hillsdale County","Michigan","Midwest","East North Central","26059","41.927461","-84.637479 ","9960","184","0","0","2/4/2022 12:00:00 AM","2019","45605","NYTIMES-USCENSUS"
"2/5/2022 12:00:00 AM","Clay County","Tennessee","South","East South Central","47027","36.545749","-85.545717 ","2021","44","0","0","2/4/2022 12:00:00 AM","2019","7615","NYTIMES-USCENSUS"
"2/5/2022 12:00:00 AM","Wilkin County","Minnesota","Midwest","West North Central","27167","46.362335","-96.476657 ","1515","21","0","0","2/4/2022 12:00:00 AM","2019","6207","NYTIMES-USCENSUS"
"2/5/2022 12:00:00 AM","Clarke County","Virginia","South","South Atlantic","51043","39.115307","-77.990748 ","2481","37","0","0","2/4/2022 12:00:00 AM","2019","14619","NYTIMES-USCENSUS"
"2/5/2022 12:00:00 AM","Estill County","Kentucky","South","East South Central","21065","37.692449","-83.963983 ","3423","40","0","0","2/4/2022 12:00:00 AM","2019","14106","NYTIMES-USCENSUS"
"2/5/2022 12:00:00 AM","Osage County","Oklahoma","South","West South Central","40113","36.624299","-96.408112 ","10200","146","0","0","2/4/2022 12:00:00 AM","2019","46963","NYTIMES-USCENSUS"
"2/5/2022 12:00:00 AM","Baker County","Oregon","West","Pacific","41001","44.703427","-117.691933 ","3039","42","0","0","2/4/2022 12:00:00 AM","2019","16124","NYTIMES-USCENSUS"
"2/5/2022 12:00:00 AM","Washington County","Maine","Northeast","New England","23029","44.967009","-67.609354 ","3161","45","0","0","2/4/2022 12:00:00 AM","2019","31379","NYTIMES-USCENSUS"
"2/5/2022 12:00:00 AM","San Luis Obispo County","California","West","Pacific","06079","35.388189","-120.448897 ","52027","404","0","0","2/4/2022 12:00:00 AM","2019","283111","NYTIMES-USCENSUS"
"2/5/2022 12:00:00 AM","Moniteau County","Missouri","Midwest","West North Central","29135","38.633037","-92.583642 ","3714","49","6","0","2/4/2022 12:00:00 AM","2019","16132","NYTIMES-USCENSUS"
"2/5/2022 12:00:00 AM","Monroe County","Kentucky","South","East South Central","21171","36.714077","-85.713508 ","3450","69","0","0","2/4/2022 12:00:00 AM","2019","10650","NYTIMES-USCENSUS"
"2/5/2022 12:00:00 AM","Morrow County","Ohio","Midwest","East North Central","39117","40.525266","-82.797729 ","7555","88","6","0","2/4/2022 12:00:00 AM","2019","35328","NYTIMES-USCENSUS"
"2/5/2022 12:00:00 AM","Anoka County","Minnesota","Midwest","West North Central","27003","45.27411","-93.242723 ","94222","745","0","0","2/4/2022 12:00:00 AM","2019","356921","NYTIMES-USCENSUS"
"2/5/2022 12:00:00 AM","Warren County","Virginia","South","South Atlantic","51187","38.908221","-78.207594 ","8117","122","0","0","2/4/2022 12:00:00 AM","2019","40164","NYTIMES-USCENSUS"
"2/5/2022 12:00:00 AM","O'Brien County","Iowa","Midwest","West North Central","19141","43.083746","-95.625624 ","3319","70","0","0","2/4/2022 12:00:00 AM","2019","13753","NYTIMES-USCENSUS"
"2/5/2022 12:00:00 AM","Wagoner County","Oklahoma","South","West South Central","40145","35.963388","-95.514201 ","20650","239","0","0","2/4/2022 12:00:00 AM","2019","81289","NYTIMES-USCENSUS"
"2/5/2022 12:00:00 AM","LaPorte County","Indiana","Midwest","East North Central","18091","41.549013","-86.744739 ","24851","332","0","0","2/4/2022 12:00:00 AM","2019","109888","NYTIMES-USCENSUS"
"2/5/2022 12:00:00 AM","Hempstead County","Arkansas","South","West South Central","05057","33.735953","-93.664355 ","4329","52","8","0","2/4/2022 12:00:00 AM","2019","21532","NYTIMES-USCENSUS"
"2/5/2022 12:00:00 AM","Pawnee County","Oklahoma","South","West South Central","40117","36.313704","-96.696669 ","3905","73","0","0","2/4/2022 12:00:00 AM","2019","16376","NYTIMES-USCENSUS"
"2/5/2022 12:00:00 AM","Greene County","New York","Northeast","Middle Atlantic","36039","42.279821","-74.142025 ","8232","115","12","1","2/4/2022 12:00:00 AM","2019","47188","NYTIMES-USCENSUS"
"2/5/2022 12:00:00 AM","Merrimack County","New Hampshire","Northeast","New England","33013","43.299579","-71.680041 ","29639","203","0","0","2/4/2022 12:00:00 AM","2019","151391","NYTIMES-USCENSUS"
"2/5/2022 12:00:00 AM","Allendale County","South Carolina","South","South Atlantic","45005","32.979757","-81.363265 ","2011","23","0","0","2/4/2022 12:00:00 AM","2019","8688","NYTIMES-USCENSUS"
"2/5/2022 12:00:00 AM","Marshall County","Indiana","Midwest","East North Central","18099","41.325003","-86.269036 ","12101","187","0","0","2/4/2022 12:00:00 AM","2019","46258","NYTIMES-USCENSUS"
"2/5/2022 12:00:00 AM","Hale County","Alabama","South","East South Central","01065","32.752796","-87.623061 ","4450","95","2","0","2/4/2022 12:00:00 AM","2019","14651","NYTIMES-USCENSUS"
"2/5/2022 12:00:00 AM","Pleasants County","West Virginia","South","South Atlantic","54073","39.368133","-81.161172 ","1976","34","-1","0","2/4/2022 12:00:00 AM","2019","7460","NYTIMES-USCENSUS"
"2/5/2022 12:00:00 AM","Franklin County","Massachusetts","Northeast","New England","25011","42.584504","-72.591792 ","9705","153","0","0","2/4/2022 12:00:00 AM","2019","70180","NYTIMES-USCENSUS"
"2/5/2022 12:00:00 AM","Edgar County","Illinois","Midwest","East North Central","17045","39.679037","-87.74711 ","4955","76","0","0","2/4/2022 12:00:00 AM","2019","17161","NYTIMES-USCENSUS"
"2/5/2022 12:00:00 AM","Johnson County","Missouri","Midwest","West North Central","29101","38.741528","-93.811863 ","11679","128","26","0","2/4/2022 12:00:00 AM","2019","54062","NYTIMES-USCENSUS"
"2/5/2022 12:00:00 AM","Loup County","Nebraska","Midwest","West North Central","31115","41.903183","-99.509852 ","87","0","0","0","2/4/2022 12:00:00 AM","2019","664","NYTIMES-USCENSUS"
"2/5/2022 12:00:00 AM","Monroe County","Tennessee","South","East South Central","47123","35.447818","-84.249705 ","13183","206","0","0","2/4/2022 12:00:00 AM","2019","46545","NYTIMES-USCENSUS"
"2/5/2022 12:00:00 AM","Oakland County","Michigan","Midwest","East North Central","26125","42.660452","-83.38421 ","274131","3534","0","0","2/4/2022 12:00:00 AM","2019","1257584","NYTIMES-USCENSUS"
"2/5/2022 12:00:00 AM","Cherokee County","Alabama","South","East South Central","01019","34.069515","-85.654242 ","4920","69","10","0","2/4/2022 12:00:00 AM","2019","26196","NYTIMES-USCENSUS"
"2/5/2022 12:00:00 AM","Lincoln County","West Virginia","South","South Atlantic","54043","38.17177","-82.077623 ","5006","62","70","0","2/4/2022 12:00:00 AM","2019","20409","NYTIMES-USCENSUS"
"2/5/2022 12:00:00 AM","Faribault County","Minnesota","Midwest","West North Central","27043","43.676522","-93.947234 ","3566","46","0","0","2/4/2022 12:00:00 AM","2019","13653","NYTIMES-USCENSUS"
"2/5/2022 12:00:00 AM","Macon County","Georgia","South","South Atlantic","13193","32.362686","-84.051231 ","2076","47","0","0","2/4/2022 12:00:00 AM","2019","12947","NYTIMES-USCENSUS"
"2/5/2022 12:00:00 AM","Monroe County","Arkansas","South","West South Central","05095","34.679512","-91.20331 ","1872","28","0","0","2/4/2022 12:00:00 AM","2019","6701","NYTIMES-USCENSUS"
"2/5/2022 12:00:00 AM","Stark County","North Dakota","Midwest","West North Central","38089","46.817031","-102.662026 ","11220","81","61","0","2/4/2022 12:00:00 AM","2019","31489","NYTIMES-USCENSUS"
"2/5/2022 12:00:00 AM","Sanborn County","South Dakota","Midwest","West North Central","46111","44.018942","-98.091709 ","555","6","0","0","2/4/2022 12:00:00 AM","2019","2344","NYTIMES-USCENSUS"
"2/5/2022 12:00:00 AM","Gilchrist County","Florida","South","South Atlantic","12041","29.723456","-82.795801 ","4281","71","0","0","2/4/2022 12:00:00 AM","2019","18582","NYTIMES-USCENSUS"
"2/5/2022 12:00:00 AM","Cherokee County","South Carolina","South","South Atlantic","45021","35.049796","-81.607647 ","13830","291","0","0","2/4/2022 12:00:00 AM","2019","57300","NYTIMES-USCENSUS"
"2/5/2022 12:00:00 AM","Custer County","Colorado","West","Mountain","08027","38.101996","-105.373512 ","596","18","0","0","2/4/2022 12:00:00 AM","2019","5068","NYTIMES-USCENSUS"
"2/5/2022 12:00:00 AM","Grant County","West Virginia","South","South Atlantic","54023","39.105988","-79.195064 ","3588","51","22","0","2/4/2022 12:00:00 AM","2019","11568","NYTIMES-USCENSUS"
"2/5/2022 12:00:00 AM","Henry County","Indiana","Midwest","East North Central","18065","39.929591","-85.397363 ","12623","214","0","0","2/4/2022 12:00:00 AM","2019","47972","NYTIMES-USCENSUS"
"2/5/2022 12:00:00 AM","Boone County","Arkansas","South","West South Central","05009","36.304299","-93.079236 ","9053","149","16","0","2/4/2022 12:00:00 AM","2019","37432","NYTIMES-USCENSUS"
"2/5/2022 12:00:00 AM","Kenai Peninsula Borough","Alaska","West","Pacific","02122","60.360766","-152.05264 ","15635","89","0","0","2/4/2022 12:00:00 AM","2019","58708","NYTIMES-USCENSUS"
"2/5/2022 12:00:00 AM","Clay County","Minnesota","Midwest","West North Central","27027","46.898377","-96.494901 ","17915","117","0","0","2/4/2022 12:00:00 AM","2019","64222","NYTIMES-USCENSUS"
"2/5/2022 12:00:00 AM","Clarke County","Alabama","South","East South Central","01025","31.685521","-87.818624 ","6888","93","18","0","2/4/2022 12:00:00 AM","2019","23622","NYTIMES-USCENSUS"
"2/5/2022 12:00:00 AM","Pima County","Arizona","West","Mountain","04019","32.128038","-111.783657 ","239935","3494","1409","10","2/4/2022 12:00:00 AM","2019","1047279","NYTIMES-USCENSUS"
"2/5/2022 12:00:00 AM","Lawrence County","Missouri","Midwest","West North Central","29109","37.10659","-93.830551 ","7463","146","24","0","2/4/2022 12:00:00 AM","2019","38355","NYTIMES-USCENSUS"
"2/5/2022 12:00:00 AM","Wayne County","West Virginia","South","South Atlantic","54099","38.143642","-82.422666 ","9147","98","120","0","2/4/2022 12:00:00 AM","2019","39402","NYTIMES-USCENSUS"
"2/5/2022 12:00:00 AM","Jefferson County","Indiana","Midwest","East North Central","18077","38.783604","-85.44009 ","9076","138","0","0","2/4/2022 12:00:00 AM","2019","32308","NYTIMES-USCENSUS"
"2/5/2022 12:00:00 AM","Wells County","North Dakota","Midwest","West North Central","38103","47.580851","-99.682213 ","985","11","2","0","2/4/2022 12:00:00 AM","2019","3834","NYTIMES-USCENSUS"
"2/5/2022 12:00:00 AM","Miller County","Missouri","Midwest","West North Central","29131","38.21668","-92.429876 ","5871","105","7","0","2/4/2022 12:00:00 AM","2019","25619","NYTIMES-USCENSUS"
"2/5/2022 12:00:00 AM","Fairfield County","South Carolina","South","South Atlantic","45039","34.395669","-81.127001 ","5699","100","0","0","2/4/2022 12:00:00 AM","2019","22347","NYTIMES-USCENSUS"
"2/5/2022 12:00:00 AM","Sussex County","New Jersey","Northeast","Middle Atlantic","34037","41.137461","-74.691914 ","32835","438","45","0","2/4/2022 12:00:00 AM","2019","140488","NYTIMES-USCENSUS"
"2/5/2022 12:00:00 AM","Wyandotte County","Kansas","Midwest","West North Central","20209","39.115384","-94.763087 ","45364","459","0","0","2/4/2022 12:00:00 AM","2019","165429","NYTIMES-USCENSUS"
"2/5/2022 12:00:00 AM","Bonneville County","Idaho","West","Mountain","16019","43.395171","-111.621878 ","30270","268","36","0","2/4/2022 12:00:00 AM","2019","119062","NYTIMES-USCENSUS"
"2/5/2022 12:00:00 AM","Gooding County","Idaho","West","Mountain","16047","42.973185","-114.82142 ","2653","48","11","0","2/4/2022 12:00:00 AM","2019","15179","NYTIMES-USCENSUS"
"2/5/2022 12:00:00 AM","Monroe County","Mississippi","South","East South Central","28095","33.89003","-88.485038 ","10235","197","0","0","2/4/2022 12:00:00 AM","2019","35252","NYTIMES-USCENSUS"
"2/5/2022 12:00:00 AM","Jasper County","South Carolina","South","South Atlantic","45053","32.43059","-81.021627 ","5683","87","0","0","2/4/2022 12:00:00 AM","2019","30073","NYTIMES-USCENSUS"
"2/5/2022 12:00:00 AM","Crawford County","Illinois","Midwest","East North Central","17033","39.002787","-87.760619 ","5930","55","0","0","2/4/2022 12:00:00 AM","2019","18667","NYTIMES-USCENSUS"
"2/5/2022 12:00:00 AM","Cumberland County","New Jersey","Northeast","Middle Atlantic","34011","39.328434","-75.121628 ","37409","564","122","0","2/4/2022 12:00:00 AM","2019","149527","NYTIMES-USCENSUS"
"2/5/2022 12:00:00 AM","Telfair County","Georgia","South","South Atlantic","13271","31.913641","-82.931063 ","2966","76","0","0","2/4/2022 12:00:00 AM","2019","15860","NYTIMES-USCENSUS"
"2/5/2022 12:00:00 AM","Grant County","Arkansas","South","West South Central","05053","34.285568","-92.422979 ","4191","55","3","1","2/4/2022 12:00:00 AM","2019","18265","NYTIMES-USCENSUS"
"2/5/2022 12:00:00 AM","Mingo County","West Virginia","South","South Atlantic","54059","37.721161","-82.158989 ","7142","105","72","0","2/4/2022 12:00:00 AM","2019","23424","NYTIMES-USCENSUS"
"2/5/2022 12:00:00 AM","Saline County","Illinois","Midwest","East North Central","17165","37.751508","-88.545024 ","7425","100","0","0","2/4/2022 12:00:00 AM","2019","23491","NYTIMES-USCENSUS"
"2/5/2022 12:00:00 AM","Alfalfa County","Oklahoma","South","West South Central","40003","36.729703","-98.323445 ","1663","11","0","0","2/4/2022 12:00:00 AM","2019","5702","NYTIMES-USCENSUS"
"2/5/2022 12:00:00 AM","Coweta County","Georgia","South","South Atlantic","13077","33.352897","-84.762138 ","32158","429","0","0","2/4/2022 12:00:00 AM","2019","148509","NYTIMES-USCENSUS"
"2/5/2022 12:00:00 AM","Saline County","Kansas","Midwest","West North Central","20169","38.791804","-97.651478 ","13649","219","0","0","2/4/2022 12:00:00 AM","2019","54224","NYTIMES-USCENSUS"
"2/5/2022 12:00:00 AM","Maverick County","Texas","South","West South Central","48323","28.729787","-100.316678 ","19965","428","17","0","2/4/2022 12:00:00 AM","2019","58722","NYTIMES-USCENSUS"
"2/5/2022 12:00:00 AM","Wallowa County","Oregon","West","Pacific","41063","45.593753","-117.18558 ","1164","14","0","0","2/4/2022 12:00:00 AM","2019","7208","NYTIMES-USCENSUS"
"2/5/2022 12:00:00 AM","Cowlitz County","Washington","West","Pacific","53015","46.196785","-122.67846 ","20621","311","0","0","2/4/2022 12:00:00 AM","2019","110593","NYTIMES-USCENSUS"
"2/5/2022 12:00:00 AM","Grays Harbor County","Washington","West","Pacific","53027","47.113732","-123.826735 ","14980","179","0","0","2/4/2022 12:00:00 AM","2019","75061","NYTIMES-USCENSUS"
"2/5/2022 12:00:00 AM","Liberty County","Georgia","South","South Atlantic","13179","31.807458","-81.457871 ","11796","142","0","0","2/4/2022 12:00:00 AM","2019","61435","NYTIMES-USCENSUS"
"2/5/2022 12:00:00 AM","Walker County","Alabama","South","East South Central","01127","33.791558","-87.301094 ","17819","399","19","0","2/4/2022 12:00:00 AM","2019","63521","NYTIMES-USCENSUS"
"2/5/2022 12:00:00 AM","Marlboro County","South Carolina","South","South Atlantic","45069","34.60167","-79.679435 ","7481","94","0","0","2/4/2022 12:00:00 AM","2019","26118","NYTIMES-USCENSUS"
"2/5/2022 12:00:00 AM","Harnett County","North Carolina","South","South Atlantic","37085","35.368635","-78.87161 ","30260","295","0","0","2/4/2022 12:00:00 AM","2019","135976","NYTIMES-USCENSUS"
"2/5/2022 12:00:00 AM","Goshen County","Wyoming","West","Mountain","56015","42.089455","-104.35354 ","3432","53","0","0","2/4/2022 12:00:00 AM","2019","13211","NYTIMES-USCENSUS"
"2/5/2022 12:00:00 AM","Cocke County","Tennessee","South","East South Central","47029","35.916198","-83.119224 ","10297","190","0","0","2/4/2022 12:00:00 AM","2019","36004","NYTIMES-USCENSUS"
"2/5/2022 12:00:00 AM","Hinds County","Mississippi","South","East South Central","28049","32.267788","-90.466017 ","50531","713","0","0","2/4/2022 12:00:00 AM","2019","231840","NYTIMES-USCENSUS"
"2/5/2022 12:00:00 AM","La Crosse County","Wisconsin","Midwest","East North Central","55063","43.908222","-91.111758 ","33007","155","0","0","2/4/2022 12:00:00 AM","2019","118016","NYTIMES-USCENSUS"
"2/5/2022 12:00:00 AM","Chatham County","Georgia","South","South Atlantic","13051","31.980404","-81.085184 ","59637","776","0","0","2/4/2022 12:00:00 AM","2019","289430","NYTIMES-USCENSUS"
"2/5/2022 12:00:00 AM","Johnson County","Illinois","Midwest","East North Central","17087","37.460709","-88.882131 ","4073","44","0","0","2/4/2022 12:00:00 AM","2019","12417","NYTIMES-USCENSUS"
"2/5/2022 12:00:00 AM","Sarasota County","Florida","South","South Atlantic","12115","27.225327","-82.423714 ","84059","1381","0","0","2/4/2022 12:00:00 AM","2019","433742","NYTIMES-USCENSUS"
"2/5/2022 12:00:00 AM","Morgan County","Illinois","Midwest","East North Central","17137","39.717668","-90.205005 ","9072","133","0","0","2/4/2022 12:00:00 AM","2019","33658","NYTIMES-USCENSUS"
"2/5/2022 12:00:00 AM","Lawrence County","Ohio","Midwest","East North Central","39087","38.603866","-82.517186 ","16719","198","63","0","2/4/2022 12:00:00 AM","2019","59463","NYTIMES-USCENSUS"
"2/5/2022 12:00:00 AM","Forest County","Pennsylvania","Northeast","Middle Atlantic","42053","41.513304","-79.249705 ","2160","34","7","0","2/4/2022 12:00:00 AM","2019","7247","NYTIMES-USCENSUS"
"2/5/2022 12:00:00 AM","Converse County","Wyoming","West","Mountain","56009","42.984623","-105.524752 ","3034","49","0","0","2/4/2022 12:00:00 AM","2019","13822","NYTIMES-USCENSUS"
"2/5/2022 12:00:00 AM","Lebanon County","Pennsylvania","Northeast","Middle Atlantic","42075","40.371448","-76.464819 ","35743","477","93","2","2/4/2022 12:00:00 AM","2019","141793","NYTIMES-USCENSUS"
"2/5/2022 12:00:00 AM","Seward County","Kansas","Midwest","West North Central","20175","37.18096","-100.855257 ","6866","59","0","0","2/4/2022 12:00:00 AM","2019","21428","NYTIMES-USCENSUS"
"2/5/2022 12:00:00 AM","Lee County","Iowa","Midwest","West North Central","19111","40.647588","-91.477157 ","7558","121","0","0","2/4/2022 12:00:00 AM","2019","33657","NYTIMES-USCENSUS"
"2/5/2022 12:00:00 AM","White County","Illinois","Midwest","East North Central","17193","38.087326","-88.178623 ","4217","50","0","0","2/4/2022 12:00:00 AM","2019","13537","NYTIMES-USCENSUS"
"2/5/2022 12:00:00 AM","Haskell County","Oklahoma","South","West South Central","40061","35.232431","-95.109642 ","2614","33","0","0","2/4/2022 12:00:00 AM","2019","12627","NYTIMES-USCENSUS"
"2/5/2022 12:00:00 AM","Polk County","Oregon","West","Pacific","41053","44.900372","-123.39864 ","14058","117","0","0","2/4/2022 12:00:00 AM","2019","86085","NYTIMES-USCENSUS"
"2/5/2022 12:00:00 AM","Cedar County","Missouri","Midwest","West North Central","29039","37.733655","-93.850014 ","2797","44","10","0","2/4/2022 12:00:00 AM","2019","14349","NYTIMES-USCENSUS"
"2/5/2022 12:00:00 AM","Newton County","Missouri","Midwest","West North Central","29145","36.908371","-94.335034 ","10889","177","8","0","2/4/2022 12:00:00 AM","2019","58236","NYTIMES-USCENSUS"
"2/5/2022 12:00:00 AM","Greenwood County","South Carolina","South","South Atlantic","45047","34.155796","-82.127876 ","21157","261","0","0","2/4/2022 12:00:00 AM","2019","70811","NYTIMES-USCENSUS"
"2/5/2022 12:00:00 AM","Summers County","West Virginia","South","South Atlantic","54089","37.655999","-80.856325 ","2534","44","18","0","2/4/2022 12:00:00 AM","2019","12573","NYTIMES-USCENSUS"
"2/5/2022 12:00:00 AM","Alexander County","North Carolina","South","South Atlantic","37003","35.920951","-81.177467 ","9893","124","0","0","2/4/2022 12:00:00 AM","2019","37497","NYTIMES-USCENSUS"
"2/5/2022 12:00:00 AM","Campbell County","Kentucky","South","East South Central","21037","38.946981","-84.379583 ","23306","144","0","0","2/4/2022 12:00:00 AM","2019","93584","NYTIMES-USCENSUS"
"2/5/2022 12:00:00 AM","Holmes County","Ohio","Midwest","East North Central","39075","40.565597","-81.930001 ","5004","172","0","0","2/4/2022 12:00:00 AM","2019","43960","NYTIMES-USCENSUS"
"2/5/2022 12:00:00 AM","Stephens County","Georgia","South","South Atlantic","13257","34.553582","-83.290588 ","6091","132","0","0","2/4/2022 12:00:00 AM","2019","25925","NYTIMES-USCENSUS"
"2/5/2022 12:00:00 AM","Henrico County","Virginia","South","South Atlantic","51087","37.43752","-77.300333 ","60872","784","0","0","2/4/2022 12:00:00 AM","2019","330818","NYTIMES-USCENSUS"
"2/5/2022 12:00:00 AM","Cannon County","Tennessee","South","East South Central","47015","35.808394","-86.062404 ","3739","52","0","0","2/4/2022 12:00:00 AM","2019","14678","NYTIMES-USCENSUS"
"2/5/2022 12:00:00 AM","Hidalgo County","New Mexico","West","Mountain","35023","31.898052","-108.751929 ","1012","12","0","0","2/4/2022 12:00:00 AM","2019","4198","NYTIMES-USCENSUS"
"2/5/2022 12:00:00 AM","Cedar County","Nebraska","Midwest","West North Central","31027","42.60456","-97.25687 ","1417","11","0","0","2/4/2022 12:00:00 AM","2019","8402","NYTIMES-USCENSUS"
"2/5/2022 12:00:00 AM","Adams County","Washington","West","Pacific","53001","47.011238","-118.512861 ","4682","35","0","0","2/4/2022 12:00:00 AM","2019","19983","NYTIMES-USCENSUS"
"2/5/2022 12:00:00 AM","Meagher County","Montana","West","Mountain","30059","46.5857","-110.92174 ","382","10","0","0","2/4/2022 12:00:00 AM","2019","1862","NYTIMES-USCENSUS"
"2/5/2022 12:00:00 AM","Greenville County","South Carolina","South","South Atlantic","45045","34.892645","-82.372077 ","167177","1712","0","0","2/4/2022 12:00:00 AM","2019","523542","NYTIMES-USCENSUS"
"2/5/2022 12:00:00 AM","Muskogee County","Oklahoma","South","West South Central","40101","35.617551","-95.383911 ","19064","293","0","0","2/4/2022 12:00:00 AM","2019","67997","NYTIMES-USCENSUS"
"2/5/2022 12:00:00 AM","Hardin County","Ohio","Midwest","East North Central","39065","40.660415","-83.664077 ","6903","138","9","0","2/4/2022 12:00:00 AM","2019","31365","NYTIMES-USCENSUS"
"2/5/2022 12:00:00 AM","Jefferson County","Oregon","West","Pacific","41031","44.645151","-121.178632 ","6755","73","0","0","2/4/2022 12:00:00 AM","2019","24658","NYTIMES-USCENSUS"
"2/5/2022 12:00:00 AM","McDowell County","West Virginia","South","South Atlantic","54047","37.38276","-81.658204 ","4777","59","46","0","2/4/2022 12:00:00 AM","2019","17624","NYTIMES-USCENSUS"
"2/5/2022 12:00:00 AM","Manassas Park city","Virginia","South","South Atlantic","51685","38.769398","-77.442323 ","2552","16","0","0","2/4/2022 12:00:00 AM","2019","17478","NYTIMES-USCENSUS"
"2/5/2022 12:00:00 AM","Worcester County","Maryland","South","South Atlantic","24047","38.222133","-75.309931 ","8236","147","22","0","2/4/2022 12:00:00 AM","2019","52276","NYTIMES-USCENSUS"
"2/5/2022 12:00:00 AM","Pulaski County","Illinois","Midwest","East North Central","17153","37.215615","-89.127755 ","1667","16","0","0","2/4/2022 12:00:00 AM","2019","5335","NYTIMES-USCENSUS"
"2/5/2022 12:00:00 AM","Hickman County","Tennessee","South","East South Central","47081","35.802327","-87.467116 ","6289","97","0","0","2/4/2022 12:00:00 AM","2019","25178","NYTIMES-USCENSUS"
"2/5/2022 12:00:00 AM","Van Buren County","Iowa","Midwest","West North Central","19177","40.754117","-91.952943 ","1314","25","0","0","2/4/2022 12:00:00 AM","2019","7044","NYTIMES-USCENSUS"
"2/5/2022 12:00:00 AM","St. James Parish","Louisiana","South","West South Central","22093","30.024777","-90.793956 ","5479","75","0","0","2/4/2022 12:00:00 AM","2019","21096","NYTIMES-USCENSUS"
"2/5/2022 12:00:00 AM","Henry County","Alabama","South","East South Central","01067","31.516978","-85.239971 ","4312","67","7","0","2/4/2022 12:00:00 AM","2019","17205","NYTIMES-USCENSUS"
"2/5/2022 12:00:00 AM","Monroe County","Indiana","Midwest","East North Central","18105","39.160729","-86.52331 ","26418","258","0","0","2/4/2022 12:00:00 AM","2019","148431","NYTIMES-USCENSUS"
"2/5/2022 12:00:00 AM","Cass County","Minnesota","Midwest","West North Central","27021","46.951745","-94.333705 ","6418","70","0","0","2/4/2022 12:00:00 AM","2019","29779","NYTIMES-USCENSUS"
"2/5/2022 12:00:00 AM","Chemung County","New York","Northeast","Middle Atlantic","36015","42.148697","-76.752471 ","20407","221","33","0","2/4/2022 12:00:00 AM","2019","83456","NYTIMES-USCENSUS"
"2/5/2022 12:00:00 AM","Tazewell County","Illinois","Midwest","East North Central","17179","40.508074","-89.51626 ","35358","471","0","0","2/4/2022 12:00:00 AM","2019","131803","NYTIMES-USCENSUS"
"2/5/2022 12:00:00 AM","Cattaraugus County","New York","Northeast","Middle Atlantic","36009","42.239099","-78.662332 ","14715","207","43","0","2/4/2022 12:00:00 AM","2019","76117","NYTIMES-USCENSUS"
"2/5/2022 12:00:00 AM","Rowan County","North Carolina","South","South Atlantic","37159","35.641355","-80.521721 ","39226","536","0","0","2/4/2022 12:00:00 AM","2019","142088","NYTIMES-USCENSUS"
"2/5/2022 12:00:00 AM","Franklin County","Tennessee","South","East South Central","47051","35.155926","-86.099203 ","11698","152","0","0","2/4/2022 12:00:00 AM","2019","42208","NYTIMES-USCENSUS"
"2/5/2022 12:00:00 AM","Mills County","Texas","South","West South Central","48333","31.494888","-98.594623 ","1428","30","1","0","2/4/2022 12:00:00 AM","2019","4873","NYTIMES-USCENSUS"
"2/5/2022 12:00:00 AM","Etowah County","Alabama","South","East South Central","01055","34.047641","-86.034263 ","27596","552","35","0","2/4/2022 12:00:00 AM","2019","102268","NYTIMES-USCENSUS"
"2/5/2022 12:00:00 AM","Pulaski County","Indiana","Midwest","East North Central","18131","41.045272","-86.692538 ","2978","81","0","0","2/4/2022 12:00:00 AM","2019","12353","NYTIMES-USCENSUS"
"2/5/2022 12:00:00 AM","Trempealeau County","Wisconsin","Midwest","East North Central","55121","44.30305","-91.358867 ","8079","58","0","0","2/4/2022 12:00:00 AM","2019","29649","NYTIMES-USCENSUS"
"2/5/2022 12:00:00 AM","Hart County","Georgia","South","South Atlantic","13147","34.348733","-82.96329 ","4750","79","0","0","2/4/2022 12:00:00 AM","2019","26205","NYTIMES-USCENSUS"
"2/5/2022 12:00:00 AM","Lynn County","Texas","South","West South Central","48305","33.178412","-101.818493 ","1331","34","0","0","2/4/2022 12:00:00 AM","2019","5951","NYTIMES-USCENSUS"
"2/5/2022 12:00:00 AM","Swift County","Minnesota","Midwest","West North Central","27151","45.27581","-95.690124 ","2132","31","0","0","2/4/2022 12:00:00 AM","2019","9266","NYTIMES-USCENSUS"
"2/5/2022 12:00:00 AM","Warren County","Missouri","Midwest","West North Central","29219","38.761902","-91.159306 ","7939","93","15","0","2/4/2022 12:00:00 AM","2019","35649","NYTIMES-USCENSUS"
"2/5/2022 12:00:00 AM","Worcester County","Massachusetts","Northeast","New England","25027","42.311693","-71.940282 ","184632","2843","0","0","2/4/2022 12:00:00 AM","2019","830622","NYTIMES-USCENSUS"
"2/5/2022 12:00:00 AM","Fulton County","Arkansas","South","West South Central","05049","36.381322","-91.819285 ","2592","82","3","0","2/4/2022 12:00:00 AM","2019","12477","NYTIMES-USCENSUS"
"2/5/2022 12:00:00 AM","Pine County","Minnesota","Midwest","West North Central","27115","46.10094","-92.763094 ","6617","59","0","0","2/4/2022 12:00:00 AM","2019","29579","NYTIMES-USCENSUS"
"2/5/2022 12:00:00 AM","Pasquotank County","North Carolina","South","South Atlantic","37139","36.265199","-76.260691 ","7657","111","0","0","2/4/2022 12:00:00 AM","2019","39824","NYTIMES-USCENSUS"
"2/5/2022 12:00:00 AM","Manassas city","Virginia","South","South Atlantic","51683","38.746808","-77.482633 ","8609","60","0","0","2/4/2022 12:00:00 AM","2019","41085","NYTIMES-USCENSUS"
"2/5/2022 12:00:00 AM","Linn County","Iowa","Midwest","West North Central","19113","42.077951","-91.597674 ","49433","524","0","0","2/4/2022 12:00:00 AM","2019","226706","NYTIMES-USCENSUS"
"2/5/2022 12:00:00 AM","Hancock County","Tennessee","South","East South Central","47067","36.521353","-83.227493 ","1789","29","0","0","2/4/2022 12:00:00 AM","2019","6620","NYTIMES-USCENSUS"
"2/5/2022 12:00:00 AM","Orleans County","Vermont","Northeast","New England","50019","44.828442","-72.25163 ","4824","31","0","0","2/4/2022 12:00:00 AM","2019","27037","NYTIMES-USCENSUS"
"2/5/2022 12:00:00 AM","Rains County","Texas","South","West South Central","48379","32.870457","-95.795613 ","1763","53","6","0","2/4/2022 12:00:00 AM","2019","12514","NYTIMES-USCENSUS"
"2/5/2022 12:00:00 AM","Fremont County","Idaho","West","Mountain","16043","44.218091","-111.484429 ","2191","23","1","0","2/4/2022 12:00:00 AM","2019","13099","NYTIMES-USCENSUS"
"2/5/2022 12:00:00 AM","San Benito County","California","West","Pacific","06069","36.611651","-121.085811 ","12717","90","0","0","2/4/2022 12:00:00 AM","2019","62808","NYTIMES-USCENSUS"
"2/5/2022 12:00:00 AM","Potter County","Pennsylvania","Northeast","Middle Atlantic","42105","41.748587","-77.894436 ","3012","87","9","0","2/4/2022 12:00:00 AM","2019","16526","NYTIMES-USCENSUS"
"2/5/2022 12:00:00 AM","Winchester city","Virginia","South","South Atlantic","51840","39.173869","-78.176356 ","6102","67","0","0","2/4/2022 12:00:00 AM","2019","28078","NYTIMES-USCENSUS"
"2/5/2022 12:00:00 AM","Cooke County","Texas","South","West South Central","48097","33.639196","-97.210343 ","6997","120","15","1","2/4/2022 12:00:00 AM","2019","41257","NYTIMES-USCENSUS"
"2/5/2022 12:00:00 AM","Choctaw County","Mississippi","South","East South Central","28019","33.345964","-89.251332 ","1946","28","0","0","2/4/2022 12:00:00 AM","2019","8210","NYTIMES-USCENSUS"
"2/5/2022 12:00:00 AM","Griggs County","North Dakota","Midwest","West North Central","38039","47.456334","-98.232286 ","560","2","4","0","2/4/2022 12:00:00 AM","2019","2231","NYTIMES-USCENSUS"
"2/5/2022 12:00:00 AM","Northwest Arctic Borough","Alaska","West","Pacific","02188","67.005066","-160.021086 ","3496","11","0","0","2/4/2022 12:00:00 AM","2019","7621","NYTIMES-USCENSUS"
"2/5/2022 12:00:00 AM","Liberty County","Montana","West","Mountain","30051","48.559654","-111.036924 ","366","2","0","0","2/4/2022 12:00:00 AM","2019","2337","NYTIMES-USCENSUS"
"2/5/2022 12:00:00 AM","Idaho County","Idaho","West","Mountain","16049","45.849644","-115.467337 ","2846","44","0","0","2/4/2022 12:00:00 AM","2019","16667","NYTIMES-USCENSUS"
"2/5/2022 12:00:00 AM","Renville County","North Dakota","Midwest","West North Central","38075","48.712781","-101.658152 ","538","15","-1","0","2/4/2022 12:00:00 AM","2019","2327","NYTIMES-USCENSUS"
"2/5/2022 12:00:00 AM","Tangipahoa Parish","Louisiana","South","West South Central","22105","30.621348","-90.40649 ","33630","560","0","0","2/4/2022 12:00:00 AM","2019","134758","NYTIMES-USCENSUS"
"2/5/2022 12:00:00 AM","Fort Bend County","Texas","South","West South Central","48157","29.526602","-95.771015 ","168413","1122","460","0","2/4/2022 12:00:00 AM","2019","811688","NYTIMES-USCENSUS"
"2/5/2022 12:00:00 AM","Perry County","Indiana","Midwest","East North Central","18123","38.081436","-86.62654 ","4513","64","0","0","2/4/2022 12:00:00 AM","2019","19169","NYTIMES-USCENSUS"
"2/5/2022 12:00:00 AM","Lafayette County","Missouri","Midwest","West North Central","29107","39.068705","-93.802639 ","7517","113","20","1","2/4/2022 12:00:00 AM","2019","32708","NYTIMES-USCENSUS"
"2/5/2022 12:00:00 AM","Ouachita County","Arkansas","South","West South Central","05103","33.591168","-92.878413 ","5177","92","7","0","2/4/2022 12:00:00 AM","2019","23382","NYTIMES-USCENSUS"
"2/5/2022 12:00:00 AM","St. John the Baptist Parish","Louisiana","South","West South Central","22095","30.144068","-90.49096 ","10243","179","0","0","2/4/2022 12:00:00 AM","2019","42837","NYTIMES-USCENSUS"
"2/5/2022 12:00:00 AM","Gulf County","Florida","South","South Atlantic","12045","29.859238","-85.272013 ","4083","67","0","0","2/4/2022 12:00:00 AM","2019","13639","NYTIMES-USCENSUS"
"2/5/2022 12:00:00 AM","Raleigh County","West Virginia","South","South Atlantic","54081","37.762469","-81.264672 ","20855","272","227","0","2/4/2022 12:00:00 AM","2019","73361","NYTIMES-USCENSUS"
"2/5/2022 12:00:00 AM","Trinity County","Texas","South","West South Central","48455","31.096675","-95.151687 ","2369","67","3","0","2/4/2022 12:00:00 AM","2019","14651","NYTIMES-USCENSUS"
"2/5/2022 12:00:00 AM","Fulton County","Illinois","Midwest","East North Central","17057","40.46524","-90.202269 ","9620","120","0","0","2/4/2022 12:00:00 AM","2019","34340","NYTIMES-USCENSUS"
"2/5/2022 12:00:00 AM","Appling County","Georgia","South","South Atlantic","13001","31.739712","-82.290103 ","4606","113","0","0","2/4/2022 12:00:00 AM","2019","18386","NYTIMES-USCENSUS"
"2/5/2022 12:00:00 AM","La Salle County","Texas","South","West South Central","48283","28.351098","-99.096774 ","2129","42","9","0","2/4/2022 12:00:00 AM","2019","7520","NYTIMES-USCENSUS"
"2/5/2022 12:00:00 AM","Armstrong County","Pennsylvania","Northeast","Middle Atlantic","42005","40.81238","-79.464129 ","14736","309","31","2","2/4/2022 12:00:00 AM","2019","64735","NYTIMES-USCENSUS"
"2/5/2022 12:00:00 AM","Kendall County","Texas","South","West South Central","48259","29.943525","-98.709269 ","7648","108","33","1","2/4/2022 12:00:00 AM","2019","47431","NYTIMES-USCENSUS"
"2/5/2022 12:00:00 AM","Covington County","Mississippi","South","East South Central","28031","31.633331","-89.548897 ","6764","99","0","0","2/4/2022 12:00:00 AM","2019","18636","NYTIMES-USCENSUS"
"2/5/2022 12:00:00 AM","Franklin County","Pennsylvania","Northeast","Middle Atlantic","42055","39.926772","-77.724521 ","39130","635","110","4","2/4/2022 12:00:00 AM","2019","155027","NYTIMES-USCENSUS"
"2/5/2022 12:00:00 AM","Benton County","Washington","West","Pacific","53005","46.228125","-119.516659 ","49620","426","0","0","2/4/2022 12:00:00 AM","2019","204390","NYTIMES-USCENSUS"
"2/5/2022 12:00:00 AM","Lincoln County","New Mexico","West","Mountain","35027","33.740841","-105.449805 ","4964","58","0","0","2/4/2022 12:00:00 AM","2019","19572","NYTIMES-USCENSUS"
"2/5/2022 12:00:00 AM","Crisp County","Georgia","South","South Atlantic","13081","31.920268","-83.75653 ","4556","129","0","0","2/4/2022 12:00:00 AM","2019","22372","NYTIMES-USCENSUS"
"2/5/2022 12:00:00 AM","Columbus County","North Carolina","South","South Atlantic","37047","34.261602","-78.639308 ","15202","251","0","0","2/4/2022 12:00:00 AM","2019","55508","NYTIMES-USCENSUS"
