"monitor_date","county","state_name","region","subregion","fips","latitude","longitude","case_count_to_date","death_count_to_date","case_count","death_count","previous_monitor_date","population_year","population","source"
"1/27/2022 12:00:00 AM","Ramsey County","Minnesota","Midwest","West North Central","27123","45.015204","-93.099965 ","112428","1230","2241","11","1/26/2022 12:00:00 AM","2019","550321","NYTIMES-USCENSUS"
"1/27/2022 12:00:00 AM","Albany County","Wyoming","West","Mountain","56001","41.665514","-105.721883 ","9226","45","100","0","1/26/2022 12:00:00 AM","2019","38880","NYTIMES-USCENSUS"
"1/27/2022 12:00:00 AM","Mercer County","Pennsylvania","Northeast","Middle Atlantic","42085","41.300014","-80.252786 ","22241","458","192","3","1/26/2022 12:00:00 AM","2019","109424","NYTIMES-USCENSUS"
"1/27/2022 12:00:00 AM","Toombs County","Georgia","South","South Atlantic","13279","32.117753","-82.330597 ","6507","177","39","0","1/26/2022 12:00:00 AM","2019","26830","NYTIMES-USCENSUS"
"1/27/2022 12:00:00 AM","Miller County","Missouri","Midwest","West North Central","29131","38.21668","-92.429876 ","5683","105","64","0","1/26/2022 12:00:00 AM","2019","25619","NYTIMES-USCENSUS"
"1/27/2022 12:00:00 AM","Sarpy County","Nebraska","Midwest","West North Central","31153","41.115064","-96.109125 ","45640","222","376","0","1/26/2022 12:00:00 AM","2019","187196","NYTIMES-USCENSUS"
"1/27/2022 12:00:00 AM","Casey County","Kentucky","South","East South Central","21045","37.321962","-84.92822 ","3376","65","30","0","1/26/2022 12:00:00 AM","2019","16159","NYTIMES-USCENSUS"
"1/27/2022 12:00:00 AM","Irion County","Texas","South","West South Central","48235","31.303424","-100.981304 ","387","2","7","0","1/26/2022 12:00:00 AM","2019","1536","NYTIMES-USCENSUS"
"1/27/2022 12:00:00 AM","Crosby County","Texas","South","West South Central","48107","33.609144","-101.29871 ","1746","44","2","0","1/26/2022 12:00:00 AM","2019","5737","NYTIMES-USCENSUS"
"1/27/2022 12:00:00 AM","Grand Isle County","Vermont","Northeast","New England","50013","44.795742","-73.295082 ","803","4","15","0","1/26/2022 12:00:00 AM","2019","7235","NYTIMES-USCENSUS"
"1/27/2022 12:00:00 AM","Ohio County","Kentucky","South","East South Central","21183","37.477859","-86.844871 ","6471","91","62","0","1/26/2022 12:00:00 AM","2019","23994","NYTIMES-USCENSUS"
"1/27/2022 12:00:00 AM","Sacramento County","California","West","Pacific","06067","38.450136","-121.344329 ","268214","2657","6175","11","1/26/2022 12:00:00 AM","2019","1552058","NYTIMES-USCENSUS"
"1/27/2022 12:00:00 AM","Kent County","Michigan","Midwest","East North Central","26081","43.032497","-85.547446 ","155248","1371","0","0","1/26/2022 12:00:00 AM","2019","656955","NYTIMES-USCENSUS"
"1/27/2022 12:00:00 AM","Jefferson County","Arkansas","South","West South Central","05069","34.277239","-91.929673 ","17634","246","122","0","1/26/2022 12:00:00 AM","2019","66824","NYTIMES-USCENSUS"
"1/27/2022 12:00:00 AM","Coryell County","Texas","South","West South Central","48099","31.391177","-97.798022 ","15745","177","61","0","1/26/2022 12:00:00 AM","2019","75951","NYTIMES-USCENSUS"
"1/27/2022 12:00:00 AM","Monroe County","Iowa","Midwest","West North Central","19135","41.028847","-92.869642 ","1763","44","0","0","1/26/2022 12:00:00 AM","2019","7707","NYTIMES-USCENSUS"
"1/27/2022 12:00:00 AM","Hyde County","South Dakota","Midwest","West North Central","46069","44.537174","-99.472736 ","278","5","2","0","1/26/2022 12:00:00 AM","2019","1301","NYTIMES-USCENSUS"
"1/27/2022 12:00:00 AM","Bon Homme County","South Dakota","Midwest","West North Central","46009","42.985799","-97.884199 ","2235","36","7","0","1/26/2022 12:00:00 AM","2019","6901","NYTIMES-USCENSUS"
"1/27/2022 12:00:00 AM","Young County","Texas","South","West South Central","48503","33.158778","-98.67839 ","3585","77","17","0","1/26/2022 12:00:00 AM","2019","18010","NYTIMES-USCENSUS"
"1/27/2022 12:00:00 AM","Philadelphia County","Pennsylvania","Northeast","Middle Atlantic","42101","40.009376","-75.133346 ","293487","4623","720","38","1/26/2022 12:00:00 AM","2019","1584064","NYTIMES-USCENSUS"
"1/27/2022 12:00:00 AM","Worth County","Missouri","Midwest","West North Central","29227","40.480499","-94.419198 ","378","3","3","0","1/26/2022 12:00:00 AM","2019","2013","NYTIMES-USCENSUS"
"1/27/2022 12:00:00 AM","Sibley County","Minnesota","Midwest","West North Central","27143","44.575734","-94.230123 ","3159","23","44","0","1/26/2022 12:00:00 AM","2019","14865","NYTIMES-USCENSUS"
"1/27/2022 12:00:00 AM","Placer County","California","West","Pacific","06061","39.062032","-120.722718 ","62166","524","884","1","1/26/2022 12:00:00 AM","2019","398329","NYTIMES-USCENSUS"
"1/27/2022 12:00:00 AM","Preston County","West Virginia","South","South Atlantic","54077","39.46903","-79.668865 ","8038","117","70","1","1/26/2022 12:00:00 AM","2019","33432","NYTIMES-USCENSUS"
"1/27/2022 12:00:00 AM","Marion County","Oregon","West","Pacific","41047","44.900898","-122.57626 ","60091","581","986","1","1/26/2022 12:00:00 AM","2019","347818","NYTIMES-USCENSUS"
"1/27/2022 12:00:00 AM","Strafford County","New Hampshire","Northeast","New England","33017","43.293272","-71.035589 ","24856","184","193","0","1/26/2022 12:00:00 AM","2019","130633","NYTIMES-USCENSUS"
"1/27/2022 12:00:00 AM","Harrisonburg city","Virginia","South","South Atlantic","51660","38.436255","-78.873303 ","11952","120","128","0","1/26/2022 12:00:00 AM","2019","53016","NYTIMES-USCENSUS"
"1/27/2022 12:00:00 AM","Winneshiek County","Iowa","Midwest","West North Central","19191","43.292989","-91.850788 ","3523","46","0","0","1/26/2022 12:00:00 AM","2019","19991","NYTIMES-USCENSUS"
"1/27/2022 12:00:00 AM","Hanover County","Virginia","South","South Atlantic","51085","37.760215","-77.491317 ","19557","212","190","1","1/26/2022 12:00:00 AM","2019","107766","NYTIMES-USCENSUS"
"1/27/2022 12:00:00 AM","Morris County","New Jersey","Northeast","Middle Atlantic","34027","40.858896","-74.547292 ","112553","1441","398","6","1/26/2022 12:00:00 AM","2019","491845","NYTIMES-USCENSUS"
"1/27/2022 12:00:00 AM","King and Queen County","Virginia","South","South Atlantic","51097","37.717772","-76.905581 ","1046","10","10","0","1/26/2022 12:00:00 AM","2019","7025","NYTIMES-USCENSUS"
"1/27/2022 12:00:00 AM","Gloucester County","Virginia","South","South Atlantic","51073","37.403541","-76.523505 ","6714","86","64","0","1/26/2022 12:00:00 AM","2019","37348","NYTIMES-USCENSUS"
"1/27/2022 12:00:00 AM","Sumner County","Kansas","Midwest","West North Central","20191","37.236662","-97.493352 ","5231","64","0","0","1/26/2022 12:00:00 AM","2019","22836","NYTIMES-USCENSUS"
"1/27/2022 12:00:00 AM","Presque Isle County","Michigan","Midwest","East North Central","26141","45.252397","-83.432283 ","1947","53","0","0","1/26/2022 12:00:00 AM","2019","12592","NYTIMES-USCENSUS"
"1/27/2022 12:00:00 AM","Yoakum County","Texas","South","West South Central","48501","33.162339","-102.832241 ","1008","37","1","0","1/26/2022 12:00:00 AM","2019","8713","NYTIMES-USCENSUS"
"1/27/2022 12:00:00 AM","Florence County","Wisconsin","Midwest","East North Central","55037","45.871828","-88.406988 ","991","15","15","0","1/26/2022 12:00:00 AM","2019","4295","NYTIMES-USCENSUS"
"1/27/2022 12:00:00 AM","York County","Nebraska","Midwest","West North Central","31185","40.873056","-97.596742 ","3423","19","47","0","1/26/2022 12:00:00 AM","2019","13679","NYTIMES-USCENSUS"
"1/27/2022 12:00:00 AM","Blaine County","Oklahoma","South","West South Central","40011","35.877795","-98.429031 ","2192","34","0","0","1/26/2022 12:00:00 AM","2019","9429","NYTIMES-USCENSUS"
"1/27/2022 12:00:00 AM","Wilson County","Texas","South","West South Central","48493","29.173883","-98.086734 ","9905","151","35","0","1/26/2022 12:00:00 AM","2019","51070","NYTIMES-USCENSUS"
"1/27/2022 12:00:00 AM","Burt County","Nebraska","Midwest","West North Central","31021","41.854179","-96.337746 ","1206","15","16","0","1/26/2022 12:00:00 AM","2019","6459","NYTIMES-USCENSUS"
"1/27/2022 12:00:00 AM","Shelby County","Illinois","Midwest","East North Central","17173","39.384926","-88.798862 ","5761","67","42","1","1/26/2022 12:00:00 AM","2019","21634","NYTIMES-USCENSUS"
"1/27/2022 12:00:00 AM","Malheur County","Oregon","West","Pacific","41045","43.188625","-117.603191 ","7501","97","96","0","1/26/2022 12:00:00 AM","2019","30571","NYTIMES-USCENSUS"
"1/27/2022 12:00:00 AM","Griggs County","North Dakota","Midwest","West North Central","38039","47.456334","-98.232286 ","544","2","2","0","1/26/2022 12:00:00 AM","2019","2231","NYTIMES-USCENSUS"
"1/27/2022 12:00:00 AM","Jones County","North Carolina","South","South Atlantic","37103","35.032268","-77.356195 ","1948","38","25","0","1/26/2022 12:00:00 AM","2019","9419","NYTIMES-USCENSUS"
"1/27/2022 12:00:00 AM","Parmer County","Texas","South","West South Central","48369","34.532163","-102.784853 ","2119","46","21","0","1/26/2022 12:00:00 AM","2019","9605","NYTIMES-USCENSUS"
"1/27/2022 12:00:00 AM","Richmond County","Georgia","South","South Atlantic","13245","33.361486","-82.074998 ","46935","781","298","4","1/26/2022 12:00:00 AM","2019","202518","NYTIMES-USCENSUS"
"1/27/2022 12:00:00 AM","Boyd County","Nebraska","Midwest","West North Central","31015","42.894448","-98.773022 ","366","5","5","0","1/26/2022 12:00:00 AM","2019","1919","NYTIMES-USCENSUS"
"1/27/2022 12:00:00 AM","Lauderdale County","Tennessee","South","East South Central","47097","35.762951","-89.627732 ","6938","83","0","0","1/26/2022 12:00:00 AM","2019","25633","NYTIMES-USCENSUS"
"1/27/2022 12:00:00 AM","Marshall County","Oklahoma","South","West South Central","40095","34.027007","-96.770533 ","4141","32","0","0","1/26/2022 12:00:00 AM","2019","16931","NYTIMES-USCENSUS"
"1/27/2022 12:00:00 AM","Banks County","Georgia","South","South Atlantic","13011","34.351922","-83.498441 ","3659","74","40","0","1/26/2022 12:00:00 AM","2019","19234","NYTIMES-USCENSUS"
"1/27/2022 12:00:00 AM","Denver County","Colorado","West","Mountain","08031","39.76185","-104.881105 ","156772","1166","1084","4","1/26/2022 12:00:00 AM","2019","727211","NYTIMES-USCENSUS"
"1/27/2022 12:00:00 AM","Hampton city","Virginia","South","South Atlantic","51650","37.047961","-76.297293 ","25679","261","179","0","1/26/2022 12:00:00 AM","2019","134510","NYTIMES-USCENSUS"
"1/27/2022 12:00:00 AM","Kenai Peninsula Borough","Alaska","West","Pacific","02122","60.360766","-152.05264 ","14349","88","0","0","1/26/2022 12:00:00 AM","2019","58708","NYTIMES-USCENSUS"
"1/27/2022 12:00:00 AM","Lyon County","Iowa","Midwest","West North Central","19119","43.38358","-96.207201 ","2644","46","0","0","1/26/2022 12:00:00 AM","2019","11755","NYTIMES-USCENSUS"
"1/27/2022 12:00:00 AM","Lincoln County","Kentucky","South","East South Central","21137","37.457174","-84.658335 ","5430","112","36","0","1/26/2022 12:00:00 AM","2019","24549","NYTIMES-USCENSUS"
"1/27/2022 12:00:00 AM","Clearwater County","Minnesota","Midwest","West North Central","27029","47.575873","-95.371117 ","1917","29","22","1","1/26/2022 12:00:00 AM","2019","8818","NYTIMES-USCENSUS"
"1/27/2022 12:00:00 AM","Wayne County","Iowa","Midwest","West North Central","19185","40.739983","-93.332613 ","1156","29","0","0","1/26/2022 12:00:00 AM","2019","6441","NYTIMES-USCENSUS"
"1/27/2022 12:00:00 AM","Graham County","North Carolina","South","South Atlantic","37075","35.348364","-83.830915 ","1971","30","41","0","1/26/2022 12:00:00 AM","2019","8441","NYTIMES-USCENSUS"
"1/27/2022 12:00:00 AM","Haywood County","North Carolina","South","South Atlantic","37087","35.558882","-82.981307 ","11201","172","109","0","1/26/2022 12:00:00 AM","2019","62317","NYTIMES-USCENSUS"
"1/27/2022 12:00:00 AM","Steuben County","Indiana","Midwest","East North Central","18151","41.643467","-85.002405 ","9111","110","98","1","1/26/2022 12:00:00 AM","2019","34594","NYTIMES-USCENSUS"
"1/27/2022 12:00:00 AM","Loudoun County","Virginia","South","South Atlantic","51107","39.0812","-77.638898 ","61419","318","317","0","1/26/2022 12:00:00 AM","2019","413538","NYTIMES-USCENSUS"
"1/27/2022 12:00:00 AM","Cumberland County","Maine","Northeast","New England","23005","43.808348","-70.330375 ","34769","295","377","1","1/26/2022 12:00:00 AM","2019","295003","NYTIMES-USCENSUS"
"1/27/2022 12:00:00 AM","Clermont County","Ohio","Midwest","East North Central","39025","39.052054","-84.149485 ","48129","454","364","0","1/26/2022 12:00:00 AM","2019","206428","NYTIMES-USCENSUS"
"1/27/2022 12:00:00 AM","Iowa County","Iowa","Midwest","West North Central","19095","41.683918","-92.059123 ","3371","42","0","0","1/26/2022 12:00:00 AM","2019","16184","NYTIMES-USCENSUS"
"1/27/2022 12:00:00 AM","Val Verde County","Texas","South","West South Central","48465","29.875285","-101.143324 ","13222","263","196","0","1/26/2022 12:00:00 AM","2019","49025","NYTIMES-USCENSUS"
"1/27/2022 12:00:00 AM","Polk County","Iowa","Midwest","West North Central","19153","41.684816","-93.568971 ","113009","948","0","0","1/26/2022 12:00:00 AM","2019","490161","NYTIMES-USCENSUS"
"1/27/2022 12:00:00 AM","Otoe County","Nebraska","Midwest","West North Central","31131","40.637992","-96.131027 ","3047","16","33","0","1/26/2022 12:00:00 AM","2019","16012","NYTIMES-USCENSUS"
"1/27/2022 12:00:00 AM","Mesa County","Colorado","West","Mountain","08077","39.019524","-108.460571 ","37514","496","405","3","1/26/2022 12:00:00 AM","2019","154210","NYTIMES-USCENSUS"
"1/27/2022 12:00:00 AM","Franklin County","Kansas","Midwest","West North Central","20059","38.558019","-95.278962 ","6483","69","0","0","1/26/2022 12:00:00 AM","2019","25544","NYTIMES-USCENSUS"
"1/27/2022 12:00:00 AM","Saline County","Nebraska","Midwest","West North Central","31151","40.516802","-97.131755 ","3476","8","30","0","1/26/2022 12:00:00 AM","2019","14224","NYTIMES-USCENSUS"
"1/27/2022 12:00:00 AM","Otter Tail County","Minnesota","Midwest","West North Central","27111","46.405727","-95.714581 ","11886","153","241","0","1/26/2022 12:00:00 AM","2019","58746","NYTIMES-USCENSUS"
"1/27/2022 12:00:00 AM","Knox County","Nebraska","Midwest","West North Central","31107","42.634404","-97.891349 ","1524","13","7","0","1/26/2022 12:00:00 AM","2019","8332","NYTIMES-USCENSUS"
"1/27/2022 12:00:00 AM","Ulster County","New York","Northeast","Middle Atlantic","36111","41.947212","-74.265458 ","29300","340","188","6","1/26/2022 12:00:00 AM","2019","177573","NYTIMES-USCENSUS"
"1/27/2022 12:00:00 AM","Clay County","Kentucky","South","East South Central","21051","37.164273","-83.715473 ","6390","70","136","0","1/26/2022 12:00:00 AM","2019","19901","NYTIMES-USCENSUS"
"1/27/2022 12:00:00 AM","Jefferson County","Kentucky","South","East South Central","21111","38.189532","-85.657624 ","199282","1926","2725","4","1/26/2022 12:00:00 AM","2019","766757","NYTIMES-USCENSUS"
"1/27/2022 12:00:00 AM","Mahoning County","Ohio","Midwest","East North Central","39099","41.01088","-80.770396 ","51675","941","177","0","1/26/2022 12:00:00 AM","2019","228683","NYTIMES-USCENSUS"
"1/27/2022 12:00:00 AM","Fisher County","Texas","South","West South Central","48151","32.740473","-100.40312 ","552","20","2","0","1/26/2022 12:00:00 AM","2019","3830","NYTIMES-USCENSUS"
"1/27/2022 12:00:00 AM","Wright County","Missouri","Midwest","West North Central","29229","37.267633","-92.479989 ","3523","71","33","0","1/26/2022 12:00:00 AM","2019","18289","NYTIMES-USCENSUS"
"1/27/2022 12:00:00 AM","Gilpin County","Colorado","West","Mountain","08047","39.861156","-105.528878 ","879","4","5","0","1/26/2022 12:00:00 AM","2019","6243","NYTIMES-USCENSUS"
"1/27/2022 12:00:00 AM","Richmond County","Virginia","South","South Atlantic","51159","37.942894","-76.730561 ","2387","17","17","0","1/26/2022 12:00:00 AM","2019","9023","NYTIMES-USCENSUS"
"1/27/2022 12:00:00 AM","Bailey County","Texas","South","West South Central","48017","34.067521","-102.830345 ","1325","31","3","0","1/26/2022 12:00:00 AM","2019","7000","NYTIMES-USCENSUS"
"1/27/2022 12:00:00 AM","Monona County","Iowa","Midwest","West North Central","19133","42.049432","-95.956566 ","1581","43","0","0","1/26/2022 12:00:00 AM","2019","8615","NYTIMES-USCENSUS"
"1/27/2022 12:00:00 AM","Harris County","Texas","South","West South Central","48201","29.857273","-95.393037 ","939380","10094","2846","28","1/26/2022 12:00:00 AM","2019","4713325","NYTIMES-USCENSUS"
"1/27/2022 12:00:00 AM","Polk County","Wisconsin","Midwest","East North Central","55095","45.462041","-92.447066 ","11395","112","109","0","1/26/2022 12:00:00 AM","2019","43783","NYTIMES-USCENSUS"
"1/27/2022 12:00:00 AM","Sussex County","New Jersey","Northeast","Middle Atlantic","34037","41.137461","-74.691914 ","32287","429","150","2","1/26/2022 12:00:00 AM","2019","140488","NYTIMES-USCENSUS"
"1/27/2022 12:00:00 AM","Sherman County","Nebraska","Midwest","West North Central","31163","41.218743","-98.972849 ","535","4","3","0","1/26/2022 12:00:00 AM","2019","3001","NYTIMES-USCENSUS"
"1/27/2022 12:00:00 AM","Henry County","Alabama","South","East South Central","01067","31.516978","-85.239971 ","4016","67","0","0","1/26/2022 12:00:00 AM","2019","17205","NYTIMES-USCENSUS"
"1/27/2022 12:00:00 AM","Shelby County","Iowa","Midwest","West North Central","19165","41.679014","-95.308917 ","2543","46","0","0","1/26/2022 12:00:00 AM","2019","11454","NYTIMES-USCENSUS"
"1/27/2022 12:00:00 AM","Franklin County","Iowa","Midwest","West North Central","19069","42.736545","-93.271415 ","2352","38","0","0","1/26/2022 12:00:00 AM","2019","10070","NYTIMES-USCENSUS"
"1/27/2022 12:00:00 AM","Johnson County","Nebraska","Midwest","West North Central","31097","40.394955","-96.265264 ","846","10","2","0","1/26/2022 12:00:00 AM","2019","5071","NYTIMES-USCENSUS"
"1/27/2022 12:00:00 AM","Sherburne County","Minnesota","Midwest","West North Central","27141","45.453176","-93.76913 ","25005","165","422","0","1/26/2022 12:00:00 AM","2019","97238","NYTIMES-USCENSUS"
"1/27/2022 12:00:00 AM","Crawford County","Illinois","Midwest","East North Central","17033","39.002787","-87.760619 ","5509","54","54","0","1/26/2022 12:00:00 AM","2019","18667","NYTIMES-USCENSUS"
"1/27/2022 12:00:00 AM","Falls Church city","Virginia","South","South Atlantic","51610","38.884722","-77.175603 ","1724","14","13","0","1/26/2022 12:00:00 AM","2019","14617","NYTIMES-USCENSUS"
"1/27/2022 12:00:00 AM","Clay County","Mississippi","South","East South Central","28025","33.65967","-88.782468 ","4595","80","30","0","1/26/2022 12:00:00 AM","2019","19316","NYTIMES-USCENSUS"
"1/27/2022 12:00:00 AM","Brown County","Kansas","Midwest","West North Central","20013","39.825931","-95.569905 ","2518","46","0","0","1/26/2022 12:00:00 AM","2019","9564","NYTIMES-USCENSUS"
"1/27/2022 12:00:00 AM","Cibola County","New Mexico","West","Mountain","35006","34.928272","-107.99268 ","6816","167","39","0","1/26/2022 12:00:00 AM","2019","26675","NYTIMES-USCENSUS"
"1/27/2022 12:00:00 AM","Angelina County","Texas","South","West South Central","48005","31.251896","-94.611134 ","14573","440","59","1","1/26/2022 12:00:00 AM","2019","86715","NYTIMES-USCENSUS"
"1/27/2022 12:00:00 AM","Albany County","New York","Northeast","Middle Atlantic","36001","42.58824","-73.97401 ","54921","477","253","0","1/26/2022 12:00:00 AM","2019","305506","NYTIMES-USCENSUS"
"1/27/2022 12:00:00 AM","Lunenburg County","Virginia","South","South Atlantic","51111","36.945555","-78.240528 ","1884","23","105","0","1/26/2022 12:00:00 AM","2019","12196","NYTIMES-USCENSUS"
"1/27/2022 12:00:00 AM","Colbert County","Alabama","South","East South Central","01033","34.703112","-87.801457 ","14225","217","0","0","1/26/2022 12:00:00 AM","2019","55241","NYTIMES-USCENSUS"
"1/27/2022 12:00:00 AM","Osage County","Kansas","Midwest","West North Central","20139","38.650215","-95.708255 ","3606","41","0","0","1/26/2022 12:00:00 AM","2019","15949","NYTIMES-USCENSUS"
"1/27/2022 12:00:00 AM","Prince George County","Virginia","South","South Atlantic","51149","37.187325","-77.220993 ","7345","55","63","0","1/26/2022 12:00:00 AM","2019","38353","NYTIMES-USCENSUS"
"1/27/2022 12:00:00 AM","Suffolk County","New York","Northeast","Middle Atlantic","36103","40.943554","-72.692218 ","413080","4166","1171","8","1/26/2022 12:00:00 AM","2019","1476601","NYTIMES-USCENSUS"
"1/27/2022 12:00:00 AM","Douglas County","Oregon","West","Pacific","41019","43.286328","-123.154476 ","17249","331","218","1","1/26/2022 12:00:00 AM","2019","110980","NYTIMES-USCENSUS"
"1/27/2022 12:00:00 AM","Lampasas County","Texas","South","West South Central","48281","31.196731","-98.240889 ","5018","75","9","1","1/26/2022 12:00:00 AM","2019","21428","NYTIMES-USCENSUS"
"1/27/2022 12:00:00 AM","Humphreys County","Tennessee","South","East South Central","47085","36.040822","-87.790453 ","4031","61","0","0","1/26/2022 12:00:00 AM","2019","18582","NYTIMES-USCENSUS"
"1/27/2022 12:00:00 AM","Cannon County","Tennessee","South","East South Central","47015","35.808394","-86.062404 ","3506","52","0","0","1/26/2022 12:00:00 AM","2019","14678","NYTIMES-USCENSUS"
"1/27/2022 12:00:00 AM","Hays County","Texas","South","West South Central","48209","30.061225","-98.029267 ","52389","445","516","3","1/26/2022 12:00:00 AM","2019","230191","NYTIMES-USCENSUS"
"1/27/2022 12:00:00 AM","Cedar County","Iowa","Midwest","West North Central","19031","41.77236","-91.132611 ","3757","29","0","0","1/26/2022 12:00:00 AM","2019","18627","NYTIMES-USCENSUS"
"1/27/2022 12:00:00 AM","Cumberland County","North Carolina","South","South Atlantic","37051","35.050192","-78.828719 ","71669","515","992","0","1/26/2022 12:00:00 AM","2019","335509","NYTIMES-USCENSUS"
"1/27/2022 12:00:00 AM","Holmes County","Mississippi","South","East South Central","28051","33.125942","-90.091197 ","4070","96","30","1","1/26/2022 12:00:00 AM","2019","17010","NYTIMES-USCENSUS"
"1/27/2022 12:00:00 AM","Cameron County","Texas","South","West South Central","48061","26.102923","-97.478958 ","89497","2029","652","0","1/26/2022 12:00:00 AM","2019","423163","NYTIMES-USCENSUS"
"1/27/2022 12:00:00 AM","Johnston County","North Carolina","South","South Atlantic","37101","35.513419","-78.367348 ","52302","368","559","0","1/26/2022 12:00:00 AM","2019","209339","NYTIMES-USCENSUS"
"1/27/2022 12:00:00 AM","La Plata County","Colorado","West","Mountain","08067","37.287367","-107.839718 ","11423","73","134","0","1/26/2022 12:00:00 AM","2019","56221","NYTIMES-USCENSUS"
"1/27/2022 12:00:00 AM","Emery County","Utah","West","Mountain","49015","39.009025","-110.7211 ","2328","25","27","0","1/26/2022 12:00:00 AM","2019","10012","NYTIMES-USCENSUS"
"1/27/2022 12:00:00 AM","Lenoir County","North Carolina","South","South Atlantic","37107","35.240066","-77.635514 ","14055","182","97","0","1/26/2022 12:00:00 AM","2019","55949","NYTIMES-USCENSUS"
"1/27/2022 12:00:00 AM","Chittenden County","Vermont","Northeast","New England","50007","44.463329","-73.06941 ","23993","145","220","1","1/26/2022 12:00:00 AM","2019","163774","NYTIMES-USCENSUS"
"1/27/2022 12:00:00 AM","Edwards County","Illinois","Midwest","East North Central","17047","38.417095","-88.047941 ","1634","25","17","0","1/26/2022 12:00:00 AM","2019","6395","NYTIMES-USCENSUS"
"1/27/2022 12:00:00 AM","Washington County","Texas","South","West South Central","48477","30.215075","-96.410272 ","8449","136","32","0","1/26/2022 12:00:00 AM","2019","35882","NYTIMES-USCENSUS"
"1/27/2022 12:00:00 AM","Lyon County","Nevada","West","Mountain","32019","39.022213","-119.197425 ","9457","151","111","2","1/26/2022 12:00:00 AM","2019","57510","NYTIMES-USCENSUS"
"1/27/2022 12:00:00 AM","Plymouth County","Massachusetts","Northeast","New England","25023","41.987196","-70.741942 ","109857","1827","635","4","1/26/2022 12:00:00 AM","2019","521202","NYTIMES-USCENSUS"
"1/27/2022 12:00:00 AM","Scott County","Mississippi","South","East South Central","28123","32.411959","-89.533486 ","6133","103","41","0","1/26/2022 12:00:00 AM","2019","28124","NYTIMES-USCENSUS"
"1/27/2022 12:00:00 AM","Craig County","Virginia","South","South Atlantic","51045","37.473603","-80.231051 ","944","12","8","0","1/26/2022 12:00:00 AM","2019","5131","NYTIMES-USCENSUS"
"1/27/2022 12:00:00 AM","St. Louis County","Minnesota","Midwest","West North Central","27137","47.578635","-92.514593 ","40495","483","754","2","1/26/2022 12:00:00 AM","2019","199070","NYTIMES-USCENSUS"
"1/27/2022 12:00:00 AM","Lucas County","Iowa","Midwest","West North Central","19117","41.033344","-93.331467 ","1620","29","0","0","1/26/2022 12:00:00 AM","2019","8600","NYTIMES-USCENSUS"
"1/27/2022 12:00:00 AM","Minnehaha County","South Dakota","Midwest","West North Central","46099","43.667472","-96.795726 ","55222","463","214","0","1/26/2022 12:00:00 AM","2019","193134","NYTIMES-USCENSUS"
"1/27/2022 12:00:00 AM","Hyde County","North Carolina","South","South Atlantic","37095","35.408157","-76.153687 ","1170","13","8","0","1/26/2022 12:00:00 AM","2019","4937","NYTIMES-USCENSUS"
"1/27/2022 12:00:00 AM","Baker County","Georgia","South","South Atlantic","13007","31.31958","-84.454881 ","500","14","3","0","1/26/2022 12:00:00 AM","2019","3038","NYTIMES-USCENSUS"
"1/27/2022 12:00:00 AM","Washington County","Florida","South","South Atlantic","12133","30.602102","-85.655805 ","5810","88","0","0","1/26/2022 12:00:00 AM","2019","25473","NYTIMES-USCENSUS"
"1/27/2022 12:00:00 AM","Floyd County","Indiana","Midwest","East North Central","18043","38.318081","-85.911847 ","17033","271","198","0","1/26/2022 12:00:00 AM","2019","78522","NYTIMES-USCENSUS"
"1/27/2022 12:00:00 AM","Holt County","Nebraska","Midwest","West North Central","31089","42.459287","-98.784766 ","1915","18","9","0","1/26/2022 12:00:00 AM","2019","10067","NYTIMES-USCENSUS"
"1/27/2022 12:00:00 AM","Klickitat County","Washington","West","Pacific","53039","45.870446","-120.779305 ","2937","37","0","0","1/26/2022 12:00:00 AM","2019","22425","NYTIMES-USCENSUS"
"1/27/2022 12:00:00 AM","Gates County","North Carolina","South","South Atlantic","37073","36.442135","-76.702355 ","1680","19","32","0","1/26/2022 12:00:00 AM","2019","11562","NYTIMES-USCENSUS"
"1/27/2022 12:00:00 AM","St. Helena Parish","Louisiana","South","West South Central","22091","30.822539","-90.708307 ","1797","21","33","0","1/26/2022 12:00:00 AM","2019","10132","NYTIMES-USCENSUS"
"1/27/2022 12:00:00 AM","Pontotoc County","Mississippi","South","East South Central","28115","34.227081","-89.037239 ","8994","119","45","0","1/26/2022 12:00:00 AM","2019","32174","NYTIMES-USCENSUS"
"1/27/2022 12:00:00 AM","Wasatch County","Utah","West","Mountain","49051","40.334884","-111.161568 ","10135","33","60","0","1/26/2022 12:00:00 AM","2019","34091","NYTIMES-USCENSUS"
"1/27/2022 12:00:00 AM","Claiborne Parish","Louisiana","South","West South Central","22027","32.82716","-92.989728 ","3030","67","21","0","1/26/2022 12:00:00 AM","2019","15670","NYTIMES-USCENSUS"
"1/27/2022 12:00:00 AM","Missaukee County","Michigan","Midwest","East North Central","26113","44.325424","-85.085471 ","2616","56","0","0","1/26/2022 12:00:00 AM","2019","15118","NYTIMES-USCENSUS"
"1/27/2022 12:00:00 AM","Adams County","Pennsylvania","Northeast","Middle Atlantic","42001","39.869471","-77.21773 ","23260","321","149","7","1/26/2022 12:00:00 AM","2019","103009","NYTIMES-USCENSUS"
"1/27/2022 12:00:00 AM","Shelby County","Ohio","Midwest","East North Central","39149","40.33668","-84.204142 ","10616","160","52","0","1/26/2022 12:00:00 AM","2019","48590","NYTIMES-USCENSUS"
"1/27/2022 12:00:00 AM","Penobscot County","Maine","Northeast","New England","23019","45.409284","-68.666616 ","19464","254","121","3","1/26/2022 12:00:00 AM","2019","152148","NYTIMES-USCENSUS"
"1/27/2022 12:00:00 AM","Hertford County","North Carolina","South","South Atlantic","37091","36.363517","-76.981616 ","4449","80","34","0","1/26/2022 12:00:00 AM","2019","23677","NYTIMES-USCENSUS"
"1/27/2022 12:00:00 AM","Washington County","Kansas","Midwest","West North Central","20201","39.776714","-97.095611 ","1267","20","0","0","1/26/2022 12:00:00 AM","2019","5406","NYTIMES-USCENSUS"
"1/27/2022 12:00:00 AM","Franklin County","Maine","Northeast","New England","23007","44.976724","-70.414935 ","4350","46","39","0","1/26/2022 12:00:00 AM","2019","30199","NYTIMES-USCENSUS"
"1/27/2022 12:00:00 AM","Jefferson County","Kansas","Midwest","West North Central","20087","39.239644","-95.375314 ","4411","54","0","0","1/26/2022 12:00:00 AM","2019","19043","NYTIMES-USCENSUS"
"1/27/2022 12:00:00 AM","Hillsdale County","Michigan","Midwest","East North Central","26059","41.927461","-84.637479 ","9423","180","0","0","1/26/2022 12:00:00 AM","2019","45605","NYTIMES-USCENSUS"
"1/27/2022 12:00:00 AM","Nolan County","Texas","South","West South Central","48353","32.312338","-100.418108 ","2863","89","20","1","1/26/2022 12:00:00 AM","2019","14714","NYTIMES-USCENSUS"
"1/27/2022 12:00:00 AM","Saguache County","Colorado","West","Mountain","08109","38.031651","-106.234666 ","1014","10","6","0","1/26/2022 12:00:00 AM","2019","6824","NYTIMES-USCENSUS"
"1/27/2022 12:00:00 AM","San Augustine County","Texas","South","West South Central","48405","31.382449","-94.16318 ","993","38","8","0","1/26/2022 12:00:00 AM","2019","8237","NYTIMES-USCENSUS"
"1/27/2022 12:00:00 AM","Fayette County","Tennessee","South","East South Central","47047","35.196993","-89.413803 ","10366","142","0","0","1/26/2022 12:00:00 AM","2019","41133","NYTIMES-USCENSUS"
"1/27/2022 12:00:00 AM","Grant County","New Mexico","West","Mountain","35017","32.732087","-108.381504 ","5719","70","46","0","1/26/2022 12:00:00 AM","2019","26998","NYTIMES-USCENSUS"
"1/27/2022 12:00:00 AM","Logan County","Oklahoma","South","West South Central","40083","35.914277","-97.450952 ","9593","140","0","0","1/26/2022 12:00:00 AM","2019","48011","NYTIMES-USCENSUS"
"1/27/2022 12:00:00 AM","Livingston County","Kentucky","South","East South Central","21139","37.209517","-88.363426 ","1978","51","16","0","1/26/2022 12:00:00 AM","2019","9194","NYTIMES-USCENSUS"
"1/27/2022 12:00:00 AM","Logan County","Colorado","West","Mountain","08075","40.728091","-103.090464 ","6293","102","119","0","1/26/2022 12:00:00 AM","2019","22409","NYTIMES-USCENSUS"
"1/27/2022 12:00:00 AM","Walla Walla County","Washington","West","Pacific","53071","46.254606","-118.48037 ","13242","122","246","0","1/26/2022 12:00:00 AM","2019","60760","NYTIMES-USCENSUS"
"1/27/2022 12:00:00 AM","Paulding County","Ohio","Midwest","East North Central","39125","41.118948","-84.582125 ","4369","67","54","0","1/26/2022 12:00:00 AM","2019","18672","NYTIMES-USCENSUS"
"1/27/2022 12:00:00 AM","Bedford County","Virginia","South","South Atlantic","51019","37.312257","-79.527223 ","14307","184","102","3","1/26/2022 12:00:00 AM","2019","78997","NYTIMES-USCENSUS"
"1/27/2022 12:00:00 AM","Blackford County","Indiana","Midwest","East North Central","18009","40.472672","-85.32373 ","2882","62","16","0","1/26/2022 12:00:00 AM","2019","11758","NYTIMES-USCENSUS"
"1/27/2022 12:00:00 AM","Storey County","Nevada","West","Mountain","32029","39.438385","-119.524646 ","301","9","1","0","1/26/2022 12:00:00 AM","2019","4123","NYTIMES-USCENSUS"
"1/27/2022 12:00:00 AM","Brown County","Indiana","Midwest","East North Central","18013","39.195113","-86.230121 ","2436","59","9","1","1/26/2022 12:00:00 AM","2019","15092","NYTIMES-USCENSUS"
"1/27/2022 12:00:00 AM","Fayette County","West Virginia","South","South Atlantic","54019","38.030933","-81.086051 ","10596","156","192","1","1/26/2022 12:00:00 AM","2019","42406","NYTIMES-USCENSUS"
"1/27/2022 12:00:00 AM","Hamilton County","Tennessee","South","East South Central","47065","35.163472","-85.201843 ","87645","981","0","1","1/26/2022 12:00:00 AM","2019","367804","NYTIMES-USCENSUS"
"1/27/2022 12:00:00 AM","Bottineau County","North Dakota","Midwest","West North Central","38009","48.794412","-100.831257 ","1424","24","14","0","1/26/2022 12:00:00 AM","2019","6282","NYTIMES-USCENSUS"
"1/27/2022 12:00:00 AM","Carroll County","Kentucky","South","East South Central","21041","38.668394","-85.124024 ","3154","39","16","0","1/26/2022 12:00:00 AM","2019","10631","NYTIMES-USCENSUS"
"1/27/2022 12:00:00 AM","Brown County","Illinois","Midwest","East North Central","17009","39.962069","-90.750309 ","2228","19","22","0","1/26/2022 12:00:00 AM","2019","6578","NYTIMES-USCENSUS"
"1/27/2022 12:00:00 AM","Natrona County","Wyoming","West","Mountain","56025","42.977645","-106.768219 ","20575","253","255","0","1/26/2022 12:00:00 AM","2019","79858","NYTIMES-USCENSUS"
"1/27/2022 12:00:00 AM","Linn County","Iowa","Midwest","West North Central","19113","42.077951","-91.597674 ","48004","513","0","0","1/26/2022 12:00:00 AM","2019","226706","NYTIMES-USCENSUS"
"1/27/2022 12:00:00 AM","Camden County","New Jersey","Northeast","Middle Atlantic","34007","39.802407","-74.961249 ","119743","1648","504","6","1/26/2022 12:00:00 AM","2019","506471","NYTIMES-USCENSUS"
"1/27/2022 12:00:00 AM","Lee County","Arkansas","South","West South Central","05077","34.779505","-90.779717 ","2761","54","12","0","1/26/2022 12:00:00 AM","2019","8857","NYTIMES-USCENSUS"
"1/27/2022 12:00:00 AM","McDuffie County","Georgia","South","South Atlantic","13189","33.480613","-82.479533 ","4752","83","32","0","1/26/2022 12:00:00 AM","2019","21312","NYTIMES-USCENSUS"
"1/27/2022 12:00:00 AM","Carbon County","Pennsylvania","Northeast","Middle Atlantic","42025","40.918367","-75.705039 ","15113","258","95","1","1/26/2022 12:00:00 AM","2019","64182","NYTIMES-USCENSUS"
"1/27/2022 12:00:00 AM","Cheyenne County","Kansas","Midwest","West North Central","20023","39.789917","-101.727325 ","631","14","0","0","1/26/2022 12:00:00 AM","2019","2657","NYTIMES-USCENSUS"
"1/27/2022 12:00:00 AM","Dewey County","South Dakota","Midwest","West North Central","46041","45.148049","-100.837953 ","2378","37","7","1","1/26/2022 12:00:00 AM","2019","5892","NYTIMES-USCENSUS"
"1/27/2022 12:00:00 AM","Augusta County","Virginia","South","South Atlantic","51015","38.17259","-79.140975 ","16683","156","167","1","1/26/2022 12:00:00 AM","2019","75558","NYTIMES-USCENSUS"
"1/27/2022 12:00:00 AM","Clay County","Florida","South","South Atlantic","12019","29.986584","-81.865036 ","45746","718","0","0","1/26/2022 12:00:00 AM","2019","219252","NYTIMES-USCENSUS"
"1/27/2022 12:00:00 AM","Hutchinson County","South Dakota","Midwest","West North Central","46067","43.33671","-97.749383 ","1659","33","12","0","1/26/2022 12:00:00 AM","2019","7291","NYTIMES-USCENSUS"
"1/27/2022 12:00:00 AM","Taliaferro County","Georgia","South","South Atlantic","13265","33.559319","-82.875272 ","245","3","12","0","1/26/2022 12:00:00 AM","2019","1537","NYTIMES-USCENSUS"
"1/27/2022 12:00:00 AM","Muhlenberg County","Kentucky","South","East South Central","21177","37.213816","-87.134092 ","8776","107","91","1","1/26/2022 12:00:00 AM","2019","30622","NYTIMES-USCENSUS"
"1/27/2022 12:00:00 AM","Shelby County","Alabama","South","East South Central","01117","33.263043","-86.678089 ","53229","394","0","0","1/26/2022 12:00:00 AM","2019","217702","NYTIMES-USCENSUS"
"1/27/2022 12:00:00 AM","Koochiching County","Minnesota","Midwest","West North Central","27071","48.245374","-93.782896 ","2342","34","37","0","1/26/2022 12:00:00 AM","2019","12229","NYTIMES-USCENSUS"
"1/27/2022 12:00:00 AM","Magoffin County","Kentucky","South","East South Central","21153","37.698983","-83.069721 ","3168","37","44","0","1/26/2022 12:00:00 AM","2019","12161","NYTIMES-USCENSUS"
"1/27/2022 12:00:00 AM","Dallas County","Missouri","Midwest","West North Central","29059","37.683583","-93.033815 ","3475","64","33","0","1/26/2022 12:00:00 AM","2019","16878","NYTIMES-USCENSUS"
"1/27/2022 12:00:00 AM","Bath County","Kentucky","South","East South Central","21011","38.152249","-83.737641 ","2366","34","21","0","1/26/2022 12:00:00 AM","2019","12500","NYTIMES-USCENSUS"
"1/27/2022 12:00:00 AM","Swift County","Minnesota","Midwest","West North Central","27151","45.27581","-95.690124 ","2026","31","35","0","1/26/2022 12:00:00 AM","2019","9266","NYTIMES-USCENSUS"
"1/27/2022 12:00:00 AM","Muskogee County","Oklahoma","South","West South Central","40101","35.617551","-95.383911 ","17427","291","0","0","1/26/2022 12:00:00 AM","2019","67997","NYTIMES-USCENSUS"
"1/27/2022 12:00:00 AM","Price County","Wisconsin","Midwest","East North Central","55099","45.679072","-90.35965 ","3027","27","26","0","1/26/2022 12:00:00 AM","2019","13351","NYTIMES-USCENSUS"
"1/27/2022 12:00:00 AM","Cattaraugus County","New York","Northeast","Middle Atlantic","36009","42.239099","-78.662332 ","14207","205","83","0","1/26/2022 12:00:00 AM","2019","76117","NYTIMES-USCENSUS"
"1/27/2022 12:00:00 AM","Baca County","Colorado","West","Mountain","08009","37.30978","-102.543741 ","694","8","7","0","1/26/2022 12:00:00 AM","2019","3581","NYTIMES-USCENSUS"
"1/27/2022 12:00:00 AM","Carbon County","Utah","West","Mountain","49007","39.673284","-110.588484 ","4754","42","54","0","1/26/2022 12:00:00 AM","2019","20463","NYTIMES-USCENSUS"
"1/27/2022 12:00:00 AM","Saline County","Kansas","Midwest","West North Central","20169","38.791804","-97.651478 ","12988","210","0","0","1/26/2022 12:00:00 AM","2019","54224","NYTIMES-USCENSUS"
"1/27/2022 12:00:00 AM","Marshall County","Indiana","Midwest","East North Central","18099","41.325003","-86.269036 ","11761","182","64","0","1/26/2022 12:00:00 AM","2019","46258","NYTIMES-USCENSUS"
"1/27/2022 12:00:00 AM","Elmore County","Idaho","West","Mountain","16039","43.394698","-115.471205 ","5173","57","42","0","1/26/2022 12:00:00 AM","2019","27511","NYTIMES-USCENSUS"
"1/27/2022 12:00:00 AM","Warren County","Iowa","Midwest","West North Central","19181","41.332446","-93.568751 ","11464","121","0","0","1/26/2022 12:00:00 AM","2019","51466","NYTIMES-USCENSUS"
"1/27/2022 12:00:00 AM","Caribou County","Idaho","West","Mountain","16029","42.786072","-111.544273 ","1377","25","15","0","1/26/2022 12:00:00 AM","2019","7155","NYTIMES-USCENSUS"
"1/27/2022 12:00:00 AM","Union County","Kentucky","South","East South Central","21225","37.658029","-87.95165 ","3827","52","29","1","1/26/2022 12:00:00 AM","2019","14381","NYTIMES-USCENSUS"
"1/27/2022 12:00:00 AM","Marion County","Kentucky","South","East South Central","21155","37.552604","-85.268959 ","5631","67","81","0","1/26/2022 12:00:00 AM","2019","19273","NYTIMES-USCENSUS"
"1/27/2022 12:00:00 AM","Roanoke County","Virginia","South","South Atlantic","51161","37.330792","-80.191237 ","18839","205","136","1","1/26/2022 12:00:00 AM","2019","94186","NYTIMES-USCENSUS"
"1/27/2022 12:00:00 AM","New Madrid County","Missouri","Midwest","West North Central","29143","36.594261","-89.655948 ","4422","71","56","0","1/26/2022 12:00:00 AM","2019","17076","NYTIMES-USCENSUS"
"1/27/2022 12:00:00 AM","Kimball County","Nebraska","Midwest","West North Central","31105","41.199274","-103.703153 ","703","9","5","0","1/26/2022 12:00:00 AM","2019","3632","NYTIMES-USCENSUS"
"1/27/2022 12:00:00 AM","Madison County","Indiana","Midwest","East North Central","18095","40.166203","-85.722454 ","30859","587","207","2","1/26/2022 12:00:00 AM","2019","129569","NYTIMES-USCENSUS"
"1/27/2022 12:00:00 AM","Morgan County","Ohio","Midwest","East North Central","39115","39.624946","-81.861697 ","3001","48","24","0","1/26/2022 12:00:00 AM","2019","14508","NYTIMES-USCENSUS"
"1/27/2022 12:00:00 AM","Cottle County","Texas","South","West South Central","48101","34.091906","-100.276442 ","267","9","0","0","1/26/2022 12:00:00 AM","2019","1398","NYTIMES-USCENSUS"
"1/27/2022 12:00:00 AM","Adams County","Illinois","Midwest","East North Central","17001","39.986052","-91.194961 ","20809","217","149","0","1/26/2022 12:00:00 AM","2019","65435","NYTIMES-USCENSUS"
"1/27/2022 12:00:00 AM","Lea County","New Mexico","West","Mountain","35025","32.795687","-103.413271 ","19101","305","64","2","1/26/2022 12:00:00 AM","2019","71070","NYTIMES-USCENSUS"
"1/27/2022 12:00:00 AM","Miner County","South Dakota","Midwest","West North Central","46097","44.021541","-97.608122 ","446","12","1","0","1/26/2022 12:00:00 AM","2019","2216","NYTIMES-USCENSUS"
"1/27/2022 12:00:00 AM","Summers County","West Virginia","South","South Atlantic","54089","37.655999","-80.856325 ","2312","43","57","0","1/26/2022 12:00:00 AM","2019","12573","NYTIMES-USCENSUS"
"1/27/2022 12:00:00 AM","Westchester County","New York","Northeast","Middle Atlantic","36119","41.152686","-73.745753 ","240513","2588","668","8","1/26/2022 12:00:00 AM","2019","967506","NYTIMES-USCENSUS"
"1/27/2022 12:00:00 AM","Warren County","Tennessee","South","East South Central","47177","35.67825","-85.777343 ","10915","154","0","0","1/26/2022 12:00:00 AM","2019","41277","NYTIMES-USCENSUS"
"1/27/2022 12:00:00 AM","Glynn County","Georgia","South","South Atlantic","13127","31.21271","-81.49645 ","20950","361","253","1","1/26/2022 12:00:00 AM","2019","85292","NYTIMES-USCENSUS"
"1/27/2022 12:00:00 AM","Park County","Wyoming","West","Mountain","56029","44.492387","-109.593597 ","6337","126","52","0","1/26/2022 12:00:00 AM","2019","29194","NYTIMES-USCENSUS"
"1/27/2022 12:00:00 AM","Cascade County","Montana","West","Mountain","30013","47.316575","-111.350262 ","19901","290","441","0","1/26/2022 12:00:00 AM","2019","81366","NYTIMES-USCENSUS"
"1/27/2022 12:00:00 AM","Canyon County","Idaho","West","Mountain","16027","43.625796","-116.709058 ","52052","621","511","1","1/26/2022 12:00:00 AM","2019","229849","NYTIMES-USCENSUS"
"1/27/2022 12:00:00 AM","Clay County","Indiana","Midwest","East North Central","18021","39.393928","-87.115858 ","6416","79","42","1","1/26/2022 12:00:00 AM","2019","26225","NYTIMES-USCENSUS"
"1/27/2022 12:00:00 AM","Harrison County","Texas","South","West South Central","48203","32.547991","-94.374434 ","11806","199","80","1","1/26/2022 12:00:00 AM","2019","66553","NYTIMES-USCENSUS"
"1/27/2022 12:00:00 AM","Douglas County","Missouri","Midwest","West North Central","29067","36.946517","-92.515892 ","2296","68","32","0","1/26/2022 12:00:00 AM","2019","13185","NYTIMES-USCENSUS"
"1/27/2022 12:00:00 AM","Columbia County","Pennsylvania","Northeast","Middle Atlantic","42037","41.045517","-76.40426 ","13694","212","115","1","1/26/2022 12:00:00 AM","2019","64964","NYTIMES-USCENSUS"
"1/27/2022 12:00:00 AM","Morris County","Kansas","Midwest","West North Central","20127","38.688204","-96.651448 ","1363","23","0","0","1/26/2022 12:00:00 AM","2019","5620","NYTIMES-USCENSUS"
"1/27/2022 12:00:00 AM","Hill County","Montana","West","Mountain","30041","48.631959","-110.106321 ","3934","71","39","0","1/26/2022 12:00:00 AM","2019","16484","NYTIMES-USCENSUS"
"1/27/2022 12:00:00 AM","Ingham County","Michigan","Midwest","East North Central","26065","42.603534","-84.373811 ","58715","663","0","0","1/26/2022 12:00:00 AM","2019","292406","NYTIMES-USCENSUS"
"1/27/2022 12:00:00 AM","Kaufman County","Texas","South","West South Central","48257","32.598944","-96.288377 ","32689","470","179","3","1/26/2022 12:00:00 AM","2019","136154","NYTIMES-USCENSUS"
"1/27/2022 12:00:00 AM","Logan County","Ohio","Midwest","East North Central","39091","40.387553","-83.766343 ","9678","149","70","0","1/26/2022 12:00:00 AM","2019","45672","NYTIMES-USCENSUS"
"1/27/2022 12:00:00 AM","St. Landry Parish","Louisiana","South","West South Central","22097","30.583441","-91.989274 ","20349","361","172","1","1/26/2022 12:00:00 AM","2019","82124","NYTIMES-USCENSUS"
"1/27/2022 12:00:00 AM","St. John the Baptist Parish","Louisiana","South","West South Central","22095","30.144068","-90.49096 ","10010","176","49","0","1/26/2022 12:00:00 AM","2019","42837","NYTIMES-USCENSUS"
"1/27/2022 12:00:00 AM","Fayette County","Ohio","Midwest","East North Central","39047","39.555246","-83.461893 ","7362","94","39","0","1/26/2022 12:00:00 AM","2019","28525","NYTIMES-USCENSUS"
"1/27/2022 12:00:00 AM","Meriwether County","Georgia","South","South Atlantic","13199","33.029267","-84.667058 ","4217","125","37","0","1/26/2022 12:00:00 AM","2019","21167","NYTIMES-USCENSUS"
"1/27/2022 12:00:00 AM","Rockwall County","Texas","South","West South Central","48397","32.899886","-96.41205 ","24640","240","135","0","1/26/2022 12:00:00 AM","2019","104915","NYTIMES-USCENSUS"
"1/27/2022 12:00:00 AM","Covington city","Virginia","South","South Atlantic","51580","37.78106","-79.985434 ","903","20","4","0","1/26/2022 12:00:00 AM","2019","5538","NYTIMES-USCENSUS"
"1/27/2022 12:00:00 AM","Franklin County","Florida","South","South Atlantic","12037","29.677794","-84.815213 ","2664","46","0","0","1/26/2022 12:00:00 AM","2019","12125","NYTIMES-USCENSUS"
"1/27/2022 12:00:00 AM","Churchill County","Nevada","West","Mountain","32001","39.53771","-118.264166 ","5663","93","115","1","1/26/2022 12:00:00 AM","2019","24909","NYTIMES-USCENSUS"
"1/27/2022 12:00:00 AM","Jim Wells County","Texas","South","West South Central","48249","27.733516","-98.090814 ","9988","185","82","0","1/26/2022 12:00:00 AM","2019","40482","NYTIMES-USCENSUS"
"1/27/2022 12:00:00 AM","Carroll County","Ohio","Midwest","East North Central","39019","40.579884","-81.090787 ","5084","103","33","0","1/26/2022 12:00:00 AM","2019","26914","NYTIMES-USCENSUS"
"1/27/2022 12:00:00 AM","Red Willow County","Nebraska","Midwest","West North Central","31145","40.16942","-100.468576 ","2110","18","-2","0","1/26/2022 12:00:00 AM","2019","10724","NYTIMES-USCENSUS"
"1/27/2022 12:00:00 AM","Lincoln County","New Mexico","West","Mountain","35027","33.740841","-105.449805 ","4742","56","54","0","1/26/2022 12:00:00 AM","2019","19572","NYTIMES-USCENSUS"
"1/27/2022 12:00:00 AM","Foster County","North Dakota","Midwest","West North Central","38031","47.471431","-98.872876 ","896","20","10","0","1/26/2022 12:00:00 AM","2019","3210","NYTIMES-USCENSUS"
"1/27/2022 12:00:00 AM","Echols County","Georgia","South","South Atlantic","13101","30.714008","-82.897376 ","895","11","10","0","1/26/2022 12:00:00 AM","2019","4006","NYTIMES-USCENSUS"
"1/27/2022 12:00:00 AM","Carter County","Kentucky","South","East South Central","21043","38.314094","-83.038988 ","7026","91","87","0","1/26/2022 12:00:00 AM","2019","26797","NYTIMES-USCENSUS"
"1/27/2022 12:00:00 AM","Erie County","New York","Northeast","Middle Atlantic","36029","42.752759","-78.778192 ","197793","2439","818","10","1/26/2022 12:00:00 AM","2019","918702","NYTIMES-USCENSUS"
"1/27/2022 12:00:00 AM","Plaquemines Parish","Louisiana","South","West South Central","22075","29.282447","-89.576068 ","6119","42","39","-1","1/26/2022 12:00:00 AM","2019","23197","NYTIMES-USCENSUS"
"1/27/2022 12:00:00 AM","Lubbock County","Texas","South","West South Central","48303","33.611469","-101.819944 ","92971","1185","438","14","1/26/2022 12:00:00 AM","2019","310569","NYTIMES-USCENSUS"
"1/27/2022 12:00:00 AM","Yell County","Arkansas","South","West South Central","05149","34.997713","-93.408303 ","6346","94","73","1","1/26/2022 12:00:00 AM","2019","21341","NYTIMES-USCENSUS"
"1/27/2022 12:00:00 AM","Russell County","Virginia","South","South Atlantic","51167","36.93342","-82.095934 ","5745","83","93","2","1/26/2022 12:00:00 AM","2019","26586","NYTIMES-USCENSUS"
"1/27/2022 12:00:00 AM","Kit Carson County","Colorado","West","Mountain","08063","39.30534","-102.603023 ","1475","29","8","0","1/26/2022 12:00:00 AM","2019","7097","NYTIMES-USCENSUS"
"1/27/2022 12:00:00 AM","Dooly County","Georgia","South","South Atlantic","13093","32.151995","-83.807167 ","2188","63","24","0","1/26/2022 12:00:00 AM","2019","13390","NYTIMES-USCENSUS"
"1/27/2022 12:00:00 AM","Gaines County","Texas","South","West South Central","48165","32.743942","-102.631561 ","1671","74","22","1","1/26/2022 12:00:00 AM","2019","21492","NYTIMES-USCENSUS"
"1/27/2022 12:00:00 AM","Monroe County","Tennessee","South","East South Central","47123","35.447818","-84.249705 ","12335","203","0","0","1/26/2022 12:00:00 AM","2019","46545","NYTIMES-USCENSUS"
"1/27/2022 12:00:00 AM","Cuming County","Nebraska","Midwest","West North Central","31039","41.915865","-96.788517 ","1692","15","7","0","1/26/2022 12:00:00 AM","2019","8846","NYTIMES-USCENSUS"
"1/27/2022 12:00:00 AM","Jasper County","Mississippi","South","East South Central","28061","32.016748","-89.119176 ","4362","66","48","0","1/26/2022 12:00:00 AM","2019","16383","NYTIMES-USCENSUS"
"1/27/2022 12:00:00 AM","Wayne County","Nebraska","Midwest","West North Central","31179","42.210746","-97.126243 ","1637","11","13","0","1/26/2022 12:00:00 AM","2019","9385","NYTIMES-USCENSUS"
"1/27/2022 12:00:00 AM","Dorchester County","Maryland","South","South Atlantic","24019","38.429196","-76.047433 ","7072","100","45","0","1/26/2022 12:00:00 AM","2019","31929","NYTIMES-USCENSUS"
"1/27/2022 12:00:00 AM","Pierce County","North Dakota","Midwest","West North Central","38069","48.238883","-99.966497 ","991","30","10","0","1/26/2022 12:00:00 AM","2019","3975","NYTIMES-USCENSUS"
"1/27/2022 12:00:00 AM","Yuma County","Arizona","West","Mountain","04027","32.773942","-113.910905 ","57238","1042","599","-1","1/26/2022 12:00:00 AM","2019","213787","NYTIMES-USCENSUS"
"1/27/2022 12:00:00 AM","Franklin County","Pennsylvania","Northeast","Middle Atlantic","42055","39.926772","-77.724521 ","37826","610","254","2","1/26/2022 12:00:00 AM","2019","155027","NYTIMES-USCENSUS"
"1/27/2022 12:00:00 AM","Polk County","Arkansas","South","West South Central","05113","34.490915","-94.230884 ","3779","130","31","0","1/26/2022 12:00:00 AM","2019","19964","NYTIMES-USCENSUS"
"1/27/2022 12:00:00 AM","Woodward County","Oklahoma","South","West South Central","40153","36.425619","-99.273661 ","4704","60","0","0","1/26/2022 12:00:00 AM","2019","20211","NYTIMES-USCENSUS"
"1/27/2022 12:00:00 AM","Warren County","Illinois","Midwest","East North Central","17187","40.850441","-90.620223 ","3736","80","26","0","1/26/2022 12:00:00 AM","2019","16844","NYTIMES-USCENSUS"
"1/27/2022 12:00:00 AM","Sierra County","New Mexico","West","Mountain","35051","33.119468","-107.188161 ","1818","69","14","1","1/26/2022 12:00:00 AM","2019","10791","NYTIMES-USCENSUS"
"1/27/2022 12:00:00 AM","Charleston County","South Carolina","South","South Atlantic","45019","32.800458","-79.94248 ","102217","786","1026","1","1/26/2022 12:00:00 AM","2019","411406","NYTIMES-USCENSUS"
"1/27/2022 12:00:00 AM","Clayton County","Iowa","Midwest","West North Central","19043","42.840985","-91.323576 ","3196","69","0","0","1/26/2022 12:00:00 AM","2019","17549","NYTIMES-USCENSUS"
"1/27/2022 12:00:00 AM","Miami County","Indiana","Midwest","East North Central","18103","40.772883","-86.044258 ","8648","142","45","2","1/26/2022 12:00:00 AM","2019","35516","NYTIMES-USCENSUS"
"1/27/2022 12:00:00 AM","Cape May County","New Jersey","Northeast","Middle Atlantic","34009","39.085841","-74.846354 ","20919","273","79","0","1/26/2022 12:00:00 AM","2019","92039","NYTIMES-USCENSUS"
"1/27/2022 12:00:00 AM","Wasco County","Oregon","West","Pacific","41065","45.164536","-121.165069 ","4420","50","44","0","1/26/2022 12:00:00 AM","2019","26682","NYTIMES-USCENSUS"
"1/27/2022 12:00:00 AM","Knox County","Texas","South","West South Central","48275","33.61189","-99.730356 ","465","22","2","0","1/26/2022 12:00:00 AM","2019","3664","NYTIMES-USCENSUS"
"1/27/2022 12:00:00 AM","Champaign County","Ohio","Midwest","East North Central","39021","40.132775","-83.767604 ","8229","117","59","0","1/26/2022 12:00:00 AM","2019","38885","NYTIMES-USCENSUS"
"1/27/2022 12:00:00 AM","Los Alamos County","New Mexico","West","Mountain","35028","35.870047","-106.307968 ","2237","12","32","0","1/26/2022 12:00:00 AM","2019","19369","NYTIMES-USCENSUS"
"1/27/2022 12:00:00 AM","Cottonwood County","Minnesota","Midwest","West North Central","27033","44.010639","-95.183152 ","2935","37","40","0","1/26/2022 12:00:00 AM","2019","11196","NYTIMES-USCENSUS"
"1/27/2022 12:00:00 AM","Harris County","Georgia","South","South Atlantic","13145","32.731549","-84.912432 ","5662","98","59","1","1/26/2022 12:00:00 AM","2019","35236","NYTIMES-USCENSUS"
"1/27/2022 12:00:00 AM","Todd County","Kentucky","South","East South Central","21219","36.840338","-87.183642 ","2627","39","21","0","1/26/2022 12:00:00 AM","2019","12294","NYTIMES-USCENSUS"
"1/27/2022 12:00:00 AM","Buffalo County","South Dakota","Midwest","West North Central","46017","44.044306","-99.203998 ","592","17","2","0","1/26/2022 12:00:00 AM","2019","1962","NYTIMES-USCENSUS"
"1/27/2022 12:00:00 AM","DeKalb County","Georgia","South","South Atlantic","13089","33.770661","-84.226343 ","136958","1466","663","9","1/26/2022 12:00:00 AM","2019","759297","NYTIMES-USCENSUS"
"1/27/2022 12:00:00 AM","Outagamie County","Wisconsin","Midwest","East North Central","55087","44.418226","-88.464988 ","51650","323","348","0","1/26/2022 12:00:00 AM","2019","187885","NYTIMES-USCENSUS"
"1/27/2022 12:00:00 AM","Sullivan County","Tennessee","South","East South Central","47163","36.509681","-82.301336 ","37990","587","0","0","1/26/2022 12:00:00 AM","2019","158348","NYTIMES-USCENSUS"
"1/27/2022 12:00:00 AM","Vinton County","Ohio","Midwest","East North Central","39163","39.252042","-82.485961 ","2657","46","26","0","1/26/2022 12:00:00 AM","2019","13085","NYTIMES-USCENSUS"
"1/27/2022 12:00:00 AM","Albemarle County","Virginia","South","South Atlantic","51003","38.024184","-78.553506 ","13355","124","126","0","1/26/2022 12:00:00 AM","2019","109330","NYTIMES-USCENSUS"
"1/27/2022 12:00:00 AM","Columbia County","Washington","West","Pacific","53013","46.29285","-117.911634 ","479","11","0","0","1/26/2022 12:00:00 AM","2019","3985","NYTIMES-USCENSUS"
"1/27/2022 12:00:00 AM","Henderson County","Tennessee","South","East South Central","47077","35.653994","-88.387674 ","7681","124","0","0","1/26/2022 12:00:00 AM","2019","28117","NYTIMES-USCENSUS"
"1/27/2022 12:00:00 AM","Macon County","Illinois","Midwest","East North Central","17115","39.860237","-88.961529 ","28586","322","280","1","1/26/2022 12:00:00 AM","2019","104009","NYTIMES-USCENSUS"
"1/27/2022 12:00:00 AM","Quitman County","Mississippi","South","East South Central","28119","34.252833","-90.290171 ","1466","28","10","0","1/26/2022 12:00:00 AM","2019","6792","NYTIMES-USCENSUS"
"1/27/2022 12:00:00 AM","Scurry County","Texas","South","West South Central","48415","32.744353","-100.913346 ","4736","95","24","0","1/26/2022 12:00:00 AM","2019","16703","NYTIMES-USCENSUS"
"1/27/2022 12:00:00 AM","Waukesha County","Wisconsin","Midwest","East North Central","55133","43.018368","-88.30424 ","106804","916","434","1","1/26/2022 12:00:00 AM","2019","404198","NYTIMES-USCENSUS"
"1/27/2022 12:00:00 AM","Richland County","North Dakota","Midwest","West North Central","38077","46.265219","-96.93796 ","3734","21","37","0","1/26/2022 12:00:00 AM","2019","16177","NYTIMES-USCENSUS"
"1/27/2022 12:00:00 AM","DeWitt County","Texas","South","West South Central","48123","29.082346","-97.361654 ","6153","86","45","0","1/26/2022 12:00:00 AM","2019","20160","NYTIMES-USCENSUS"
"1/27/2022 12:00:00 AM","Hunterdon County","New Jersey","Northeast","Middle Atlantic","34019","40.565283","-74.911969 ","23093","243","133","0","1/26/2022 12:00:00 AM","2019","124371","NYTIMES-USCENSUS"
"1/27/2022 12:00:00 AM","Long County","Georgia","South","South Atlantic","13183","31.749563","-81.74287 ","2506","29","31","0","1/26/2022 12:00:00 AM","2019","19559","NYTIMES-USCENSUS"
"1/27/2022 12:00:00 AM","Benewah County","Idaho","West","Mountain","16009","47.218451","-116.633541 ","1859","33","9","0","1/26/2022 12:00:00 AM","2019","9298","NYTIMES-USCENSUS"
"1/27/2022 12:00:00 AM","Walworth County","South Dakota","Midwest","West North Central","46129","45.427605","-100.027856 ","1223","20","8","0","1/26/2022 12:00:00 AM","2019","5435","NYTIMES-USCENSUS"
"1/27/2022 12:00:00 AM","Franklin County","Missouri","Midwest","West North Central","29071","38.413003","-91.072832 ","21281","295","119","0","1/26/2022 12:00:00 AM","2019","103967","NYTIMES-USCENSUS"
"1/27/2022 12:00:00 AM","Tate County","Mississippi","South","East South Central","28137","34.649553","-89.943105 ","6427","127","60","0","1/26/2022 12:00:00 AM","2019","28321","NYTIMES-USCENSUS"
"1/27/2022 12:00:00 AM","Norfolk County","Massachusetts","Northeast","New England","25021","42.171738","-71.18111 ","122884","2074","715","8","1/26/2022 12:00:00 AM","2019","706775","NYTIMES-USCENSUS"
"1/27/2022 12:00:00 AM","Spokane County","Washington","West","Pacific","53063","47.620375","-117.403371 ","108028","1197","0","0","1/26/2022 12:00:00 AM","2019","522798","NYTIMES-USCENSUS"
"1/27/2022 12:00:00 AM","Sutter County","California","West","Pacific","06101","39.03619","-121.70394 ","20253","210","398","0","1/26/2022 12:00:00 AM","2019","96971","NYTIMES-USCENSUS"
"1/27/2022 12:00:00 AM","Schoolcraft County","Michigan","Midwest","East North Central","26153","46.021122","-86.197029 ","1562","12","0","0","1/26/2022 12:00:00 AM","2019","8094","NYTIMES-USCENSUS"
"1/27/2022 12:00:00 AM","Van Buren County","Iowa","Midwest","West North Central","19177","40.754117","-91.952943 ","1269","25","0","0","1/26/2022 12:00:00 AM","2019","7044","NYTIMES-USCENSUS"
"1/27/2022 12:00:00 AM","Montour County","Pennsylvania","Northeast","Middle Atlantic","42093","41.029284","-76.665225 ","4160","84","29","1","1/26/2022 12:00:00 AM","2019","18230","NYTIMES-USCENSUS"
"1/27/2022 12:00:00 AM","Huntingdon County","Pennsylvania","Northeast","Middle Atlantic","42061","40.422311","-77.968595 ","10540","224","128","3","1/26/2022 12:00:00 AM","2019","45144","NYTIMES-USCENSUS"
"1/27/2022 12:00:00 AM","Robeson County","North Carolina","South","South Atlantic","37155","34.63921","-79.100881 ","36559","479","421","0","1/26/2022 12:00:00 AM","2019","130625","NYTIMES-USCENSUS"
"1/27/2022 12:00:00 AM","Mecklenburg County","North Carolina","South","South Atlantic","37119","35.246862","-80.833832 ","254987","1425","3121","5","1/26/2022 12:00:00 AM","2019","1110356","NYTIMES-USCENSUS"
"1/27/2022 12:00:00 AM","Weber County","Utah","West","Mountain","49057","41.270325","-111.876883 ","65479","375","18","0","1/26/2022 12:00:00 AM","2019","260213","NYTIMES-USCENSUS"
"1/27/2022 12:00:00 AM","Bladen County","North Carolina","South","South Atlantic","37017","34.591938","-78.539489 ","8463","105","138","0","1/26/2022 12:00:00 AM","2019","32722","NYTIMES-USCENSUS"
"1/27/2022 12:00:00 AM","Somerset County","Pennsylvania","Northeast","Middle Atlantic","42111","39.981297","-79.028486 ","17459","368","132","4","1/26/2022 12:00:00 AM","2019","73447","NYTIMES-USCENSUS"
"1/27/2022 12:00:00 AM","Walker County","Texas","South","West South Central","48471","30.743163","-95.569825 ","17205","197","73","1","1/26/2022 12:00:00 AM","2019","72971","NYTIMES-USCENSUS"
"1/27/2022 12:00:00 AM","Sheboygan County","Wisconsin","Midwest","East North Central","55117","43.741232","-87.731516 ","30567","262","304","38","1/26/2022 12:00:00 AM","2019","115340","NYTIMES-USCENSUS"
"1/27/2022 12:00:00 AM","Cleveland County","North Carolina","South","South Atlantic","37045","35.33463","-81.557114 ","26885","338","764","3","1/26/2022 12:00:00 AM","2019","97947","NYTIMES-USCENSUS"
"1/27/2022 12:00:00 AM","Buncombe County","North Carolina","South","South Atlantic","37021","35.609371","-82.530423 ","44348","490","349","2","1/26/2022 12:00:00 AM","2019","261191","NYTIMES-USCENSUS"
"1/27/2022 12:00:00 AM","Acadia Parish","Louisiana","South","West South Central","22001","30.291497","-92.411037 ","14848","267","127","1","1/26/2022 12:00:00 AM","2019","62045","NYTIMES-USCENSUS"
"1/27/2022 12:00:00 AM","Early County","Georgia","South","South Atlantic","13099","31.324191","-84.906723 ","2585","58","31","0","1/26/2022 12:00:00 AM","2019","10190","NYTIMES-USCENSUS"
"1/27/2022 12:00:00 AM","Collingsworth County","Texas","South","West South Central","48087","34.963358","-100.272135 ","613","13","0","0","1/26/2022 12:00:00 AM","2019","2920","NYTIMES-USCENSUS"
"1/27/2022 12:00:00 AM","Jefferson County","Alabama","South","East South Central","01073","33.553444","-86.896536 ","166471","2041","0","0","1/26/2022 12:00:00 AM","2019","658573","NYTIMES-USCENSUS"
"1/27/2022 12:00:00 AM","Garfield County","Utah","West","Mountain","49017","37.831664","-111.450908 ","865","12","5","0","1/26/2022 12:00:00 AM","2019","5051","NYTIMES-USCENSUS"
"1/27/2022 12:00:00 AM","St. Johns County","Florida","South","South Atlantic","12109","29.890487","-81.40004 ","54149","485","0","0","1/26/2022 12:00:00 AM","2019","264672","NYTIMES-USCENSUS"
"1/27/2022 12:00:00 AM","Morgan County","Illinois","Midwest","East North Central","17137","39.717668","-90.205005 ","8825","130","82","0","1/26/2022 12:00:00 AM","2019","33658","NYTIMES-USCENSUS"
"1/27/2022 12:00:00 AM","Tippah County","Mississippi","South","East South Central","28139","34.763618","-88.918819 ","6301","91","69","1","1/26/2022 12:00:00 AM","2019","22015","NYTIMES-USCENSUS"
"1/27/2022 12:00:00 AM","Hampden County","Massachusetts","Northeast","New England","25013","42.136198","-72.635648 ","124566","1905","782","12","1/26/2022 12:00:00 AM","2019","466372","NYTIMES-USCENSUS"
"1/27/2022 12:00:00 AM","Indian River County","Florida","South","South Atlantic","12061","27.700528","-80.574789 ","28925","587","0","0","1/26/2022 12:00:00 AM","2019","159923","NYTIMES-USCENSUS"
"1/27/2022 12:00:00 AM","Bates County","Missouri","Midwest","West North Central","29013","38.257217","-94.339246 ","3489","70","35","0","1/26/2022 12:00:00 AM","2019","16172","NYTIMES-USCENSUS"
"1/27/2022 12:00:00 AM","Overton County","Tennessee","South","East South Central","47133","36.34485","-85.283076 ","6079","118","0","0","1/26/2022 12:00:00 AM","2019","22241","NYTIMES-USCENSUS"
"1/27/2022 12:00:00 AM","Perry County","Indiana","Midwest","East North Central","18123","38.081436","-86.62654 ","4273","61","34","0","1/26/2022 12:00:00 AM","2019","19169","NYTIMES-USCENSUS"
"1/27/2022 12:00:00 AM","Seneca County","Ohio","Midwest","East North Central","39147","41.119992","-83.127547 ","12217","207","49","0","1/26/2022 12:00:00 AM","2019","55178","NYTIMES-USCENSUS"
"1/27/2022 12:00:00 AM","Hot Spring County","Arkansas","South","West South Central","05059","34.315177","-92.944147 ","10195","114","88","0","1/26/2022 12:00:00 AM","2019","33771","NYTIMES-USCENSUS"
"1/27/2022 12:00:00 AM","Greene County","Iowa","Midwest","West North Central","19073","42.042513","-94.388727 ","1602","19","0","0","1/26/2022 12:00:00 AM","2019","8888","NYTIMES-USCENSUS"
"1/27/2022 12:00:00 AM","Okfuskee County","Oklahoma","South","West South Central","40107","35.466804","-96.327762 ","3137","52","0","0","1/26/2022 12:00:00 AM","2019","11993","NYTIMES-USCENSUS"
"1/27/2022 12:00:00 AM","Lenawee County","Michigan","Midwest","East North Central","26091","41.896022","-84.074356 ","24039","291","0","0","1/26/2022 12:00:00 AM","2019","98451","NYTIMES-USCENSUS"
"1/27/2022 12:00:00 AM","Rolette County","North Dakota","Midwest","West North Central","38079","48.768271","-99.840463 ","5206","39","63","0","1/26/2022 12:00:00 AM","2019","14176","NYTIMES-USCENSUS"
"1/27/2022 12:00:00 AM","Kittson County","Minnesota","Midwest","West North Central","27069","48.77604","-96.780349 ","944","26","11","0","1/26/2022 12:00:00 AM","2019","4298","NYTIMES-USCENSUS"
"1/27/2022 12:00:00 AM","Swain County","North Carolina","South","South Atlantic","37173","35.568849","-83.465614 ","2987","33","23","0","1/26/2022 12:00:00 AM","2019","14271","NYTIMES-USCENSUS"
"1/27/2022 12:00:00 AM","Mason County","Texas","South","West South Central","48319","30.703916","-99.237302 ","717","9","3","0","1/26/2022 12:00:00 AM","2019","4274","NYTIMES-USCENSUS"
"1/27/2022 12:00:00 AM","Deschutes County","Oregon","West","Pacific","41017","43.915118","-121.225575 ","40430","231","454","0","1/26/2022 12:00:00 AM","2019","197692","NYTIMES-USCENSUS"
"1/27/2022 12:00:00 AM","Lassen County","California","West","Pacific","06035","40.715287","-120.621223 ","9558","61","27","0","1/26/2022 12:00:00 AM","2019","30573","NYTIMES-USCENSUS"
"1/27/2022 12:00:00 AM","Ziebach County","South Dakota","Midwest","West North Central","46137","44.989764","-101.660827 ","516","11","0","0","1/26/2022 12:00:00 AM","2019","2756","NYTIMES-USCENSUS"
"1/27/2022 12:00:00 AM","Onondaga County","New York","Northeast","Middle Atlantic","36067","43.006516","-76.196134 ","100596","960","597","2","1/26/2022 12:00:00 AM","2019","460528","NYTIMES-USCENSUS"
"1/27/2022 12:00:00 AM","Madison County","Nebraska","Midwest","West North Central","31119","41.909929","-97.606856 ","8876","58","69","0","1/26/2022 12:00:00 AM","2019","35099","NYTIMES-USCENSUS"
"1/27/2022 12:00:00 AM","Jefferson County","Wisconsin","Midwest","East North Central","55055","43.013804","-88.773985 ","20046","203","142","0","1/26/2022 12:00:00 AM","2019","84769","NYTIMES-USCENSUS"
"1/27/2022 12:00:00 AM","Henry County","Iowa","Midwest","West North Central","19087","40.984802","-91.547259 ","5220","62","0","0","1/26/2022 12:00:00 AM","2019","19954","NYTIMES-USCENSUS"
"1/27/2022 12:00:00 AM","O'Brien County","Iowa","Midwest","West North Central","19141","43.083746","-95.625624 ","3248","70","0","0","1/26/2022 12:00:00 AM","2019","13753","NYTIMES-USCENSUS"
"1/27/2022 12:00:00 AM","Yates County","New York","Northeast","Middle Atlantic","36123","42.638237","-77.104324 ","3081","37","13","1","1/26/2022 12:00:00 AM","2019","24913","NYTIMES-USCENSUS"
"1/27/2022 12:00:00 AM","Bryan County","Oklahoma","South","West South Central","40013","33.964004","-96.265135 ","12368","120","0","0","1/26/2022 12:00:00 AM","2019","47995","NYTIMES-USCENSUS"
"1/27/2022 12:00:00 AM","Lawrence County","Arkansas","South","West South Central","05075","36.041098","-91.101153 ","4619","65","36","1","1/26/2022 12:00:00 AM","2019","16406","NYTIMES-USCENSUS"
"1/27/2022 12:00:00 AM","Otsego County","New York","Northeast","Middle Atlantic","36077","42.629776","-75.028841 ","8922","79","53","0","1/26/2022 12:00:00 AM","2019","59493","NYTIMES-USCENSUS"
"1/27/2022 12:00:00 AM","Sumter County","Georgia","South","South Atlantic","13261","32.042266","-84.204294 ","6308","145","48","0","1/26/2022 12:00:00 AM","2019","29524","NYTIMES-USCENSUS"
"1/27/2022 12:00:00 AM","Roosevelt County","New Mexico","West","Mountain","35041","34.021207","-103.483004 ","4377","88","13","0","1/26/2022 12:00:00 AM","2019","18500","NYTIMES-USCENSUS"
"1/27/2022 12:00:00 AM","Oglethorpe County","Georgia","South","South Atlantic","13221","33.866806","-83.074081 ","3060","46","43","0","1/26/2022 12:00:00 AM","2019","15259","NYTIMES-USCENSUS"
"1/27/2022 12:00:00 AM","Summit County","Ohio","Midwest","East North Central","39153","41.121847","-81.534928 ","109540","1452","247","0","1/26/2022 12:00:00 AM","2019","541013","NYTIMES-USCENSUS"
"1/27/2022 12:00:00 AM","Craven County","North Carolina","South","South Atlantic","37049","35.116829","-77.08132 ","20474","174","273","2","1/26/2022 12:00:00 AM","2019","102139","NYTIMES-USCENSUS"
"1/27/2022 12:00:00 AM","Fall River County","South Dakota","Midwest","West North Central","46047","43.221619","-103.512609 ","1644","36","30","0","1/26/2022 12:00:00 AM","2019","6713","NYTIMES-USCENSUS"
"1/27/2022 12:00:00 AM","Nicholas County","West Virginia","South","South Atlantic","54067","38.291432","-80.797515 ","6118","80","63","1","1/26/2022 12:00:00 AM","2019","24496","NYTIMES-USCENSUS"
"1/27/2022 12:00:00 AM","Mineral County","West Virginia","South","South Atlantic","54057","39.404781","-78.95669 ","7041","143","38","0","1/26/2022 12:00:00 AM","2019","26868","NYTIMES-USCENSUS"
"1/27/2022 12:00:00 AM","Whitley County","Indiana","Midwest","East North Central","18183","41.136426","-85.501892 ","9245","73","119","0","1/26/2022 12:00:00 AM","2019","33964","NYTIMES-USCENSUS"
"1/27/2022 12:00:00 AM","Morrow County","Ohio","Midwest","East North Central","39117","40.525266","-82.797729 ","7407","85","46","0","1/26/2022 12:00:00 AM","2019","35328","NYTIMES-USCENSUS"
"1/27/2022 12:00:00 AM","Burnett County","Wisconsin","Midwest","East North Central","55013","45.866897","-92.37573 ","3663","37","41","0","1/26/2022 12:00:00 AM","2019","15414","NYTIMES-USCENSUS"
"1/27/2022 12:00:00 AM","Dawson County","Georgia","South","South Atlantic","13085","34.442608","-84.173261 ","6512","86","67","0","1/26/2022 12:00:00 AM","2019","26108","NYTIMES-USCENSUS"
"1/27/2022 12:00:00 AM","Gregory County","South Dakota","Midwest","West North Central","46053","43.175142","-99.206591 ","1015","33","1","0","1/26/2022 12:00:00 AM","2019","4185","NYTIMES-USCENSUS"
"1/27/2022 12:00:00 AM","Motley County","Texas","South","West South Central","48345","34.057899","-100.793152 ","252","11","1","1","1/26/2022 12:00:00 AM","2019","1200","NYTIMES-USCENSUS"
"1/27/2022 12:00:00 AM","Sumter County","South Carolina","South","South Atlantic","45085","33.91614","-80.382376 ","25205","327","239","0","1/26/2022 12:00:00 AM","2019","106721","NYTIMES-USCENSUS"
"1/27/2022 12:00:00 AM","Ste. Genevieve County","Missouri","Midwest","West North Central","29186","37.885845","-90.161531 ","3371","35","28","0","1/26/2022 12:00:00 AM","2019","17894","NYTIMES-USCENSUS"
"1/27/2022 12:00:00 AM","Johnson County","Georgia","South","South Atlantic","13167","32.694584","-82.66397 ","2105","66","12","1","1/26/2022 12:00:00 AM","2019","9643","NYTIMES-USCENSUS"
"1/27/2022 12:00:00 AM","McPherson County","Kansas","Midwest","West North Central","20113","38.395812","-97.647489 ","7310","114","174","1","1/26/2022 12:00:00 AM","2019","28542","NYTIMES-USCENSUS"
"1/27/2022 12:00:00 AM","Smith County","Tennessee","South","East South Central","47159","36.256645","-85.941915 ","5224","68","0","0","1/26/2022 12:00:00 AM","2019","20157","NYTIMES-USCENSUS"
"1/27/2022 12:00:00 AM","Sawyer County","Wisconsin","Midwest","East North Central","55113","45.864911","-91.147133 ","4306","53","24","0","1/26/2022 12:00:00 AM","2019","16558","NYTIMES-USCENSUS"
"1/27/2022 12:00:00 AM","Ochiltree County","Texas","South","West South Central","48357","36.278744","-100.815864 ","1938","42","3","0","1/26/2022 12:00:00 AM","2019","9836","NYTIMES-USCENSUS"
"1/27/2022 12:00:00 AM","Lawrence County","Ohio","Midwest","East North Central","39087","38.603866","-82.517186 ","15751","195","206","0","1/26/2022 12:00:00 AM","2019","59463","NYTIMES-USCENSUS"
"1/27/2022 12:00:00 AM","Jeff Davis County","Georgia","South","South Atlantic","13161","31.811615","-82.636825 ","3615","64","31","0","1/26/2022 12:00:00 AM","2019","15115","NYTIMES-USCENSUS"
"1/27/2022 12:00:00 AM","Lincoln County","Maine","Northeast","New England","23015","43.994781","-69.513624 ","3614","19","35","0","1/26/2022 12:00:00 AM","2019","34634","NYTIMES-USCENSUS"
"1/27/2022 12:00:00 AM","Campbell County","Tennessee","South","East South Central","47013","36.401592","-84.159249 ","9870","135","0","0","1/26/2022 12:00:00 AM","2019","39842","NYTIMES-USCENSUS"
"1/27/2022 12:00:00 AM","Ottawa County","Michigan","Midwest","East North Central","26139","43.054969","-86.219349 ","69222","715","0","0","1/26/2022 12:00:00 AM","2019","291830","NYTIMES-USCENSUS"
"1/27/2022 12:00:00 AM","Washington County","Nebraska","Midwest","West North Central","31177","41.533973","-96.224577 ","4173","31","37","0","1/26/2022 12:00:00 AM","2019","20729","NYTIMES-USCENSUS"
"1/27/2022 12:00:00 AM","Tunica County","Mississippi","South","East South Central","28143","34.652201","-90.37177 ","2353","41","43","0","1/26/2022 12:00:00 AM","2019","9632","NYTIMES-USCENSUS"
"1/27/2022 12:00:00 AM","Lander County","Nevada","West","Mountain","32015","39.90021","-117.04724 ","984","16","20","0","1/26/2022 12:00:00 AM","2019","5532","NYTIMES-USCENSUS"
"1/27/2022 12:00:00 AM","Orange County","Vermont","Northeast","New England","50017","44.003349","-72.369464 ","2989","10","24","0","1/26/2022 12:00:00 AM","2019","28892","NYTIMES-USCENSUS"
"1/27/2022 12:00:00 AM","Falls County","Texas","South","West South Central","48145","31.25193","-96.934127 ","3537","55","13","0","1/26/2022 12:00:00 AM","2019","17297","NYTIMES-USCENSUS"
"1/27/2022 12:00:00 AM","Deer Lodge County","Montana","West","Mountain","30023","46.094672","-113.141624 ","2119","29","41","0","1/26/2022 12:00:00 AM","2019","9140","NYTIMES-USCENSUS"
"1/27/2022 12:00:00 AM","Henderson County","Texas","South","West South Central","48213","32.211633","-95.853418 ","13322","370","266","0","1/26/2022 12:00:00 AM","2019","82737","NYTIMES-USCENSUS"
"1/27/2022 12:00:00 AM","Morton County","North Dakota","Midwest","West North Central","38059","46.710819","-101.298265 ","10307","136","75","0","1/26/2022 12:00:00 AM","2019","31364","NYTIMES-USCENSUS"
"1/27/2022 12:00:00 AM","Texas County","Oklahoma","South","West South Central","40139","36.746317","-101.483855 ","5508","46","0","0","1/26/2022 12:00:00 AM","2019","19983","NYTIMES-USCENSUS"
"1/27/2022 12:00:00 AM","Utah County","Utah","West","Mountain","49049","40.120425","-111.668508 ","190681","706","1542","0","1/26/2022 12:00:00 AM","2019","636235","NYTIMES-USCENSUS"
"1/27/2022 12:00:00 AM","Glenn County","California","West","Pacific","06021","39.602546","-122.4017 ","5839","55","125","0","1/26/2022 12:00:00 AM","2019","28393","NYTIMES-USCENSUS"
"1/27/2022 12:00:00 AM","Coffee County","Georgia","South","South Atlantic","13069","31.549245","-82.84494 ","9964","250","75","0","1/26/2022 12:00:00 AM","2019","43273","NYTIMES-USCENSUS"
"1/27/2022 12:00:00 AM","Somerset County","Maryland","South","South Atlantic","24039","38.07445","-75.853323 ","4812","66","48","1","1/26/2022 12:00:00 AM","2019","25616","NYTIMES-USCENSUS"
"1/27/2022 12:00:00 AM","Dane County","Wisconsin","Midwest","East North Central","55025","43.067468","-89.417852 ","112779","453","958","1","1/26/2022 12:00:00 AM","2019","546695","NYTIMES-USCENSUS"
"1/27/2022 12:00:00 AM","Drew County","Arkansas","South","West South Central","05043","33.587242","-91.722778 ","4305","58","58","0","1/26/2022 12:00:00 AM","2019","18219","NYTIMES-USCENSUS"
"1/27/2022 12:00:00 AM","Frio County","Texas","South","West South Central","48163","28.869383","-99.109005 ","4984","82","36","0","1/26/2022 12:00:00 AM","2019","20306","NYTIMES-USCENSUS"
"1/27/2022 12:00:00 AM","Benton County","Minnesota","Midwest","West North Central","27009","45.701225","-94.00144 ","12282","154","262","1","1/26/2022 12:00:00 AM","2019","40889","NYTIMES-USCENSUS"
"1/27/2022 12:00:00 AM","Morgan County","Kentucky","South","East South Central","21175","37.92294","-83.258944 ","3875","17","135","0","1/26/2022 12:00:00 AM","2019","13309","NYTIMES-USCENSUS"
"1/27/2022 12:00:00 AM","Trinity County","Texas","South","West South Central","48455","31.096675","-95.151687 ","2310","67","9","0","1/26/2022 12:00:00 AM","2019","14651","NYTIMES-USCENSUS"
"1/27/2022 12:00:00 AM","Pepin County","Wisconsin","Midwest","East North Central","55091","44.627436","-91.83489 ","1833","16","12","0","1/26/2022 12:00:00 AM","2019","7287","NYTIMES-USCENSUS"
"1/27/2022 12:00:00 AM","Lafayette County","Arkansas","South","West South Central","05073","33.240629","-93.611514 ","1187","28","9","0","1/26/2022 12:00:00 AM","2019","6624","NYTIMES-USCENSUS"
"1/27/2022 12:00:00 AM","Sioux County","North Dakota","Midwest","West North Central","38085","46.110618","-101.061284 ","1227","19","4","0","1/26/2022 12:00:00 AM","2019","4230","NYTIMES-USCENSUS"
"1/27/2022 12:00:00 AM","Alpine County","California","West","Pacific","06003","38.621783","-119.798352 ","124","0","2","0","1/26/2022 12:00:00 AM","2019","1129","NYTIMES-USCENSUS"
"1/27/2022 12:00:00 AM","West Feliciana Parish","Louisiana","South","West South Central","22125","30.873364","-91.421776 ","2655","41","13","0","1/26/2022 12:00:00 AM","2019","15568","NYTIMES-USCENSUS"
"1/27/2022 12:00:00 AM","Clearfield County","Pennsylvania","Northeast","Middle Atlantic","42033","41.006862","-78.477724 ","17636","296","147","2","1/26/2022 12:00:00 AM","2019","79255","NYTIMES-USCENSUS"
"1/27/2022 12:00:00 AM","Mineral County","Nevada","West","Mountain","32021","38.516647","-118.416279 ","849","14","0","0","1/26/2022 12:00:00 AM","2019","4505","NYTIMES-USCENSUS"
"1/27/2022 12:00:00 AM","Fairfield County","Connecticut","Northeast","New England","09001","41.227413","-73.367061 ","191808","2519","652","3","1/26/2022 12:00:00 AM","2019","943332","NYTIMES-USCENSUS"
"1/27/2022 12:00:00 AM","Jackson Parish","Louisiana","South","West South Central","22049","32.30429","-92.5617 ","3992","66","83","0","1/26/2022 12:00:00 AM","2019","15744","NYTIMES-USCENSUS"
"1/27/2022 12:00:00 AM","Tillamook County","Oregon","West","Pacific","41057","45.45589","-123.759299 ","3119","54","34","0","1/26/2022 12:00:00 AM","2019","27036","NYTIMES-USCENSUS"
"1/27/2022 12:00:00 AM","Ravalli County","Montana","West","Mountain","30081","46.077744","-114.105795 ","6360","130","40","0","1/26/2022 12:00:00 AM","2019","43806","NYTIMES-USCENSUS"
"1/27/2022 12:00:00 AM","Terry County","Texas","South","West South Central","48445","33.171229","-102.339284 ","2036","79","1","0","1/26/2022 12:00:00 AM","2019","12337","NYTIMES-USCENSUS"
"1/27/2022 12:00:00 AM","Charlton County","Georgia","South","South Atlantic","13049","30.779904","-82.139644 ","2677","58","19","0","1/26/2022 12:00:00 AM","2019","13392","NYTIMES-USCENSUS"
"1/27/2022 12:00:00 AM","Bernalillo County","New Mexico","West","Mountain","35001","35.053628","-106.66908 ","132156","1484","1302","9","1/26/2022 12:00:00 AM","2019","679121","NYTIMES-USCENSUS"
"1/27/2022 12:00:00 AM","Lapeer County","Michigan","Midwest","East North Central","26087","43.088633","-83.224325 ","19588","377","0","0","1/26/2022 12:00:00 AM","2019","87607","NYTIMES-USCENSUS"
"1/27/2022 12:00:00 AM","Lake County","Ohio","Midwest","East North Central","39085","41.778142","-81.19733 ","47803","636","80","0","1/26/2022 12:00:00 AM","2019","230149","NYTIMES-USCENSUS"
"1/27/2022 12:00:00 AM","Chicot County","Arkansas","South","West South Central","05017","33.267139","-91.297158 ","2618","50","17","0","1/26/2022 12:00:00 AM","2019","10118","NYTIMES-USCENSUS"
"1/27/2022 12:00:00 AM","St. Louis city","Missouri","Midwest","West North Central","29510","38.635699","-90.244582 ","53086","698","261","0","1/26/2022 12:00:00 AM","2019","300576","NYTIMES-USCENSUS"
"1/27/2022 12:00:00 AM","Lincoln County","Oklahoma","South","West South Central","40081","35.703117","-96.881392 ","6845","119","0","0","1/26/2022 12:00:00 AM","2019","34877","NYTIMES-USCENSUS"
"1/27/2022 12:00:00 AM","Kewaunee County","Wisconsin","Midwest","East North Central","55061","44.605677","-87.448008 ","5624","53","26","0","1/26/2022 12:00:00 AM","2019","20434","NYTIMES-USCENSUS"
"1/27/2022 12:00:00 AM","Hart County","Kentucky","South","East South Central","21099","37.305827","-85.878443 ","4672","85","32","0","1/26/2022 12:00:00 AM","2019","19035","NYTIMES-USCENSUS"
"1/27/2022 12:00:00 AM","Forsyth County","North Carolina","South","South Atlantic","37067","36.132466","-80.256961 ","83680","678","691","5","1/26/2022 12:00:00 AM","2019","382295","NYTIMES-USCENSUS"
"1/27/2022 12:00:00 AM","Wakulla County","Florida","South","South Atlantic","12129","30.091335","-84.359111 ","8520","109","0","0","1/26/2022 12:00:00 AM","2019","33739","NYTIMES-USCENSUS"
"1/27/2022 12:00:00 AM","Garza County","Texas","South","West South Central","48169","33.183792","-101.301134 ","1166","25","3","0","1/26/2022 12:00:00 AM","2019","6229","NYTIMES-USCENSUS"
"1/27/2022 12:00:00 AM","Linn County","Missouri","Midwest","West North Central","29115","39.86444","-93.108019 ","2203","59","11","0","1/26/2022 12:00:00 AM","2019","11920","NYTIMES-USCENSUS"
"1/27/2022 12:00:00 AM","York County","South Carolina","South","South Atlantic","45091","34.970188","-81.183187 ","70055","556","359","1","1/26/2022 12:00:00 AM","2019","280979","NYTIMES-USCENSUS"
"1/27/2022 12:00:00 AM","Tyler County","Texas","South","West South Central","48457","30.769295","-94.375656 ","3200","75","9","1","1/26/2022 12:00:00 AM","2019","21672","NYTIMES-USCENSUS"
"1/27/2022 12:00:00 AM","Lafayette County","Mississippi","South","East South Central","28071","34.353078","-89.485385 ","13412","159","147","1","1/26/2022 12:00:00 AM","2019","54019","NYTIMES-USCENSUS"
"1/27/2022 12:00:00 AM","Martin County","Minnesota","Midwest","West North Central","27091","43.677173","-94.547096 ","4956","53","84","0","1/26/2022 12:00:00 AM","2019","19683","NYTIMES-USCENSUS"
"1/27/2022 12:00:00 AM","Box Elder County","Utah","West","Mountain","49003","41.622623","-113.060252 ","13182","103","132","0","1/26/2022 12:00:00 AM","2019","56046","NYTIMES-USCENSUS"
"1/27/2022 12:00:00 AM","St. Clair County","Michigan","Midwest","East North Central","26147","42.928803","-82.668913 ","38141","749","205","2","1/26/2022 12:00:00 AM","2019","159128","NYTIMES-USCENSUS"
"1/27/2022 12:00:00 AM","Caddo Parish","Louisiana","South","West South Central","22017","32.580106","-93.88497 ","63555","1028","453","2","1/26/2022 12:00:00 AM","2019","240204","NYTIMES-USCENSUS"
"1/27/2022 12:00:00 AM","Chester County","Pennsylvania","Northeast","Middle Atlantic","42029","39.974029","-75.749751 ","86490","1053","491","15","1/26/2022 12:00:00 AM","2019","524989","NYTIMES-USCENSUS"
"1/27/2022 12:00:00 AM","Fairbanks North Star Borough","Alaska","West","Pacific","02090","64.676044","-146.548159 ","23160","124","0","0","1/26/2022 12:00:00 AM","2019","96849","NYTIMES-USCENSUS"
"1/27/2022 12:00:00 AM","Hernando County","Florida","South","South Atlantic","12053","28.555995","-82.525969 ","36834","949","0","0","1/26/2022 12:00:00 AM","2019","193920","NYTIMES-USCENSUS"
"1/27/2022 12:00:00 AM","Hitchcock County","Nebraska","Midwest","West North Central","31087","40.176896","-101.044217 ","477","6","0","0","1/26/2022 12:00:00 AM","2019","2762","NYTIMES-USCENSUS"
"1/27/2022 12:00:00 AM","Wabash County","Illinois","Midwest","East North Central","17185","38.445821","-87.839167 ","3445","23","38","0","1/26/2022 12:00:00 AM","2019","11520","NYTIMES-USCENSUS"
"1/27/2022 12:00:00 AM","St. Mary's County","Maryland","South","South Atlantic","24037","38.223077","-76.534487 ","17296","193","179","0","1/26/2022 12:00:00 AM","2019","113510","NYTIMES-USCENSUS"
"1/27/2022 12:00:00 AM","Chesterfield County","South Carolina","South","South Atlantic","45025","34.637018","-80.159227 ","10469","166","68","1","1/26/2022 12:00:00 AM","2019","45650","NYTIMES-USCENSUS"
"1/27/2022 12:00:00 AM","Butler County","Pennsylvania","Northeast","Middle Atlantic","42019","40.913847","-79.918978 ","41726","666","310","3","1/26/2022 12:00:00 AM","2019","187853","NYTIMES-USCENSUS"
"1/27/2022 12:00:00 AM","Forest County","Pennsylvania","Northeast","Middle Atlantic","42053","41.513304","-79.249705 ","2084","34","13","0","1/26/2022 12:00:00 AM","2019","7247","NYTIMES-USCENSUS"
"1/27/2022 12:00:00 AM","Kearney County","Nebraska","Midwest","West North Central","31099","40.50912","-98.947602 ","1104","7","9","0","1/26/2022 12:00:00 AM","2019","6495","NYTIMES-USCENSUS"
"1/27/2022 12:00:00 AM","Harney County","Oregon","West","Pacific","41025","43.064449","-118.987169 ","1389","35","31","0","1/26/2022 12:00:00 AM","2019","7393","NYTIMES-USCENSUS"
"1/27/2022 12:00:00 AM","Lafayette County","Missouri","Midwest","West North Central","29107","39.068705","-93.802639 ","7205","109","65","1","1/26/2022 12:00:00 AM","2019","32708","NYTIMES-USCENSUS"
"1/27/2022 12:00:00 AM","Solano County","California","West","Pacific","06095","38.267226","-121.939594 ","73487","401","1380","2","1/26/2022 12:00:00 AM","2019","447643","NYTIMES-USCENSUS"
"1/27/2022 12:00:00 AM","Edwards County","Kansas","Midwest","West North Central","20047","37.883595","-99.304746 ","538","13","0","0","1/26/2022 12:00:00 AM","2019","2798","NYTIMES-USCENSUS"
"1/27/2022 12:00:00 AM","Brookings County","South Dakota","Midwest","West North Central","46011","44.376675","-96.797797 ","7752","41","62","0","1/26/2022 12:00:00 AM","2019","35077","NYTIMES-USCENSUS"
"1/27/2022 12:00:00 AM","Boulder County","Colorado","West","Mountain","08013","40.094962","-105.397704 ","56759","344","604","0","1/26/2022 12:00:00 AM","2019","326196","NYTIMES-USCENSUS"
"1/27/2022 12:00:00 AM","Wyandot County","Ohio","Midwest","East North Central","39175","40.839782","-83.313681 ","5118","94","22","0","1/26/2022 12:00:00 AM","2019","21772","NYTIMES-USCENSUS"
"1/27/2022 12:00:00 AM","Campbell County","Kentucky","South","East South Central","21037","38.946981","-84.379583 ","22388","135","93","0","1/26/2022 12:00:00 AM","2019","93584","NYTIMES-USCENSUS"
"1/27/2022 12:00:00 AM","Erie County","Ohio","Midwest","East North Central","39043","41.394143","-82.586835 ","18786","227","54","0","1/26/2022 12:00:00 AM","2019","74266","NYTIMES-USCENSUS"
"1/27/2022 12:00:00 AM","Tuscaloosa County","Alabama","South","East South Central","01125","33.29022","-87.522783 ","49533","674","0","0","1/26/2022 12:00:00 AM","2019","209355","NYTIMES-USCENSUS"
"1/27/2022 12:00:00 AM","Hocking County","Ohio","Midwest","East North Central","39073","39.490342","-82.483447 ","6069","105","62","0","1/26/2022 12:00:00 AM","2019","28264","NYTIMES-USCENSUS"
"1/27/2022 12:00:00 AM","Marion County","Iowa","Midwest","West North Central","19125","41.331433","-93.093868 ","7064","110","0","0","1/26/2022 12:00:00 AM","2019","33253","NYTIMES-USCENSUS"
"1/27/2022 12:00:00 AM","Washita County","Oklahoma","South","West South Central","40149","35.289497","-98.991436 ","2358","38","0","0","1/26/2022 12:00:00 AM","2019","10916","NYTIMES-USCENSUS"
"1/27/2022 12:00:00 AM","Mason County","Illinois","Midwest","East North Central","17125","40.236993","-89.913575 ","3647","58","38","0","1/26/2022 12:00:00 AM","2019","13359","NYTIMES-USCENSUS"
"1/27/2022 12:00:00 AM","Beaver County","Pennsylvania","Northeast","Middle Atlantic","42007","40.68414","-80.350721 ","37069","667","328","4","1/26/2022 12:00:00 AM","2019","163929","NYTIMES-USCENSUS"
"1/27/2022 12:00:00 AM","Walworth County","Wisconsin","Midwest","East North Central","55127","42.66811","-88.541731 ","25495","253","261","2","1/26/2022 12:00:00 AM","2019","103868","NYTIMES-USCENSUS"
"1/27/2022 12:00:00 AM","Jack County","Texas","South","West South Central","48237","33.23216","-98.171177 ","1381","23","7","0","1/26/2022 12:00:00 AM","2019","8935","NYTIMES-USCENSUS"
"1/27/2022 12:00:00 AM","Grayson County","Virginia","South","South Atlantic","51077","36.652229","-81.215324 ","3144","67","33","0","1/26/2022 12:00:00 AM","2019","15550","NYTIMES-USCENSUS"
"1/27/2022 12:00:00 AM","Dyer County","Tennessee","South","East South Central","47045","36.054196","-89.398306 ","11187","172","0","0","1/26/2022 12:00:00 AM","2019","37159","NYTIMES-USCENSUS"
"1/27/2022 12:00:00 AM","Pipestone County","Minnesota","Midwest","West North Central","27117","44.015361","-96.257015 ","1850","32","15","0","1/26/2022 12:00:00 AM","2019","9126","NYTIMES-USCENSUS"
"1/27/2022 12:00:00 AM","Beaver County","Oklahoma","South","West South Central","40007","36.748334","-100.483056 ","852","10","0","0","1/26/2022 12:00:00 AM","2019","5311","NYTIMES-USCENSUS"
"1/27/2022 12:00:00 AM","St. Croix County","Wisconsin","Midwest","East North Central","55109","45.028959","-92.447284 ","22751","126","146","0","1/26/2022 12:00:00 AM","2019","90687","NYTIMES-USCENSUS"
"1/27/2022 12:00:00 AM","Andrew County","Missouri","Midwest","West North Central","29003","39.988863","-94.803551 ","4392","44","45","0","1/26/2022 12:00:00 AM","2019","17712","NYTIMES-USCENSUS"
"1/27/2022 12:00:00 AM","Shelby County","Missouri","Midwest","West North Central","29205","39.797531","-92.088719 ","1404","13","8","0","1/26/2022 12:00:00 AM","2019","5930","NYTIMES-USCENSUS"
"1/27/2022 12:00:00 AM","Starr County","Texas","South","West South Central","48427","26.530903","-98.740235 ","16045","339","229","0","1/26/2022 12:00:00 AM","2019","64633","NYTIMES-USCENSUS"
"1/27/2022 12:00:00 AM","Grafton County","New Hampshire","Northeast","New England","33009","43.926439","-71.842424 ","14292","53","211","1","1/26/2022 12:00:00 AM","2019","89886","NYTIMES-USCENSUS"
"1/27/2022 12:00:00 AM","Arkansas County","Arkansas","South","West South Central","05001","34.28957","-91.376547 ","5293","67","56","0","1/26/2022 12:00:00 AM","2019","17486","NYTIMES-USCENSUS"
"1/27/2022 12:00:00 AM","Jerauld County","South Dakota","Midwest","West North Central","46073","44.06341","-98.62317 ","385","19","6","0","1/26/2022 12:00:00 AM","2019","2013","NYTIMES-USCENSUS"
"1/27/2022 12:00:00 AM","Wheeler County","Texas","South","West South Central","48483","35.392593","-100.253107 ","1098","15","1","0","1/26/2022 12:00:00 AM","2019","5056","NYTIMES-USCENSUS"
"1/27/2022 12:00:00 AM","Union County","Tennessee","South","East South Central","47173","36.28414","-83.836088 ","4469","68","0","0","1/26/2022 12:00:00 AM","2019","19972","NYTIMES-USCENSUS"
"1/27/2022 12:00:00 AM","Jefferson County","West Virginia","South","South Atlantic","54037","39.307398","-77.86322 ","13257","112","76","1","1/26/2022 12:00:00 AM","2019","57146","NYTIMES-USCENSUS"
"1/27/2022 12:00:00 AM","Lawrence County","Pennsylvania","Northeast","Middle Atlantic","42073","40.992735","-80.334446 ","17905","374","122","3","1/26/2022 12:00:00 AM","2019","85512","NYTIMES-USCENSUS"
"1/27/2022 12:00:00 AM","Pike County","Alabama","South","East South Central","01109","31.798653","-85.941608 ","6630","115","0","0","1/26/2022 12:00:00 AM","2019","33114","NYTIMES-USCENSUS"
"1/27/2022 12:00:00 AM","Hidalgo County","Texas","South","West South Central","48215","26.396384","-98.18099 ","168656","3600","1415","0","1/26/2022 12:00:00 AM","2019","868707","NYTIMES-USCENSUS"
"1/27/2022 12:00:00 AM","Noble County","Oklahoma","South","West South Central","40103","36.384901","-97.236335 ","2613","33","0","0","1/26/2022 12:00:00 AM","2019","11131","NYTIMES-USCENSUS"
"1/27/2022 12:00:00 AM","Henry County","Virginia","South","South Atlantic","51089","36.620612","-79.980662 ","9980","215","93","0","1/26/2022 12:00:00 AM","2019","50557","NYTIMES-USCENSUS"
"1/27/2022 12:00:00 AM","Pacific County","Washington","West","Pacific","53049","46.556587","-123.782419 ","2738","44","0","0","1/26/2022 12:00:00 AM","2019","22471","NYTIMES-USCENSUS"
"1/27/2022 12:00:00 AM","Muskegon County","Michigan","Midwest","East North Central","26121","43.428739","-86.420908 ","38923","574","0","0","1/26/2022 12:00:00 AM","2019","173566","NYTIMES-USCENSUS"
"1/27/2022 12:00:00 AM","Lake County","Michigan","Midwest","East North Central","26085","43.995187","-85.8114 ","1636","33","0","0","1/26/2022 12:00:00 AM","2019","11853","NYTIMES-USCENSUS"
"1/27/2022 12:00:00 AM","Jackson County","Oklahoma","South","West South Central","40065","34.594006","-99.412235 ","5727","92","0","0","1/26/2022 12:00:00 AM","2019","24530","NYTIMES-USCENSUS"
"1/27/2022 12:00:00 AM","Highland County","Ohio","Midwest","East North Central","39071","39.184422","-83.601359 ","9989","151","51","0","1/26/2022 12:00:00 AM","2019","43161","NYTIMES-USCENSUS"
"1/27/2022 12:00:00 AM","Weakley County","Tennessee","South","East South Central","47183","36.303596","-88.721194 ","8377","111","0","0","1/26/2022 12:00:00 AM","2019","33328","NYTIMES-USCENSUS"
"1/27/2022 12:00:00 AM","Glacier County","Montana","West","Mountain","30035","48.705671","-112.990502 ","3009","65","40","0","1/26/2022 12:00:00 AM","2019","13753","NYTIMES-USCENSUS"
"1/27/2022 12:00:00 AM","Rapides Parish","Louisiana","South","West South Central","22079","31.193204","-92.535953 ","30600","504","170","1","1/26/2022 12:00:00 AM","2019","129648","NYTIMES-USCENSUS"
"1/27/2022 12:00:00 AM","Prince George's County","Maryland","South","South Atlantic","24033","38.829278","-76.848188 ","161020","1968","381","8","1/26/2022 12:00:00 AM","2019","909327","NYTIMES-USCENSUS"
"1/27/2022 12:00:00 AM","Frederick County","Virginia","South","South Atlantic","51069","39.20366","-78.263829 ","18929","191","141","1","1/26/2022 12:00:00 AM","2019","89313","NYTIMES-USCENSUS"
"1/27/2022 12:00:00 AM","Auglaize County","Ohio","Midwest","East North Central","39011","40.561309","-84.224018 ","11053","149","47","0","1/26/2022 12:00:00 AM","2019","45656","NYTIMES-USCENSUS"
"1/27/2022 12:00:00 AM","Texas County","Missouri","Midwest","West North Central","29215","37.314257","-91.964478 ","4251","79","51","0","1/26/2022 12:00:00 AM","2019","25398","NYTIMES-USCENSUS"
"1/27/2022 12:00:00 AM","Wyandotte County","Kansas","Midwest","West North Central","20209","39.115384","-94.763087 ","43912","446","0","2","1/26/2022 12:00:00 AM","2019","165429","NYTIMES-USCENSUS"
"1/27/2022 12:00:00 AM","Piscataquis County","Maine","Northeast","New England","23021","45.915639","-69.102231 ","2198","25","12","2","1/26/2022 12:00:00 AM","2019","16785","NYTIMES-USCENSUS"
"1/27/2022 12:00:00 AM","Boyle County","Kentucky","South","East South Central","21021","37.618104","-84.868352 ","7095","119","65","1","1/26/2022 12:00:00 AM","2019","30060","NYTIMES-USCENSUS"
"1/27/2022 12:00:00 AM","Allegan County","Michigan","Midwest","East North Central","26005","42.421251","-86.261403 ","24955","304","0","0","1/26/2022 12:00:00 AM","2019","118081","NYTIMES-USCENSUS"
"1/27/2022 12:00:00 AM","Lee County","Illinois","Midwest","East North Central","17103","41.747447","-89.299362 ","8067","112","109","0","1/26/2022 12:00:00 AM","2019","34096","NYTIMES-USCENSUS"
"1/27/2022 12:00:00 AM","Athens County","Ohio","Midwest","East North Central","39009","39.332755","-82.045885 ","13144","107","93","0","1/26/2022 12:00:00 AM","2019","65327","NYTIMES-USCENSUS"
"1/27/2022 12:00:00 AM","Sussex County","Virginia","South","South Atlantic","51183","36.926645","-77.259732 ","2286","31","12","0","1/26/2022 12:00:00 AM","2019","11159","NYTIMES-USCENSUS"
"1/27/2022 12:00:00 AM","Reagan County","Texas","South","West South Central","48383","31.375191","-101.514395 ","786","11","11","0","1/26/2022 12:00:00 AM","2019","3849","NYTIMES-USCENSUS"
"1/27/2022 12:00:00 AM","Lee County","Florida","South","South Atlantic","12071","26.563273","-81.984182 ","168971","1901","0","0","1/26/2022 12:00:00 AM","2019","770577","NYTIMES-USCENSUS"
"1/27/2022 12:00:00 AM","Monroe County","Arkansas","South","West South Central","05095","34.679512","-91.20331 ","1812","28","8","0","1/26/2022 12:00:00 AM","2019","6701","NYTIMES-USCENSUS"
"1/27/2022 12:00:00 AM","Van Wert County","Ohio","Midwest","East North Central","39161","40.85552","-84.585775 ","6199","124","54","0","1/26/2022 12:00:00 AM","2019","28275","NYTIMES-USCENSUS"
"1/27/2022 12:00:00 AM","Franklin County","Illinois","Midwest","East North Central","17055","37.991852","-88.926321 ","11302","161","96","2","1/26/2022 12:00:00 AM","2019","38469","NYTIMES-USCENSUS"
"1/27/2022 12:00:00 AM","Wayne County","Illinois","Midwest","East North Central","17191","38.431857","-88.43243 ","4832","74","61","1","1/26/2022 12:00:00 AM","2019","16215","NYTIMES-USCENSUS"
"1/27/2022 12:00:00 AM","Perry County","Pennsylvania","Northeast","Middle Atlantic","42099","40.39778","-77.266328 ","8272","166","60","1","1/26/2022 12:00:00 AM","2019","46272","NYTIMES-USCENSUS"
"1/27/2022 12:00:00 AM","Sauk County","Wisconsin","Midwest","East North Central","55111","43.428001","-89.943318 ","14903","91","145","0","1/26/2022 12:00:00 AM","2019","64442","NYTIMES-USCENSUS"
"1/27/2022 12:00:00 AM","DuPage County","Illinois","Midwest","East North Central","17043","41.852058","-88.086039 ","195260","1656","900","6","1/26/2022 12:00:00 AM","2019","922921","NYTIMES-USCENSUS"
"1/27/2022 12:00:00 AM","Hudspeth County","Texas","South","West South Central","48229","31.450868","-105.377549 ","883","16","3","0","1/26/2022 12:00:00 AM","2019","4886","NYTIMES-USCENSUS"
"1/27/2022 12:00:00 AM","Whitley County","Kentucky","South","East South Central","21235","36.758024","-84.144648 ","11874","147","183","1","1/26/2022 12:00:00 AM","2019","36264","NYTIMES-USCENSUS"
"1/27/2022 12:00:00 AM","Pike County","Kentucky","South","East South Central","21195","37.486031","-82.410912 ","14902","235","191","0","1/26/2022 12:00:00 AM","2019","57876","NYTIMES-USCENSUS"
"1/27/2022 12:00:00 AM","Merrimack County","New Hampshire","Northeast","New England","33013","43.299579","-71.680041 ","28410","201","206","2","1/26/2022 12:00:00 AM","2019","151391","NYTIMES-USCENSUS"
"1/27/2022 12:00:00 AM","San Diego County","California","West","Pacific","06073","33.023604","-116.776117 ","719499","4622","10662","18","1/26/2022 12:00:00 AM","2019","3338330","NYTIMES-USCENSUS"
"1/27/2022 12:00:00 AM","Patrick County","Virginia","South","South Atlantic","51141","36.667138","-80.286413 ","3097","73","27","0","1/26/2022 12:00:00 AM","2019","17608","NYTIMES-USCENSUS"
"1/27/2022 12:00:00 AM","Archuleta County","Colorado","West","Mountain","08007","37.202395","-107.050863 ","2699","9","22","0","1/26/2022 12:00:00 AM","2019","14029","NYTIMES-USCENSUS"
"1/27/2022 12:00:00 AM","Washoe County","Nevada","West","Mountain","32031","40.73132","-119.663269 ","94280","1055","1068","3","1/26/2022 12:00:00 AM","2019","471519","NYTIMES-USCENSUS"
"1/27/2022 12:00:00 AM","Geary County","Kansas","Midwest","West North Central","20061","39.002139","-96.7681 ","8135","64","0","0","1/26/2022 12:00:00 AM","2019","31670","NYTIMES-USCENSUS"
"1/27/2022 12:00:00 AM","Ohio County","Indiana","Midwest","East North Central","18115","38.940527","-84.964299 ","1336","17","16","0","1/26/2022 12:00:00 AM","2019","5875","NYTIMES-USCENSUS"
"1/27/2022 12:00:00 AM","Benton County","Missouri","Midwest","West North Central","29015","38.301036","-93.287942 ","3715","83","49","0","1/26/2022 12:00:00 AM","2019","19443","NYTIMES-USCENSUS"
"1/27/2022 12:00:00 AM","Johnston County","Oklahoma","South","West South Central","40069","34.313455","-96.654254 ","2709","49","0","0","1/26/2022 12:00:00 AM","2019","11085","NYTIMES-USCENSUS"
"1/27/2022 12:00:00 AM","Providence County","Rhode Island","Northeast","New England","44007","41.869768","-71.578625 ","203168","2347","0","0","1/26/2022 12:00:00 AM","2019","638931","NYTIMES-USCENSUS"
"1/27/2022 12:00:00 AM","Williamson County","Illinois","Midwest","East North Central","17199","37.730353","-88.930018 ","20476","236","176","2","1/26/2022 12:00:00 AM","2019","66597","NYTIMES-USCENSUS"
"1/27/2022 12:00:00 AM","Webster County","Iowa","Midwest","West North Central","19187","42.433579","-94.175831 ","9734","145","0","0","1/26/2022 12:00:00 AM","2019","35904","NYTIMES-USCENSUS"
"1/27/2022 12:00:00 AM","Douglas County","Wisconsin","Midwest","East North Central","55031","46.463218","-91.892477 ","10493","71","101","0","1/26/2022 12:00:00 AM","2019","43150","NYTIMES-USCENSUS"
"1/27/2022 12:00:00 AM","Mitchell County","Texas","South","West South Central","48335","32.304117","-100.924392 ","1763","45","15","0","1/26/2022 12:00:00 AM","2019","8545","NYTIMES-USCENSUS"
"1/27/2022 12:00:00 AM","Sevier County","Tennessee","South","East South Central","47155","35.787822","-83.5249 ","26992","357","0","0","1/26/2022 12:00:00 AM","2019","98250","NYTIMES-USCENSUS"
"1/27/2022 12:00:00 AM","Mitchell County","Iowa","Midwest","West North Central","19131","43.348564","-92.784466 ","2332","49","0","0","1/26/2022 12:00:00 AM","2019","10586","NYTIMES-USCENSUS"
"1/27/2022 12:00:00 AM","Webster County","Mississippi","South","East South Central","28155","33.612061","-89.283961 ","2785","51","32","0","1/26/2022 12:00:00 AM","2019","9689","NYTIMES-USCENSUS"
"1/27/2022 12:00:00 AM","Phelps County","Missouri","Midwest","West North Central","29161","37.866326","-91.790349 ","9269","213","90","0","1/26/2022 12:00:00 AM","2019","44573","NYTIMES-USCENSUS"
"1/27/2022 12:00:00 AM","Harper County","Oklahoma","South","West South Central","40059","36.80035","-99.662805 ","672","11","0","0","1/26/2022 12:00:00 AM","2019","3688","NYTIMES-USCENSUS"
"1/27/2022 12:00:00 AM","Northampton County","Virginia","South","South Atlantic","51131","37.302775","-75.924018 ","1970","52","22","0","1/26/2022 12:00:00 AM","2019","11710","NYTIMES-USCENSUS"
"1/27/2022 12:00:00 AM","Converse County","Wyoming","West","Mountain","56009","42.984623","-105.524752 ","2905","49","27","0","1/26/2022 12:00:00 AM","2019","13822","NYTIMES-USCENSUS"
"1/27/2022 12:00:00 AM","Bartow County","Georgia","South","South Atlantic","13015","34.240917","-84.838188 ","27351","404","110","1","1/26/2022 12:00:00 AM","2019","107738","NYTIMES-USCENSUS"
