"monitor_date","county","state_name","region","subregion","fips","latitude","longitude","case_count_to_date","death_count_to_date","case_count","death_count","previous_monitor_date","population_year","population","source"
"10/30/2022 12:00:00 AM","Elmore County","Alabama","South","East South Central","01051","32.597229","-86.142735 ","27851","358","0","0","10/29/2022 12:00:00 AM","2019","81209","NYTIMES-USCENSUS"
"10/30/2022 12:00:00 AM","Ellis County","Kansas","Midwest","West North Central","20051","38.914597","-99.317313 ","8005","90","0","0","10/29/2022 12:00:00 AM","2019","28553","NYTIMES-USCENSUS"
"10/30/2022 12:00:00 AM","Ellis County","Texas","South","West South Central","48139","32.346878","-96.79694 ","55332","603","0","0","10/29/2022 12:00:00 AM","2019","184826","NYTIMES-USCENSUS"
"10/30/2022 12:00:00 AM","Elk County","Kansas","Midwest","West North Central","20049","37.456026","-96.244642 ","644","12","0","0","10/29/2022 12:00:00 AM","2019","2530","NYTIMES-USCENSUS"
"10/30/2022 12:00:00 AM","Elbert County","Colorado","West","Mountain","08039","39.315157","-104.114076 ","5600","45","0","0","10/29/2022 12:00:00 AM","2019","26729","NYTIMES-USCENSUS"
"10/30/2022 12:00:00 AM","El Paso County","Texas","South","West South Central","48141","31.76648","-106.241423 ","240061","3825","0","0","10/29/2022 12:00:00 AM","2019","839238","NYTIMES-USCENSUS"
"10/30/2022 12:00:00 AM","Effingham County","Illinois","Midwest","East North Central","17049","39.047945","-88.592849 ","12233","154","0","0","10/29/2022 12:00:00 AM","2019","34008","NYTIMES-USCENSUS"
"10/30/2022 12:00:00 AM","Edwards County","Kansas","Midwest","West North Central","20047","37.883595","-99.304746 ","637","16","0","0","10/29/2022 12:00:00 AM","2019","2798","NYTIMES-USCENSUS"
"10/30/2022 12:00:00 AM","Edwards County","Illinois","Midwest","East North Central","17047","38.417095","-88.047941 ","2035","29","0","0","10/29/2022 12:00:00 AM","2019","6395","NYTIMES-USCENSUS"
"10/30/2022 12:00:00 AM","Eddy County","North Dakota","Midwest","West North Central","38027","47.723436","-98.900474 ","852","6","0","0","10/29/2022 12:00:00 AM","2019","2287","NYTIMES-USCENSUS"
"10/30/2022 12:00:00 AM","Custer County","Oklahoma","South","West South Central","40039","35.645601","-98.997386 ","9106","172","0","0","10/29/2022 12:00:00 AM","2019","29003","NYTIMES-USCENSUS"
"10/30/2022 12:00:00 AM","Custer County","Colorado","West","Mountain","08027","38.101996","-105.373512 ","792","22","0","0","10/29/2022 12:00:00 AM","2019","5068","NYTIMES-USCENSUS"
"10/30/2022 12:00:00 AM","Custer County","Idaho","West","Mountain","16037","44.273351","-114.252267 ","682","9","0","0","10/29/2022 12:00:00 AM","2019","4315","NYTIMES-USCENSUS"
"10/30/2022 12:00:00 AM","Curry County","New Mexico","West","Mountain","35009","34.572984","-103.346055 ","14570","231","0","0","10/29/2022 12:00:00 AM","2019","48954","NYTIMES-USCENSUS"
"10/30/2022 12:00:00 AM","Cumberland County","Tennessee","South","East South Central","47035","35.952398","-84.994761 ","18573","339","0","0","10/29/2022 12:00:00 AM","2019","60520","NYTIMES-USCENSUS"
"10/30/2022 12:00:00 AM","Cumberland County","Pennsylvania","Northeast","Middle Atlantic","42041","40.164805","-77.263442 ","59274","937","0","0","10/29/2022 12:00:00 AM","2019","253370","NYTIMES-USCENSUS"
"10/30/2022 12:00:00 AM","Cumberland County","New Jersey","Northeast","Middle Atlantic","34011","39.328434","-75.121628 ","48262","646","0","0","10/29/2022 12:00:00 AM","2019","149527","NYTIMES-USCENSUS"
"10/30/2022 12:00:00 AM","Cumberland County","Illinois","Midwest","East North Central","17035","39.273121","-88.240619 ","3822","51","0","0","10/29/2022 12:00:00 AM","2019","10766","NYTIMES-USCENSUS"
"10/30/2022 12:00:00 AM","Cumberland County","North Carolina","South","South Atlantic","37051","35.050192","-78.828719 ","107542","712","0","0","10/29/2022 12:00:00 AM","2019","335509","NYTIMES-USCENSUS"
"10/30/2022 12:00:00 AM","Cumberland County","Maine","Northeast","New England","23005","43.808348","-70.330375 ","62100","436","0","0","10/29/2022 12:00:00 AM","2019","295003","NYTIMES-USCENSUS"
"10/30/2022 12:00:00 AM","Cumberland County","Kentucky","South","East South Central","21057","36.782372","-85.388484 ","2598","33","0","0","10/29/2022 12:00:00 AM","2019","6614","NYTIMES-USCENSUS"
"10/30/2022 12:00:00 AM","Crook County","Oregon","West","Pacific","41013","44.163054","-120.371585 ","7483","90","0","0","10/29/2022 12:00:00 AM","2019","24404","NYTIMES-USCENSUS"
"10/30/2022 12:00:00 AM","Crittenden County","Arkansas","South","West South Central","05035","35.197559","-90.30512 ","15989","237","3","0","10/29/2022 12:00:00 AM","2019","47955","NYTIMES-USCENSUS"
"10/30/2022 12:00:00 AM","Crawford County","Kansas","Midwest","West North Central","20037","37.505821","-94.853897 ","14199","139","0","0","10/29/2022 12:00:00 AM","2019","38818","NYTIMES-USCENSUS"
"10/30/2022 12:00:00 AM","Crawford County","Indiana","Midwest","East North Central","18025","38.289433","-86.440871 ","2889","41","0","0","10/29/2022 12:00:00 AM","2019","10577","NYTIMES-USCENSUS"
"10/30/2022 12:00:00 AM","Crawford County","Georgia","South","South Atlantic","13079","32.709428","-83.979187 ","2108","63","0","0","10/29/2022 12:00:00 AM","2019","12404","NYTIMES-USCENSUS"
"10/30/2022 12:00:00 AM","Crawford County","Ohio","Midwest","East North Central","39033","40.848524","-82.924783 ","13403","220","0","0","10/29/2022 12:00:00 AM","2019","41494","NYTIMES-USCENSUS"
"10/30/2022 12:00:00 AM","Crawford County","Iowa","Midwest","West North Central","19047","42.043119","-95.38909 ","4837","55","0","0","10/29/2022 12:00:00 AM","2019","16820","NYTIMES-USCENSUS"
"10/30/2022 12:00:00 AM","Crawford County","Pennsylvania","Northeast","Middle Atlantic","42039","41.687876","-80.107795 ","23486","344","0","0","10/29/2022 12:00:00 AM","2019","84629","NYTIMES-USCENSUS"
"10/30/2022 12:00:00 AM","Crawford County","Wisconsin","Midwest","East North Central","55023","43.242768","-90.935185 ","5144","31","0","0","10/29/2022 12:00:00 AM","2019","16131","NYTIMES-USCENSUS"
"10/30/2022 12:00:00 AM","Crawford County","Michigan","Midwest","East North Central","26039","44.680175","-84.611343 ","3068","36","0","0","10/29/2022 12:00:00 AM","2019","14029","NYTIMES-USCENSUS"
"10/30/2022 12:00:00 AM","Crawford County","Illinois","Midwest","East North Central","17033","39.002787","-87.760619 ","7441","64","0","0","10/29/2022 12:00:00 AM","2019","18667","NYTIMES-USCENSUS"
"10/30/2022 12:00:00 AM","Crawford County","Arkansas","South","West South Central","05033","35.583011","-94.236219 ","17951","278","1","0","10/29/2022 12:00:00 AM","2019","63257","NYTIMES-USCENSUS"
"10/30/2022 12:00:00 AM","Craig County","Oklahoma","South","West South Central","40035","36.76389","-95.201553 ","5596","56","0","0","10/29/2022 12:00:00 AM","2019","14142","NYTIMES-USCENSUS"
"10/30/2022 12:00:00 AM","Covington County","Alabama","South","East South Central","01039","31.243987","-86.448721 ","11010","252","0","0","10/29/2022 12:00:00 AM","2019","37049","NYTIMES-USCENSUS"
"10/30/2022 12:00:00 AM","Chesterfield County","Virginia","South","South Atlantic","51041","37.378434","-77.585847 ","92380","831","0","0","10/29/2022 12:00:00 AM","2019","352802","NYTIMES-USCENSUS"
"10/30/2022 12:00:00 AM","Chester County","Pennsylvania","Northeast","Middle Atlantic","42029","39.974029","-75.749751 ","110676","1251","0","0","10/29/2022 12:00:00 AM","2019","524989","NYTIMES-USCENSUS"
"10/30/2022 12:00:00 AM","Chester County","Tennessee","South","East South Central","47023","35.420253","-88.611353 ","6593","101","0","0","10/29/2022 12:00:00 AM","2019","17297","NYTIMES-USCENSUS"
"10/30/2022 12:00:00 AM","Cherokee County","Iowa","Midwest","West North Central","19035","42.742737","-95.633262 ","3412","70","0","0","10/29/2022 12:00:00 AM","2019","11235","NYTIMES-USCENSUS"
"10/30/2022 12:00:00 AM","Cherokee County","Georgia","South","South Atlantic","13057","34.244317","-84.475057 ","72575","669","0","0","10/29/2022 12:00:00 AM","2019","258773","NYTIMES-USCENSUS"
"10/30/2022 12:00:00 AM","Kent County","Michigan","Midwest","East North Central","26081","43.032497","-85.547446 ","193287","1693","0","0","10/29/2022 12:00:00 AM","2019","656955","NYTIMES-USCENSUS"
"10/30/2022 12:00:00 AM","Kent County","Delaware","South","South Atlantic","10001","39.097088","-75.502982 ","60975","703","0","0","10/29/2022 12:00:00 AM","2019","180786","NYTIMES-USCENSUS"
"10/30/2022 12:00:00 AM","Howard County","Maryland","South","South Atlantic","24027","39.252264","-76.924406 ","59065","410","0","0","10/29/2022 12:00:00 AM","2019","325690","NYTIMES-USCENSUS"
"10/30/2022 12:00:00 AM","Howard County","Missouri","Midwest","West North Central","29089","39.143365","-92.695926 ","2818","32","0","0","10/29/2022 12:00:00 AM","2019","10001","NYTIMES-USCENSUS"
"10/30/2022 12:00:00 AM","Howard County","Indiana","Midwest","East North Central","18067","40.483537","-86.114118 ","28634","469","0","0","10/29/2022 12:00:00 AM","2019","82544","NYTIMES-USCENSUS"
"10/30/2022 12:00:00 AM","Howard County","Texas","South","West South Central","48227","32.30343","-101.438721 ","7536","191","0","0","10/29/2022 12:00:00 AM","2019","36664","NYTIMES-USCENSUS"
"10/30/2022 12:00:00 AM","Howard County","Nebraska","Midwest","West North Central","31093","41.216851","-98.513342 ","1274","25","0","0","10/29/2022 12:00:00 AM","2019","6445","NYTIMES-USCENSUS"
"10/30/2022 12:00:00 AM","Howard County","Iowa","Midwest","West North Central","19089","43.365312","-92.321908 ","2257","37","0","0","10/29/2022 12:00:00 AM","2019","9158","NYTIMES-USCENSUS"
"10/30/2022 12:00:00 AM","Houston County","Alabama","South","East South Central","01069","31.158183","-85.296411 ","30488","526","0","0","10/29/2022 12:00:00 AM","2019","105882","NYTIMES-USCENSUS"
"10/30/2022 12:00:00 AM","Houston County","Texas","South","West South Central","48225","31.323036","-95.4216 ","4765","114","0","0","10/29/2022 12:00:00 AM","2019","22968","NYTIMES-USCENSUS"
"10/30/2022 12:00:00 AM","Houston County","Minnesota","Midwest","West North Central","27055","43.66699","-91.501556 ","5242","21","0","0","10/29/2022 12:00:00 AM","2019","18600","NYTIMES-USCENSUS"
"10/30/2022 12:00:00 AM","Houston County","Tennessee","South","East South Central","47083","36.285782","-87.705598 ","2920","63","0","0","10/29/2022 12:00:00 AM","2019","8201","NYTIMES-USCENSUS"
"10/30/2022 12:00:00 AM","Hopkins County","Kentucky","South","East South Central","21107","37.31107","-87.542196 ","18413","273","0","0","10/29/2022 12:00:00 AM","2019","44686","NYTIMES-USCENSUS"
"10/30/2022 12:00:00 AM","Holt County","Missouri","Midwest","West North Central","29087","40.095724","-95.219072 ","1217","31","0","0","10/29/2022 12:00:00 AM","2019","4403","NYTIMES-USCENSUS"
"10/30/2022 12:00:00 AM","Holmes County","Florida","South","South Atlantic","12059","30.862007","-85.815939 ","6112","103","0","0","10/29/2022 12:00:00 AM","2019","19617","NYTIMES-USCENSUS"
"10/30/2022 12:00:00 AM","Holmes County","Ohio","Midwest","East North Central","39075","40.565597","-81.930001 ","5637","188","0","0","10/29/2022 12:00:00 AM","2019","43960","NYTIMES-USCENSUS"
"10/30/2022 12:00:00 AM","Hillsborough County","New Hampshire","Northeast","New England","33011","42.911532","-71.723055 ","114598","977","0","0","10/29/2022 12:00:00 AM","2019","417025","NYTIMES-USCENSUS"
"10/30/2022 12:00:00 AM","Grant County","Oklahoma","South","West South Central","40053","36.788254","-97.788151 ","1215","17","0","0","10/29/2022 12:00:00 AM","2019","4333","NYTIMES-USCENSUS"
"10/30/2022 12:00:00 AM","Grant County","Indiana","Midwest","East North Central","18053","40.515758","-85.654946 ","19717","374","0","0","10/29/2022 12:00:00 AM","2019","65769","NYTIMES-USCENSUS"
"10/30/2022 12:00:00 AM","Grant County","Kentucky","South","East South Central","21081","38.649167","-84.625924 ","9425","69","0","0","10/29/2022 12:00:00 AM","2019","25069","NYTIMES-USCENSUS"
"10/30/2022 12:00:00 AM","Grant County","Kansas","Midwest","West North Central","20067","37.547537","-101.299362 ","2663","40","0","0","10/29/2022 12:00:00 AM","2019","7150","NYTIMES-USCENSUS"
"10/30/2022 12:00:00 AM","Grant County","North Dakota","Midwest","West North Central","38037","46.357827","-101.639049 ","529","11","0","0","10/29/2022 12:00:00 AM","2019","2274","NYTIMES-USCENSUS"
"10/30/2022 12:00:00 AM","Grant County","Oregon","West","Pacific","41023","44.496326","-119.014057 ","2176","25","0","0","10/29/2022 12:00:00 AM","2019","7199","NYTIMES-USCENSUS"
"10/30/2022 12:00:00 AM","Grant County","Minnesota","Midwest","West North Central","27051","45.930743","-96.010699 ","1687","13","0","0","10/29/2022 12:00:00 AM","2019","5972","NYTIMES-USCENSUS"
"10/30/2022 12:00:00 AM","Grant County","West Virginia","South","South Atlantic","54023","39.105988","-79.195064 ","4497","60","0","0","10/29/2022 12:00:00 AM","2019","11568","NYTIMES-USCENSUS"
"10/30/2022 12:00:00 AM","Grant County","Washington","West","Pacific","53025","47.213633","-119.467788 ","31463","267","0","0","10/29/2022 12:00:00 AM","2019","97733","NYTIMES-USCENSUS"
"10/30/2022 12:00:00 AM","Grant County","Arkansas","South","West South Central","05053","34.285568","-92.422979 ","5007","65","-1","0","10/29/2022 12:00:00 AM","2019","18265","NYTIMES-USCENSUS"
"10/30/2022 12:00:00 AM","Grant County","New Mexico","West","Mountain","35017","32.732087","-108.381504 ","8849","106","0","0","10/29/2022 12:00:00 AM","2019","26998","NYTIMES-USCENSUS"
"10/30/2022 12:00:00 AM","Grand County","Colorado","West","Mountain","08049","40.113065","-106.110837 ","3897","30","0","0","10/29/2022 12:00:00 AM","2019","15734","NYTIMES-USCENSUS"
"10/30/2022 12:00:00 AM","Graham County","North Carolina","South","South Atlantic","37075","35.348364","-83.830915 ","2776","31","0","0","10/29/2022 12:00:00 AM","2019","8441","NYTIMES-USCENSUS"
"10/30/2022 12:00:00 AM","Graham County","Arizona","West","Mountain","04009","32.931828","-109.87831 ","13470","184","0","0","10/29/2022 12:00:00 AM","2019","38837","NYTIMES-USCENSUS"
"10/30/2022 12:00:00 AM","Grady County","Oklahoma","South","West South Central","40051","35.021058","-97.88689 ","15852","255","0","0","10/29/2022 12:00:00 AM","2019","55834","NYTIMES-USCENSUS"
"10/30/2022 12:00:00 AM","Golden Valley County","Montana","West","Mountain","30037","46.380624","-109.174586 ","163","5","0","0","10/29/2022 12:00:00 AM","2019","821","NYTIMES-USCENSUS"
"10/30/2022 12:00:00 AM","Gloucester County","New Jersey","Northeast","Middle Atlantic","34015","39.722875","-75.145679 ","85070","1013","0","0","10/29/2022 12:00:00 AM","2019","291636","NYTIMES-USCENSUS"
"10/30/2022 12:00:00 AM","Essex County","Virginia","South","South Atlantic","51057","37.936389","-76.933747 ","2646","40","0","0","10/29/2022 12:00:00 AM","2019","10953","NYTIMES-USCENSUS"
"10/30/2022 12:00:00 AM","Essex County","New York","Northeast","Middle Atlantic","36031","44.109601","-73.778431 ","7235","70","2","0","10/29/2022 12:00:00 AM","2019","36885","NYTIMES-USCENSUS"
"10/30/2022 12:00:00 AM","Essex County","Massachusetts","Northeast","New England","25009","42.642708","-70.864909 ","242495","2945","0","0","10/29/2022 12:00:00 AM","2019","789034","NYTIMES-USCENSUS"
"10/30/2022 12:00:00 AM","Essex County","New Jersey","Northeast","Middle Atlantic","34013","40.7874","-74.246292 ","267950","3681","0","0","10/29/2022 12:00:00 AM","2019","798975","NYTIMES-USCENSUS"
"10/30/2022 12:00:00 AM","Escambia County","Alabama","South","East South Central","01053","31.122287","-87.16841 ","11657","178","0","0","10/29/2022 12:00:00 AM","2019","36633","NYTIMES-USCENSUS"
"10/30/2022 12:00:00 AM","Erie County","Ohio","Midwest","East North Central","39043","41.394143","-82.586835 ","23223","279","0","0","10/29/2022 12:00:00 AM","2019","74266","NYTIMES-USCENSUS"
"10/30/2022 12:00:00 AM","Erie County","Pennsylvania","Northeast","Middle Atlantic","42049","42.117952","-80.096386 ","67865","837","0","0","10/29/2022 12:00:00 AM","2019","269728","NYTIMES-USCENSUS"
"10/30/2022 12:00:00 AM","Emmet County","Iowa","Midwest","West North Central","19063","43.377984","-94.66937 ","2575","55","0","0","10/29/2022 12:00:00 AM","2019","9208","NYTIMES-USCENSUS"
"10/30/2022 12:00:00 AM","Twiggs County","Georgia","South","South Atlantic","13289","32.665847","-83.425879 ","1766","73","0","0","10/29/2022 12:00:00 AM","2019","8120","NYTIMES-USCENSUS"
"10/30/2022 12:00:00 AM","Tuscola County","Michigan","Midwest","East North Central","26157","43.487902","-83.436618 ","15021","298","0","0","10/29/2022 12:00:00 AM","2019","52245","NYTIMES-USCENSUS"
"10/30/2022 12:00:00 AM","Tuscarawas County","Ohio","Midwest","East North Central","39157","40.44749","-81.471105 ","23928","519","0","0","10/29/2022 12:00:00 AM","2019","91987","NYTIMES-USCENSUS"
"10/30/2022 12:00:00 AM","Tuscaloosa County","Alabama","South","East South Central","01125","33.29022","-87.522783 ","66232","827","0","0","10/29/2022 12:00:00 AM","2019","209355","NYTIMES-USCENSUS"
"10/30/2022 12:00:00 AM","Turner County","Georgia","South","South Atlantic","13287","31.7248","-83.620319 ","3023","65","0","0","10/29/2022 12:00:00 AM","2019","7985","NYTIMES-USCENSUS"
"10/30/2022 12:00:00 AM","Tuolumne County","California","West","Pacific","06109","38.021434","-119.964733 ","16888","198","0","0","10/29/2022 12:00:00 AM","2019","54478","NYTIMES-USCENSUS"
"10/30/2022 12:00:00 AM","Tunica County","Mississippi","South","East South Central","28143","34.652201","-90.37177 ","2882","48","0","0","10/29/2022 12:00:00 AM","2019","9632","NYTIMES-USCENSUS"
"10/30/2022 12:00:00 AM","Tulsa County","Oklahoma","South","West South Central","40143","36.120318","-95.941813 ","199322","2260","0","0","10/29/2022 12:00:00 AM","2019","651552","NYTIMES-USCENSUS"
"10/30/2022 12:00:00 AM","Tulare County","California","West","Pacific","06107","36.228834","-118.781055 ","158675","1541","0","0","10/29/2022 12:00:00 AM","2019","466195","NYTIMES-USCENSUS"
"10/30/2022 12:00:00 AM","Tucker County","West Virginia","South","South Atlantic","54093","39.111175","-79.559968 ","2305","38","0","0","10/29/2022 12:00:00 AM","2019","6839","NYTIMES-USCENSUS"
"10/30/2022 12:00:00 AM","Trumbull County","Ohio","Midwest","East North Central","39155","41.306374","-80.7704 ","49444","979","0","0","10/29/2022 12:00:00 AM","2019","197974","NYTIMES-USCENSUS"
"10/30/2022 12:00:00 AM","Trousdale County","Tennessee","South","East South Central","47169","36.39303","-86.156691 ","4551","47","0","0","10/29/2022 12:00:00 AM","2019","11284","NYTIMES-USCENSUS"
"10/30/2022 12:00:00 AM","Troup County","Georgia","South","South Atlantic","13285","33.034482","-85.02836 ","17972","404","0","0","10/29/2022 12:00:00 AM","2019","69922","NYTIMES-USCENSUS"
"10/30/2022 12:00:00 AM","Tripp County","South Dakota","Midwest","West North Central","46123","43.349729","-99.876219 ","1579","27","0","0","10/29/2022 12:00:00 AM","2019","5441","NYTIMES-USCENSUS"
"10/30/2022 12:00:00 AM","Trinity County","California","West","Pacific","06105","40.647858","-123.114666 ","1791","20","0","0","10/29/2022 12:00:00 AM","2019","12285","NYTIMES-USCENSUS"
"10/30/2022 12:00:00 AM","Trimble County","Kentucky","South","East South Central","21223","38.62004","-85.351208 ","2554","46","0","0","10/29/2022 12:00:00 AM","2019","8471","NYTIMES-USCENSUS"
"10/30/2022 12:00:00 AM","Trigg County","Kentucky","South","East South Central","21221","36.807681","-87.858652 ","4817","47","0","0","10/29/2022 12:00:00 AM","2019","14651","NYTIMES-USCENSUS"
"10/30/2022 12:00:00 AM","Treutlen County","Georgia","South","South Atlantic","13283","32.409586","-82.570882 ","1799","68","0","0","10/29/2022 12:00:00 AM","2019","6901","NYTIMES-USCENSUS"
"10/30/2022 12:00:00 AM","Trempealeau County","Wisconsin","Midwest","East North Central","55121","44.30305","-91.358867 ","9513","70","0","0","10/29/2022 12:00:00 AM","2019","29649","NYTIMES-USCENSUS"
"10/30/2022 12:00:00 AM","Trego County","Kansas","Midwest","West North Central","20195","38.921302","-99.865423 ","856","13","0","0","10/29/2022 12:00:00 AM","2019","2803","NYTIMES-USCENSUS"
"10/30/2022 12:00:00 AM","Travis County","Texas","South","West South Central","48453","30.239513","-97.69127 ","277815","1802","0","0","10/29/2022 12:00:00 AM","2019","1273954","NYTIMES-USCENSUS"
"10/30/2022 12:00:00 AM","Traverse County","Minnesota","Midwest","West North Central","27155","45.769935","-96.474832 ","962","11","0","0","10/29/2022 12:00:00 AM","2019","3259","NYTIMES-USCENSUS"
"10/30/2022 12:00:00 AM","Transylvania County","North Carolina","South","South Atlantic","37175","35.210103","-82.816666 ","7748","84","0","0","10/29/2022 12:00:00 AM","2019","34385","NYTIMES-USCENSUS"
"10/30/2022 12:00:00 AM","Traill County","North Dakota","Midwest","West North Central","38097","47.446215","-97.164754 ","2363","26","0","0","10/29/2022 12:00:00 AM","2019","8036","NYTIMES-USCENSUS"
"10/30/2022 12:00:00 AM","Towns County","Georgia","South","South Atlantic","13281","34.902529","-83.732264 ","2742","118","0","0","10/29/2022 12:00:00 AM","2019","12037","NYTIMES-USCENSUS"
"10/30/2022 12:00:00 AM","Torrance County","New Mexico","West","Mountain","35057","34.554978","-105.890557 ","3568","59","0","0","10/29/2022 12:00:00 AM","2019","15461","NYTIMES-USCENSUS"
"10/30/2022 12:00:00 AM","Stanly County","North Carolina","South","South Atlantic","37167","35.310449","-80.254374 ","22560","282","0","0","10/29/2022 12:00:00 AM","2019","62806","NYTIMES-USCENSUS"
"10/30/2022 12:00:00 AM","Stanley County","South Dakota","Midwest","West North Central","46117","44.413984","-100.747822 ","698","8","0","0","10/29/2022 12:00:00 AM","2019","3098","NYTIMES-USCENSUS"
"10/30/2022 12:00:00 AM","Stanislaus County","California","West","Pacific","06099","37.562316","-121.002831 ","160096","1785","0","0","10/29/2022 12:00:00 AM","2019","550660","NYTIMES-USCENSUS"
"10/30/2022 12:00:00 AM","Stafford County","Kansas","Midwest","West North Central","20185","38.03563","-98.719889 ","1321","31","0","0","10/29/2022 12:00:00 AM","2019","4156","NYTIMES-USCENSUS"
"10/30/2022 12:00:00 AM","St. Tammany Parish","Louisiana","South","West South Central","22103","30.410022","-89.951962 ","86350","912","0","0","10/29/2022 12:00:00 AM","2019","260419","NYTIMES-USCENSUS"
"10/30/2022 12:00:00 AM","St. Mary's County","Maryland","South","South Atlantic","24037","38.223077","-76.534487 ","22936","234","0","0","10/29/2022 12:00:00 AM","2019","113510","NYTIMES-USCENSUS"
"10/30/2022 12:00:00 AM","St. Mary Parish","Louisiana","South","West South Central","22101","29.629349","-91.463804 ","14672","282","0","0","10/29/2022 12:00:00 AM","2019","49348","NYTIMES-USCENSUS"
"10/30/2022 12:00:00 AM","St. Martin Parish","Louisiana","South","West South Central","22099","30.121433","-91.611481 ","14549","197","0","0","10/29/2022 12:00:00 AM","2019","53431","NYTIMES-USCENSUS"
"10/30/2022 12:00:00 AM","St. Lucie County","Florida","South","South Atlantic","12111","27.379814","-80.443536 ","91133","1357","0","0","10/29/2022 12:00:00 AM","2019","328297","NYTIMES-USCENSUS"
"10/30/2022 12:00:00 AM","St. Louis County","Missouri","Midwest","West North Central","29189","38.640688","-90.446073 ","275284","3561","0","0","10/29/2022 12:00:00 AM","2019","994205","NYTIMES-USCENSUS"
"10/30/2022 12:00:00 AM","St. Louis city","Missouri","Midwest","West North Central","29510","38.635699","-90.244582 ","71168","825","0","0","10/29/2022 12:00:00 AM","2019","300576","NYTIMES-USCENSUS"
"10/30/2022 12:00:00 AM","St. Lawrence County","New York","Northeast","Middle Atlantic","36089","44.488112","-75.074311 ","25334","210","12","0","10/29/2022 12:00:00 AM","2019","107740","NYTIMES-USCENSUS"
"10/30/2022 12:00:00 AM","St. Landry Parish","Louisiana","South","West South Central","22097","30.583441","-91.989274 ","26187","426","0","0","10/29/2022 12:00:00 AM","2019","82124","NYTIMES-USCENSUS"
"10/30/2022 12:00:00 AM","St. Joseph County","Michigan","Midwest","East North Central","26149","41.911488","-85.52287 ","15469","223","0","0","10/29/2022 12:00:00 AM","2019","60964","NYTIMES-USCENSUS"
"10/30/2022 12:00:00 AM","St. Johns County","Florida","South","South Atlantic","12109","29.890487","-81.40004 ","74562","650","0","0","10/29/2022 12:00:00 AM","2019","264672","NYTIMES-USCENSUS"
"10/30/2022 12:00:00 AM","St. John the Baptist Parish","Louisiana","South","West South Central","22095","30.144068","-90.49096 ","12562","187","0","0","10/29/2022 12:00:00 AM","2019","42837","NYTIMES-USCENSUS"
"10/30/2022 12:00:00 AM","Cherokee County","Alabama","South","East South Central","01019","34.069515","-85.654242 ","6060","87","0","0","10/29/2022 12:00:00 AM","2019","26196","NYTIMES-USCENSUS"
"10/30/2022 12:00:00 AM","Cherokee County","South Carolina","South","South Atlantic","45021","35.049796","-81.607647 ","17231","327","0","0","10/29/2022 12:00:00 AM","2019","57300","NYTIMES-USCENSUS"
"10/30/2022 12:00:00 AM","Cherokee County","Oklahoma","South","West South Central","40021","35.904367","-94.996796 ","16522","160","0","0","10/29/2022 12:00:00 AM","2019","48657","NYTIMES-USCENSUS"
"10/30/2022 12:00:00 AM","Cherokee County","Kansas","Midwest","West North Central","20021","37.169392","-94.845698 ","6986","96","0","0","10/29/2022 12:00:00 AM","2019","19939","NYTIMES-USCENSUS"
"10/30/2022 12:00:00 AM","Cherokee County","Texas","South","West South Central","48073","31.843881","-95.156343 ","9220","257","0","0","10/29/2022 12:00:00 AM","2019","52646","NYTIMES-USCENSUS"
"10/30/2022 12:00:00 AM","Chautauqua County","Kansas","Midwest","West North Central","20019","37.154259","-96.245396 ","954","20","0","0","10/29/2022 12:00:00 AM","2019","3250","NYTIMES-USCENSUS"
"10/30/2022 12:00:00 AM","Chatham County","North Carolina","South","South Atlantic","37037","35.704994","-79.251454 ","16505","128","0","0","10/29/2022 12:00:00 AM","2019","74470","NYTIMES-USCENSUS"
"10/30/2022 12:00:00 AM","Chase County","Nebraska","Midwest","West North Central","31029","40.53039","-101.694192 ","874","9","0","0","10/29/2022 12:00:00 AM","2019","3924","NYTIMES-USCENSUS"
"10/30/2022 12:00:00 AM","Charlotte County","Florida","South","South Atlantic","12015","26.906396","-82.003657 ","45285","923","0","0","10/29/2022 12:00:00 AM","2019","188910","NYTIMES-USCENSUS"
"10/30/2022 12:00:00 AM","Champaign County","Illinois","Midwest","East North Central","17019","40.138985","-88.196975 ","81024","314","0","0","10/29/2022 12:00:00 AM","2019","209689","NYTIMES-USCENSUS"
"10/30/2022 12:00:00 AM","Chambers County","Alabama","South","East South Central","01017","32.915504","-85.394032 ","10039","169","0","0","10/29/2022 12:00:00 AM","2019","33254","NYTIMES-USCENSUS"
"10/30/2022 12:00:00 AM","Anderson County","South Carolina","South","South Atlantic","45007","34.521235","-82.638603 ","65847","1048","0","0","10/29/2022 12:00:00 AM","2019","202558","NYTIMES-USCENSUS"
"10/30/2022 12:00:00 AM","Anderson County","Kansas","Midwest","West North Central","20003","38.215114","-95.292046 ","2452","37","0","0","10/29/2022 12:00:00 AM","2019","7858","NYTIMES-USCENSUS"
"10/30/2022 12:00:00 AM","Anderson County","Kentucky","South","East South Central","21005","38.005396","-84.986417 ","7967","77","0","0","10/29/2022 12:00:00 AM","2019","22747","NYTIMES-USCENSUS"
"10/30/2022 12:00:00 AM","Anderson County","Texas","South","West South Central","48001","31.841261","-95.661727 ","10609","251","0","0","10/29/2022 12:00:00 AM","2019","57735","NYTIMES-USCENSUS"
"10/30/2022 12:00:00 AM","Williamsburg County","South Carolina","South","South Atlantic","45089","33.626462","-79.716474 ","9743","150","0","0","10/29/2022 12:00:00 AM","2019","30368","NYTIMES-USCENSUS"
"10/30/2022 12:00:00 AM","Williamsburg city","Virginia","South","South Atlantic","51830","37.269481","-76.708193 ","2165","23","0","0","10/29/2022 12:00:00 AM","2019","14954","NYTIMES-USCENSUS"
"10/30/2022 12:00:00 AM","Williams County","North Dakota","Midwest","West North Central","38105","48.355765","-103.501333 ","11720","68","0","0","10/29/2022 12:00:00 AM","2019","37589","NYTIMES-USCENSUS"
"10/30/2022 12:00:00 AM","Willacy County","Texas","South","West South Central","48489","26.481861","-97.594731 ","8344","136","0","0","10/29/2022 12:00:00 AM","2019","21358","NYTIMES-USCENSUS"
"10/30/2022 12:00:00 AM","Will County","Illinois","Midwest","East North Central","17197","41.448474","-87.978456 ","202455","1705","0","0","10/29/2022 12:00:00 AM","2019","690743","NYTIMES-USCENSUS"
"10/30/2022 12:00:00 AM","Wilkinson County","Georgia","South","South Atlantic","13319","32.804266","-83.175512 ","2565","64","0","0","10/29/2022 12:00:00 AM","2019","8954","NYTIMES-USCENSUS"
"10/30/2022 12:00:00 AM","Wilkin County","Minnesota","Midwest","West North Central","27167","46.362335","-96.476657 ","1844","23","0","0","10/29/2022 12:00:00 AM","2019","6207","NYTIMES-USCENSUS"
"10/30/2022 12:00:00 AM","Wilkes County","North Carolina","South","South Atlantic","37193","36.208883","-81.166095 ","21238","288","0","0","10/29/2022 12:00:00 AM","2019","68412","NYTIMES-USCENSUS"
"10/30/2022 12:00:00 AM","Wilcox County","Georgia","South","South Atlantic","13315","31.96272","-83.438259 ","2318","72","0","0","10/29/2022 12:00:00 AM","2019","8635","NYTIMES-USCENSUS"
"10/30/2022 12:00:00 AM","Wilbarger County","Texas","South","West South Central","48487","34.08492","-99.24244 ","3968","90","0","0","10/29/2022 12:00:00 AM","2019","12769","NYTIMES-USCENSUS"
"10/30/2022 12:00:00 AM","Wicomico County","Maryland","South","South Atlantic","24045","38.36737","-75.632083 ","23357","346","0","0","10/29/2022 12:00:00 AM","2019","103609","NYTIMES-USCENSUS"
"10/30/2022 12:00:00 AM","Wichita County","Texas","South","West South Central","48485","33.988212","-98.70801 ","38286","705","0","0","10/29/2022 12:00:00 AM","2019","132230","NYTIMES-USCENSUS"
"10/30/2022 12:00:00 AM","Whitman County","Washington","West","Pacific","53075","46.905944","-117.53539 ","9830","98","0","0","10/29/2022 12:00:00 AM","2019","50104","NYTIMES-USCENSUS"
"10/30/2022 12:00:00 AM","Whitley County","Kentucky","South","East South Central","21235","36.758024","-84.144648 ","16348","223","0","0","10/29/2022 12:00:00 AM","2019","36264","NYTIMES-USCENSUS"
"10/30/2022 12:00:00 AM","Whitfield County","Georgia","South","South Atlantic","13313","34.801726","-84.968541 ","38003","471","0","0","10/29/2022 12:00:00 AM","2019","104628","NYTIMES-USCENSUS"
"10/30/2022 12:00:00 AM","Whiteside County","Illinois","Midwest","East North Central","17195","41.750673","-89.911005 ","18461","281","0","0","10/29/2022 12:00:00 AM","2019","55175","NYTIMES-USCENSUS"
"10/30/2022 12:00:00 AM","White Pine County","Nevada","West","Mountain","32033","39.418176","-114.900565 ","1730","23","0","0","10/29/2022 12:00:00 AM","2019","9580","NYTIMES-USCENSUS"
"10/30/2022 12:00:00 AM","White County","Illinois","Midwest","East North Central","17193","38.087326","-88.178623 ","5128","63","0","0","10/29/2022 12:00:00 AM","2019","13537","NYTIMES-USCENSUS"
"10/30/2022 12:00:00 AM","Wheatland County","Montana","West","Mountain","30107","46.496967","-109.857684 ","430","14","0","0","10/29/2022 12:00:00 AM","2019","2126","NYTIMES-USCENSUS"
"10/30/2022 12:00:00 AM","Whatcom County","Washington","West","Pacific","53073","48.842653","-121.836432 ","47068","336","0","0","10/29/2022 12:00:00 AM","2019","229247","NYTIMES-USCENSUS"
"10/30/2022 12:00:00 AM","Wharton County","Texas","South","West South Central","48481","29.27848","-96.229674 ","10925","225","0","0","10/29/2022 12:00:00 AM","2019","41556","NYTIMES-USCENSUS"
"10/30/2022 12:00:00 AM","Wexford County","Michigan","Midwest","East North Central","26165","44.331375","-85.570046 ","8298","120","0","0","10/29/2022 12:00:00 AM","2019","33631","NYTIMES-USCENSUS"
"10/30/2022 12:00:00 AM","Wetzel County","West Virginia","South","South Atlantic","54103","39.59818","-80.635399 ","5213","92","0","0","10/29/2022 12:00:00 AM","2019","15065","NYTIMES-USCENSUS"
"10/30/2022 12:00:00 AM","Weston County","Wyoming","West","Mountain","56045","43.846213","-104.57002 ","1828","21","0","0","10/29/2022 12:00:00 AM","2019","6927","NYTIMES-USCENSUS"
"10/30/2022 12:00:00 AM","Westmoreland County","Virginia","South","South Atlantic","51193","38.109311","-76.803933 ","3901","57","0","0","10/29/2022 12:00:00 AM","2019","18015","NYTIMES-USCENSUS"
"10/30/2022 12:00:00 AM","Westchester County","New York","Northeast","Middle Atlantic","36119","41.152686","-73.745753 ","311104","2850","175","0","10/29/2022 12:00:00 AM","2019","967506","NYTIMES-USCENSUS"
"10/30/2022 12:00:00 AM","Tyler County","Texas","South","West South Central","48457","30.769295","-94.375656 ","4725","88","0","0","10/29/2022 12:00:00 AM","2019","21672","NYTIMES-USCENSUS"
"10/30/2022 12:00:00 AM","Twin Falls County","Idaho","West","Mountain","16083","42.352309","-114.665639 ","27396","308","0","0","10/29/2022 12:00:00 AM","2019","86878","NYTIMES-USCENSUS"
"10/30/2022 12:00:00 AM","Washington County","Colorado","West","Mountain","08121","39.96579","-103.209744 ","1178","33","0","0","10/29/2022 12:00:00 AM","2019","4908","NYTIMES-USCENSUS"
"10/30/2022 12:00:00 AM","Washington County","Arkansas","South","West South Central","05143","35.978001","-94.217269 ","77242","684","8","0","10/29/2022 12:00:00 AM","2019","239187","NYTIMES-USCENSUS"
"10/30/2022 12:00:00 AM","Washington County","Tennessee","South","East South Central","47179","36.295665","-82.495037 ","45768","526","0","0","10/29/2022 12:00:00 AM","2019","129375","NYTIMES-USCENSUS"
"10/30/2022 12:00:00 AM","Washington County","Indiana","Midwest","East North Central","18175","38.600613","-86.104751 ","6767","90","0","0","10/29/2022 12:00:00 AM","2019","28036","NYTIMES-USCENSUS"
"10/30/2022 12:00:00 AM","Williams County","Ohio","Midwest","East North Central","39171","41.564959","-84.584324 ","10940","168","0","0","10/29/2022 12:00:00 AM","2019","36692","NYTIMES-USCENSUS"
"10/30/2022 12:00:00 AM","Wilkinson County","Mississippi","South","East South Central","28157","31.161091","-91.324617 ","1901","46","0","0","10/29/2022 12:00:00 AM","2019","8630","NYTIMES-USCENSUS"
"10/30/2022 12:00:00 AM","Wilkes County","Georgia","South","South Atlantic","13317","33.779031","-82.747921 ","2563","55","0","0","10/29/2022 12:00:00 AM","2019","9777","NYTIMES-USCENSUS"
"10/30/2022 12:00:00 AM","Wilcox County","Alabama","South","East South Central","01131","31.990082","-87.304935 ","3450","48","0","0","10/29/2022 12:00:00 AM","2019","10373","NYTIMES-USCENSUS"
"10/30/2022 12:00:00 AM","Wichita County","Kansas","Midwest","West North Central","20203","38.481922","-101.347434 ","563","10","0","0","10/29/2022 12:00:00 AM","2019","2119","NYTIMES-USCENSUS"
"10/30/2022 12:00:00 AM","Whitley County","Indiana","Midwest","East North Central","18183","41.136426","-85.501892 ","10801","86","0","0","10/29/2022 12:00:00 AM","2019","33964","NYTIMES-USCENSUS"
"10/30/2022 12:00:00 AM","White County","Georgia","South","South Atlantic","13311","34.644182","-83.743 ","7893","173","0","0","10/29/2022 12:00:00 AM","2019","30798","NYTIMES-USCENSUS"
"10/30/2022 12:00:00 AM","White County","Indiana","Midwest","East North Central","18181","40.75095","-86.864293 ","7859","98","0","0","10/29/2022 12:00:00 AM","2019","24102","NYTIMES-USCENSUS"
"10/30/2022 12:00:00 AM","White County","Tennessee","South","East South Central","47185","35.927049","-85.455785 ","9313","137","0","0","10/29/2022 12:00:00 AM","2019","27345","NYTIMES-USCENSUS"
"10/30/2022 12:00:00 AM","White County","Arkansas","South","West South Central","05145","35.255118","-91.753034 ","25771","327","1","0","10/29/2022 12:00:00 AM","2019","78753","NYTIMES-USCENSUS"
"10/30/2022 12:00:00 AM","Wheeler County","Georgia","South","South Atlantic","13309","32.105258","-82.733849 ","1532","39","0","0","10/29/2022 12:00:00 AM","2019","7855","NYTIMES-USCENSUS"
"10/30/2022 12:00:00 AM","Wheeler County","Texas","South","West South Central","48483","35.392593","-100.253107 ","1274","23","0","0","10/29/2022 12:00:00 AM","2019","5056","NYTIMES-USCENSUS"
"10/30/2022 12:00:00 AM","Westmoreland County","Pennsylvania","Northeast","Middle Atlantic","42129","40.311068","-79.466688 ","93933","1479","0","0","10/29/2022 12:00:00 AM","2019","348899","NYTIMES-USCENSUS"
"10/30/2022 12:00:00 AM","Tyler County","West Virginia","South","South Atlantic","54095","39.465634","-80.877219 ","2589","33","0","0","10/29/2022 12:00:00 AM","2019","8591","NYTIMES-USCENSUS"
"10/30/2022 12:00:00 AM","Turner County","South Dakota","Midwest","West North Central","46125","43.30867","-97.150185 ","2122","63","0","0","10/29/2022 12:00:00 AM","2019","8384","NYTIMES-USCENSUS"
"10/30/2022 12:00:00 AM","Trinity County","Texas","South","West South Central","48455","31.096675","-95.151687 ","3098","75","0","0","10/29/2022 12:00:00 AM","2019","14651","NYTIMES-USCENSUS"
"10/30/2022 12:00:00 AM","Stafford County","Virginia","South","South Atlantic","51179","38.423084","-77.458048 ","38840","191","0","0","10/29/2022 12:00:00 AM","2019","152882","NYTIMES-USCENSUS"
"10/30/2022 12:00:00 AM","St. Louis County","Minnesota","Midwest","West North Central","27137","47.578635","-92.514593 ","57100","581","0","0","10/29/2022 12:00:00 AM","2019","199070","NYTIMES-USCENSUS"
"10/30/2022 12:00:00 AM","St. Joseph County","Indiana","Midwest","East North Central","18141","41.617723","-86.288048 ","80483","921","0","0","10/29/2022 12:00:00 AM","2019","271826","NYTIMES-USCENSUS"
"10/30/2022 12:00:00 AM","St. Clair County","Alabama","South","East South Central","01115","33.719491","-86.311327 ","30317","434","0","0","10/29/2022 12:00:00 AM","2019","89512","NYTIMES-USCENSUS"
"10/30/2022 12:00:00 AM","St. Clair County","Illinois","Midwest","East North Central","17163","38.470198","-89.928546 ","83230","813","0","0","10/29/2022 12:00:00 AM","2019","259686","NYTIMES-USCENSUS"
"10/30/2022 12:00:00 AM","St. Clair County","Michigan","Midwest","East North Central","26147","42.928803","-82.668913 ","47617","882","0","0","10/29/2022 12:00:00 AM","2019","159128","NYTIMES-USCENSUS"
"10/30/2022 12:00:00 AM","Spencer County","Kentucky","South","East South Central","21215","38.025411","-85.317174 ","6490","65","0","0","10/29/2022 12:00:00 AM","2019","19351","NYTIMES-USCENSUS"
"10/30/2022 12:00:00 AM","San Juan County","Colorado","West","Mountain","08111","37.781049","-107.670257 ","305","0","0","0","10/29/2022 12:00:00 AM","2019","728","NYTIMES-USCENSUS"
"10/30/2022 12:00:00 AM","San Juan County","New Mexico","West","Mountain","35045","36.511624","-108.324578 ","48006","832","0","0","10/29/2022 12:00:00 AM","2019","123958","NYTIMES-USCENSUS"
"10/30/2022 12:00:00 AM","San Juan County","Utah","West","Mountain","49037","37.602633","-109.791574 ","4706","50","0","0","10/29/2022 12:00:00 AM","2019","15308","NYTIMES-USCENSUS"
"10/30/2022 12:00:00 AM","Saline County","Nebraska","Midwest","West North Central","31151","40.516802","-97.131755 ","4197","18","0","0","10/29/2022 12:00:00 AM","2019","14224","NYTIMES-USCENSUS"
"10/30/2022 12:00:00 AM","Saline County","Kansas","Midwest","West North Central","20169","38.791804","-97.651478 ","16164","266","0","0","10/29/2022 12:00:00 AM","2019","54224","NYTIMES-USCENSUS"
"10/30/2022 12:00:00 AM","Saline County","Illinois","Midwest","East North Central","17165","37.751508","-88.545024 ","9719","121","0","0","10/29/2022 12:00:00 AM","2019","23491","NYTIMES-USCENSUS"
"10/30/2022 12:00:00 AM","Saline County","Arkansas","South","West South Central","05125","34.648525","-92.674463 ","35339","379","5","0","10/29/2022 12:00:00 AM","2019","122437","NYTIMES-USCENSUS"
"10/30/2022 12:00:00 AM","Rutherford County","Tennessee","South","East South Central","47149","35.843369","-86.417213 ","110651","951","0","0","10/29/2022 12:00:00 AM","2019","332285","NYTIMES-USCENSUS"
"10/30/2022 12:00:00 AM","Russell County","Alabama","South","East South Central","01113","32.289811","-85.18698 ","12082","98","0","0","10/29/2022 12:00:00 AM","2019","57961","NYTIMES-USCENSUS"
"10/30/2022 12:00:00 AM","Russell County","Kentucky","South","East South Central","21207","36.990587","-85.05495 ","7768","95","0","0","10/29/2022 12:00:00 AM","2019","17923","NYTIMES-USCENSUS"
"10/30/2022 12:00:00 AM","Rusk County","Texas","South","West South Central","48401","32.109423","-94.756382 ","12041","237","0","0","10/29/2022 12:00:00 AM","2019","54406","NYTIMES-USCENSUS"
"10/30/2022 12:00:00 AM","Rowan County","North Carolina","South","South Atlantic","37159","35.641355","-80.521721 ","48416","617","0","0","10/29/2022 12:00:00 AM","2019","142088","NYTIMES-USCENSUS"
"10/30/2022 12:00:00 AM","Prairie County","Arkansas","South","West South Central","05117","34.831116","-91.55362 ","2307","46","0","0","10/29/2022 12:00:00 AM","2019","8062","NYTIMES-USCENSUS"
"10/30/2022 12:00:00 AM","Wells County","Indiana","Midwest","East North Central","18179","40.735273","-85.212974 ","7164","138","0","0","10/29/2022 12:00:00 AM","2019","28296","NYTIMES-USCENSUS"
"10/30/2022 12:00:00 AM","Webster County","Kentucky","South","East South Central","21233","37.51946","-87.68479 ","4627","51","0","0","10/29/2022 12:00:00 AM","2019","12942","NYTIMES-USCENSUS"
"10/30/2022 12:00:00 AM","Webster County","Mississippi","South","East South Central","28155","33.612061","-89.283961 ","3819","73","0","0","10/29/2022 12:00:00 AM","2019","9689","NYTIMES-USCENSUS"
"10/30/2022 12:00:00 AM","Webster County","Missouri","Midwest","West North Central","29225","37.280804","-92.87608 ","9871","160","0","0","10/29/2022 12:00:00 AM","2019","39592","NYTIMES-USCENSUS"
"10/30/2022 12:00:00 AM","Webster County","Georgia","South","South Atlantic","13307","32.046691","-84.553828 ","511","10","0","0","10/29/2022 12:00:00 AM","2019","2607","NYTIMES-USCENSUS"
"10/30/2022 12:00:00 AM","Webster County","Nebraska","Midwest","West North Central","31181","40.180646","-98.49859 ","763","13","0","0","10/29/2022 12:00:00 AM","2019","3487","NYTIMES-USCENSUS"
"10/30/2022 12:00:00 AM","Wayne County","West Virginia","South","South Atlantic","54099","38.143642","-82.422666 ","11284","140","0","0","10/29/2022 12:00:00 AM","2019","39402","NYTIMES-USCENSUS"
"10/30/2022 12:00:00 AM","Wayne County","Michigan","Midwest","East North Central","26163","42.284664","-83.261953 ","497531","8541","0","0","10/29/2022 12:00:00 AM","2019","1749343","NYTIMES-USCENSUS"
"10/30/2022 12:00:00 AM","Wayne County","New York","Northeast","Middle Atlantic","36117","43.218114","-77.049402 ","20802","198","12","0","10/29/2022 12:00:00 AM","2019","89918","NYTIMES-USCENSUS"
"10/30/2022 12:00:00 AM","Wayne County","Missouri","Midwest","West North Central","29223","37.111074","-90.453931 ","2784","56","0","0","10/29/2022 12:00:00 AM","2019","12873","NYTIMES-USCENSUS"
"10/30/2022 12:00:00 AM","Wayne County","Pennsylvania","Northeast","Middle Atlantic","42127","41.646602","-75.292493 ","12267","186","0","0","10/29/2022 12:00:00 AM","2019","51361","NYTIMES-USCENSUS"
"10/30/2022 12:00:00 AM","Wayne County","Illinois","Midwest","East North Central","17191","38.431857","-88.43243 ","6288","90","0","0","10/29/2022 12:00:00 AM","2019","16215","NYTIMES-USCENSUS"
"10/30/2022 12:00:00 AM","Wayne County","Iowa","Midwest","West North Central","19185","40.739983","-93.332613 ","1450","33","0","0","10/29/2022 12:00:00 AM","2019","6441","NYTIMES-USCENSUS"
"10/30/2022 12:00:00 AM","Wayne County","Tennessee","South","East South Central","47181","35.242847","-87.819843 ","6505","79","0","0","10/29/2022 12:00:00 AM","2019","16673","NYTIMES-USCENSUS"
"10/30/2022 12:00:00 AM","Wayne County","Nebraska","Midwest","West North Central","31179","42.210746","-97.126243 ","2021","17","0","0","10/29/2022 12:00:00 AM","2019","9385","NYTIMES-USCENSUS"
"10/30/2022 12:00:00 AM","Wayne County","Georgia","South","South Atlantic","13305","31.547845","-81.912376 ","8544","219","0","0","10/29/2022 12:00:00 AM","2019","29927","NYTIMES-USCENSUS"
"10/30/2022 12:00:00 AM","Wayne County","Ohio","Midwest","East North Central","39169","40.829661","-81.887194 ","27002","455","0","0","10/29/2022 12:00:00 AM","2019","115710","NYTIMES-USCENSUS"
"10/30/2022 12:00:00 AM","Wayne County","Mississippi","South","East South Central","28153","31.642503","-88.678214 ","6689","88","0","0","10/29/2022 12:00:00 AM","2019","20183","NYTIMES-USCENSUS"
"10/30/2022 12:00:00 AM","Wayne County","Kentucky","South","East South Central","21231","36.800772","-84.82659 ","7725","105","0","0","10/29/2022 12:00:00 AM","2019","20333","NYTIMES-USCENSUS"
"10/30/2022 12:00:00 AM","Wayne County","North Carolina","South","South Atlantic","37191","35.35419","-78.00867 ","38693","436","0","0","10/29/2022 12:00:00 AM","2019","123131","NYTIMES-USCENSUS"
"10/30/2022 12:00:00 AM","Washington County","Wisconsin","Midwest","East North Central","55131","43.391156","-88.232917 ","44375","353","0","0","10/29/2022 12:00:00 AM","2019","136034","NYTIMES-USCENSUS"
"10/30/2022 12:00:00 AM","Washington County","New York","Northeast","Middle Atlantic","36115","43.312377","-73.439428 ","14899","128","6","0","10/29/2022 12:00:00 AM","2019","61204","NYTIMES-USCENSUS"
"10/30/2022 12:00:00 AM","Washington County","Florida","South","South Atlantic","12133","30.602102","-85.655805 ","7413","119","0","0","10/29/2022 12:00:00 AM","2019","25473","NYTIMES-USCENSUS"
"10/30/2022 12:00:00 AM","Washington County","Maryland","South","South Atlantic","24043","39.603621","-77.814671 ","39520","607","0","0","10/29/2022 12:00:00 AM","2019","151049","NYTIMES-USCENSUS"
"10/30/2022 12:00:00 AM","Washington County","Mississippi","South","East South Central","28151","33.273174","-90.944446 ","11821","208","0","0","10/29/2022 12:00:00 AM","2019","43909","NYTIMES-USCENSUS"
"10/30/2022 12:00:00 AM","Washington County","Iowa","Midwest","West North Central","19183","41.329401","-91.725052 ","6445","83","0","0","10/29/2022 12:00:00 AM","2019","21965","NYTIMES-USCENSUS"
"10/30/2022 12:00:00 AM","Washington County","Oklahoma","South","West South Central","40147","36.704403","-95.906253 ","14659","270","0","0","10/29/2022 12:00:00 AM","2019","51527","NYTIMES-USCENSUS"
"10/30/2022 12:00:00 AM","Washington County","Missouri","Midwest","West North Central","29221","37.942611","-90.897018 ","6779","151","0","0","10/29/2022 12:00:00 AM","2019","24730","NYTIMES-USCENSUS"
"10/30/2022 12:00:00 AM","Washington County","Minnesota","Midwest","West North Central","27163","45.037929","-92.890117 ","78838","529","0","0","10/29/2022 12:00:00 AM","2019","262440","NYTIMES-USCENSUS"
"10/30/2022 12:00:00 AM","Washington County","North Carolina","South","South Atlantic","37187","35.844713","-76.572291 ","3648","52","0","0","10/29/2022 12:00:00 AM","2019","11580","NYTIMES-USCENSUS"
"10/30/2022 12:00:00 AM","Washington County","Oregon","West","Pacific","41067","45.553542","-123.097615 ","115522","716","0","0","10/29/2022 12:00:00 AM","2019","601592","NYTIMES-USCENSUS"
"10/30/2022 12:00:00 AM","Washington County","Virginia","South","South Atlantic","51191","36.747814","-81.950322 ","16782","234","0","0","10/29/2022 12:00:00 AM","2019","53740","NYTIMES-USCENSUS"
"10/30/2022 12:00:00 AM","Washington County","Pennsylvania","Northeast","Middle Atlantic","42125","40.200005","-80.252132 ","60777","692","0","0","10/29/2022 12:00:00 AM","2019","206865","NYTIMES-USCENSUS"
"10/30/2022 12:00:00 AM","Washington County","Texas","South","West South Central","48477","30.215075","-96.410272 ","10462","151","0","0","10/29/2022 12:00:00 AM","2019","35882","NYTIMES-USCENSUS"
"10/30/2022 12:00:00 AM","Washington County","Idaho","West","Mountain","16087","44.448223","-116.797792 ","2556","59","0","0","10/29/2022 12:00:00 AM","2019","10194","NYTIMES-USCENSUS"
"10/30/2022 12:00:00 AM","Washington County","Illinois","Midwest","East North Central","17189","38.35314","-89.417187 ","3909","42","0","0","10/29/2022 12:00:00 AM","2019","13887","NYTIMES-USCENSUS"
"10/30/2022 12:00:00 AM","Washington County","Kentucky","South","East South Central","21229","37.754209","-85.175416 ","4728","66","0","0","10/29/2022 12:00:00 AM","2019","12095","NYTIMES-USCENSUS"
"10/30/2022 12:00:00 AM","Washington County","Ohio","Midwest","East North Central","39167","39.450676","-81.490636 ","14629","232","0","0","10/29/2022 12:00:00 AM","2019","59911","NYTIMES-USCENSUS"
"10/30/2022 12:00:00 AM","Washington County","Alabama","South","East South Central","01129","31.408503","-88.212404 ","4178","60","0","0","10/29/2022 12:00:00 AM","2019","16326","NYTIMES-USCENSUS"
"10/30/2022 12:00:00 AM","Washington County","Georgia","South","South Atlantic","13303","32.971843","-82.798112 ","4970","140","0","0","10/29/2022 12:00:00 AM","2019","20374","NYTIMES-USCENSUS"
"10/30/2022 12:00:00 AM","Washington County","Maine","Northeast","New England","23029","44.967009","-67.609354 ","5360","62","0","0","10/29/2022 12:00:00 AM","2019","31379","NYTIMES-USCENSUS"
"10/30/2022 12:00:00 AM","Washington County","Kansas","Midwest","West North Central","20201","39.776714","-97.095611 ","1543","27","0","0","10/29/2022 12:00:00 AM","2019","5406","NYTIMES-USCENSUS"
"10/30/2022 12:00:00 AM","Washington County","Utah","West","Mountain","49053","37.262531","-113.4878 ","49130","486","0","0","10/29/2022 12:00:00 AM","2019","177556","NYTIMES-USCENSUS"
"10/30/2022 12:00:00 AM","Mitchell County","North Carolina","South","South Atlantic","37121","36.013102","-82.163554 ","4444","42","0","0","10/29/2022 12:00:00 AM","2019","14964","NYTIMES-USCENSUS"
"10/30/2022 12:00:00 AM","Mitchell County","Kansas","Midwest","West North Central","20123","39.393026","-98.207362 ","1628","25","0","0","10/29/2022 12:00:00 AM","2019","5979","NYTIMES-USCENSUS"
"10/30/2022 12:00:00 AM","Mitchell County","Georgia","South","South Atlantic","13205","31.228997","-84.192038 ","6065","124","0","0","10/29/2022 12:00:00 AM","2019","21863","NYTIMES-USCENSUS"
"10/30/2022 12:00:00 AM","Mississippi County","Missouri","Midwest","West North Central","29133","36.826264","-89.295929 ","4232","63","0","0","10/29/2022 12:00:00 AM","2019","13180","NYTIMES-USCENSUS"
"10/30/2022 12:00:00 AM","Mineral County","Colorado","West","Mountain","08079","37.549067","-107.003236 ","292","3","0","0","10/29/2022 12:00:00 AM","2019","769","NYTIMES-USCENSUS"
"10/30/2022 12:00:00 AM","Mineral County","Nevada","West","Mountain","32021","38.516647","-118.416279 ","1432","19","0","0","10/29/2022 12:00:00 AM","2019","4505","NYTIMES-USCENSUS"
"10/30/2022 12:00:00 AM","Mineral County","West Virginia","South","South Atlantic","54057","39.404781","-78.95669 ","9627","165","0","0","10/29/2022 12:00:00 AM","2019","26868","NYTIMES-USCENSUS"
"10/30/2022 12:00:00 AM","Mills County","Texas","South","West South Central","48333","31.494888","-98.594623 ","1554","37","0","0","10/29/2022 12:00:00 AM","2019","4873","NYTIMES-USCENSUS"
"10/30/2022 12:00:00 AM","Miller County","Georgia","South","South Atlantic","13201","31.162931","-84.730398 ","1946","30","0","0","10/29/2022 12:00:00 AM","2019","5718","NYTIMES-USCENSUS"
"10/30/2022 12:00:00 AM","Miller County","Arkansas","South","West South Central","05091","33.305505","-93.901502 ","11065","191","0","0","10/29/2022 12:00:00 AM","2019","43257","NYTIMES-USCENSUS"
"10/30/2022 12:00:00 AM","Madison County","Ohio","Midwest","East North Central","39097","39.896607","-83.400885 ","11029","141","0","0","10/29/2022 12:00:00 AM","2019","44731","NYTIMES-USCENSUS"
"10/30/2022 12:00:00 AM","Madison County","New York","Northeast","Middle Atlantic","36053","42.910026","-75.663575 ","16086","139","6","0","10/29/2022 12:00:00 AM","2019","70941","NYTIMES-USCENSUS"
"10/30/2022 12:00:00 AM","Madison County","Mississippi","South","East South Central","28089","32.63437","-90.03416 ","29507","345","0","0","10/29/2022 12:00:00 AM","2019","106272","NYTIMES-USCENSUS"
"10/30/2022 12:00:00 AM","Madison County","Arkansas","South","West South Central","05087","36.012545","-93.724053 ","4605","65","0","0","10/29/2022 12:00:00 AM","2019","16576","NYTIMES-USCENSUS"
"10/30/2022 12:00:00 AM","Madison County","Georgia","South","South Atlantic","13195","34.128526","-83.203737 ","7667","119","0","0","10/29/2022 12:00:00 AM","2019","29880","NYTIMES-USCENSUS"
"10/30/2022 12:00:00 AM","Madison County","Virginia","South","South Atlantic","51113","38.412059","-78.276961 ","2915","45","0","0","10/29/2022 12:00:00 AM","2019","13261","NYTIMES-USCENSUS"
"10/30/2022 12:00:00 AM","Madison County","Texas","South","West South Central","48313","30.966878","-95.930372 ","4113","59","0","0","10/29/2022 12:00:00 AM","2019","14284","NYTIMES-USCENSUS"
"10/30/2022 12:00:00 AM","Madison County","Idaho","West","Mountain","16065","43.788614","-111.656993 ","13466","55","0","0","10/29/2022 12:00:00 AM","2019","39907","NYTIMES-USCENSUS"
"10/30/2022 12:00:00 AM","Madison County","North Carolina","South","South Atlantic","37115","35.864206","-82.712631 ","6023","84","0","0","10/29/2022 12:00:00 AM","2019","21755","NYTIMES-USCENSUS"
"10/30/2022 12:00:00 AM","Madison County","Iowa","Midwest","West North Central","19121","41.330622","-94.015184 ","3522","44","0","0","10/29/2022 12:00:00 AM","2019","16338","NYTIMES-USCENSUS"
"10/30/2022 12:00:00 AM","Madison County","Montana","West","Mountain","30057","45.32529","-111.913791 ","2283","22","0","0","10/29/2022 12:00:00 AM","2019","8600","NYTIMES-USCENSUS"
"10/30/2022 12:00:00 AM","Madison County","Florida","South","South Atlantic","12079","30.447233","-83.470416 ","6740","103","0","0","10/29/2022 12:00:00 AM","2019","18493","NYTIMES-USCENSUS"
"10/30/2022 12:00:00 AM","Madison County","Tennessee","South","East South Central","47113","35.606056","-88.833424 ","35927","470","0","0","10/29/2022 12:00:00 AM","2019","97984","NYTIMES-USCENSUS"
"10/30/2022 12:00:00 AM","Madison County","Illinois","Midwest","East North Central","17119","38.82712","-89.900227 ","82944","898","0","0","10/29/2022 12:00:00 AM","2019","262966","NYTIMES-USCENSUS"
"10/30/2022 12:00:00 AM","Madison County","Nebraska","Midwest","West North Central","31119","41.909929","-97.606856 ","10749","79","0","0","10/29/2022 12:00:00 AM","2019","35099","NYTIMES-USCENSUS"
"10/30/2022 12:00:00 AM","Madison County","Kentucky","South","East South Central","21151","37.725511","-84.278362 ","33410","300","0","0","10/29/2022 12:00:00 AM","2019","92987","NYTIMES-USCENSUS"
"10/30/2022 12:00:00 AM","Madison County","Alabama","South","East South Central","01089","34.764238","-86.55108 ","108219","1026","0","0","10/29/2022 12:00:00 AM","2019","372909","NYTIMES-USCENSUS"
"10/30/2022 12:00:00 AM","Madison County","Missouri","Midwest","West North Central","29123","37.474481","-90.343413 ","4074","59","0","0","10/29/2022 12:00:00 AM","2019","12088","NYTIMES-USCENSUS"
"10/30/2022 12:00:00 AM","Macon County","North Carolina","South","South Atlantic","37113","35.152959","-83.421901 ","9233","132","0","0","10/29/2022 12:00:00 AM","2019","35858","NYTIMES-USCENSUS"
"10/30/2022 12:00:00 AM","Macon County","Missouri","Midwest","West North Central","29121","39.829795","-92.56434 ","4076","64","0","0","10/29/2022 12:00:00 AM","2019","15117","NYTIMES-USCENSUS"
"10/30/2022 12:00:00 AM","Macon County","Tennessee","South","East South Central","47111","36.537757","-86.00096 ","9808","157","0","0","10/29/2022 12:00:00 AM","2019","24602","NYTIMES-USCENSUS"
"10/30/2022 12:00:00 AM","Macon County","Illinois","Midwest","East North Central","17115","39.860237","-88.961529 ","37081","371","0","0","10/29/2022 12:00:00 AM","2019","104009","NYTIMES-USCENSUS"
"10/30/2022 12:00:00 AM","Macon County","Georgia","South","South Atlantic","13193","32.362686","-84.051231 ","2557","52","0","0","10/29/2022 12:00:00 AM","2019","12947","NYTIMES-USCENSUS"
"10/30/2022 12:00:00 AM","Lyon County","Iowa","Midwest","West North Central","19119","43.38358","-96.207201 ","2997","52","0","0","10/29/2022 12:00:00 AM","2019","11755","NYTIMES-USCENSUS"
"10/30/2022 12:00:00 AM","Lyon County","Nevada","West","Mountain","32019","39.022213","-119.197425 ","11652","182","0","0","10/29/2022 12:00:00 AM","2019","57510","NYTIMES-USCENSUS"
"10/30/2022 12:00:00 AM","Lyon County","Minnesota","Midwest","West North Central","27083","44.409195","-95.847268 ","7851","78","0","0","10/29/2022 12:00:00 AM","2019","25474","NYTIMES-USCENSUS"
"10/30/2022 12:00:00 AM","Lyon County","Kentucky","South","East South Central","21143","37.023976","-88.083391 ","3474","39","0","0","10/29/2022 12:00:00 AM","2019","8210","NYTIMES-USCENSUS"
"10/30/2022 12:00:00 AM","Lucas County","Iowa","Midwest","West North Central","19117","41.033344","-93.331467 ","2049","33","0","0","10/29/2022 12:00:00 AM","2019","8600","NYTIMES-USCENSUS"
"10/30/2022 12:00:00 AM","Lowndes County","Mississippi","South","East South Central","28087","33.471424","-88.439723 ","20123","247","0","0","10/29/2022 12:00:00 AM","2019","58595","NYTIMES-USCENSUS"
"10/30/2022 12:00:00 AM","Lowndes County","Alabama","South","East South Central","01085","32.147888","-86.650586 ","3077","80","0","0","10/29/2022 12:00:00 AM","2019","9726","NYTIMES-USCENSUS"
"10/30/2022 12:00:00 AM","Louisa County","Virginia","South","South Atlantic","51109","37.972704","-77.959795 ","8303","93","0","0","10/29/2022 12:00:00 AM","2019","37591","NYTIMES-USCENSUS"
"10/30/2022 12:00:00 AM","Kiowa County","Kansas","Midwest","West North Central","20097","37.561231","-99.286539 ","724","8","0","0","10/29/2022 12:00:00 AM","2019","2475","NYTIMES-USCENSUS"
"10/30/2022 12:00:00 AM","Kent County","Maryland","South","South Atlantic","24029","39.241279","-76.125987 ","3744","73","0","0","10/29/2022 12:00:00 AM","2019","19422","NYTIMES-USCENSUS"
"10/30/2022 12:00:00 AM","Potter County","Pennsylvania","Northeast","Middle Atlantic","42105","41.748587","-77.894436 ","3691","98","0","0","10/29/2022 12:00:00 AM","2019","16526","NYTIMES-USCENSUS"
"10/30/2022 12:00:00 AM","Pottawatomie County","Kansas","Midwest","West North Central","20149","39.382187","-96.337113 ","6684","69","0","0","10/29/2022 12:00:00 AM","2019","24383","NYTIMES-USCENSUS"
"10/30/2022 12:00:00 AM","Pope County","Illinois","Midwest","East North Central","17151","37.417169","-88.542374 ","1151","9","0","0","10/29/2022 12:00:00 AM","2019","4177","NYTIMES-USCENSUS"
"10/30/2022 12:00:00 AM","Pope County","Minnesota","Midwest","West North Central","27121","45.589623","-95.446705 ","3651","20","0","0","10/29/2022 12:00:00 AM","2019","11249","NYTIMES-USCENSUS"
"10/30/2022 12:00:00 AM","Pontotoc County","Mississippi","South","East South Central","28115","34.227081","-89.037239 ","12017","154","0","0","10/29/2022 12:00:00 AM","2019","32174","NYTIMES-USCENSUS"
"10/30/2022 12:00:00 AM","Polk County","Tennessee","South","East South Central","47139","35.109437","-84.541112 ","5348","87","0","0","10/29/2022 12:00:00 AM","2019","16832","NYTIMES-USCENSUS"
"10/30/2022 12:00:00 AM","Polk County","Iowa","Midwest","West North Central","19153","41.684816","-93.568971 ","141764","1172","0","0","10/29/2022 12:00:00 AM","2019","490161","NYTIMES-USCENSUS"
"10/30/2022 12:00:00 AM","Polk County","Wisconsin","Midwest","East North Central","55095","45.462041","-92.447066 ","14307","124","0","0","10/29/2022 12:00:00 AM","2019","43783","NYTIMES-USCENSUS"
"10/30/2022 12:00:00 AM","Polk County","Missouri","Midwest","West North Central","29167","37.616761","-93.400817 ","9392","115","0","0","10/29/2022 12:00:00 AM","2019","32149","NYTIMES-USCENSUS"
"10/30/2022 12:00:00 AM","Polk County","Texas","South","West South Central","48373","30.784553","-94.837338 ","8985","261","0","0","10/29/2022 12:00:00 AM","2019","51353","NYTIMES-USCENSUS"
"10/30/2022 12:00:00 AM","Polk County","Florida","South","South Atlantic","12105","27.953649","-81.693534 ","246157","3290","0","0","10/29/2022 12:00:00 AM","2019","724777","NYTIMES-USCENSUS"
"10/30/2022 12:00:00 AM","Polk County","Oregon","West","Pacific","41053","44.900372","-123.39864 ","19268","154","0","0","10/29/2022 12:00:00 AM","2019","86085","NYTIMES-USCENSUS"
"10/30/2022 12:00:00 AM","Polk County","Arkansas","South","West South Central","05113","34.490915","-94.230884 ","4537","158","0","0","10/29/2022 12:00:00 AM","2019","19964","NYTIMES-USCENSUS"
"10/30/2022 12:00:00 AM","Polk County","Nebraska","Midwest","West North Central","31143","41.187925","-97.570663 ","1277","26","0","0","10/29/2022 12:00:00 AM","2019","5213","NYTIMES-USCENSUS"
"10/30/2022 12:00:00 AM","Polk County","Minnesota","Midwest","West North Central","27119","47.774254","-96.400027 ","10151","124","0","0","10/29/2022 12:00:00 AM","2019","31364","NYTIMES-USCENSUS"
"10/30/2022 12:00:00 AM","Polk County","North Carolina","South","South Atlantic","37149","35.277901","-82.167621 ","4583","68","0","0","10/29/2022 12:00:00 AM","2019","20724","NYTIMES-USCENSUS"
"10/30/2022 12:00:00 AM","Pocahontas County","West Virginia","South","South Atlantic","54075","38.332606","-80.010121 ","2420","34","0","0","10/29/2022 12:00:00 AM","2019","8247","NYTIMES-USCENSUS"
"10/30/2022 12:00:00 AM","Plymouth County","Massachusetts","Northeast","New England","25023","41.987196","-70.741942 ","135523","1793","0","0","10/29/2022 12:00:00 AM","2019","521202","NYTIMES-USCENSUS"
"10/30/2022 12:00:00 AM","Platte County","Missouri","Midwest","West North Central","29165","39.37869","-94.761477 ","12077","106","0","0","10/29/2022 12:00:00 AM","2019","104418","NYTIMES-USCENSUS"
"10/30/2022 12:00:00 AM","Platte County","Wyoming","West","Mountain","56031","42.131593","-104.953963 ","2183","43","0","0","10/29/2022 12:00:00 AM","2019","8393","NYTIMES-USCENSUS"
"10/30/2022 12:00:00 AM","Oneida County","Wisconsin","Midwest","East North Central","55085","45.716176","-89.534533 ","10282","146","0","0","10/29/2022 12:00:00 AM","2019","35595","NYTIMES-USCENSUS"
"10/30/2022 12:00:00 AM","Oneida County","New York","Northeast","Middle Atlantic","36065","43.242727","-75.434282 ","65842","843","19","0","10/29/2022 12:00:00 AM","2019","228671","NYTIMES-USCENSUS"
"10/30/2022 12:00:00 AM","Oldham County","Texas","South","West South Central","48359","35.401921","-102.59762 ","615","6","0","0","10/29/2022 12:00:00 AM","2019","2112","NYTIMES-USCENSUS"
"10/30/2022 12:00:00 AM","Ohio County","Kentucky","South","East South Central","21183","37.477859","-86.844871 ","8588","113","0","0","10/29/2022 12:00:00 AM","2019","23994","NYTIMES-USCENSUS"
"10/30/2022 12:00:00 AM","Ohio County","West Virginia","South","South Atlantic","54069","40.100323","-80.6199 ","13302","190","0","0","10/29/2022 12:00:00 AM","2019","41411","NYTIMES-USCENSUS"
"10/30/2022 12:00:00 AM","Oconee County","South Carolina","South","South Atlantic","45073","34.748766","-83.06154 ","27635","360","0","0","10/29/2022 12:00:00 AM","2019","79546","NYTIMES-USCENSUS"
"10/30/2022 12:00:00 AM","Monroe County","Alabama","South","East South Central","01099","31.580332","-87.383266 ","6193","85","0","0","10/29/2022 12:00:00 AM","2019","20733","NYTIMES-USCENSUS"
"10/30/2022 12:00:00 AM","Monroe County","Florida","South","South Atlantic","12087","25.58612","-81.022603 ","21552","132","0","0","10/29/2022 12:00:00 AM","2019","74228","NYTIMES-USCENSUS"
"10/30/2022 12:00:00 AM","Monroe County","Missouri","Midwest","West North Central","29137","39.49827","-92.006458 ","2421","50","0","0","10/29/2022 12:00:00 AM","2019","8644","NYTIMES-USCENSUS"
"10/30/2022 12:00:00 AM","Monroe County","Kentucky","South","East South Central","21171","36.714077","-85.713508 ","4249","86","0","0","10/29/2022 12:00:00 AM","2019","10650","NYTIMES-USCENSUS"
"10/30/2022 12:00:00 AM","Monroe County","Iowa","Midwest","West North Central","19135","41.028847","-92.869642 ","2102","52","0","0","10/29/2022 12:00:00 AM","2019","7707","NYTIMES-USCENSUS"
"10/30/2022 12:00:00 AM","Monroe County","Arkansas","South","West South Central","05095","34.679512","-91.20331 ","2229","37","1","0","10/29/2022 12:00:00 AM","2019","6701","NYTIMES-USCENSUS"
"10/30/2022 12:00:00 AM","Monroe County","Michigan","Midwest","East North Central","26115","41.916097","-83.487106 ","45595","510","0","0","10/29/2022 12:00:00 AM","2019","150500","NYTIMES-USCENSUS"
"10/30/2022 12:00:00 AM","Monroe County","Ohio","Midwest","East North Central","39111","39.726253","-81.090983 ","3985","82","0","0","10/29/2022 12:00:00 AM","2019","13654","NYTIMES-USCENSUS"
"10/30/2022 12:00:00 AM","Monroe County","West Virginia","South","South Atlantic","54063","37.554062","-80.550329 ","5370","49","0","0","10/29/2022 12:00:00 AM","2019","13275","NYTIMES-USCENSUS"
"10/30/2022 12:00:00 AM","Monroe County","Illinois","Midwest","East North Central","17133","38.277983","-90.179078 ","10820","133","0","0","10/29/2022 12:00:00 AM","2019","34637","NYTIMES-USCENSUS"
"10/30/2022 12:00:00 AM","Monroe County","Indiana","Midwest","East North Central","18105","39.160729","-86.52331 ","32841","297","0","0","10/29/2022 12:00:00 AM","2019","148431","NYTIMES-USCENSUS"
"10/30/2022 12:00:00 AM","Monroe County","Wisconsin","Midwest","East North Central","55081","43.945175","-90.619969 ","14015","104","0","0","10/29/2022 12:00:00 AM","2019","46253","NYTIMES-USCENSUS"
"10/30/2022 12:00:00 AM","Monroe County","New York","Northeast","Middle Atlantic","36055","43.250347","-77.700518 ","182431","1739","69","0","10/29/2022 12:00:00 AM","2019","741770","NYTIMES-USCENSUS"
"10/30/2022 12:00:00 AM","Monroe County","Tennessee","South","East South Central","47123","35.447818","-84.249705 ","16949","258","0","0","10/29/2022 12:00:00 AM","2019","46545","NYTIMES-USCENSUS"
"10/30/2022 12:00:00 AM","Monroe County","Georgia","South","South Atlantic","13207","33.017404","-83.922837 ","6694","182","0","0","10/29/2022 12:00:00 AM","2019","27578","NYTIMES-USCENSUS"
"10/30/2022 12:00:00 AM","Monroe County","Mississippi","South","East South Central","28095","33.89003","-88.485038 ","12729","226","0","0","10/29/2022 12:00:00 AM","2019","35252","NYTIMES-USCENSUS"
"10/30/2022 12:00:00 AM","Mitchell County","Texas","South","West South Central","48335","32.304117","-100.924392 ","2053","50","0","0","10/29/2022 12:00:00 AM","2019","8545","NYTIMES-USCENSUS"
"10/30/2022 12:00:00 AM","Grady County","Georgia","South","South Atlantic","13131","30.875908","-84.24508 ","6668","112","0","0","10/29/2022 12:00:00 AM","2019","24633","NYTIMES-USCENSUS"
"10/30/2022 12:00:00 AM","Gove County","Kansas","Midwest","West North Central","20063","38.917239","-100.48736 ","893","23","0","0","10/29/2022 12:00:00 AM","2019","2636","NYTIMES-USCENSUS"
"10/30/2022 12:00:00 AM","Gosper County","Nebraska","Midwest","West North Central","31073","40.509095","-99.823206 ","419","9","0","0","10/29/2022 12:00:00 AM","2019","1990","NYTIMES-USCENSUS"
"10/30/2022 12:00:00 AM","Goshen County","Wyoming","West","Mountain","56015","42.089455","-104.35354 ","4464","58","0","0","10/29/2022 12:00:00 AM","2019","13211","NYTIMES-USCENSUS"
"10/30/2022 12:00:00 AM","Gordon County","Georgia","South","South Atlantic","13129","34.509667","-84.873862 ","19196","290","0","0","10/29/2022 12:00:00 AM","2019","57963","NYTIMES-USCENSUS"
"10/30/2022 12:00:00 AM","Gooding County","Idaho","West","Mountain","16047","42.973185","-114.82142 ","3743","59","0","0","10/29/2022 12:00:00 AM","2019","15179","NYTIMES-USCENSUS"
"10/30/2022 12:00:00 AM","Goodhue County","Minnesota","Midwest","West North Central","27049","44.406178","-92.716 ","15051","149","0","0","10/29/2022 12:00:00 AM","2019","46340","NYTIMES-USCENSUS"
"10/30/2022 12:00:00 AM","Goochland County","Virginia","South","South Atlantic","51075","37.718814","-77.917626 ","5198","60","0","0","10/29/2022 12:00:00 AM","2019","23753","NYTIMES-USCENSUS"
"10/30/2022 12:00:00 AM","Gonzales County","Texas","South","West South Central","48177","29.461912","-97.49192 ","5203","106","0","0","10/29/2022 12:00:00 AM","2019","20837","NYTIMES-USCENSUS"
"10/30/2022 12:00:00 AM","Goliad County","Texas","South","West South Central","48175","28.6607","-97.430415 ","1470","33","0","0","10/29/2022 12:00:00 AM","2019","7658","NYTIMES-USCENSUS"
"10/30/2022 12:00:00 AM","Gogebic County","Michigan","Midwest","East North Central","26053","46.488054","-89.788314 ","3975","74","0","0","10/29/2022 12:00:00 AM","2019","13975","NYTIMES-USCENSUS"
"10/30/2022 12:00:00 AM","Glynn County","Georgia","South","South Atlantic","13127","31.21271","-81.49645 ","26311","423","0","0","10/29/2022 12:00:00 AM","2019","85292","NYTIMES-USCENSUS"
"10/30/2022 12:00:00 AM","Gloucester County","Virginia","South","South Atlantic","51073","37.403541","-76.523505 ","8883","111","0","0","10/29/2022 12:00:00 AM","2019","37348","NYTIMES-USCENSUS"
"10/30/2022 12:00:00 AM","Glenn County","California","West","Pacific","06021","39.602546","-122.4017 ","7432","48","0","0","10/29/2022 12:00:00 AM","2019","28393","NYTIMES-USCENSUS"
"10/30/2022 12:00:00 AM","Glasscock County","Texas","South","West South Central","48173","31.868006","-101.521494 ","222","3","0","0","10/29/2022 12:00:00 AM","2019","1409","NYTIMES-USCENSUS"
"10/30/2022 12:00:00 AM","Glascock County","Georgia","South","South Atlantic","13125","33.227491","-82.606913 ","676","26","0","0","10/29/2022 12:00:00 AM","2019","2971","NYTIMES-USCENSUS"
"10/30/2022 12:00:00 AM","Essex County","Vermont","Northeast","New England","50009","44.724021","-71.732736 ","1427","4","0","0","10/29/2022 12:00:00 AM","2019","6163","NYTIMES-USCENSUS"
"10/30/2022 12:00:00 AM","Escambia County","Florida","South","South Atlantic","12033","30.529998","-87.320322 ","90555","1435","0","0","10/29/2022 12:00:00 AM","2019","318316","NYTIMES-USCENSUS"
"10/30/2022 12:00:00 AM","Erie County","New York","Northeast","Middle Atlantic","36029","42.752759","-78.778192 ","256797","2787","121","0","10/29/2022 12:00:00 AM","2019","918702","NYTIMES-USCENSUS"
"10/30/2022 12:00:00 AM","Erath County","Texas","South","West South Central","48143","32.236661","-98.220507 ","9466","126","0","0","10/29/2022 12:00:00 AM","2019","42698","NYTIMES-USCENSUS"
"10/30/2022 12:00:00 AM","Emporia city","Virginia","South","South Atlantic","51595","36.696182","-77.535975 ","1530","56","0","0","10/29/2022 12:00:00 AM","2019","5346","NYTIMES-USCENSUS"
"10/30/2022 12:00:00 AM","Emmons County","North Dakota","Midwest","West North Central","38029","46.284255","-100.237842 ","820","18","0","0","10/29/2022 12:00:00 AM","2019","3241","NYTIMES-USCENSUS"
"10/30/2022 12:00:00 AM","Emmet County","Michigan","Midwest","East North Central","26047","45.590094","-84.986822 ","7341","101","0","0","10/29/2022 12:00:00 AM","2019","33415","NYTIMES-USCENSUS"
"10/30/2022 12:00:00 AM","Emery County","Utah","West","Mountain","49015","39.009025","-110.7211 ","2811","28","0","0","10/29/2022 12:00:00 AM","2019","10012","NYTIMES-USCENSUS"
"10/30/2022 12:00:00 AM","Emanuel County","Georgia","South","South Atlantic","13107","32.5911","-82.299763 ","6584","164","0","0","10/29/2022 12:00:00 AM","2019","22646","NYTIMES-USCENSUS"
"10/30/2022 12:00:00 AM","Elmore County","Idaho","West","Mountain","16039","43.394698","-115.471205 ","8518","71","0","0","10/29/2022 12:00:00 AM","2019","27511","NYTIMES-USCENSUS"
"10/30/2022 12:00:00 AM","Ellsworth County","Kansas","Midwest","West North Central","20053","38.700845","-98.205355 ","2337","33","0","0","10/29/2022 12:00:00 AM","2019","6102","NYTIMES-USCENSUS"
"10/30/2022 12:00:00 AM","Elliott County","Kentucky","South","East South Central","21063","38.116883","-83.096116 ","3248","22","0","0","10/29/2022 12:00:00 AM","2019","7517","NYTIMES-USCENSUS"
"10/30/2022 12:00:00 AM","Elko County","Nevada","West","Mountain","32007","41.141133","-115.351424 ","12715","148","0","0","10/29/2022 12:00:00 AM","2019","52778","NYTIMES-USCENSUS"
"10/30/2022 12:00:00 AM","Elkhart County","Indiana","Midwest","East North Central","18039","41.600693","-85.863986 ","59116","757","0","0","10/29/2022 12:00:00 AM","2019","206341","NYTIMES-USCENSUS"
"10/30/2022 12:00:00 AM","Elk County","Pennsylvania","Northeast","Middle Atlantic","42047","41.427332","-78.653937 ","8191","111","0","0","10/29/2022 12:00:00 AM","2019","29910","NYTIMES-USCENSUS"
"10/30/2022 12:00:00 AM","Elbert County","Georgia","South","South Atlantic","13105","34.116413","-82.841909 ","5094","118","0","0","10/29/2022 12:00:00 AM","2019","19194","NYTIMES-USCENSUS"
"10/30/2022 12:00:00 AM","El Paso County","Colorado","West","Mountain","08041","38.827383","-104.527472 ","224734","1808","0","0","10/29/2022 12:00:00 AM","2019","720403","NYTIMES-USCENSUS"
"10/30/2022 12:00:00 AM","El Dorado County","California","West","Pacific","06017","38.785612","-120.534225 ","36819","232","0","0","10/29/2022 12:00:00 AM","2019","192843","NYTIMES-USCENSUS"
"10/30/2022 12:00:00 AM","Effingham County","Georgia","South","South Atlantic","13103","32.361688","-81.343355 ","15802","208","0","0","10/29/2022 12:00:00 AM","2019","64296","NYTIMES-USCENSUS"
"10/30/2022 12:00:00 AM","Edmunds County","South Dakota","Midwest","West North Central","46045","45.41168","-99.205362 ","1018","17","0","0","10/29/2022 12:00:00 AM","2019","3829","NYTIMES-USCENSUS"
"10/30/2022 12:00:00 AM","Edmonson County","Kentucky","South","East South Central","21061","37.227514","-86.218015 ","3029","52","0","0","10/29/2022 12:00:00 AM","2019","12150","NYTIMES-USCENSUS"
"10/30/2022 12:00:00 AM","Edgecombe County","North Carolina","South","South Atlantic","37065","35.917077","-77.602742 ","16531","168","0","0","10/29/2022 12:00:00 AM","2019","51472","NYTIMES-USCENSUS"
"10/30/2022 12:00:00 AM","Edgar County","Illinois","Midwest","East North Central","17045","39.679037","-87.74711 ","6142","80","0","0","10/29/2022 12:00:00 AM","2019","17161","NYTIMES-USCENSUS"
"10/30/2022 12:00:00 AM","Kent County","Rhode Island","Northeast","New England","44003","41.675118","-71.580282 ","59901","530","0","0","10/29/2022 12:00:00 AM","2019","164292","NYTIMES-USCENSUS"
"10/30/2022 12:00:00 AM","Kenosha County","Wisconsin","Midwest","East North Central","55059","42.585882","-87.876398 ","52823","673","0","0","10/29/2022 12:00:00 AM","2019","169561","NYTIMES-USCENSUS"
"10/30/2022 12:00:00 AM","Kennebec County","Maine","Northeast","New England","23011","44.417012","-69.765764 ","28309","271","0","0","10/29/2022 12:00:00 AM","2019","122302","NYTIMES-USCENSUS"
"10/30/2022 12:00:00 AM","Huerfano County","Colorado","West","Mountain","08055","37.687815","-104.959928 ","1681","38","0","0","10/29/2022 12:00:00 AM","2019","6897","NYTIMES-USCENSUS"
"10/30/2022 12:00:00 AM","Hudspeth County","Texas","South","West South Central","48229","31.450868","-105.377549 ","1145","18","0","0","10/29/2022 12:00:00 AM","2019","4886","NYTIMES-USCENSUS"
"10/30/2022 12:00:00 AM","Hudson County","New Jersey","Northeast","Middle Atlantic","34017","40.731375","-74.078601 ","218390","2795","0","0","10/29/2022 12:00:00 AM","2019","672391","NYTIMES-USCENSUS"
"10/30/2022 12:00:00 AM","Hubbard County","Minnesota","Midwest","West North Central","27057","47.095551","-94.91329 ","5776","64","0","0","10/29/2022 12:00:00 AM","2019","21491","NYTIMES-USCENSUS"
"10/30/2022 12:00:00 AM","Howell County","Missouri","Midwest","West North Central","29091","36.774369","-91.887368 ","10521","229","0","0","10/29/2022 12:00:00 AM","2019","40117","NYTIMES-USCENSUS"
"10/30/2022 12:00:00 AM","Howard County","Arkansas","South","West South Central","05061","34.083064","-93.990931 ","4432","57","0","0","10/29/2022 12:00:00 AM","2019","13202","NYTIMES-USCENSUS"
"10/30/2022 12:00:00 AM","Houston County","Georgia","South","South Atlantic","13153","32.458287","-83.662522 ","46998","527","0","0","10/29/2022 12:00:00 AM","2019","157863","NYTIMES-USCENSUS"
"10/30/2022 12:00:00 AM","Houghton County","Michigan","Midwest","East North Central","26061","46.998427","-88.651903 ","9141","104","0","0","10/29/2022 12:00:00 AM","2019","35684","NYTIMES-USCENSUS"
"10/30/2022 12:00:00 AM","Hot Springs County","Wyoming","West","Mountain","56017","43.720209","-108.435076 ","1376","19","0","0","10/29/2022 12:00:00 AM","2019","4413","NYTIMES-USCENSUS"
"10/30/2022 12:00:00 AM","Hot Spring County","Arkansas","South","West South Central","05059","34.315177","-92.944147 ","12603","155","-1","0","10/29/2022 12:00:00 AM","2019","33771","NYTIMES-USCENSUS"
"10/30/2022 12:00:00 AM","Horry County","South Carolina","South","South Atlantic","45051","33.909269","-78.976675 ","114454","1231","0","0","10/29/2022 12:00:00 AM","2019","354081","NYTIMES-USCENSUS"
"10/30/2022 12:00:00 AM","Hopkins County","Texas","South","West South Central","48223","33.148967","-95.565434 ","8240","188","0","0","10/29/2022 12:00:00 AM","2019","37084","NYTIMES-USCENSUS"
"10/30/2022 12:00:00 AM","Hopewell city","Virginia","South","South Atlantic","51670","37.29101","-77.298944 ","7266","122","0","0","10/29/2022 12:00:00 AM","2019","22529","NYTIMES-USCENSUS"
"10/30/2022 12:00:00 AM","Hooker County","Nebraska","Midwest","West North Central","31091","41.920317","-101.117324 ","124","5","0","0","10/29/2022 12:00:00 AM","2019","682","NYTIMES-USCENSUS"
"10/30/2022 12:00:00 AM","Hood River County","Oregon","West","Pacific","41027","45.511775","-121.655976 ","4418","48","0","0","10/29/2022 12:00:00 AM","2019","23382","NYTIMES-USCENSUS"
"10/30/2022 12:00:00 AM","Hood County","Texas","South","West South Central","48221","32.430149","-97.831677 ","14517","286","0","0","10/29/2022 12:00:00 AM","2019","61643","NYTIMES-USCENSUS"
"10/30/2022 12:00:00 AM","Honolulu County","Hawaii","West","Pacific","15003","21.461365","-158.201974 ","251156","1263","0","0","10/29/2022 12:00:00 AM","2019","974563","NYTIMES-USCENSUS"
"10/30/2022 12:00:00 AM","Holt County","Nebraska","Midwest","West North Central","31089","42.459287","-98.784766 ","2434","22","0","0","10/29/2022 12:00:00 AM","2019","10067","NYTIMES-USCENSUS"
"10/30/2022 12:00:00 AM","Holmes County","Mississippi","South","East South Central","28051","33.125942","-90.091197 ","5018","105","0","0","10/29/2022 12:00:00 AM","2019","17010","NYTIMES-USCENSUS"
"10/30/2022 12:00:00 AM","Hoke County","North Carolina","South","South Atlantic","37093","35.017233","-79.241964 ","18244","133","0","0","10/29/2022 12:00:00 AM","2019","55234","NYTIMES-USCENSUS"
"10/30/2022 12:00:00 AM","Hodgeman County","Kansas","Midwest","West North Central","20083","38.087493","-99.898407 ","472","13","0","0","10/29/2022 12:00:00 AM","2019","1794","NYTIMES-USCENSUS"
"10/30/2022 12:00:00 AM","Hockley County","Texas","South","West South Central","48219","33.605932","-102.343398 ","8710","166","0","0","10/29/2022 12:00:00 AM","2019","23021","NYTIMES-USCENSUS"
"10/30/2022 12:00:00 AM","Hocking County","Ohio","Midwest","East North Central","39073","39.490342","-82.483447 ","8154","128","0","0","10/29/2022 12:00:00 AM","2019","28264","NYTIMES-USCENSUS"
"10/30/2022 12:00:00 AM","Hitchcock County","Nebraska","Midwest","West North Central","31087","40.176896","-101.044217 ","595","10","0","0","10/29/2022 12:00:00 AM","2019","2762","NYTIMES-USCENSUS"
"10/30/2022 12:00:00 AM","Hinsdale County","Colorado","West","Mountain","08053","37.811519","-107.383974 ","155","0","0","0","10/29/2022 12:00:00 AM","2019","820","NYTIMES-USCENSUS"
"10/30/2022 12:00:00 AM","Hinds County","Mississippi","South","East South Central","28049","32.267788","-90.466017 ","63672","828","0","0","10/29/2022 12:00:00 AM","2019","231840","NYTIMES-USCENSUS"
"10/30/2022 12:00:00 AM","Hillsdale County","Michigan","Midwest","East North Central","26059","41.927461","-84.637479 ","12069","215","0","0","10/29/2022 12:00:00 AM","2019","45605","NYTIMES-USCENSUS"
"10/30/2022 12:00:00 AM","Hillsborough County","Florida","South","South Atlantic","12057","27.88761","-82.374417 ","456828","4209","0","0","10/29/2022 12:00:00 AM","2019","1471968","NYTIMES-USCENSUS"
"10/30/2022 12:00:00 AM","Graves County","Kentucky","South","East South Central","21083","36.723344","-88.649897 ","12894","196","0","0","10/29/2022 12:00:00 AM","2019","37266","NYTIMES-USCENSUS"
"10/30/2022 12:00:00 AM","Gratiot County","Michigan","Midwest","East North Central","26057","43.292326","-84.60469 ","15219","206","0","0","10/29/2022 12:00:00 AM","2019","40711","NYTIMES-USCENSUS"
"10/30/2022 12:00:00 AM","Granville County","North Carolina","South","South Atlantic","37077","36.299884","-78.657634 ","18006","124","0","0","10/29/2022 12:00:00 AM","2019","60443","NYTIMES-USCENSUS"
"10/30/2022 12:00:00 AM","Grant Parish","Louisiana","South","West South Central","22043","31.597787","-92.561716 ","6860","97","0","0","10/29/2022 12:00:00 AM","2019","22389","NYTIMES-USCENSUS"
"10/30/2022 12:00:00 AM","Grant County","South Dakota","Midwest","West North Central","46051","45.172637","-96.772261 ","2261","51","0","0","10/29/2022 12:00:00 AM","2019","7052","NYTIMES-USCENSUS"
"10/30/2022 12:00:00 AM","Grand Traverse County","Michigan","Midwest","East North Central","26055","44.718688","-85.553848 ","20592","259","0","0","10/29/2022 12:00:00 AM","2019","93088","NYTIMES-USCENSUS"
"10/30/2022 12:00:00 AM","Grand Isle County","Vermont","Northeast","New England","50013","44.795742","-73.295082 ","1247","6","0","0","10/29/2022 12:00:00 AM","2019","7235","NYTIMES-USCENSUS"
"10/30/2022 12:00:00 AM","Grand Forks County","North Dakota","Midwest","West North Central","38035","47.926003","-97.450851 ","25505","125","0","0","10/29/2022 12:00:00 AM","2019","69451","NYTIMES-USCENSUS"
"10/30/2022 12:00:00 AM","Grand County","Utah","West","Mountain","49019","38.974326","-109.57345 ","2680","6","0","0","10/29/2022 12:00:00 AM","2019","9754","NYTIMES-USCENSUS"
"10/30/2022 12:00:00 AM","Grainger County","Tennessee","South","East South Central","47057","36.277509","-83.509546 ","7767","115","0","0","10/29/2022 12:00:00 AM","2019","23320","NYTIMES-USCENSUS"
"10/30/2022 12:00:00 AM","Grafton County","New Hampshire","Northeast","New England","33009","43.926439","-71.842424 ","22123","84","0","0","10/29/2022 12:00:00 AM","2019","89886","NYTIMES-USCENSUS"
"10/30/2022 12:00:00 AM","Chautauqua County","New York","Northeast","Middle Atlantic","36013","42.304216","-79.407595 ","28180","322","12","0","10/29/2022 12:00:00 AM","2019","126903","NYTIMES-USCENSUS"
"10/30/2022 12:00:00 AM","Chattooga County","Georgia","South","South Atlantic","13055","34.474178","-85.345289 ","7431","145","0","0","10/29/2022 12:00:00 AM","2019","24789","NYTIMES-USCENSUS"
"10/30/2022 12:00:00 AM","Chattahoochee County","Georgia","South","South Atlantic","13053","32.347445","-84.788021 ","7768","22","0","0","10/29/2022 12:00:00 AM","2019","10907","NYTIMES-USCENSUS"
"10/30/2022 12:00:00 AM","Chatham County","Georgia","South","South Atlantic","13051","31.980404","-81.085184 ","75826","974","0","0","10/29/2022 12:00:00 AM","2019","289430","NYTIMES-USCENSUS"
"10/30/2022 12:00:00 AM","Chase County","Kansas","Midwest","West North Central","20017","38.299475","-96.594029 ","758","9","0","0","10/29/2022 12:00:00 AM","2019","2648","NYTIMES-USCENSUS"
"10/30/2022 12:00:00 AM","Charlton County","Georgia","South","South Atlantic","13049","30.779904","-82.139644 ","3345","65","0","0","10/29/2022 12:00:00 AM","2019","13392","NYTIMES-USCENSUS"
"10/30/2022 12:00:00 AM","Charlottesville city","Virginia","South","South Atlantic","51540","38.037658","-78.485381 ","11976","85","0","0","10/29/2022 12:00:00 AM","2019","47266","NYTIMES-USCENSUS"
"10/30/2022 12:00:00 AM","Charlotte County","Virginia","South","South Atlantic","51037","37.009042","-78.658568 ","3131","49","0","0","10/29/2022 12:00:00 AM","2019","11880","NYTIMES-USCENSUS"
"10/30/2022 12:00:00 AM","Charlevoix County","Michigan","Midwest","East North Central","26029","45.618554","-85.543684 ","5684","65","0","0","10/29/2022 12:00:00 AM","2019","26143","NYTIMES-USCENSUS"
"10/30/2022 12:00:00 AM","Charleston County","South Carolina","South","South Atlantic","45019","32.800458","-79.94248 ","131683","988","0","0","10/29/2022 12:00:00 AM","2019","411406","NYTIMES-USCENSUS"
"10/30/2022 12:00:00 AM","Charles Mix County","South Dakota","Midwest","West North Central","46023","43.206185","-98.595143 ","3344","37","0","0","10/29/2022 12:00:00 AM","2019","9292","NYTIMES-USCENSUS"
"10/30/2022 12:00:00 AM","Charles County","Maryland","South","South Atlantic","24017","38.472853","-77.015427 ","35698","385","0","0","10/29/2022 12:00:00 AM","2019","163257","NYTIMES-USCENSUS"
"10/30/2022 12:00:00 AM","Charles City County","Virginia","South","South Atlantic","51036","37.361054","-77.05417 ","1515","31","0","0","10/29/2022 12:00:00 AM","2019","6963","NYTIMES-USCENSUS"
"10/30/2022 12:00:00 AM","Chariton County","Missouri","Midwest","West North Central","29041","39.517968","-92.96162 ","1920","41","0","0","10/29/2022 12:00:00 AM","2019","7426","NYTIMES-USCENSUS"
"10/30/2022 12:00:00 AM","Champaign County","Ohio","Midwest","East North Central","39021","40.132775","-83.767604 ","10165","155","0","0","10/29/2022 12:00:00 AM","2019","38885","NYTIMES-USCENSUS"
"10/30/2022 12:00:00 AM","Chambers County","Texas","South","West South Central","48071","29.696374","-94.669445 ","14033","115","0","0","10/29/2022 12:00:00 AM","2019","43837","NYTIMES-USCENSUS"
"10/30/2022 12:00:00 AM","Chaffee County","Colorado","West","Mountain","08015","38.734599","-106.300025 ","5482","56","0","0","10/29/2022 12:00:00 AM","2019","20356","NYTIMES-USCENSUS"
"10/30/2022 12:00:00 AM","Arenac County","Michigan","Midwest","East North Central","26011","44.036833","-83.740675 ","3696","80","0","0","10/29/2022 12:00:00 AM","2019","14883","NYTIMES-USCENSUS"
"10/30/2022 12:00:00 AM","Archuleta County","Colorado","West","Mountain","08007","37.202395","-107.050863 ","3379","21","0","0","10/29/2022 12:00:00 AM","2019","14029","NYTIMES-USCENSUS"
"10/30/2022 12:00:00 AM","Archer County","Texas","South","West South Central","48009","33.616305","-98.687267 ","2522","29","0","0","10/29/2022 12:00:00 AM","2019","8553","NYTIMES-USCENSUS"
"10/30/2022 12:00:00 AM","Arapahoe County","Colorado","West","Mountain","08005","39.644554","-104.331706 ","190626","1393","0","0","10/29/2022 12:00:00 AM","2019","656590","NYTIMES-USCENSUS"
"10/30/2022 12:00:00 AM","Aransas County","Texas","South","West South Central","48007","28.122621","-96.967501 ","5248","94","0","0","10/29/2022 12:00:00 AM","2019","23510","NYTIMES-USCENSUS"
"10/30/2022 12:00:00 AM","Appomattox County","Virginia","South","South Atlantic","51011","37.370725","-78.81094 ","4592","58","0","0","10/29/2022 12:00:00 AM","2019","15911","NYTIMES-USCENSUS"
"10/30/2022 12:00:00 AM","Appling County","Georgia","South","South Atlantic","13001","31.739712","-82.290103 ","5159","135","0","0","10/29/2022 12:00:00 AM","2019","18386","NYTIMES-USCENSUS"
"10/30/2022 12:00:00 AM","Appanoose County","Iowa","Midwest","West North Central","19007","40.744249","-92.873065 ","3265","72","0","0","10/29/2022 12:00:00 AM","2019","12426","NYTIMES-USCENSUS"
"10/30/2022 12:00:00 AM","Apache County","Arizona","West","Mountain","04001","35.385084","-109.490172 ","31990","626","0","0","10/29/2022 12:00:00 AM","2019","71887","NYTIMES-USCENSUS"
"10/30/2022 12:00:00 AM","Antrim County","Michigan","Midwest","East North Central","26009","45.005455","-85.175639 ","5081","73","0","0","10/29/2022 12:00:00 AM","2019","23324","NYTIMES-USCENSUS"
"10/30/2022 12:00:00 AM","Antelope County","Nebraska","Midwest","West North Central","31003","42.183225","-98.058037 ","1219","18","0","0","10/29/2022 12:00:00 AM","2019","6298","NYTIMES-USCENSUS"
"10/30/2022 12:00:00 AM","Anson County","North Carolina","South","South Atlantic","37007","34.974972","-80.109763 ","7894","105","0","0","10/29/2022 12:00:00 AM","2019","24446","NYTIMES-USCENSUS"
"10/30/2022 12:00:00 AM","Anoka County","Minnesota","Midwest","West North Central","27003","45.27411","-93.242723 ","113538","841","0","0","10/29/2022 12:00:00 AM","2019","356921","NYTIMES-USCENSUS"
"10/30/2022 12:00:00 AM","Anne Arundel County","Maryland","South","South Atlantic","24003","38.991617","-76.560894 ","111713","1196","0","0","10/29/2022 12:00:00 AM","2019","579234","NYTIMES-USCENSUS"
"10/30/2022 12:00:00 AM","Angelina County","Texas","South","West South Central","48005","31.251896","-94.611134 ","16626","496","0","0","10/29/2022 12:00:00 AM","2019","86715","NYTIMES-USCENSUS"
"10/30/2022 12:00:00 AM","Androscoggin County","Maine","Northeast","New England","23001","44.167681","-70.207435 ","26595","308","0","0","10/29/2022 12:00:00 AM","2019","108277","NYTIMES-USCENSUS"
"10/30/2022 12:00:00 AM","Andrews County","Texas","South","West South Central","48003","32.312258","-102.640206 ","4709","73","0","0","10/29/2022 12:00:00 AM","2019","18705","NYTIMES-USCENSUS"
"10/30/2022 12:00:00 AM","Andrew County","Missouri","Midwest","West North Central","29003","39.988863","-94.803551 ","5345","62","0","0","10/29/2022 12:00:00 AM","2019","17712","NYTIMES-USCENSUS"
"10/30/2022 12:00:00 AM","Anderson County","Tennessee","South","East South Central","47001","36.116731","-84.195418 ","26141","371","0","0","10/29/2022 12:00:00 AM","2019","76978","NYTIMES-USCENSUS"
"10/30/2022 12:00:00 AM","Amite County","Mississippi","South","East South Central","28005","31.203933","-90.795542 ","3697","70","0","0","10/29/2022 12:00:00 AM","2019","12297","NYTIMES-USCENSUS"
"10/30/2022 12:00:00 AM","Amherst County","Virginia","South","South Atlantic","51009","37.629304","-79.154667 ","8727","104","0","0","10/29/2022 12:00:00 AM","2019","31605","NYTIMES-USCENSUS"
"10/30/2022 12:00:00 AM","Amelia County","Virginia","South","South Atlantic","51007","37.331927","-77.977462 ","3249","61","0","0","10/29/2022 12:00:00 AM","2019","13145","NYTIMES-USCENSUS"
"10/30/2022 12:00:00 AM","Amador County","California","West","Pacific","06005","38.443549","-120.653858 ","10967","94","0","0","10/29/2022 12:00:00 AM","2019","39752","NYTIMES-USCENSUS"
"10/30/2022 12:00:00 AM","Alpine County","California","West","Pacific","06003","38.621783","-119.798352 ","137","0","0","0","10/29/2022 12:00:00 AM","2019","1129","NYTIMES-USCENSUS"
"10/30/2022 12:00:00 AM","Alpena County","Michigan","Midwest","East North Central","26007","44.894954","-83.426574 ","6216","150","0","0","10/29/2022 12:00:00 AM","2019","28405","NYTIMES-USCENSUS"
"10/30/2022 12:00:00 AM","Allendale County","South Carolina","South","South Atlantic","45005","32.979757","-81.363265 ","2351","24","0","0","10/29/2022 12:00:00 AM","2019","8688","NYTIMES-USCENSUS"
"10/30/2022 12:00:00 AM","Allen Parish","Louisiana","South","West South Central","22003","30.652744","-92.819605 ","8831","143","0","0","10/29/2022 12:00:00 AM","2019","25627","NYTIMES-USCENSUS"
"10/30/2022 12:00:00 AM","Eddy County","New Mexico","West","Mountain","35015","32.457835","-104.306434 ","18695","322","0","0","10/29/2022 12:00:00 AM","2019","58460","NYTIMES-USCENSUS"
"10/30/2022 12:00:00 AM","Ector County","Texas","South","West South Central","48135","31.865301","-102.542507 ","41675","723","0","0","10/29/2022 12:00:00 AM","2019","166223","NYTIMES-USCENSUS"
"10/30/2022 12:00:00 AM","Echols County","Georgia","South","South Atlantic","13101","30.714008","-82.897376 ","1027","12","0","0","10/29/2022 12:00:00 AM","2019","4006","NYTIMES-USCENSUS"
"10/30/2022 12:00:00 AM","Dade County","Georgia","South","South Atlantic","13083","34.852424","-85.506201 ","3860","36","0","0","10/29/2022 12:00:00 AM","2019","16116","NYTIMES-USCENSUS"
"10/30/2022 12:00:00 AM","Cuyahoga County","Ohio","Midwest","East North Central","39035","41.555037","-81.604957 ","325348","3976","0","0","10/29/2022 12:00:00 AM","2019","1235072","NYTIMES-USCENSUS"
"10/30/2022 12:00:00 AM","Custer County","Nebraska","Midwest","West North Central","31041","41.393893","-99.726866 ","2216","38","0","0","10/29/2022 12:00:00 AM","2019","10777","NYTIMES-USCENSUS"
"10/30/2022 12:00:00 AM","Curry County","Oregon","West","Pacific","41015","42.466439","-124.210929 ","4388","65","0","0","10/29/2022 12:00:00 AM","2019","22925","NYTIMES-USCENSUS"
"10/30/2022 12:00:00 AM","Currituck County","North Carolina","South","South Atlantic","37053","36.372174","-75.941224 ","5942","40","0","0","10/29/2022 12:00:00 AM","2019","27763","NYTIMES-USCENSUS"
"10/30/2022 12:00:00 AM","Cuming County","Nebraska","Midwest","West North Central","31039","41.915865","-96.788517 ","1961","21","0","0","10/29/2022 12:00:00 AM","2019","8846","NYTIMES-USCENSUS"
"10/30/2022 12:00:00 AM","Cumberland County","Virginia","South","South Atlantic","51049","37.520189","-78.252836 ","1691","29","0","0","10/29/2022 12:00:00 AM","2019","9932","NYTIMES-USCENSUS"
"10/30/2022 12:00:00 AM","Culpeper County","Virginia","South","South Atlantic","51047","38.48593","-77.956476 ","13492","165","0","0","10/29/2022 12:00:00 AM","2019","52605","NYTIMES-USCENSUS"
"10/30/2022 12:00:00 AM","Cullman County","Alabama","South","East South Central","01043","34.131923","-86.869267 ","29584","384","0","0","10/29/2022 12:00:00 AM","2019","83768","NYTIMES-USCENSUS"
"10/30/2022 12:00:00 AM","Crowley County","Colorado","West","Mountain","08025","38.30618","-103.772736 ","3487","31","0","0","10/29/2022 12:00:00 AM","2019","6061","NYTIMES-USCENSUS"
"10/30/2022 12:00:00 AM","Crow Wing County","Minnesota","Midwest","West North Central","27035","46.491653","-94.070718 ","18359","176","0","0","10/29/2022 12:00:00 AM","2019","65055","NYTIMES-USCENSUS"
"10/30/2022 12:00:00 AM","Cross County","Arkansas","South","West South Central","05037","35.285692","-90.763984 ","5520","98","1","0","10/29/2022 12:00:00 AM","2019","16419","NYTIMES-USCENSUS"
"10/30/2022 12:00:00 AM","Crosby County","Texas","South","West South Central","48107","33.609144","-101.29871 ","2157","46","0","0","10/29/2022 12:00:00 AM","2019","5737","NYTIMES-USCENSUS"
"10/30/2022 12:00:00 AM","Crook County","Wyoming","West","Mountain","56011","44.589266","-104.567298 ","1513","30","0","0","10/29/2022 12:00:00 AM","2019","7584","NYTIMES-USCENSUS"
"10/30/2022 12:00:00 AM","Crockett County","Tennessee","South","East South Central","47033","35.818795","-89.132494 ","5967","89","0","0","10/29/2022 12:00:00 AM","2019","14230","NYTIMES-USCENSUS"
"10/30/2022 12:00:00 AM","Crittenden County","Kentucky","South","East South Central","21055","37.358149","-88.10501 ","2661","54","0","0","10/29/2022 12:00:00 AM","2019","8806","NYTIMES-USCENSUS"
"10/30/2022 12:00:00 AM","Crisp County","Georgia","South","South Atlantic","13081","31.920268","-83.75653 ","5415","142","0","0","10/29/2022 12:00:00 AM","2019","22372","NYTIMES-USCENSUS"
"10/30/2022 12:00:00 AM","Crenshaw County","Alabama","South","East South Central","01041","31.730311","-86.320038 ","4407","107","0","0","10/29/2022 12:00:00 AM","2019","13772","NYTIMES-USCENSUS"
"10/30/2022 12:00:00 AM","Creek County","Oklahoma","South","West South Central","40037","35.907398","-96.380177 ","21121","343","0","0","10/29/2022 12:00:00 AM","2019","71522","NYTIMES-USCENSUS"
"10/30/2022 12:00:00 AM","Crawford County","Missouri","Midwest","West North Central","29055","37.966559","-91.313936 ","6135","112","0","0","10/29/2022 12:00:00 AM","2019","23920","NYTIMES-USCENSUS"
"10/30/2022 12:00:00 AM","Craven County","North Carolina","South","South Atlantic","37049","35.116829","-77.08132 ","30095","232","0","0","10/29/2022 12:00:00 AM","2019","102139","NYTIMES-USCENSUS"
"10/30/2022 12:00:00 AM","Crane County","Texas","South","West South Central","48103","31.422796","-102.487774 ","1452","24","0","0","10/29/2022 12:00:00 AM","2019","4797","NYTIMES-USCENSUS"
"10/30/2022 12:00:00 AM","Craighead County","Arkansas","South","West South Central","05031","35.827729","-90.631421 ","44245","364","10","0","10/29/2022 12:00:00 AM","2019","110332","NYTIMES-USCENSUS"
"10/30/2022 12:00:00 AM","Craig County","Virginia","South","South Atlantic","51045","37.473603","-80.231051 ","1363","25","0","0","10/29/2022 12:00:00 AM","2019","5131","NYTIMES-USCENSUS"
"10/30/2022 12:00:00 AM","Cowley County","Kansas","Midwest","West North Central","20035","37.234507","-96.837247 ","11899","173","0","0","10/29/2022 12:00:00 AM","2019","34908","NYTIMES-USCENSUS"
"10/30/2022 12:00:00 AM","Coweta County","Georgia","South","South Atlantic","13077","33.352897","-84.762138 ","38900","513","0","0","10/29/2022 12:00:00 AM","2019","148509","NYTIMES-USCENSUS"
"10/30/2022 12:00:00 AM","Covington County","Mississippi","South","East South Central","28031","31.633331","-89.548897 ","8146","118","0","0","10/29/2022 12:00:00 AM","2019","18636","NYTIMES-USCENSUS"
"10/30/2022 12:00:00 AM","Covington city","Virginia","South","South Atlantic","51580","37.78106","-79.985434 ","1746","30","0","0","10/29/2022 12:00:00 AM","2019","5538","NYTIMES-USCENSUS"
"10/30/2022 12:00:00 AM","Chesterfield County","South Carolina","South","South Atlantic","45025","34.637018","-80.159227 ","13977","203","0","0","10/29/2022 12:00:00 AM","2019","45650","NYTIMES-USCENSUS"
"10/30/2022 12:00:00 AM","Chester County","South Carolina","South","South Atlantic","45023","34.689342","-81.161249 ","11746","157","0","0","10/29/2022 12:00:00 AM","2019","32244","NYTIMES-USCENSUS"
"10/30/2022 12:00:00 AM","Cheshire County","New Hampshire","Northeast","New England","33005","42.92546","-72.248183 ","17980","125","0","0","10/29/2022 12:00:00 AM","2019","76085","NYTIMES-USCENSUS"
"10/30/2022 12:00:00 AM","Chesapeake city","Virginia","South","South Atlantic","51550","36.679376","-76.301788 ","60005","539","0","0","10/29/2022 12:00:00 AM","2019","244835","NYTIMES-USCENSUS"
"10/30/2022 12:00:00 AM","Cherry County","Nebraska","Midwest","West North Central","31031","42.571323","-101.047653 ","607","13","0","0","10/29/2022 12:00:00 AM","2019","5689","NYTIMES-USCENSUS"
"10/30/2022 12:00:00 AM","Cherokee County","North Carolina","South","South Atlantic","37039","35.13715","-84.061449 ","8252","134","0","0","10/29/2022 12:00:00 AM","2019","28612","NYTIMES-USCENSUS"
"10/30/2022 12:00:00 AM","Chenango County","New York","Northeast","Middle Atlantic","36017","42.478024","-75.602241 ","11245","127","7","0","10/29/2022 12:00:00 AM","2019","47207","NYTIMES-USCENSUS"
"10/30/2022 12:00:00 AM","Chemung County","New York","Northeast","Middle Atlantic","36015","42.148697","-76.752471 ","25340","247","20","0","10/29/2022 12:00:00 AM","2019","83456","NYTIMES-USCENSUS"
"10/30/2022 12:00:00 AM","Chelan County","Washington","West","Pacific","53007","47.860974","-120.619041 ","23426","188","0","0","10/29/2022 12:00:00 AM","2019","77200","NYTIMES-USCENSUS"
"10/30/2022 12:00:00 AM","Cheboygan County","Michigan","Midwest","East North Central","26031","45.476022","-84.495431 ","5513","122","0","0","10/29/2022 12:00:00 AM","2019","25276","NYTIMES-USCENSUS"
"10/30/2022 12:00:00 AM","Cheatham County","Tennessee","South","East South Central","47021","36.255169","-87.100808 ","12374","135","0","0","10/29/2022 12:00:00 AM","2019","40667","NYTIMES-USCENSUS"
"10/30/2022 12:00:00 AM","Chaves County","New Mexico","West","Mountain","35005","33.361604","-104.469837 ","24214","356","0","0","10/29/2022 12:00:00 AM","2019","64615","NYTIMES-USCENSUS"
"10/30/2022 12:00:00 AM","Pratt County","Kansas","Midwest","West North Central","20151","37.647594","-98.74012 ","2110","35","0","0","10/29/2022 12:00:00 AM","2019","9164","NYTIMES-USCENSUS"
"10/30/2022 12:00:00 AM","Powhatan County","Virginia","South","South Atlantic","51145","37.549404","-77.912855 ","6066","68","0","0","10/29/2022 12:00:00 AM","2019","29652","NYTIMES-USCENSUS"
"10/30/2022 12:00:00 AM","Poweshiek County","Iowa","Midwest","West North Central","19157","41.684642","-92.522934 ","4385","64","0","0","10/29/2022 12:00:00 AM","2019","18504","NYTIMES-USCENSUS"
"10/30/2022 12:00:00 AM","Power County","Idaho","West","Mountain","16077","42.694126","-112.844407 ","1628","21","0","0","10/29/2022 12:00:00 AM","2019","7681","NYTIMES-USCENSUS"
"10/30/2022 12:00:00 AM","Powell County","Kentucky","South","East South Central","21197","37.809907","-83.831354 ","5966","49","0","0","10/29/2022 12:00:00 AM","2019","12359","NYTIMES-USCENSUS"
"10/30/2022 12:00:00 AM","Potter County","Texas","South","West South Central","48375","35.398675","-101.893804 ","40198","755","0","0","10/29/2022 12:00:00 AM","2019","117415","NYTIMES-USCENSUS"
