"monitor_date","county","state_name","region","subregion","fips","latitude","longitude","case_count_to_date","death_count_to_date","case_count","death_count","previous_monitor_date","population_year","population","source"
"5/12/2021 12:00:00 AM","Mercer County","New Jersey","Northeast","Middle Atlantic","34021","40.282503","-74.703724 ","33632","939","32","2","5/11/2021 12:00:00 AM","2019","367430","NYTIMES-USCENSUS"
"5/12/2021 12:00:00 AM","Livingston Parish","Louisiana","South","West South Central","22063","30.440419","-90.727474 ","13461","206","12","0","5/11/2021 12:00:00 AM","2019","140789","NYTIMES-USCENSUS"
"5/12/2021 12:00:00 AM","Decatur County","Iowa","Midwest","West North Central","19053","40.736379","-93.78458 ","608","9","0","0","5/11/2021 12:00:00 AM","2019","7870","NYTIMES-USCENSUS"
"5/12/2021 12:00:00 AM","Grayson County","Virginia","South","South Atlantic","51077","36.652229","-81.215324 ","1464","35","2","0","5/11/2021 12:00:00 AM","2019","15550","NYTIMES-USCENSUS"
"5/12/2021 12:00:00 AM","Henry County","Missouri","Midwest","West North Central","29083","38.386491","-93.792628 ","2013","39","0","0","5/11/2021 12:00:00 AM","2019","21824","NYTIMES-USCENSUS"
"5/12/2021 12:00:00 AM","Indiana County","Pennsylvania","Northeast","Middle Atlantic","42063","40.651432","-79.087545 ","6151","173","17","0","5/11/2021 12:00:00 AM","2019","84073","NYTIMES-USCENSUS"
"5/12/2021 12:00:00 AM","Claiborne Parish","Louisiana","South","West South Central","22027","32.82716","-92.989728 ","1439","55","0","0","5/11/2021 12:00:00 AM","2019","15670","NYTIMES-USCENSUS"
"5/12/2021 12:00:00 AM","Pender County","North Carolina","South","South Atlantic","37141","34.512556","-77.888106 ","5420","69","13","0","5/11/2021 12:00:00 AM","2019","63060","NYTIMES-USCENSUS"
"5/12/2021 12:00:00 AM","Yuba County","California","West","Pacific","06115","39.27013","-121.344259 ","6262","46","9","0","5/11/2021 12:00:00 AM","2019","78668","NYTIMES-USCENSUS"
"5/12/2021 12:00:00 AM","Westchester County","New York","Northeast","Middle Atlantic","36119","41.152686","-73.745753 ","128623","2264","40","0","5/11/2021 12:00:00 AM","2019","967506","NYTIMES-USCENSUS"
"5/12/2021 12:00:00 AM","Klickitat County","Washington","West","Pacific","53039","45.870446","-120.779305 ","748","10","11","1","5/11/2021 12:00:00 AM","2019","22425","NYTIMES-USCENSUS"
"5/12/2021 12:00:00 AM","Kalkaska County","Michigan","Midwest","East North Central","26079","44.678881","-85.088992 ","1089","21","9","0","5/11/2021 12:00:00 AM","2019","18038","NYTIMES-USCENSUS"
"5/12/2021 12:00:00 AM","Cloud County","Kansas","Midwest","West North Central","20029","39.487329","-97.64139 ","985","23","1","0","5/11/2021 12:00:00 AM","2019","8786","NYTIMES-USCENSUS"
"5/12/2021 12:00:00 AM","Franklin County","Missouri","Midwest","West North Central","29071","38.413003","-91.072832 ","10639","183","7","0","5/11/2021 12:00:00 AM","2019","103967","NYTIMES-USCENSUS"
"5/12/2021 12:00:00 AM","Lake County","Montana","West","Mountain","30047","47.642901","-114.083687 ","2069","36","15","0","5/11/2021 12:00:00 AM","2019","30458","NYTIMES-USCENSUS"
"5/12/2021 12:00:00 AM","Edwards County","Illinois","Midwest","East North Central","17047","38.417095","-88.047941 ","568","13","-1","0","5/11/2021 12:00:00 AM","2019","6395","NYTIMES-USCENSUS"
"5/12/2021 12:00:00 AM","Hamilton County","Nebraska","Midwest","West North Central","31081","40.872817","-98.022329 ","962","18","4","0","5/11/2021 12:00:00 AM","2019","9324","NYTIMES-USCENSUS"
"5/12/2021 12:00:00 AM","Cheyenne County","Nebraska","Midwest","West North Central","31033","41.214236","-103.011929 ","933","18","0","0","5/11/2021 12:00:00 AM","2019","8910","NYTIMES-USCENSUS"
"5/12/2021 12:00:00 AM","Pleasants County","West Virginia","South","South Atlantic","54073","39.368133","-81.161172 ","882","11","1","0","5/11/2021 12:00:00 AM","2019","7460","NYTIMES-USCENSUS"
"5/12/2021 12:00:00 AM","Menominee County","Michigan","Midwest","East North Central","26109","45.535568","-87.501457 ","2094","41","10","0","5/11/2021 12:00:00 AM","2019","22780","NYTIMES-USCENSUS"
"5/12/2021 12:00:00 AM","Cedar County","Nebraska","Midwest","West North Central","31027","42.60456","-97.25687 ","775","12","-1","1","5/11/2021 12:00:00 AM","2019","8402","NYTIMES-USCENSUS"
"5/12/2021 12:00:00 AM","Suffolk County","New York","Northeast","Middle Atlantic","36103","40.943554","-72.692218 ","199025","3375","119","1","5/11/2021 12:00:00 AM","2019","1476601","NYTIMES-USCENSUS"
"5/12/2021 12:00:00 AM","Howard County","Texas","South","West South Central","48227","32.30343","-101.438721 ","4644","101","3","0","5/11/2021 12:00:00 AM","2019","36664","NYTIMES-USCENSUS"
"5/12/2021 12:00:00 AM","Ben Hill County","Georgia","South","South Atlantic","13017","31.740772","-83.147197 ","2105","79","0","0","5/11/2021 12:00:00 AM","2019","16700","NYTIMES-USCENSUS"
"5/12/2021 12:00:00 AM","Keya Paha County","Nebraska","Midwest","West North Central","31103","42.87548","-99.718351 ","53","0","0","0","5/11/2021 12:00:00 AM","2019","806","NYTIMES-USCENSUS"
"5/12/2021 12:00:00 AM","Scott County","Kentucky","South","East South Central","21209","38.28571","-84.57834 ","4981","33","19","0","5/11/2021 12:00:00 AM","2019","57004","NYTIMES-USCENSUS"
"5/12/2021 12:00:00 AM","Platte County","Wyoming","West","Mountain","56031","42.131593","-104.953963 ","628","11","3","0","5/11/2021 12:00:00 AM","2019","8393","NYTIMES-USCENSUS"
"5/12/2021 12:00:00 AM","Carroll County","Iowa","Midwest","West North Central","19027","42.039502","-94.86765 ","2856","52","2","0","5/11/2021 12:00:00 AM","2019","20165","NYTIMES-USCENSUS"
"5/12/2021 12:00:00 AM","Currituck County","North Carolina","South","South Atlantic","37053","36.372174","-75.941224 ","1548","16","3","0","5/11/2021 12:00:00 AM","2019","27763","NYTIMES-USCENSUS"
"5/12/2021 12:00:00 AM","Montgomery County","New York","Northeast","Middle Atlantic","36057","42.900891","-74.435357 ","4184","123","6","1","5/11/2021 12:00:00 AM","2019","49221","NYTIMES-USCENSUS"
"5/12/2021 12:00:00 AM","Clark County","Indiana","Midwest","East North Central","18019","38.476217","-85.711122 ","13017","200","11","0","5/11/2021 12:00:00 AM","2019","118302","NYTIMES-USCENSUS"
"5/12/2021 12:00:00 AM","Macon County","Illinois","Midwest","East North Central","17115","39.860237","-88.961529 ","10733","208","18","0","5/11/2021 12:00:00 AM","2019","104009","NYTIMES-USCENSUS"
"5/12/2021 12:00:00 AM","Holt County","Nebraska","Midwest","West North Central","31089","42.459287","-98.784766 ","863","16","1","0","5/11/2021 12:00:00 AM","2019","10067","NYTIMES-USCENSUS"
"5/12/2021 12:00:00 AM","Dinwiddie County","Virginia","South","South Atlantic","51053","37.073498","-77.635492 ","2118","43","0","0","5/11/2021 12:00:00 AM","2019","28544","NYTIMES-USCENSUS"
"5/12/2021 12:00:00 AM","Wayne County","Ohio","Midwest","East North Central","39169","40.829661","-81.887194 ","8875","211","32","0","5/11/2021 12:00:00 AM","2019","115710","NYTIMES-USCENSUS"
"5/12/2021 12:00:00 AM","Dillingham Census Area","Alaska","West","Pacific","02070","59.543326","-158.267123 ","228","2","0","0","5/11/2021 12:00:00 AM","2019","4916","NYTIMES-USCENSUS"
"5/12/2021 12:00:00 AM","Nolan County","Texas","South","West South Central","48353","32.312338","-100.418108 ","1538","51","0","0","5/11/2021 12:00:00 AM","2019","14714","NYTIMES-USCENSUS"
"5/12/2021 12:00:00 AM","Clackamas County","Oregon","West","Pacific","41005","45.160493","-122.195127 ","17406","213","83","1","5/11/2021 12:00:00 AM","2019","418187","NYTIMES-USCENSUS"
"5/12/2021 12:00:00 AM","Otero County","New Mexico","West","Mountain","35035","32.615599","-105.751308 ","5004","75","2","0","5/11/2021 12:00:00 AM","2019","67490","NYTIMES-USCENSUS"
"5/12/2021 12:00:00 AM","Maries County","Missouri","Midwest","West North Central","29125","38.162615","-91.923601 ","635","8","0","0","5/11/2021 12:00:00 AM","2019","8697","NYTIMES-USCENSUS"
"5/12/2021 12:00:00 AM","Tyrrell County","North Carolina","South","South Atlantic","37177","35.87042","-76.165345 ","319","6","0","0","5/11/2021 12:00:00 AM","2019","4016","NYTIMES-USCENSUS"
"5/12/2021 12:00:00 AM","Concho County","Texas","South","West South Central","48095","31.318883","-99.863649 ","383","8","0","0","5/11/2021 12:00:00 AM","2019","2726","NYTIMES-USCENSUS"
"5/12/2021 12:00:00 AM","Covington city","Virginia","South","South Atlantic","51580","37.78106","-79.985434 ","597","13","0","0","5/11/2021 12:00:00 AM","2019","5538","NYTIMES-USCENSUS"
"5/12/2021 12:00:00 AM","Wayne County","Iowa","Midwest","West North Central","19185","40.739983","-93.332613 ","539","23","2","0","5/11/2021 12:00:00 AM","2019","6441","NYTIMES-USCENSUS"
"5/12/2021 12:00:00 AM","Scioto County","Ohio","Midwest","East North Central","39145","38.814889","-82.998675 ","6422","101","5","0","5/11/2021 12:00:00 AM","2019","75314","NYTIMES-USCENSUS"
"5/12/2021 12:00:00 AM","Tarrant County","Texas","South","West South Central","48439","32.772119","-97.291224 ","258693","3457","174","1","5/11/2021 12:00:00 AM","2019","2102515","NYTIMES-USCENSUS"
"5/12/2021 12:00:00 AM","Houston County","Alabama","South","East South Central","01069","31.158183","-85.296411 ","10575","281","5","0","5/11/2021 12:00:00 AM","2019","105882","NYTIMES-USCENSUS"
"5/12/2021 12:00:00 AM","Florence County","Wisconsin","Midwest","East North Central","55037","45.871828","-88.406988 ","501","12","0","0","5/11/2021 12:00:00 AM","2019","4295","NYTIMES-USCENSUS"
"5/12/2021 12:00:00 AM","Mecosta County","Michigan","Midwest","East North Central","26107","43.635295","-85.332751 ","3100","30","11","0","5/11/2021 12:00:00 AM","2019","43453","NYTIMES-USCENSUS"
"5/12/2021 12:00:00 AM","Rhea County","Tennessee","South","East South Central","47143","35.60059","-84.949548 ","4358","75","5","0","5/11/2021 12:00:00 AM","2019","33167","NYTIMES-USCENSUS"
"5/12/2021 12:00:00 AM","Calhoun County","Alabama","South","East South Central","01015","33.770516","-85.827909 ","14515","316","4","2","5/11/2021 12:00:00 AM","2019","113605","NYTIMES-USCENSUS"
"5/12/2021 12:00:00 AM","Fulton County","Georgia","South","South Atlantic","13121","33.790034","-84.468182 ","97667","1388","100","1","5/11/2021 12:00:00 AM","2019","1063937","NYTIMES-USCENSUS"
"5/12/2021 12:00:00 AM","Worth County","Georgia","South","South Atlantic","13321","31.551773","-83.84996 ","1794","68","-1","0","5/11/2021 12:00:00 AM","2019","20247","NYTIMES-USCENSUS"
"5/12/2021 12:00:00 AM","North Slope Borough","Alaska","West","Pacific","02185","69.449343","-153.47283 ","1077","4","2","0","5/11/2021 12:00:00 AM","2019","9832","NYTIMES-USCENSUS"
"5/12/2021 12:00:00 AM","Washington Parish","Louisiana","South","West South Central","22117","30.852144","-90.046253 ","4372","131","0","0","5/11/2021 12:00:00 AM","2019","46194","NYTIMES-USCENSUS"
"5/12/2021 12:00:00 AM","Benton County","Tennessee","South","East South Central","47005","36.070948","-88.071232 ","1670","40","4","0","5/11/2021 12:00:00 AM","2019","16160","NYTIMES-USCENSUS"
"5/12/2021 12:00:00 AM","Wayne County","New York","Northeast","Middle Atlantic","36117","43.218114","-77.049402 ","5613","67","11","0","5/11/2021 12:00:00 AM","2019","89918","NYTIMES-USCENSUS"
"5/12/2021 12:00:00 AM","Brown County","Minnesota","Midwest","West North Central","27015","44.246541","-94.733647 ","3048","40","2","0","5/11/2021 12:00:00 AM","2019","25008","NYTIMES-USCENSUS"
"5/12/2021 12:00:00 AM","Sharkey County","Mississippi","South","East South Central","28125","32.892395","-90.827613 ","502","17","0","0","5/11/2021 12:00:00 AM","2019","4321","NYTIMES-USCENSUS"
"5/12/2021 12:00:00 AM","Union Parish","Louisiana","South","West South Central","22111","32.829349","-92.37565 ","2404","77","6","0","5/11/2021 12:00:00 AM","2019","22108","NYTIMES-USCENSUS"
"5/12/2021 12:00:00 AM","Johnson County","Kansas","Midwest","West North Central","20091","38.883907","-94.82233 ","58401","759","98","5","5/11/2021 12:00:00 AM","2019","602401","NYTIMES-USCENSUS"
"5/12/2021 12:00:00 AM","Miami-Dade County","Florida","South","South Atlantic","12086","25.616009","-80.50375 ","492231","6275","529","2","5/11/2021 12:00:00 AM","2019","2716940","NYTIMES-USCENSUS"
"5/12/2021 12:00:00 AM","Onondaga County","New York","Northeast","Middle Atlantic","36067","43.006516","-76.196134 ","37841","671","72","1","5/11/2021 12:00:00 AM","2019","460528","NYTIMES-USCENSUS"
"5/12/2021 12:00:00 AM","Benton County","Indiana","Midwest","East North Central","18007","40.600939","-87.314786 ","988","14","2","0","5/11/2021 12:00:00 AM","2019","8748","NYTIMES-USCENSUS"
"5/12/2021 12:00:00 AM","Stearns County","Minnesota","Midwest","West North Central","27145","45.555235","-94.610482 ","22155","221","16","0","5/11/2021 12:00:00 AM","2019","161075","NYTIMES-USCENSUS"
"5/12/2021 12:00:00 AM","Meagher County","Montana","West","Mountain","30059","46.5857","-110.92174 ","153","7","0","0","5/11/2021 12:00:00 AM","2019","1862","NYTIMES-USCENSUS"
"5/12/2021 12:00:00 AM","Marion County","Texas","South","West South Central","48315","32.798182","-94.356853 ","540","33","2","0","5/11/2021 12:00:00 AM","2019","9854","NYTIMES-USCENSUS"
"5/12/2021 12:00:00 AM","Preble County","Ohio","Midwest","East North Central","39135","39.73881","-84.644758 ","3807","98","9","0","5/11/2021 12:00:00 AM","2019","40882","NYTIMES-USCENSUS"
"5/12/2021 12:00:00 AM","Hopkins County","Kentucky","South","East South Central","21107","37.31107","-87.542196 ","4486","147","5","0","5/11/2021 12:00:00 AM","2019","44686","NYTIMES-USCENSUS"
"5/12/2021 12:00:00 AM","Pearl River County","Mississippi","South","East South Central","28109","30.774793","-89.586904 ","4511","146","5","0","5/11/2021 12:00:00 AM","2019","55535","NYTIMES-USCENSUS"
"5/12/2021 12:00:00 AM","Cottle County","Texas","South","West South Central","48101","34.091906","-100.276442 ","190","7","0","0","5/11/2021 12:00:00 AM","2019","1398","NYTIMES-USCENSUS"
"5/12/2021 12:00:00 AM","Hennepin County","Minnesota","Midwest","West North Central","27053","45.006121","-93.475228 ","122274","1727","143","1","5/11/2021 12:00:00 AM","2019","1265843","NYTIMES-USCENSUS"
"5/12/2021 12:00:00 AM","Gosper County","Nebraska","Midwest","West North Central","31073","40.509095","-99.823206 ","182","5","0","0","5/11/2021 12:00:00 AM","2019","1990","NYTIMES-USCENSUS"
"5/12/2021 12:00:00 AM","Sarpy County","Nebraska","Midwest","West North Central","31153","41.115064","-96.109125 ","22740","129","30","0","5/11/2021 12:00:00 AM","2019","187196","NYTIMES-USCENSUS"
"5/12/2021 12:00:00 AM","Augusta County","Virginia","South","South Atlantic","51015","38.17259","-79.140975 ","5793","71","6","0","5/11/2021 12:00:00 AM","2019","75558","NYTIMES-USCENSUS"
"5/12/2021 12:00:00 AM","LaGrange County","Indiana","Midwest","East North Central","18087","41.642462","-85.427845 ","2679","72","7","0","5/11/2021 12:00:00 AM","2019","39614","NYTIMES-USCENSUS"
"5/12/2021 12:00:00 AM","Smith County","Kansas","Midwest","West North Central","20183","39.78466","-98.785429 ","270","3","0","0","5/11/2021 12:00:00 AM","2019","3583","NYTIMES-USCENSUS"
"5/12/2021 12:00:00 AM","Sullivan County","Missouri","Midwest","West North Central","29211","40.209587","-93.109783 ","844","14","0","0","5/11/2021 12:00:00 AM","2019","6089","NYTIMES-USCENSUS"
"5/12/2021 12:00:00 AM","Westmoreland County","Virginia","South","South Atlantic","51193","38.109311","-76.803933 ","1281","26","0","0","5/11/2021 12:00:00 AM","2019","18015","NYTIMES-USCENSUS"
"5/12/2021 12:00:00 AM","Franklin County","Alabama","South","East South Central","01059","34.441989","-87.842814 ","4263","82","3","0","5/11/2021 12:00:00 AM","2019","31362","NYTIMES-USCENSUS"
"5/12/2021 12:00:00 AM","Houston County","Tennessee","South","East South Central","47083","36.285782","-87.705598 ","1095","33","0","0","5/11/2021 12:00:00 AM","2019","8201","NYTIMES-USCENSUS"
"5/12/2021 12:00:00 AM","Decatur County","Tennessee","South","East South Central","47039","35.603136","-88.110292 ","1591","39","1","0","5/11/2021 12:00:00 AM","2019","11663","NYTIMES-USCENSUS"
"5/12/2021 12:00:00 AM","Baker County","Georgia","South","South Atlantic","13007","31.31958","-84.454881 ","232","9","1","0","5/11/2021 12:00:00 AM","2019","3038","NYTIMES-USCENSUS"
"5/12/2021 12:00:00 AM","Lincoln County","Arkansas","South","West South Central","05079","33.956385","-91.742355 ","3204","48","0","0","5/11/2021 12:00:00 AM","2019","13024","NYTIMES-USCENSUS"
"5/12/2021 12:00:00 AM","Hampton County","South Carolina","South","South Atlantic","45049","32.778334","-81.143822 ","1914","51","0","0","5/11/2021 12:00:00 AM","2019","19222","NYTIMES-USCENSUS"
"5/12/2021 12:00:00 AM","Muscogee County","Georgia","South","South Atlantic","13215","32.510197","-84.874946 ","16458","460","23","1","5/11/2021 12:00:00 AM","2019","195769","NYTIMES-USCENSUS"
"5/12/2021 12:00:00 AM","Comanche County","Texas","South","West South Central","48093","31.951645","-98.549617 ","1554","51","0","0","5/11/2021 12:00:00 AM","2019","13635","NYTIMES-USCENSUS"
"5/12/2021 12:00:00 AM","Richmond County","Georgia","South","South Atlantic","13245","33.361486","-82.074998 ","24732","510","26","1","5/11/2021 12:00:00 AM","2019","202518","NYTIMES-USCENSUS"
"5/12/2021 12:00:00 AM","Warren County","Iowa","Midwest","West North Central","19181","41.332446","-93.568751 ","5762","88","3","0","5/11/2021 12:00:00 AM","2019","51466","NYTIMES-USCENSUS"
"5/12/2021 12:00:00 AM","Yoakum County","Texas","South","West South Central","48501","33.162339","-102.832241 ","873","27","0","0","5/11/2021 12:00:00 AM","2019","8713","NYTIMES-USCENSUS"
"5/12/2021 12:00:00 AM","St. Landry Parish","Louisiana","South","West South Central","22097","30.583441","-91.989274 ","8932","256","12","1","5/11/2021 12:00:00 AM","2019","82124","NYTIMES-USCENSUS"
"5/12/2021 12:00:00 AM","Crawford County","Michigan","Midwest","East North Central","26039","44.680175","-84.611343 ","966","12","0","0","5/11/2021 12:00:00 AM","2019","14029","NYTIMES-USCENSUS"
"5/12/2021 12:00:00 AM","Cascade County","Montana","West","Mountain","30013","47.316575","-111.350262 ","9085","169","44","0","5/11/2021 12:00:00 AM","2019","81366","NYTIMES-USCENSUS"
"5/12/2021 12:00:00 AM","Howell County","Missouri","Midwest","West North Central","29091","36.774369","-91.887368 ","3490","44","2","1","5/11/2021 12:00:00 AM","2019","40117","NYTIMES-USCENSUS"
"5/12/2021 12:00:00 AM","Metcalfe County","Kentucky","South","East South Central","21169","36.99243","-85.633456 ","1040","26","0","0","5/11/2021 12:00:00 AM","2019","10071","NYTIMES-USCENSUS"
"5/12/2021 12:00:00 AM","Jefferson County","Oregon","West","Pacific","41031","44.645151","-121.178632 ","2189","36","13","2","5/11/2021 12:00:00 AM","2019","24658","NYTIMES-USCENSUS"
"5/12/2021 12:00:00 AM","Outagamie County","Wisconsin","Midwest","East North Central","55087","44.418226","-88.464988 ","23613","222","16","0","5/11/2021 12:00:00 AM","2019","187885","NYTIMES-USCENSUS"
"5/12/2021 12:00:00 AM","Tishomingo County","Mississippi","South","East South Central","28141","34.738835","-88.234827 ","2267","67","1","0","5/11/2021 12:00:00 AM","2019","19383","NYTIMES-USCENSUS"
"5/12/2021 12:00:00 AM","Spencer County","Kentucky","South","East South Central","21215","38.025411","-85.317174 ","1606","22","1","0","5/11/2021 12:00:00 AM","2019","19351","NYTIMES-USCENSUS"
"5/12/2021 12:00:00 AM","Gray County","Kansas","Midwest","West North Central","20069","37.744513","-100.451716 ","611","14","0","0","5/11/2021 12:00:00 AM","2019","5988","NYTIMES-USCENSUS"
"5/12/2021 12:00:00 AM","Henrico County","Virginia","South","South Atlantic","51087","37.43752","-77.300333 ","25283","609","26","1","5/11/2021 12:00:00 AM","2019","330818","NYTIMES-USCENSUS"
"5/12/2021 12:00:00 AM","Josephine County","Oregon","West","Pacific","41033","42.386983","-123.57162 ","3333","69","5","0","5/11/2021 12:00:00 AM","2019","87487","NYTIMES-USCENSUS"
"5/12/2021 12:00:00 AM","Calcasieu Parish","Louisiana","South","West South Central","22019","30.229559","-93.358015 ","22592","432","10","0","5/11/2021 12:00:00 AM","2019","203436","NYTIMES-USCENSUS"
"5/12/2021 12:00:00 AM","Lewis County","Idaho","West","Mountain","16061","46.236328","-116.42376 ","396","9","0","0","5/11/2021 12:00:00 AM","2019","3838","NYTIMES-USCENSUS"
"5/12/2021 12:00:00 AM","Posey County","Indiana","Midwest","East North Central","18129","38.027614","-87.868653 ","2718","33","3","0","5/11/2021 12:00:00 AM","2019","25427","NYTIMES-USCENSUS"
"5/12/2021 12:00:00 AM","Upshur County","Texas","South","West South Central","48459","32.735349","-94.941184 ","3278","75","2","0","5/11/2021 12:00:00 AM","2019","41753","NYTIMES-USCENSUS"
"5/12/2021 12:00:00 AM","Hancock County","West Virginia","South","South Atlantic","54029","40.516958","-80.570164 ","2804","89","4","0","5/11/2021 12:00:00 AM","2019","28810","NYTIMES-USCENSUS"
"5/12/2021 12:00:00 AM","Tazewell County","Illinois","Midwest","East North Central","17179","40.508074","-89.51626 ","16913","317","29","1","5/11/2021 12:00:00 AM","2019","131803","NYTIMES-USCENSUS"
"5/12/2021 12:00:00 AM","Chesterfield County","Virginia","South","South Atlantic","51041","37.378434","-77.585847 ","27700","428","35","0","5/11/2021 12:00:00 AM","2019","352802","NYTIMES-USCENSUS"
"5/12/2021 12:00:00 AM","Accomack County","Virginia","South","South Atlantic","51001","37.765944","-75.757807 ","2829","41","3","0","5/11/2021 12:00:00 AM","2019","32316","NYTIMES-USCENSUS"
"5/12/2021 12:00:00 AM","Tuscola County","Michigan","Midwest","East North Central","26157","43.487902","-83.436618 ","5562","167","9","0","5/11/2021 12:00:00 AM","2019","52245","NYTIMES-USCENSUS"
"5/12/2021 12:00:00 AM","Tift County","Georgia","South","South Atlantic","13277","31.457003","-83.525931 ","4918","126","2","0","5/11/2021 12:00:00 AM","2019","40644","NYTIMES-USCENSUS"
"5/12/2021 12:00:00 AM","Hamlin County","South Dakota","Midwest","West North Central","46057","44.680619","-97.178598 ","796","39","0","0","5/11/2021 12:00:00 AM","2019","6164","NYTIMES-USCENSUS"
"5/12/2021 12:00:00 AM","Clay County","North Carolina","South","South Atlantic","37043","35.052997","-83.752264 ","768","18","1","0","5/11/2021 12:00:00 AM","2019","11231","NYTIMES-USCENSUS"
"5/12/2021 12:00:00 AM","Kingfisher County","Oklahoma","South","West South Central","40073","35.949436","-97.934557 ","2055","38","2","0","5/11/2021 12:00:00 AM","2019","15765","NYTIMES-USCENSUS"
"5/12/2021 12:00:00 AM","Jackson County","Kentucky","South","East South Central","21109","37.403458","-84.020576 ","1313","32","1","0","5/11/2021 12:00:00 AM","2019","13329","NYTIMES-USCENSUS"
"5/12/2021 12:00:00 AM","Hopewell city","Virginia","South","South Atlantic","51670","37.29101","-77.298944 ","2581","72","3","0","5/11/2021 12:00:00 AM","2019","22529","NYTIMES-USCENSUS"
"5/12/2021 12:00:00 AM","Johnson County","Indiana","Midwest","East North Central","18081","39.496092","-86.094264 ","18055","395","19","0","5/11/2021 12:00:00 AM","2019","158167","NYTIMES-USCENSUS"
"5/12/2021 12:00:00 AM","McCook County","South Dakota","Midwest","West North Central","46087","43.680416","-97.358048 ","807","25","0","0","5/11/2021 12:00:00 AM","2019","5586","NYTIMES-USCENSUS"
"5/12/2021 12:00:00 AM","Dallas County","Iowa","Midwest","West North Central","19049","41.68532","-94.040706 ","11171","98","12","0","5/11/2021 12:00:00 AM","2019","93453","NYTIMES-USCENSUS"
"5/12/2021 12:00:00 AM","Nobles County","Minnesota","Midwest","West North Central","27105","43.677686","-95.763132 ","4074","48","2","0","5/11/2021 12:00:00 AM","2019","21629","NYTIMES-USCENSUS"
"5/12/2021 12:00:00 AM","Cook County","Illinois","Midwest","East North Central","17031","41.894294","-87.645455 ","544279","10642","621","7","5/11/2021 12:00:00 AM","2019","5150233","NYTIMES-USCENSUS"
"5/12/2021 12:00:00 AM","Union County","Mississippi","South","East South Central","28145","34.489533","-89.002339 ","4103","76","3","0","5/11/2021 12:00:00 AM","2019","28815","NYTIMES-USCENSUS"
"5/12/2021 12:00:00 AM","Rock County","Wisconsin","Midwest","East North Central","55105","42.66988","-89.075284 ","17960","197","25","2","5/11/2021 12:00:00 AM","2019","163354","NYTIMES-USCENSUS"
"5/12/2021 12:00:00 AM","Echols County","Georgia","South","South Atlantic","13101","30.714008","-82.897376 ","477","9","1","0","5/11/2021 12:00:00 AM","2019","4006","NYTIMES-USCENSUS"
"5/12/2021 12:00:00 AM","Winnebago County","Iowa","Midwest","West North Central","19189","43.378124","-93.743488 ","1423","31","7","0","5/11/2021 12:00:00 AM","2019","10354","NYTIMES-USCENSUS"
"5/12/2021 12:00:00 AM","Sanilac County","Michigan","Midwest","East North Central","26151","43.449155","-82.642815 ","4185","109","7","-1","5/11/2021 12:00:00 AM","2019","41170","NYTIMES-USCENSUS"
"5/12/2021 12:00:00 AM","Huron County","Michigan","Midwest","East North Central","26063","43.907616","-82.857045 ","4039","75","15","0","5/11/2021 12:00:00 AM","2019","30981","NYTIMES-USCENSUS"
"5/12/2021 12:00:00 AM","Wayne County","Nebraska","Midwest","West North Central","31179","42.210746","-97.126243 ","1088","7","1","0","5/11/2021 12:00:00 AM","2019","9385","NYTIMES-USCENSUS"
"5/12/2021 12:00:00 AM","DeKalb County","Missouri","Midwest","West North Central","29063","39.894665","-94.40719 ","1127","31","0","0","5/11/2021 12:00:00 AM","2019","12547","NYTIMES-USCENSUS"
"5/12/2021 12:00:00 AM","Winn Parish","Louisiana","South","West South Central","22127","31.941187","-92.641269 ","1548","44","4","0","5/11/2021 12:00:00 AM","2019","13904","NYTIMES-USCENSUS"
"5/12/2021 12:00:00 AM","Cumberland County","North Carolina","South","South Atlantic","37051","35.050192","-78.828719 ","28815","303","135","1","5/11/2021 12:00:00 AM","2019","335509","NYTIMES-USCENSUS"
"5/12/2021 12:00:00 AM","Marshall County","Mississippi","South","East South Central","28093","34.76619","-89.504231 ","4436","103","1","0","5/11/2021 12:00:00 AM","2019","35294","NYTIMES-USCENSUS"
"5/12/2021 12:00:00 AM","Edmonson County","Kentucky","South","East South Central","21061","37.227514","-86.218015 ","914","23","1","2","5/11/2021 12:00:00 AM","2019","12150","NYTIMES-USCENSUS"
"5/12/2021 12:00:00 AM","Isle of Wight County","Virginia","South","South Atlantic","51093","36.901418","-76.707569 ","3137","68","1","0","5/11/2021 12:00:00 AM","2019","37109","NYTIMES-USCENSUS"
"5/12/2021 12:00:00 AM","Berks County","Pennsylvania","Northeast","Middle Atlantic","42011","40.413957","-75.92686 ","46938","1009","93","2","5/11/2021 12:00:00 AM","2019","421164","NYTIMES-USCENSUS"
"5/12/2021 12:00:00 AM","Meeker County","Minnesota","Midwest","West North Central","27093","45.123155","-94.527346 ","2547","40","4","0","5/11/2021 12:00:00 AM","2019","23222","NYTIMES-USCENSUS"
"5/12/2021 12:00:00 AM","Pennington County","South Dakota","Midwest","West North Central","46103","44.002349","-102.823801 ","13732","192","6","0","5/11/2021 12:00:00 AM","2019","113775","NYTIMES-USCENSUS"
"5/12/2021 12:00:00 AM","Torrance County","New Mexico","West","Mountain","35057","34.554978","-105.890557 ","798","13","0","0","5/11/2021 12:00:00 AM","2019","15461","NYTIMES-USCENSUS"
"5/12/2021 12:00:00 AM","Falls County","Texas","South","West South Central","48145","31.25193","-96.934127 ","2088","32","0","0","5/11/2021 12:00:00 AM","2019","17297","NYTIMES-USCENSUS"
"5/12/2021 12:00:00 AM","Thomas County","Nebraska","Midwest","West North Central","31171","41.85573","-100.524703 ","53","1","0","0","5/11/2021 12:00:00 AM","2019","722","NYTIMES-USCENSUS"
"5/12/2021 12:00:00 AM","Prince George's County","Maryland","South","South Atlantic","24033","38.829278","-76.848188 ","84101","1484","82","2","5/11/2021 12:00:00 AM","2019","909327","NYTIMES-USCENSUS"
"5/12/2021 12:00:00 AM","McKinley County","New Mexico","West","Mountain","35031","35.584062","-108.253294 ","12285","467","9","0","5/11/2021 12:00:00 AM","2019","71367","NYTIMES-USCENSUS"
"5/12/2021 12:00:00 AM","Pasco County","Florida","South","South Atlantic","12101","28.309823","-82.511006 ","41854","770","78","2","5/11/2021 12:00:00 AM","2019","553947","NYTIMES-USCENSUS"
"5/12/2021 12:00:00 AM","Leon County","Florida","South","South Atlantic","12073","30.45931","-84.2778 ","32214","319","48","0","5/11/2021 12:00:00 AM","2019","293582","NYTIMES-USCENSUS"
"5/12/2021 12:00:00 AM","Utah County","Utah","West","Mountain","49049","40.120425","-111.668508 ","96028","384","88","2","5/11/2021 12:00:00 AM","2019","636235","NYTIMES-USCENSUS"
"5/12/2021 12:00:00 AM","Davidson County","North Carolina","South","South Atlantic","37057","35.795131","-80.207107 ","16545","187","26","2","5/11/2021 12:00:00 AM","2019","167609","NYTIMES-USCENSUS"
"5/12/2021 12:00:00 AM","Matagorda County","Texas","South","West South Central","48321","28.77476","-96.001532 ","4097","109","7","0","5/11/2021 12:00:00 AM","2019","36643","NYTIMES-USCENSUS"
"5/12/2021 12:00:00 AM","Bates County","Missouri","Midwest","West North Central","29013","38.257217","-94.339246 ","1334","29","3","0","5/11/2021 12:00:00 AM","2019","16172","NYTIMES-USCENSUS"
"5/12/2021 12:00:00 AM","Hampden County","Massachusetts","Northeast","New England","25013","42.136198","-72.635648 ","51532","1504","99","4","5/11/2021 12:00:00 AM","2019","466372","NYTIMES-USCENSUS"
"5/12/2021 12:00:00 AM","Goodhue County","Minnesota","Midwest","West North Central","27049","44.406178","-92.716 ","4763","72","6","0","5/11/2021 12:00:00 AM","2019","46340","NYTIMES-USCENSUS"
"5/12/2021 12:00:00 AM","Howard County","Arkansas","South","West South Central","05061","34.083064","-93.990931 ","1655","25","0","0","5/11/2021 12:00:00 AM","2019","13202","NYTIMES-USCENSUS"
"5/12/2021 12:00:00 AM","Sussex County","New Jersey","Northeast","Middle Atlantic","34037","41.137461","-74.691914 ","13811","298","13","0","5/11/2021 12:00:00 AM","2019","140488","NYTIMES-USCENSUS"
"5/12/2021 12:00:00 AM","Baca County","Colorado","West","Mountain","08009","37.30978","-102.543741 ","302","4","3","0","5/11/2021 12:00:00 AM","2019","3581","NYTIMES-USCENSUS"
"5/12/2021 12:00:00 AM","Decatur County","Indiana","Midwest","East North Central","18031","39.30598","-85.499831 ","2910","96","0","0","5/11/2021 12:00:00 AM","2019","26559","NYTIMES-USCENSUS"
"5/12/2021 12:00:00 AM","Canadian County","Oklahoma","South","West South Central","40017","35.543354","-97.979889 ","17220","172","93","2","5/11/2021 12:00:00 AM","2019","148306","NYTIMES-USCENSUS"
"5/12/2021 12:00:00 AM","Isanti County","Minnesota","Midwest","West North Central","27059","45.562431","-93.296339 ","4188","64","15","0","5/11/2021 12:00:00 AM","2019","40596","NYTIMES-USCENSUS"
"5/12/2021 12:00:00 AM","Gila County","Arizona","West","Mountain","04007","33.789618","-110.81187 ","6929","228","3","0","5/11/2021 12:00:00 AM","2019","54018","NYTIMES-USCENSUS"
"5/12/2021 12:00:00 AM","Todd County","Minnesota","Midwest","West North Central","27153","46.066569","-94.900576 ","2813","32","7","0","5/11/2021 12:00:00 AM","2019","24664","NYTIMES-USCENSUS"
"5/12/2021 12:00:00 AM","Lake County","Ohio","Midwest","East North Central","39085","41.778142","-81.19733 ","20744","369","19","0","5/11/2021 12:00:00 AM","2019","230149","NYTIMES-USCENSUS"
"5/12/2021 12:00:00 AM","Richland County","Montana","West","Mountain","30083","47.785633","-104.563408 ","1230","17","-3","0","5/11/2021 12:00:00 AM","2019","10803","NYTIMES-USCENSUS"
"5/12/2021 12:00:00 AM","Bedford County","Tennessee","South","East South Central","47003","35.51366","-86.458294 ","6518","129","5","0","5/11/2021 12:00:00 AM","2019","49713","NYTIMES-USCENSUS"
"5/12/2021 12:00:00 AM","Cass County","Minnesota","Midwest","West North Central","27021","46.951745","-94.333705 ","2707","28","11","0","5/11/2021 12:00:00 AM","2019","29779","NYTIMES-USCENSUS"
"5/12/2021 12:00:00 AM","Maverick County","Texas","South","West South Central","48323","28.729787","-100.316678 ","10442","356","1","0","5/11/2021 12:00:00 AM","2019","58722","NYTIMES-USCENSUS"
"5/12/2021 12:00:00 AM","Adams County","Indiana","Midwest","East North Central","18001","40.745733","-84.93613 ","3482","55","4","0","5/11/2021 12:00:00 AM","2019","35777","NYTIMES-USCENSUS"
"5/12/2021 12:00:00 AM","Bailey County","Texas","South","West South Central","48017","34.067521","-102.830345 ","823","19","0","0","5/11/2021 12:00:00 AM","2019","7000","NYTIMES-USCENSUS"
"5/12/2021 12:00:00 AM","Cook County","Georgia","South","South Atlantic","13075","31.152516","-83.429445 ","1828","43","1","0","5/11/2021 12:00:00 AM","2019","17270","NYTIMES-USCENSUS"
"5/12/2021 12:00:00 AM","Bienville Parish","Louisiana","South","West South Central","22013","32.340952","-93.041151 ","1664","81","-1","0","5/11/2021 12:00:00 AM","2019","13241","NYTIMES-USCENSUS"
"5/12/2021 12:00:00 AM","Fairfield County","Connecticut","Northeast","New England","09001","41.227413","-73.367061 ","99275","2176","37","1","5/11/2021 12:00:00 AM","2019","943332","NYTIMES-USCENSUS"
"5/12/2021 12:00:00 AM","Newton County","Texas","South","West South Central","48351","30.786718","-93.73925 ","625","35","0","0","5/11/2021 12:00:00 AM","2019","13595","NYTIMES-USCENSUS"
"5/12/2021 12:00:00 AM","Dewey County","Oklahoma","South","West South Central","40043","35.97796","-99.014385 ","552","14","2","0","5/11/2021 12:00:00 AM","2019","4891","NYTIMES-USCENSUS"
"5/12/2021 12:00:00 AM","Clinton County","Missouri","Midwest","West North Central","29049","39.608723","-94.395803 ","1960","65","0","0","5/11/2021 12:00:00 AM","2019","20387","NYTIMES-USCENSUS"
"5/12/2021 12:00:00 AM","Irwin County","Georgia","South","South Atlantic","13155","31.604306","-83.277037 ","922","29","0","0","5/11/2021 12:00:00 AM","2019","9416","NYTIMES-USCENSUS"
"5/12/2021 12:00:00 AM","Lewis County","West Virginia","South","South Atlantic","54041","38.988877","-80.495477 ","1195","20","1","0","5/11/2021 12:00:00 AM","2019","15907","NYTIMES-USCENSUS"
"5/12/2021 12:00:00 AM","Baltimore County","Maryland","South","South Atlantic","24005","39.443167","-76.616569 ","64760","1502","88","2","5/11/2021 12:00:00 AM","2019","827370","NYTIMES-USCENSUS"
"5/12/2021 12:00:00 AM","Fulton County","Pennsylvania","Northeast","Middle Atlantic","42057","39.91075","-78.122617 ","1316","15","2","0","5/11/2021 12:00:00 AM","2019","14530","NYTIMES-USCENSUS"
"5/12/2021 12:00:00 AM","Collingsworth County","Texas","South","West South Central","48087","34.963358","-100.272135 ","331","9","0","0","5/11/2021 12:00:00 AM","2019","2920","NYTIMES-USCENSUS"
"5/12/2021 12:00:00 AM","Lincoln County","West Virginia","South","South Atlantic","54043","38.17177","-82.077623 ","1472","22","0","0","5/11/2021 12:00:00 AM","2019","20409","NYTIMES-USCENSUS"
"5/12/2021 12:00:00 AM","Wakulla County","Florida","South","South Atlantic","12129","30.091335","-84.359111 ","3471","56","2","0","5/11/2021 12:00:00 AM","2019","33739","NYTIMES-USCENSUS"
"5/12/2021 12:00:00 AM","Muskingum County","Ohio","Midwest","East North Central","39119","39.966046","-81.943506 ","8819","133","4","0","5/11/2021 12:00:00 AM","2019","86215","NYTIMES-USCENSUS"
"5/12/2021 12:00:00 AM","Iberia Parish","Louisiana","South","West South Central","22045","29.606013","-91.842706 ","7127","153","8","0","5/11/2021 12:00:00 AM","2019","69830","NYTIMES-USCENSUS"
"5/12/2021 12:00:00 AM","Klamath County","Oregon","West","Pacific","41035","42.683761","-121.646168 ","4388","64","15","0","5/11/2021 12:00:00 AM","2019","68238","NYTIMES-USCENSUS"
"5/12/2021 12:00:00 AM","Livingston County","Illinois","Midwest","East North Central","17105","40.894376","-88.552852 ","4815","97","3","0","5/11/2021 12:00:00 AM","2019","35648","NYTIMES-USCENSUS"
"5/12/2021 12:00:00 AM","Calhoun County","Texas","South","West South Central","48057","28.441719","-96.579574 ","2319","23","2","0","5/11/2021 12:00:00 AM","2019","21290","NYTIMES-USCENSUS"
"5/12/2021 12:00:00 AM","St. Francois County","Missouri","Midwest","West North Central","29187","37.810707","-90.473868 ","8806","115","6","0","5/11/2021 12:00:00 AM","2019","67215","NYTIMES-USCENSUS"
"5/12/2021 12:00:00 AM","Beltrami County","Minnesota","Midwest","West North Central","27007","47.879508","-95.00505 ","3929","58","5","0","5/11/2021 12:00:00 AM","2019","47188","NYTIMES-USCENSUS"
"5/12/2021 12:00:00 AM","Morris County","New Jersey","Northeast","Middle Atlantic","34027","40.858896","-74.547292 ","49714","1218","3","0","5/11/2021 12:00:00 AM","2019","491845","NYTIMES-USCENSUS"
"5/12/2021 12:00:00 AM","Washington County","Iowa","Midwest","West North Central","19183","41.329401","-91.725052 ","2541","50","0","0","5/11/2021 12:00:00 AM","2019","21965","NYTIMES-USCENSUS"
"5/12/2021 12:00:00 AM","Magoffin County","Kentucky","South","East South Central","21153","37.698983","-83.069721 ","956","14","2","0","5/11/2021 12:00:00 AM","2019","12161","NYTIMES-USCENSUS"
"5/12/2021 12:00:00 AM","Ionia County","Michigan","Midwest","East North Central","26067","42.94465","-85.073766 ","9062","84","38","0","5/11/2021 12:00:00 AM","2019","64697","NYTIMES-USCENSUS"
"5/12/2021 12:00:00 AM","Covington County","Mississippi","South","East South Central","28031","31.633331","-89.548897 ","2593","81","11","0","5/11/2021 12:00:00 AM","2019","18636","NYTIMES-USCENSUS"
"5/12/2021 12:00:00 AM","Liberty County","Georgia","South","South Atlantic","13179","31.807458","-81.457871 ","4027","63","7","0","5/11/2021 12:00:00 AM","2019","61435","NYTIMES-USCENSUS"
"5/12/2021 12:00:00 AM","Fredericksburg city","Virginia","South","South Atlantic","51630","38.299272","-77.486658 ","2127","23","5","0","5/11/2021 12:00:00 AM","2019","29036","NYTIMES-USCENSUS"
"5/12/2021 12:00:00 AM","Lewis County","New York","Northeast","Middle Atlantic","36049","43.782681","-75.44414 ","2659","34","4","0","5/11/2021 12:00:00 AM","2019","26296","NYTIMES-USCENSUS"
"5/12/2021 12:00:00 AM","Saguache County","Colorado","West","Mountain","08109","38.031651","-106.234666 ","389","4","3","0","5/11/2021 12:00:00 AM","2019","6824","NYTIMES-USCENSUS"
"5/12/2021 12:00:00 AM","McKean County","Pennsylvania","Northeast","Middle Atlantic","42083","41.81459","-78.572463 ","3651","69","19","0","5/11/2021 12:00:00 AM","2019","40625","NYTIMES-USCENSUS"
"5/12/2021 12:00:00 AM","Marion County","West Virginia","South","South Atlantic","54049","39.505839","-80.243402 ","4442","49","9","1","5/11/2021 12:00:00 AM","2019","56072","NYTIMES-USCENSUS"
"5/12/2021 12:00:00 AM","Lafayette County","Missouri","Midwest","West North Central","29107","39.068705","-93.802639 ","3058","57","5","0","5/11/2021 12:00:00 AM","2019","32708","NYTIMES-USCENSUS"
"5/12/2021 12:00:00 AM","Stephens County","Georgia","South","South Atlantic","13257","34.553582","-83.290588 ","3132","83","0","0","5/11/2021 12:00:00 AM","2019","25925","NYTIMES-USCENSUS"
"5/12/2021 12:00:00 AM","Brown County","Kansas","Midwest","West North Central","20013","39.825931","-95.569905 ","1237","38","-1","0","5/11/2021 12:00:00 AM","2019","9564","NYTIMES-USCENSUS"
"5/12/2021 12:00:00 AM","Richmond County","North Carolina","South","South Atlantic","37153","35.004636","-79.755695 ","4655","93","6","0","5/11/2021 12:00:00 AM","2019","44829","NYTIMES-USCENSUS"
"5/12/2021 12:00:00 AM","Rusk County","Wisconsin","Midwest","East North Central","55107","45.472734","-91.136745 ","1374","18","5","0","5/11/2021 12:00:00 AM","2019","14178","NYTIMES-USCENSUS"
"5/12/2021 12:00:00 AM","Sanborn County","South Dakota","Midwest","West North Central","46111","44.018942","-98.091709 ","344","3","1","0","5/11/2021 12:00:00 AM","2019","2344","NYTIMES-USCENSUS"
"5/12/2021 12:00:00 AM","Wise County","Texas","South","West South Central","48497","33.219095","-97.653997 ","7338","121","4","0","5/11/2021 12:00:00 AM","2019","69984","NYTIMES-USCENSUS"
"5/12/2021 12:00:00 AM","Kent County","Maryland","South","South Atlantic","24029","39.241279","-76.125987 ","1336","46","2","0","5/11/2021 12:00:00 AM","2019","19422","NYTIMES-USCENSUS"
"5/12/2021 12:00:00 AM","Clarke County","Alabama","South","East South Central","01025","31.685521","-87.818624 ","3510","61","-1","0","5/11/2021 12:00:00 AM","2019","23622","NYTIMES-USCENSUS"
"5/12/2021 12:00:00 AM","Blount County","Alabama","South","East South Central","01009","33.977358","-86.56644 ","6680","137","2","0","5/11/2021 12:00:00 AM","2019","57826","NYTIMES-USCENSUS"
"5/12/2021 12:00:00 AM","Madison County","Nebraska","Midwest","West North Central","31119","41.909929","-97.606856 ","4290","42","1","0","5/11/2021 12:00:00 AM","2019","35099","NYTIMES-USCENSUS"
"5/12/2021 12:00:00 AM","Clark County","Illinois","Midwest","East North Central","17023","39.332334","-87.791683 ","1794","41","3","0","5/11/2021 12:00:00 AM","2019","15441","NYTIMES-USCENSUS"
"5/12/2021 12:00:00 AM","Cape May County","New Jersey","Northeast","Middle Atlantic","34009","39.085841","-74.846354 ","9082","202","15","0","5/11/2021 12:00:00 AM","2019","92039","NYTIMES-USCENSUS"
"5/12/2021 12:00:00 AM","Butler County","Missouri","Midwest","West North Central","29023","36.71518","-90.40313 ","4186","43","-1","0","5/11/2021 12:00:00 AM","2019","42478","NYTIMES-USCENSUS"
"5/12/2021 12:00:00 AM","Lewis County","Kentucky","South","East South Central","21135","38.535047","-83.370143 ","1330","35","2","0","5/11/2021 12:00:00 AM","2019","13275","NYTIMES-USCENSUS"
"5/12/2021 12:00:00 AM","Van Buren County","Iowa","Midwest","West North Central","19177","40.754117","-91.952943 ","558","18","1","0","5/11/2021 12:00:00 AM","2019","7044","NYTIMES-USCENSUS"
"5/12/2021 12:00:00 AM","Lawrence County","Kentucky","South","East South Central","21127","38.074453","-82.73829 ","1448","25","3","0","5/11/2021 12:00:00 AM","2019","15317","NYTIMES-USCENSUS"
"5/12/2021 12:00:00 AM","Hemphill County","Texas","South","West South Central","48211","35.815956","-100.27921 ","584","2","-1","0","5/11/2021 12:00:00 AM","2019","3819","NYTIMES-USCENSUS"
"5/12/2021 12:00:00 AM","Johnson County","Georgia","South","South Atlantic","13167","32.694584","-82.66397 ","1124","49","1","0","5/11/2021 12:00:00 AM","2019","9643","NYTIMES-USCENSUS"
"5/12/2021 12:00:00 AM","Westmoreland County","Pennsylvania","Northeast","Middle Atlantic","42129","40.311068","-79.466688 ","33471","750","45","1","5/11/2021 12:00:00 AM","2019","348899","NYTIMES-USCENSUS"
"5/12/2021 12:00:00 AM","Burke County","North Dakota","Midwest","West North Central","38013","48.786453","-102.520087 ","241","1","1","0","5/11/2021 12:00:00 AM","2019","2115","NYTIMES-USCENSUS"
"5/12/2021 12:00:00 AM","Washington County","Rhode Island","Northeast","New England","44009","41.396792","-71.620282 ","9935","169","58","0","5/11/2021 12:00:00 AM","2019","125577","NYTIMES-USCENSUS"
"5/12/2021 12:00:00 AM","Hale County","Alabama","South","East South Central","01065","32.752796","-87.623061 ","2231","77","1","0","5/11/2021 12:00:00 AM","2019","14651","NYTIMES-USCENSUS"
"5/12/2021 12:00:00 AM","Cooke County","Texas","South","West South Central","48097","33.639196","-97.210343 ","3727","72","0","0","5/11/2021 12:00:00 AM","2019","41257","NYTIMES-USCENSUS"
"5/12/2021 12:00:00 AM","Virginia Beach city","Virginia","South","South Atlantic","51810","36.779525","-76.029142 ","35827","396","30","1","5/11/2021 12:00:00 AM","2019","449974","NYTIMES-USCENSUS"
"5/12/2021 12:00:00 AM","Lincoln County","Kentucky","South","East South Central","21137","37.457174","-84.658335 ","2325","50","15","0","5/11/2021 12:00:00 AM","2019","24549","NYTIMES-USCENSUS"
"5/12/2021 12:00:00 AM","Wayne County","Mississippi","South","East South Central","28153","31.642503","-88.678214 ","2626","41","0","0","5/11/2021 12:00:00 AM","2019","20183","NYTIMES-USCENSUS"
"5/12/2021 12:00:00 AM","Jackson County","Ohio","Midwest","East North Central","39079","39.013477","-82.614142 ","3132","52","6","0","5/11/2021 12:00:00 AM","2019","32413","NYTIMES-USCENSUS"
"5/12/2021 12:00:00 AM","Warren County","Missouri","Midwest","West North Central","29219","38.761902","-91.159306 ","3148","31","3","0","5/11/2021 12:00:00 AM","2019","35649","NYTIMES-USCENSUS"
"5/12/2021 12:00:00 AM","Eddy County","New Mexico","West","Mountain","35015","32.457835","-104.306434 ","6843","129","7","0","5/11/2021 12:00:00 AM","2019","58460","NYTIMES-USCENSUS"
"5/12/2021 12:00:00 AM","Swain County","North Carolina","South","South Atlantic","37173","35.568849","-83.465614 ","1217","18","1","0","5/11/2021 12:00:00 AM","2019","14271","NYTIMES-USCENSUS"
"5/12/2021 12:00:00 AM","Worcester County","Massachusetts","Northeast","New England","25027","42.311693","-71.940282 ","76346","2201","113","3","5/11/2021 12:00:00 AM","2019","830622","NYTIMES-USCENSUS"
"5/12/2021 12:00:00 AM","Floyd County","Georgia","South","South Atlantic","13115","34.263692","-85.213685 ","12032","228","1","1","5/11/2021 12:00:00 AM","2019","98498","NYTIMES-USCENSUS"
"5/12/2021 12:00:00 AM","Douglas County","Kansas","Midwest","West North Central","20045","38.896417","-95.290947 ","9264","87","10","0","5/11/2021 12:00:00 AM","2019","122259","NYTIMES-USCENSUS"
"5/12/2021 12:00:00 AM","Ashley County","Arkansas","South","West South Central","05003","33.190835","-91.772267 ","2016","35","3","1","5/11/2021 12:00:00 AM","2019","19657","NYTIMES-USCENSUS"
"5/12/2021 12:00:00 AM","Jones County","North Carolina","South","South Atlantic","37103","35.032268","-77.356195 ","846","27","4","1","5/11/2021 12:00:00 AM","2019","9419","NYTIMES-USCENSUS"
"5/12/2021 12:00:00 AM","Tehama County","California","West","Pacific","06103","40.126157","-122.232274 ","4985","62","5","0","5/11/2021 12:00:00 AM","2019","65084","NYTIMES-USCENSUS"
"5/12/2021 12:00:00 AM","Windham County","Vermont","Northeast","New England","50025","42.995335","-72.721955 ","1350","14","2","0","5/11/2021 12:00:00 AM","2019","42222","NYTIMES-USCENSUS"
"5/12/2021 12:00:00 AM","Williamson County","Illinois","Midwest","East North Central","17199","37.730353","-88.930018 ","7416","141","12","0","5/11/2021 12:00:00 AM","2019","66597","NYTIMES-USCENSUS"
"5/12/2021 12:00:00 AM","Washington County","Kansas","Midwest","West North Central","20201","39.776714","-97.095611 ","533","14","0","0","5/11/2021 12:00:00 AM","2019","5406","NYTIMES-USCENSUS"
"5/12/2021 12:00:00 AM","Raleigh County","West Virginia","South","South Atlantic","54081","37.762469","-81.264672 ","6777","86","17","1","5/11/2021 12:00:00 AM","2019","73361","NYTIMES-USCENSUS"
"5/12/2021 12:00:00 AM","Dallam County","Texas","South","West South Central","48111","36.28637","-102.59402 ","985","25","1","0","5/11/2021 12:00:00 AM","2019","7287","NYTIMES-USCENSUS"
"5/12/2021 12:00:00 AM","Harris County","Texas","South","West South Central","48201","29.857273","-95.393037 ","395975","6305","320","19","5/11/2021 12:00:00 AM","2019","4713325","NYTIMES-USCENSUS"
"5/12/2021 12:00:00 AM","Hillsborough County","Florida","South","South Atlantic","12057","27.88761","-82.374417 ","138931","1747","333","0","5/11/2021 12:00:00 AM","2019","1471968","NYTIMES-USCENSUS"
"5/12/2021 12:00:00 AM","Giles County","Virginia","South","South Atlantic","51071","37.318072","-80.698321 ","1278","22","0","0","5/11/2021 12:00:00 AM","2019","16720","NYTIMES-USCENSUS"
"5/12/2021 12:00:00 AM","Fairbanks North Star Borough","Alaska","West","Pacific","02090","64.676044","-146.548159 ","7821","41","20","2","5/11/2021 12:00:00 AM","2019","96849","NYTIMES-USCENSUS"
"5/12/2021 12:00:00 AM","Stillwater County","Montana","West","Mountain","30095","45.658545","-109.381576 ","728","14","0","0","5/11/2021 12:00:00 AM","2019","9642","NYTIMES-USCENSUS"
"5/12/2021 12:00:00 AM","Brantley County","Georgia","South","South Atlantic","13025","31.197334","-81.982978 ","1630","37","2","0","5/11/2021 12:00:00 AM","2019","19109","NYTIMES-USCENSUS"
"5/12/2021 12:00:00 AM","Jefferson Davis County","Mississippi","South","East South Central","28065","31.564808","-89.827086 ","1070","33","0","0","5/11/2021 12:00:00 AM","2019","11128","NYTIMES-USCENSUS"
"5/12/2021 12:00:00 AM","Caldwell Parish","Louisiana","South","West South Central","22021","32.101219","-92.114231 ","1111","29","4","0","5/11/2021 12:00:00 AM","2019","9918","NYTIMES-USCENSUS"
"5/12/2021 12:00:00 AM","Grant County","Minnesota","Midwest","West North Central","27051","45.930743","-96.010699 ","570","8","3","0","5/11/2021 12:00:00 AM","2019","5972","NYTIMES-USCENSUS"
"5/12/2021 12:00:00 AM","Cherokee County","Alabama","South","East South Central","01019","34.069515","-85.654242 ","1852","45","0","0","5/11/2021 12:00:00 AM","2019","26196","NYTIMES-USCENSUS"
"5/12/2021 12:00:00 AM","Missoula County","Montana","West","Mountain","30063","47.027263","-113.892691 ","9074","94","7","1","5/11/2021 12:00:00 AM","2019","119600","NYTIMES-USCENSUS"
"5/12/2021 12:00:00 AM","Sumter County","Florida","South","South Atlantic","12119","28.715444","-82.069952 ","9369","278","5","0","5/11/2021 12:00:00 AM","2019","132420","NYTIMES-USCENSUS"
"5/12/2021 12:00:00 AM","Hunterdon County","New Jersey","Northeast","Middle Atlantic","34019","40.565283","-74.911969 ","9675","174","14","0","5/11/2021 12:00:00 AM","2019","124371","NYTIMES-USCENSUS"
"5/12/2021 12:00:00 AM","Williamson County","Texas","South","West South Central","48491","30.649082","-97.605065 ","46184","469","53","0","5/11/2021 12:00:00 AM","2019","590551","NYTIMES-USCENSUS"
"5/12/2021 12:00:00 AM","Colusa County","California","West","Pacific","06011","39.177739","-122.237563 ","2233","16","1","0","5/11/2021 12:00:00 AM","2019","21547","NYTIMES-USCENSUS"
"5/12/2021 12:00:00 AM","Granville County","North Carolina","South","South Atlantic","37077","36.299884","-78.657634 ","5942","82","5","0","5/11/2021 12:00:00 AM","2019","60443","NYTIMES-USCENSUS"
"5/12/2021 12:00:00 AM","Calhoun County","Florida","South","South Atlantic","12013","30.388801","-85.197915 ","1696","44","1","0","5/11/2021 12:00:00 AM","2019","14105","NYTIMES-USCENSUS"
"5/12/2021 12:00:00 AM","Boyle County","Kentucky","South","East South Central","21021","37.618104","-84.868352 ","3432","70","6","0","5/11/2021 12:00:00 AM","2019","30060","NYTIMES-USCENSUS"
"5/12/2021 12:00:00 AM","Cameron County","Texas","South","West South Central","48061","26.102923","-97.478958 ","40774","1646","66","3","5/11/2021 12:00:00 AM","2019","423163","NYTIMES-USCENSUS"
"5/12/2021 12:00:00 AM","Greenwood County","South Carolina","South","South Atlantic","45047","34.155796","-82.127876 ","8158","173","10","0","5/11/2021 12:00:00 AM","2019","70811","NYTIMES-USCENSUS"
"5/12/2021 12:00:00 AM","Benton County","Missouri","Midwest","West North Central","29015","38.301036","-93.287942 ","1673","33","4","0","5/11/2021 12:00:00 AM","2019","19443","NYTIMES-USCENSUS"
"5/12/2021 12:00:00 AM","Kern County","California","West","Pacific","06029","35.346629","-118.729506 ","109139","1373","38","0","5/11/2021 12:00:00 AM","2019","900202","NYTIMES-USCENSUS"
"5/12/2021 12:00:00 AM","Butler County","Iowa","Midwest","West North Central","19023","42.734757","-92.780153 ","1647","34","1","0","5/11/2021 12:00:00 AM","2019","14439","NYTIMES-USCENSUS"
"5/12/2021 12:00:00 AM","Wayne County","Georgia","South","South Atlantic","13305","31.547845","-81.912376 ","3600","88","0","0","5/11/2021 12:00:00 AM","2019","29927","NYTIMES-USCENSUS"
"5/12/2021 12:00:00 AM","Runnels County","Texas","South","West South Central","48399","31.845119","-99.982715 ","1291","37","0","0","5/11/2021 12:00:00 AM","2019","10264","NYTIMES-USCENSUS"
"5/12/2021 12:00:00 AM","Rutherford County","North Carolina","South","South Atlantic","37161","35.402747","-81.919582 ","7327","210","13","4","5/11/2021 12:00:00 AM","2019","67029","NYTIMES-USCENSUS"
"5/12/2021 12:00:00 AM","McHenry County","North Dakota","Midwest","West North Central","38049","48.233842","-100.633267 ","647","23","1","0","5/11/2021 12:00:00 AM","2019","5745","NYTIMES-USCENSUS"
"5/12/2021 12:00:00 AM","San Juan County","Utah","West","Mountain","49037","37.602633","-109.791574 ","1904","37","1","0","5/11/2021 12:00:00 AM","2019","15308","NYTIMES-USCENSUS"
"5/12/2021 12:00:00 AM","Goshen County","Wyoming","West","Mountain","56015","42.089455","-104.35354 ","1211","24","0","0","5/11/2021 12:00:00 AM","2019","13211","NYTIMES-USCENSUS"
"5/12/2021 12:00:00 AM","Northampton County","Virginia","South","South Atlantic","51131","37.302775","-75.924018 ","805","36","0","0","5/11/2021 12:00:00 AM","2019","11710","NYTIMES-USCENSUS"
"5/12/2021 12:00:00 AM","Hancock County","Mississippi","South","East South Central","28045","30.391641","-89.482791 ","3792","86","8","0","5/11/2021 12:00:00 AM","2019","47632","NYTIMES-USCENSUS"
"5/12/2021 12:00:00 AM","Van Wert County","Ohio","Midwest","East North Central","39161","40.85552","-84.585775 ","2438","63","1","0","5/11/2021 12:00:00 AM","2019","28275","NYTIMES-USCENSUS"
"5/12/2021 12:00:00 AM","Macomb County","Michigan","Midwest","East North Central","26099","42.671553","-82.911456 ","98161","2332","223","2","5/11/2021 12:00:00 AM","2019","873972","NYTIMES-USCENSUS"
"5/12/2021 12:00:00 AM","Franklin County","New York","Northeast","Middle Atlantic","36033","44.594376","-74.31067 ","2511","12","1","0","5/11/2021 12:00:00 AM","2019","50022","NYTIMES-USCENSUS"
"5/12/2021 12:00:00 AM","Franklin city","Virginia","South","South Atlantic","51620","36.684014","-76.941396 ","1132","32","1","0","5/11/2021 12:00:00 AM","2019","7967","NYTIMES-USCENSUS"
"5/12/2021 12:00:00 AM","Sumter County","Georgia","South","South Atlantic","13261","32.042266","-84.204294 ","2569","101","1","0","5/11/2021 12:00:00 AM","2019","29524","NYTIMES-USCENSUS"
"5/12/2021 12:00:00 AM","Douglas County","Missouri","Midwest","West North Central","29067","36.946517","-92.515892 ","924","28","3","0","5/11/2021 12:00:00 AM","2019","13185","NYTIMES-USCENSUS"
"5/12/2021 12:00:00 AM","Clay County","Indiana","Midwest","East North Central","18021","39.393928","-87.115858 ","2603","47","1","0","5/11/2021 12:00:00 AM","2019","26225","NYTIMES-USCENSUS"
"5/12/2021 12:00:00 AM","Wyoming County","West Virginia","South","South Atlantic","54109","37.60366","-81.549032 ","1994","39","8","0","5/11/2021 12:00:00 AM","2019","20394","NYTIMES-USCENSUS"
"5/12/2021 12:00:00 AM","Kosciusko County","Indiana","Midwest","East North Central","18085","41.244293","-85.861575 ","9447","121","16","0","5/11/2021 12:00:00 AM","2019","79456","NYTIMES-USCENSUS"
"5/12/2021 12:00:00 AM","Scott County","Iowa","Midwest","West North Central","19163","41.642079","-90.622289 ","19998","241","40","1","5/11/2021 12:00:00 AM","2019","172943","NYTIMES-USCENSUS"
"5/12/2021 12:00:00 AM","Putnam County","Tennessee","South","East South Central","47141","36.14094","-85.49618 ","11414","175","4","0","5/11/2021 12:00:00 AM","2019","80245","NYTIMES-USCENSUS"
"5/12/2021 12:00:00 AM","Franklin County","Texas","South","West South Central","48159","33.175846","-95.219066 ","731","26","0","0","5/11/2021 12:00:00 AM","2019","10725","NYTIMES-USCENSUS"
"5/12/2021 12:00:00 AM","Live Oak County","Texas","South","West South Central","48297","28.351535","-98.126961 ","1132","22","0","0","5/11/2021 12:00:00 AM","2019","12207","NYTIMES-USCENSUS"
"5/12/2021 12:00:00 AM","Mason County","Michigan","Midwest","East North Central","26105","43.957196","-86.442937 ","2096","36","13","0","5/11/2021 12:00:00 AM","2019","29144","NYTIMES-USCENSUS"
"5/12/2021 12:00:00 AM","Lucas County","Iowa","Midwest","West North Central","19117","41.033344","-93.331467 ","772","23","1","0","5/11/2021 12:00:00 AM","2019","8600","NYTIMES-USCENSUS"
"5/12/2021 12:00:00 AM","Laurens County","Georgia","South","South Atlantic","13175","32.39322","-82.926317 ","5606","168","3","1","5/11/2021 12:00:00 AM","2019","47546","NYTIMES-USCENSUS"
"5/12/2021 12:00:00 AM","Douglas County","Colorado","West","Mountain","08035","39.325414","-104.925987 ","29306","255","50","0","5/11/2021 12:00:00 AM","2019","351154","NYTIMES-USCENSUS"
"5/12/2021 12:00:00 AM","Terry County","Texas","South","West South Central","48445","33.171229","-102.339284 ","1692","56","0","0","5/11/2021 12:00:00 AM","2019","12337","NYTIMES-USCENSUS"
"5/12/2021 12:00:00 AM","Colorado County","Texas","South","West South Central","48089","29.596296","-96.508935 ","1727","31","0","1","5/11/2021 12:00:00 AM","2019","21493","NYTIMES-USCENSUS"
"5/12/2021 12:00:00 AM","Crittenden County","Kentucky","South","East South Central","21055","37.358149","-88.10501 ","665","21","0","0","5/11/2021 12:00:00 AM","2019","8806","NYTIMES-USCENSUS"
"5/12/2021 12:00:00 AM","Roberts County","Texas","South","West South Central","48393","35.838596","-100.836682 ","61","1","0","0","5/11/2021 12:00:00 AM","2019","854","NYTIMES-USCENSUS"
"5/12/2021 12:00:00 AM","Meade County","Kentucky","South","East South Central","21163","37.967476","-86.200863 ","2031","25","1","0","5/11/2021 12:00:00 AM","2019","28572","NYTIMES-USCENSUS"
"5/12/2021 12:00:00 AM","Lynn County","Texas","South","West South Central","48305","33.178412","-101.818493 ","619","23","0","0","5/11/2021 12:00:00 AM","2019","5951","NYTIMES-USCENSUS"
"5/12/2021 12:00:00 AM","Trimble County","Kentucky","South","East South Central","21223","38.62004","-85.351208 ","691","7","0","0","5/11/2021 12:00:00 AM","2019","8471","NYTIMES-USCENSUS"
"5/12/2021 12:00:00 AM","Forrest County","Mississippi","South","East South Central","28035","31.18858","-89.259447 ","7677","152","7","0","5/11/2021 12:00:00 AM","2019","74897","NYTIMES-USCENSUS"
"5/12/2021 12:00:00 AM","Grant County","North Dakota","Midwest","West North Central","38037","46.357827","-101.639049 ","209","7","0","0","5/11/2021 12:00:00 AM","2019","2274","NYTIMES-USCENSUS"
"5/12/2021 12:00:00 AM","Kalamazoo County","Michigan","Midwest","East North Central","26077","42.246266","-85.532854 ","22431","377","64","1","5/11/2021 12:00:00 AM","2019","265066","NYTIMES-USCENSUS"
"5/12/2021 12:00:00 AM","Stark County","Ohio","Midwest","East North Central","39151","40.814131","-81.365667 ","32459","907","47","0","5/11/2021 12:00:00 AM","2019","370606","NYTIMES-USCENSUS"
"5/12/2021 12:00:00 AM","Santa Cruz County","California","West","Pacific","06087","37.012347","-122.007789 ","16249","206","3","0","5/11/2021 12:00:00 AM","2019","273213","NYTIMES-USCENSUS"
"5/12/2021 12:00:00 AM","Montgomery County","Texas","South","West South Central","48339","30.298801","-95.50295 ","53412","571","74","1","5/11/2021 12:00:00 AM","2019","607391","NYTIMES-USCENSUS"
"5/12/2021 12:00:00 AM","Grant County","Arkansas","South","West South Central","05053","34.285568","-92.422979 ","1649","32","0","0","5/11/2021 12:00:00 AM","2019","18265","NYTIMES-USCENSUS"
"5/12/2021 12:00:00 AM","Hart County","Georgia","South","South Atlantic","13147","34.348733","-82.96329 ","2374","53","2","0","5/11/2021 12:00:00 AM","2019","26205","NYTIMES-USCENSUS"
"5/12/2021 12:00:00 AM","Prowers County","Colorado","West","Mountain","08099","37.958181","-102.392161 ","1234","21","0","0","5/11/2021 12:00:00 AM","2019","12172","NYTIMES-USCENSUS"
"5/12/2021 12:00:00 AM","Dallas County","Alabama","South","East South Central","01047","32.333526","-87.11436 ","3555","152","4","0","5/11/2021 12:00:00 AM","2019","37196","NYTIMES-USCENSUS"
"5/12/2021 12:00:00 AM","Carson City","Nevada","West","Mountain","32510","39.15306","-119.747368 ","6483","123","1","0","5/11/2021 12:00:00 AM","2019","55916","NYTIMES-USCENSUS"
"5/12/2021 12:00:00 AM","Baldwin County","Alabama","South","East South Central","01003","30.659218","-87.746067 ","21170","309","16","1","5/11/2021 12:00:00 AM","2019","223234","NYTIMES-USCENSUS"
"5/12/2021 12:00:00 AM","Franklin County","Indiana","Midwest","East North Central","18047","39.409762","-85.066964 ","1700","36","1","0","5/11/2021 12:00:00 AM","2019","22758","NYTIMES-USCENSUS"
"5/12/2021 12:00:00 AM","Franklin County","Pennsylvania","Northeast","Middle Atlantic","42055","39.926772","-77.724521 ","14996","366","25","1","5/11/2021 12:00:00 AM","2019","155027","NYTIMES-USCENSUS"
"5/12/2021 12:00:00 AM","Tuscaloosa County","Alabama","South","East South Central","01125","33.29022","-87.522783 ","25801","453","13","0","5/11/2021 12:00:00 AM","2019","209355","NYTIMES-USCENSUS"
"5/12/2021 12:00:00 AM","Moore County","North Carolina","South","South Atlantic","37125","35.308272","-79.492725 ","8883","188","8","1","5/11/2021 12:00:00 AM","2019","100880","NYTIMES-USCENSUS"
"5/12/2021 12:00:00 AM","Marathon County","Wisconsin","Midwest","East North Central","55073","44.898036","-89.757823 ","16217","225","18","0","5/11/2021 12:00:00 AM","2019","135692","NYTIMES-USCENSUS"
"5/12/2021 12:00:00 AM","Flagler County","Florida","South","South Atlantic","12035","29.474891","-81.286253 ","7359","111","11","1","5/11/2021 12:00:00 AM","2019","115081","NYTIMES-USCENSUS"
"5/12/2021 12:00:00 AM","Jackson County","Oregon","West","Pacific","41029","42.411621","-122.675611 ","10824","138","41","1","5/11/2021 12:00:00 AM","2019","220944","NYTIMES-USCENSUS"
"5/12/2021 12:00:00 AM","Howard County","Missouri","Midwest","West North Central","29089","39.143365","-92.695926 ","1049","7","0","0","5/11/2021 12:00:00 AM","2019","10001","NYTIMES-USCENSUS"
"5/12/2021 12:00:00 AM","DeSoto County","Florida","South","South Atlantic","12027","27.190581","-81.806253 ","4357","93","7","0","5/11/2021 12:00:00 AM","2019","38001","NYTIMES-USCENSUS"
"5/12/2021 12:00:00 AM","Anderson County","Texas","South","West South Central","48001","31.841261","-95.661727 ","6200","123","-13","1","5/11/2021 12:00:00 AM","2019","57735","NYTIMES-USCENSUS"
"5/12/2021 12:00:00 AM","Latimer County","Oklahoma","South","West South Central","40077","34.875137","-95.272262 ","836","13","1","0","5/11/2021 12:00:00 AM","2019","10073","NYTIMES-USCENSUS"
"5/12/2021 12:00:00 AM","Albemarle County","Virginia","South","South Atlantic","51003","38.024184","-78.553506 ","5766","83","6","0","5/11/2021 12:00:00 AM","2019","109330","NYTIMES-USCENSUS"
"5/12/2021 12:00:00 AM","Pike County","Pennsylvania","Northeast","Middle Atlantic","42103","41.325949","-75.031514 ","3880","54","11","0","5/11/2021 12:00:00 AM","2019","55809","NYTIMES-USCENSUS"
"5/12/2021 12:00:00 AM","Ida County","Iowa","Midwest","West North Central","19093","42.39186","-95.507421 ","904","35","0","1","5/11/2021 12:00:00 AM","2019","6860","NYTIMES-USCENSUS"
"5/12/2021 12:00:00 AM","Hall County","Nebraska","Midwest","West North Central","31079","40.866027","-98.502664 ","7829","118","12","1","5/11/2021 12:00:00 AM","2019","61353","NYTIMES-USCENSUS"
"5/12/2021 12:00:00 AM","Pope County","Minnesota","Midwest","West North Central","27121","45.589623","-95.446705 ","1097","6","2","0","5/11/2021 12:00:00 AM","2019","11249","NYTIMES-USCENSUS"
"5/12/2021 12:00:00 AM","Oneida County","Wisconsin","Midwest","East North Central","55085","45.716176","-89.534533 ","3791","77","0","0","5/11/2021 12:00:00 AM","2019","35595","NYTIMES-USCENSUS"
"5/12/2021 12:00:00 AM","Lucas County","Ohio","Midwest","East North Central","39095","41.682321","-83.468903 ","42358","788","83","0","5/11/2021 12:00:00 AM","2019","428348","NYTIMES-USCENSUS"
"5/12/2021 12:00:00 AM","Grundy County","Missouri","Midwest","West North Central","29079","40.112541","-93.565054 ","990","34","0","0","5/11/2021 12:00:00 AM","2019","9850","NYTIMES-USCENSUS"
"5/12/2021 12:00:00 AM","Delaware County","Iowa","Midwest","West North Central","19055","42.472937","-91.366767 ","2093","41","1","1","5/11/2021 12:00:00 AM","2019","17011","NYTIMES-USCENSUS"
"5/12/2021 12:00:00 AM","Caroline County","Maryland","South","South Atlantic","24011","38.871531","-75.831662 ","2292","25","1","0","5/11/2021 12:00:00 AM","2019","33406","NYTIMES-USCENSUS"
"5/12/2021 12:00:00 AM","Seminole County","Florida","South","South Atlantic","12117","28.690065","-81.131975 ","34429","501","47","0","5/11/2021 12:00:00 AM","2019","471826","NYTIMES-USCENSUS"
"5/12/2021 12:00:00 AM","Wayne County","West Virginia","South","South Atlantic","54099","38.143642","-82.422666 ","3094","41","5","0","5/11/2021 12:00:00 AM","2019","39402","NYTIMES-USCENSUS"
"5/12/2021 12:00:00 AM","Door County","Wisconsin","Midwest","East North Central","55029","45.093417","-87.048683 ","2826","29","2","1","5/11/2021 12:00:00 AM","2019","27668","NYTIMES-USCENSUS"
"5/12/2021 12:00:00 AM","Cheyenne County","Colorado","West","Mountain","08017","38.835646","-102.601791 ","128","6","0","0","5/11/2021 12:00:00 AM","2019","1831","NYTIMES-USCENSUS"
"5/12/2021 12:00:00 AM","Kittson County","Minnesota","Midwest","West North Central","27069","48.77604","-96.780349 ","485","22","0","0","5/11/2021 12:00:00 AM","2019","4298","NYTIMES-USCENSUS"
"5/12/2021 12:00:00 AM","Jefferson County","Kentucky","South","East South Central","21111","38.189532","-85.657624 ","81762","1189","77","2","5/11/2021 12:00:00 AM","2019","766757","NYTIMES-USCENSUS"
"5/12/2021 12:00:00 AM","Fulton County","Illinois","Midwest","East North Central","17057","40.46524","-90.202269 ","3912","63","9","0","5/11/2021 12:00:00 AM","2019","34340","NYTIMES-USCENSUS"
"5/12/2021 12:00:00 AM","Tippah County","Mississippi","South","East South Central","28139","34.763618","-88.918819 ","2881","68","0","0","5/11/2021 12:00:00 AM","2019","22015","NYTIMES-USCENSUS"
"5/12/2021 12:00:00 AM","Maui County","Hawaii","West","Pacific","15009","20.855931","-156.60155 ","4461","53","8","0","5/11/2021 12:00:00 AM","2019","167417","NYTIMES-USCENSUS"
"5/12/2021 12:00:00 AM","Macon County","Missouri","Midwest","West North Central","29121","39.829795","-92.56434 ","1547","15","2","0","5/11/2021 12:00:00 AM","2019","15117","NYTIMES-USCENSUS"
"5/12/2021 12:00:00 AM","Musselshell County","Montana","West","Mountain","30065","46.505281","-108.439763 ","341","11","0","0","5/11/2021 12:00:00 AM","2019","4633","NYTIMES-USCENSUS"
"5/12/2021 12:00:00 AM","Lorain County","Ohio","Midwest","East North Central","39093","41.438805","-82.179722 ","25075","481","29","0","5/11/2021 12:00:00 AM","2019","309833","NYTIMES-USCENSUS"
"5/12/2021 12:00:00 AM","Calumet County","Wisconsin","Midwest","East North Central","55015","44.07841","-88.212132 ","6467","56","7","1","5/11/2021 12:00:00 AM","2019","50089","NYTIMES-USCENSUS"
"5/12/2021 12:00:00 AM","Mohave County","Arizona","West","Mountain","04015","35.717705","-113.749689 ","22830","723","11","0","5/11/2021 12:00:00 AM","2019","212181","NYTIMES-USCENSUS"
"5/12/2021 12:00:00 AM","Saline County","Illinois","Midwest","East North Central","17165","37.751508","-88.545024 ","2563","70","-2","0","5/11/2021 12:00:00 AM","2019","23491","NYTIMES-USCENSUS"
"5/12/2021 12:00:00 AM","Plumas County","California","West","Pacific","06063","39.992295","-120.824371 ","710","6","0","0","5/11/2021 12:00:00 AM","2019","18807","NYTIMES-USCENSUS"
"5/12/2021 12:00:00 AM","McIntosh County","North Dakota","Midwest","West North Central","38051","46.108682","-99.416487 ","346","7","2","0","5/11/2021 12:00:00 AM","2019","2497","NYTIMES-USCENSUS"
"5/12/2021 12:00:00 AM","Sherman County","Kansas","Midwest","West North Central","20181","39.351352","-101.719859 ","636","12","1","0","5/11/2021 12:00:00 AM","2019","5917","NYTIMES-USCENSUS"
"5/12/2021 12:00:00 AM","Crosby County","Texas","South","West South Central","48107","33.609144","-101.29871 ","655","29","0","0","5/11/2021 12:00:00 AM","2019","5737","NYTIMES-USCENSUS"
"5/12/2021 12:00:00 AM","Jackson County","Wisconsin","Midwest","East North Central","55053","44.32459","-90.79951 ","2696","28","4","0","5/11/2021 12:00:00 AM","2019","20643","NYTIMES-USCENSUS"
"5/12/2021 12:00:00 AM","Fillmore County","Nebraska","Midwest","West North Central","31059","40.52504","-97.596705 ","505","8","0","-1","5/11/2021 12:00:00 AM","2019","5462","NYTIMES-USCENSUS"
"5/12/2021 12:00:00 AM","San Juan County","Washington","West","Pacific","53055","48.50719","-123.103769 ","175","0","0","0","5/11/2021 12:00:00 AM","2019","17582","NYTIMES-USCENSUS"
"5/12/2021 12:00:00 AM","Crawford County","Pennsylvania","Northeast","Middle Atlantic","42039","41.687876","-80.107795 ","7204","149","11","0","5/11/2021 12:00:00 AM","2019","84629","NYTIMES-USCENSUS"
"5/12/2021 12:00:00 AM","St. James Parish","Louisiana","South","West South Central","22093","30.024777","-90.793956 ","1976","50","1","0","5/11/2021 12:00:00 AM","2019","21096","NYTIMES-USCENSUS"
"5/12/2021 12:00:00 AM","Lincoln County","New Mexico","West","Mountain","35027","33.740841","-105.449805 ","1700","19","3","0","5/11/2021 12:00:00 AM","2019","19572","NYTIMES-USCENSUS"
"5/12/2021 12:00:00 AM","Shelby County","Kentucky","South","East South Central","21211","38.239011","-85.228247 ","4744","70","13","0","5/11/2021 12:00:00 AM","2019","49024","NYTIMES-USCENSUS"
"5/12/2021 12:00:00 AM","Warren County","Virginia","South","South Atlantic","51187","38.908221","-78.207594 ","2966","56","23","1","5/11/2021 12:00:00 AM","2019","40164","NYTIMES-USCENSUS"
"5/12/2021 12:00:00 AM","Terrell County","Georgia","South","South Atlantic","13273","31.777191","-84.439446 ","810","48","1","0","5/11/2021 12:00:00 AM","2019","8531","NYTIMES-USCENSUS"
"5/12/2021 12:00:00 AM","Cameron County","Pennsylvania","Northeast","Middle Atlantic","42023","41.438291","-78.198323 ","295","8","1","0","5/11/2021 12:00:00 AM","2019","4447","NYTIMES-USCENSUS"
"5/12/2021 12:00:00 AM","Washburn County","Wisconsin","Midwest","East North Central","55129","45.892489","-91.796422 ","1558","22","8","0","5/11/2021 12:00:00 AM","2019","15720","NYTIMES-USCENSUS"
"5/12/2021 12:00:00 AM","Marion County","Mississippi","South","East South Central","28091","31.230167","-89.821712 ","2690","80","0","0","5/11/2021 12:00:00 AM","2019","24573","NYTIMES-USCENSUS"
"5/12/2021 12:00:00 AM","Clarke County","Iowa","Midwest","West North Central","19039","41.029726","-93.785259 ","1000","24","1","0","5/11/2021 12:00:00 AM","2019","9395","NYTIMES-USCENSUS"
"5/12/2021 12:00:00 AM","Randolph County","North Carolina","South","South Atlantic","37151","35.709915","-79.806215 ","15018","227","19","0","5/11/2021 12:00:00 AM","2019","143667","NYTIMES-USCENSUS"
"5/12/2021 12:00:00 AM","Mingo County","West Virginia","South","South Atlantic","54059","37.721161","-82.158989 ","2574","40","6","0","5/11/2021 12:00:00 AM","2019","23424","NYTIMES-USCENSUS"
"5/12/2021 12:00:00 AM","Coal County","Oklahoma","South","West South Central","40029","34.582861","-96.288039 ","698","15","1","0","5/11/2021 12:00:00 AM","2019","5495","NYTIMES-USCENSUS"
"5/12/2021 12:00:00 AM","Powell County","Kentucky","South","East South Central","21197","37.809907","-83.831354 ","1301","12","2","0","5/11/2021 12:00:00 AM","2019","12359","NYTIMES-USCENSUS"
"5/12/2021 12:00:00 AM","Brunswick County","North Carolina","South","South Atlantic","37019","34.038754","-78.227765 ","9136","152","11","0","5/11/2021 12:00:00 AM","2019","142820","NYTIMES-USCENSUS"
"5/12/2021 12:00:00 AM","Antrim County","Michigan","Midwest","East North Central","26009","45.005455","-85.175639 ","1910","27","0","0","5/11/2021 12:00:00 AM","2019","23324","NYTIMES-USCENSUS"
"5/12/2021 12:00:00 AM","Dewey County","South Dakota","Midwest","West North Central","46041","45.148049","-100.837953 ","1472","28","0","0","5/11/2021 12:00:00 AM","2019","5892","NYTIMES-USCENSUS"
"5/12/2021 12:00:00 AM","Tripp County","South Dakota","Midwest","West North Central","46123","43.349729","-99.876219 ","755","17","0","0","5/11/2021 12:00:00 AM","2019","5441","NYTIMES-USCENSUS"
"5/12/2021 12:00:00 AM","Clayton County","Iowa","Midwest","West North Central","19043","42.840985","-91.323576 ","1694","56","0","0","5/11/2021 12:00:00 AM","2019","17549","NYTIMES-USCENSUS"
"5/12/2021 12:00:00 AM","Bottineau County","North Dakota","Midwest","West North Central","38009","48.794412","-100.831257 ","715","20","0","0","5/11/2021 12:00:00 AM","2019","6282","NYTIMES-USCENSUS"
"5/12/2021 12:00:00 AM","Calhoun County","Michigan","Midwest","East North Central","26025","42.24299","-85.012385 ","13980","284","43","1","5/11/2021 12:00:00 AM","2019","134159","NYTIMES-USCENSUS"
"5/12/2021 12:00:00 AM","Webster County","Nebraska","Midwest","West North Central","31181","40.180646","-98.49859 ","384","7","1","0","5/11/2021 12:00:00 AM","2019","3487","NYTIMES-USCENSUS"
"5/12/2021 12:00:00 AM","Gwinnett County","Georgia","South","South Atlantic","13135","33.958756","-84.025735 ","101710","1158","74","4","5/11/2021 12:00:00 AM","2019","936250","NYTIMES-USCENSUS"
"5/12/2021 12:00:00 AM","Williamsburg County","South Carolina","South","South Atlantic","45089","33.626462","-79.716474 ","4068","99","3","1","5/11/2021 12:00:00 AM","2019","30368","NYTIMES-USCENSUS"
"5/12/2021 12:00:00 AM","Oglala Lakota County","South Dakota","Midwest","West North Central","46102","43.333393","-102.561486 ","2111","49","0","0","5/11/2021 12:00:00 AM","2019","14177","NYTIMES-USCENSUS"
"5/12/2021 12:00:00 AM","Haskell County","Oklahoma","South","West South Central","40061","35.232431","-95.109642 ","1253","16","0","0","5/11/2021 12:00:00 AM","2019","12627","NYTIMES-USCENSUS"
"5/12/2021 12:00:00 AM","Pulaski County","Indiana","Midwest","East North Central","18131","41.045272","-86.692538 ","1169","45","0","0","5/11/2021 12:00:00 AM","2019","12353","NYTIMES-USCENSUS"
"5/12/2021 12:00:00 AM","Barron County","Wisconsin","Midwest","East North Central","55005","45.437192","-91.852892 ","5967","83","8","0","5/11/2021 12:00:00 AM","2019","45244","NYTIMES-USCENSUS"
"5/12/2021 12:00:00 AM","Dodge County","Georgia","South","South Atlantic","13091","32.164369","-83.167866 ","2139","102","0","0","5/11/2021 12:00:00 AM","2019","20605","NYTIMES-USCENSUS"
"5/12/2021 12:00:00 AM","Miller County","Georgia","South","South Atlantic","13201","31.162931","-84.730398 ","860","13","2","0","5/11/2021 12:00:00 AM","2019","5718","NYTIMES-USCENSUS"
"5/12/2021 12:00:00 AM","Summit County","Ohio","Midwest","East North Central","39153","41.121847","-81.534928 ","47375","946","83","0","5/11/2021 12:00:00 AM","2019","541013","NYTIMES-USCENSUS"
"5/12/2021 12:00:00 AM","Screven County","Georgia","South","South Atlantic","13251","32.744751","-81.617585 ","990","31","0","0","5/11/2021 12:00:00 AM","2019","13966","NYTIMES-USCENSUS"
"5/12/2021 12:00:00 AM","Cherokee County","Iowa","Midwest","West North Central","19035","42.742737","-95.633262 ","1587","38","0","0","5/11/2021 12:00:00 AM","2019","11235","NYTIMES-USCENSUS"
"5/12/2021 12:00:00 AM","Cherokee County","Georgia","South","South Atlantic","13057","34.244317","-84.475057 ","31286","319","33","0","5/11/2021 12:00:00 AM","2019","258773","NYTIMES-USCENSUS"
"5/12/2021 12:00:00 AM","St. Lucie County","Florida","South","South Atlantic","12111","27.379814","-80.443536 ","26685","640","48","0","5/11/2021 12:00:00 AM","2019","328297","NYTIMES-USCENSUS"
"5/12/2021 12:00:00 AM","Sandusky County","Ohio","Midwest","East North Central","39143","41.355319","-83.142776 ","5362","121","3","0","5/11/2021 12:00:00 AM","2019","58518","NYTIMES-USCENSUS"
"5/12/2021 12:00:00 AM","Gage County","Nebraska","Midwest","West North Central","31067","40.255234","-96.683453 ","2185","19","0","0","5/11/2021 12:00:00 AM","2019","21513","NYTIMES-USCENSUS"
"5/12/2021 12:00:00 AM","Perquimans County","North Carolina","South","South Atlantic","37143","36.180897","-76.403244 ","1014","12","-1","1","5/11/2021 12:00:00 AM","2019","13463","NYTIMES-USCENSUS"
"5/12/2021 12:00:00 AM","Jackson County","Florida","South","South Atlantic","12063","30.789249","-85.208814 ","6241","157","2","0","5/11/2021 12:00:00 AM","2019","46414","NYTIMES-USCENSUS"
"5/12/2021 12:00:00 AM","Hays County","Texas","South","West South Central","48209","30.061225","-98.029267 ","20679","243","19","2","5/11/2021 12:00:00 AM","2019","230191","NYTIMES-USCENSUS"
"5/12/2021 12:00:00 AM","Montgomery County","Arkansas","South","West South Central","05097","34.545656","-93.664153 ","755","33","0","0","5/11/2021 12:00:00 AM","2019","8986","NYTIMES-USCENSUS"
"5/12/2021 12:00:00 AM","Bucks County","Pennsylvania","Northeast","Middle Atlantic","42017","40.336887","-75.10706 ","59744","1268","131","0","5/11/2021 12:00:00 AM","2019","628270","NYTIMES-USCENSUS"
"5/12/2021 12:00:00 AM","Siskiyou County","California","West","Pacific","06093","41.587986","-122.533287 ","2234","24","18","1","5/11/2021 12:00:00 AM","2019","43539","NYTIMES-USCENSUS"
"5/12/2021 12:00:00 AM","Cherokee County","North Carolina","South","South Atlantic","37039","35.13715","-84.061449 ","2571","34","4","0","5/11/2021 12:00:00 AM","2019","28612","NYTIMES-USCENSUS"
"5/12/2021 12:00:00 AM","Clermont County","Ohio","Midwest","East North Central","39025","39.052054","-84.149485 ","19821","238","18","0","5/11/2021 12:00:00 AM","2019","206428","NYTIMES-USCENSUS"
"5/12/2021 12:00:00 AM","Tallahatchie County","Mississippi","South","East South Central","28135","33.954529","-90.172243 ","1786","41","1","0","5/11/2021 12:00:00 AM","2019","13809","NYTIMES-USCENSUS"
"5/12/2021 12:00:00 AM","Gaston County","North Carolina","South","South Atlantic","37071","35.293344","-81.177256 ","26527","426","26","0","5/11/2021 12:00:00 AM","2019","224529","NYTIMES-USCENSUS"
"5/12/2021 12:00:00 AM","McPherson County","South Dakota","Midwest","West North Central","46089","45.784249","-99.211421 ","246","4","0","0","5/11/2021 12:00:00 AM","2019","2379","NYTIMES-USCENSUS"
"5/12/2021 12:00:00 AM","Washington County","Vermont","Northeast","New England","50023","44.274969","-72.609444 ","1838","15","6","0","5/11/2021 12:00:00 AM","2019","58409","NYTIMES-USCENSUS"
"5/12/2021 12:00:00 AM","Seward County","Nebraska","Midwest","West North Central","31159","40.871944","-97.140383 ","1998","32","2","0","5/11/2021 12:00:00 AM","2019","17284","NYTIMES-USCENSUS"
"5/12/2021 12:00:00 AM","Emmet County","Michigan","Midwest","East North Central","26047","45.590094","-84.986822 ","2751","41","0","0","5/11/2021 12:00:00 AM","2019","33415","NYTIMES-USCENSUS"
"5/12/2021 12:00:00 AM","Emery County","Utah","West","Mountain","49015","39.009025","-110.7211 ","927","9","0","0","5/11/2021 12:00:00 AM","2019","10012","NYTIMES-USCENSUS"
"5/12/2021 12:00:00 AM","Wetzel County","West Virginia","South","South Atlantic","54103","39.59818","-80.635399 ","1339","30","7","1","5/11/2021 12:00:00 AM","2019","15065","NYTIMES-USCENSUS"
"5/12/2021 12:00:00 AM","Waseca County","Minnesota","Midwest","West North Central","27161","44.01846","-93.589844 ","2366","22","1","0","5/11/2021 12:00:00 AM","2019","18612","NYTIMES-USCENSUS"
"5/12/2021 12:00:00 AM","Scott County","Arkansas","South","West South Central","05127","34.858869","-94.063641 ","938","14","0","0","5/11/2021 12:00:00 AM","2019","10281","NYTIMES-USCENSUS"
"5/12/2021 12:00:00 AM","Escambia County","Alabama","South","East South Central","01053","31.122287","-87.16841 ","3936","77","0","0","5/11/2021 12:00:00 AM","2019","36633","NYTIMES-USCENSUS"
"5/12/2021 12:00:00 AM","Henry County","Georgia","South","South Atlantic","13151","33.452947","-84.154021 ","25368","327","41","0","5/11/2021 12:00:00 AM","2019","234561","NYTIMES-USCENSUS"
"5/12/2021 12:00:00 AM","Harrison County","Indiana","Midwest","East North Central","18061","38.186454","-86.103766 ","4365","74","4","0","5/11/2021 12:00:00 AM","2019","40515","NYTIMES-USCENSUS"
"5/12/2021 12:00:00 AM","Jackson County","Mississippi","South","East South Central","28059","30.456005","-88.625101 ","13443","246","14","0","5/11/2021 12:00:00 AM","2019","143617","NYTIMES-USCENSUS"
"5/12/2021 12:00:00 AM","Polk County","Florida","South","South Atlantic","12105","27.953649","-81.693534 ","69394","1337","133","0","5/11/2021 12:00:00 AM","2019","724777","NYTIMES-USCENSUS"
"5/12/2021 12:00:00 AM","Marion County","South Carolina","South","South Atlantic","45067","34.08362","-79.354001 ","3530","107","0","0","5/11/2021 12:00:00 AM","2019","30657","NYTIMES-USCENSUS"
"5/12/2021 12:00:00 AM","Wasatch County","Utah","West","Mountain","49051","40.334884","-111.161568 ","4644","22","3","1","5/11/2021 12:00:00 AM","2019","34091","NYTIMES-USCENSUS"
"5/12/2021 12:00:00 AM","Rockwall County","Texas","South","West South Central","48397","32.899886","-96.41205 ","11548","156","13","0","5/11/2021 12:00:00 AM","2019","104915","NYTIMES-USCENSUS"
"5/12/2021 12:00:00 AM","Monroe County","Iowa","Midwest","West North Central","19135","41.028847","-92.869642 ","951","29","0","0","5/11/2021 12:00:00 AM","2019","7707","NYTIMES-USCENSUS"
"5/12/2021 12:00:00 AM","Harrison County","Missouri","Midwest","West North Central","29081","40.34562","-93.992582 ","877","14","1","0","5/11/2021 12:00:00 AM","2019","8352","NYTIMES-USCENSUS"
"5/12/2021 12:00:00 AM","Grant County","Oregon","West","Pacific","41023","44.496326","-119.014057 ","509","5","2","0","5/11/2021 12:00:00 AM","2019","7199","NYTIMES-USCENSUS"
"5/12/2021 12:00:00 AM","Fayette County","Pennsylvania","Northeast","Middle Atlantic","42051","39.918907","-79.640119 ","12798","311","34","0","5/11/2021 12:00:00 AM","2019","129274","NYTIMES-USCENSUS"
"5/12/2021 12:00:00 AM","Eddy County","North Dakota","Midwest","West North Central","38027","47.723436","-98.900474 ","469","6","0","0","5/11/2021 12:00:00 AM","2019","2287","NYTIMES-USCENSUS"
"5/12/2021 12:00:00 AM","Vance County","North Carolina","South","South Atlantic","37181","36.365481","-78.405434 ","4936","86","2","0","5/11/2021 12:00:00 AM","2019","44535","NYTIMES-USCENSUS"
"5/12/2021 12:00:00 AM","Piute County","Utah","West","Mountain","49031","38.335881","-112.129375 ","99","2","0","0","5/11/2021 12:00:00 AM","2019","1479","NYTIMES-USCENSUS"
"5/12/2021 12:00:00 AM","Woodruff County","Arkansas","South","West South Central","05147","35.192777","-91.244535 ","648","13","0","0","5/11/2021 12:00:00 AM","2019","6320","NYTIMES-USCENSUS"
"5/12/2021 12:00:00 AM","Lumpkin County","Georgia","South","South Atlantic","13187","34.56814","-83.998925 ","2998","74","4","2","5/11/2021 12:00:00 AM","2019","33610","NYTIMES-USCENSUS"
"5/12/2021 12:00:00 AM","Cleveland County","North Carolina","South","South Atlantic","37045","35.33463","-81.557114 ","11456","224","5","0","5/11/2021 12:00:00 AM","2019","97947","NYTIMES-USCENSUS"
"5/12/2021 12:00:00 AM","Crane County","Texas","South","West South Central","48103","31.422796","-102.487774 ","531","12","0","0","5/11/2021 12:00:00 AM","2019","4797","NYTIMES-USCENSUS"
"5/12/2021 12:00:00 AM","Monroe County","Pennsylvania","Northeast","Middle Atlantic","42089","41.05624","-75.329065 ","14399","307","30","0","5/11/2021 12:00:00 AM","2019","170271","NYTIMES-USCENSUS"
"5/12/2021 12:00:00 AM","Ogle County","Illinois","Midwest","East North Central","17141","42.041884","-89.320176 ","6097","89","10","0","5/11/2021 12:00:00 AM","2019","50643","NYTIMES-USCENSUS"
"5/12/2021 12:00:00 AM","Island County","Washington","West","Pacific","53029","48.158554","-122.670649 ","1723","30","-2","0","5/11/2021 12:00:00 AM","2019","85141","NYTIMES-USCENSUS"
"5/12/2021 12:00:00 AM","Jasper County","South Carolina","South","South Atlantic","45053","32.43059","-81.021627 ","2347","45","1","0","5/11/2021 12:00:00 AM","2019","30073","NYTIMES-USCENSUS"
"5/12/2021 12:00:00 AM","Ocean County","New Jersey","Northeast","Middle Atlantic","34029","39.865669","-74.258864 ","75298","2134","34","2","5/11/2021 12:00:00 AM","2019","607186","NYTIMES-USCENSUS"
"5/12/2021 12:00:00 AM","Catawba County","North Carolina","South","South Atlantic","37035","35.661883","-81.214906 ","19417","303","27","0","5/11/2021 12:00:00 AM","2019","159551","NYTIMES-USCENSUS"
"5/12/2021 12:00:00 AM","St. Lawrence County","New York","Northeast","Middle Atlantic","36089","44.488112","-75.074311 ","6466","96","13","0","5/11/2021 12:00:00 AM","2019","107740","NYTIMES-USCENSUS"
"5/12/2021 12:00:00 AM","Box Elder County","Utah","West","Mountain","49003","41.622623","-113.060252 ","5416","50","14","0","5/11/2021 12:00:00 AM","2019","56046","NYTIMES-USCENSUS"
"5/12/2021 12:00:00 AM","Texas County","Missouri","Midwest","West North Central","29215","37.314257","-91.964478 ","1835","23","0","0","5/11/2021 12:00:00 AM","2019","25398","NYTIMES-USCENSUS"
"5/12/2021 12:00:00 AM","Ripley County","Indiana","Midwest","East North Central","18137","39.100226","-85.260494 ","3401","70","2","0","5/11/2021 12:00:00 AM","2019","28324","NYTIMES-USCENSUS"
"5/12/2021 12:00:00 AM","Cass County","Nebraska","Midwest","West North Central","31025","40.909878","-96.140609 ","2666","16","1","0","5/11/2021 12:00:00 AM","2019","26248","NYTIMES-USCENSUS"
"5/12/2021 12:00:00 AM","Bandera County","Texas","South","West South Central","48019","29.756389","-99.248285 ","1402","27","0","0","5/11/2021 12:00:00 AM","2019","23112","NYTIMES-USCENSUS"
"5/12/2021 12:00:00 AM","Sierra County","California","West","Pacific","06091","39.576925","-120.521993 ","54","0","0","0","5/11/2021 12:00:00 AM","2019","3005","NYTIMES-USCENSUS"
"5/12/2021 12:00:00 AM","Alcorn County","Mississippi","South","East South Central","28003","34.886569","-88.581109 ","3128","68","1","0","5/11/2021 12:00:00 AM","2019","36953","NYTIMES-USCENSUS"
"5/12/2021 12:00:00 AM","Grand Isle County","Vermont","Northeast","New England","50013","44.795742","-73.295082 ","210","2","0","0","5/11/2021 12:00:00 AM","2019","7235","NYTIMES-USCENSUS"
"5/12/2021 12:00:00 AM","Grant County","Oklahoma","South","West South Central","40053","36.788254","-97.788151 ","549","6","0","0","5/11/2021 12:00:00 AM","2019","4333","NYTIMES-USCENSUS"
"5/12/2021 12:00:00 AM","Carbon County","Utah","West","Mountain","49007","39.673284","-110.588484 ","1642","17","0","0","5/11/2021 12:00:00 AM","2019","20463","NYTIMES-USCENSUS"
"5/12/2021 12:00:00 AM","Appling County","Georgia","South","South Atlantic","13001","31.739712","-82.290103 ","2320","71","0","0","5/11/2021 12:00:00 AM","2019","18386","NYTIMES-USCENSUS"
"5/12/2021 12:00:00 AM","Hidalgo County","Texas","South","West South Central","48215","26.396384","-98.18099 ","89761","2844","198","5","5/11/2021 12:00:00 AM","2019","868707","NYTIMES-USCENSUS"
"5/12/2021 12:00:00 AM","Warren County","Illinois","Midwest","East North Central","17187","40.850441","-90.620223 ","1797","49","1","0","5/11/2021 12:00:00 AM","2019","16844","NYTIMES-USCENSUS"
"5/12/2021 12:00:00 AM","Craig County","Oklahoma","South","West South Central","40035","36.76389","-95.201553 ","1980","18","10","0","5/11/2021 12:00:00 AM","2019","14142","NYTIMES-USCENSUS"
"5/12/2021 12:00:00 AM","Cochise County","Arizona","West","Mountain","04003","31.840129","-109.775163 ","11984","283","13","0","5/11/2021 12:00:00 AM","2019","125922","NYTIMES-USCENSUS"
"5/12/2021 12:00:00 AM","Cass County","Texas","South","West South Central","48067","33.083698","-94.357579 ","1923","82","2","0","5/11/2021 12:00:00 AM","2019","30026","NYTIMES-USCENSUS"
"5/12/2021 12:00:00 AM","Union County","North Carolina","South","South Atlantic","37179","34.99182","-80.530426 ","24377","219","30","2","5/11/2021 12:00:00 AM","2019","239859","NYTIMES-USCENSUS"
"5/12/2021 12:00:00 AM","Clay County","Texas","South","West South Central","48077","33.785904","-98.212917 ","1032","16","0","0","5/11/2021 12:00:00 AM","2019","10471","NYTIMES-USCENSUS"
"5/12/2021 12:00:00 AM","Clay County","South Dakota","Midwest","West North Central","46027","42.91615","-96.980468 ","1922","15","1","0","5/11/2021 12:00:00 AM","2019","14070","NYTIMES-USCENSUS"
"5/12/2021 12:00:00 AM","McIntosh County","Oklahoma","South","West South Central","40091","35.369108","-95.671787 ","2003","59","4","0","5/11/2021 12:00:00 AM","2019","19596","NYTIMES-USCENSUS"
"5/12/2021 12:00:00 AM","Mississippi County","Arkansas","South","West South Central","05093","35.766944","-90.052207 ","5857","107","1","0","5/11/2021 12:00:00 AM","2019","40651","NYTIMES-USCENSUS"
"5/12/2021 12:00:00 AM","Osceola County","Iowa","Midwest","West North Central","19143","43.378542","-95.633788 ","786","16","1","0","5/11/2021 12:00:00 AM","2019","5958","NYTIMES-USCENSUS"
"5/12/2021 12:00:00 AM","Natrona County","Wyoming","West","Mountain","56025","42.977645","-106.768219 ","8003","136","6","0","5/11/2021 12:00:00 AM","2019","79858","NYTIMES-USCENSUS"
"5/12/2021 12:00:00 AM","Fond du Lac County","Wisconsin","Midwest","East North Central","55039","43.754722","-88.493284 ","13658","121","11","0","5/11/2021 12:00:00 AM","2019","103403","NYTIMES-USCENSUS"
"5/12/2021 12:00:00 AM","Clarke County","Virginia","South","South Atlantic","51043","39.115307","-77.990748 ","976","19","-1","0","5/11/2021 12:00:00 AM","2019","14619","NYTIMES-USCENSUS"
"5/12/2021 12:00:00 AM","LaSalle Parish","Louisiana","South","West South Central","22059","31.680083","-92.161596 ","1563","37","7","0","5/11/2021 12:00:00 AM","2019","14892","NYTIMES-USCENSUS"
"5/12/2021 12:00:00 AM","Pierce County","North Dakota","Midwest","West North Central","38069","48.238883","-99.966497 ","548","25","0","0","5/11/2021 12:00:00 AM","2019","3975","NYTIMES-USCENSUS"
"5/12/2021 12:00:00 AM","Buffalo County","Wisconsin","Midwest","East North Central","55011","44.385633","-91.761294 ","1398","7","4","0","5/11/2021 12:00:00 AM","2019","13031","NYTIMES-USCENSUS"
"5/12/2021 12:00:00 AM","Broome County","New York","Northeast","Middle Atlantic","36007","42.161977","-75.830283 ","18275","356","17","0","5/11/2021 12:00:00 AM","2019","190488","NYTIMES-USCENSUS"
"5/12/2021 12:00:00 AM","Lavaca County","Texas","South","West South Central","48285","29.382578","-96.923633 ","2484","76","1","0","5/11/2021 12:00:00 AM","2019","20154","NYTIMES-USCENSUS"
"5/12/2021 12:00:00 AM","Fulton County","Indiana","Midwest","East North Central","18049","41.050384","-86.265006 ","1955","40","0","0","5/11/2021 12:00:00 AM","2019","19974","NYTIMES-USCENSUS"
"5/12/2021 12:00:00 AM","Jefferson County","Tennessee","South","East South Central","47089","36.048338","-83.441143 ","6236","125","10","0","5/11/2021 12:00:00 AM","2019","54495","NYTIMES-USCENSUS"
"5/12/2021 12:00:00 AM","Yell County","Arkansas","South","West South Central","05149","34.997713","-93.408303 ","3436","65","2","0","5/11/2021 12:00:00 AM","2019","21341","NYTIMES-USCENSUS"
"5/12/2021 12:00:00 AM","Appomattox County","Virginia","South","South Atlantic","51011","37.370725","-78.81094 ","1592","25","0","0","5/11/2021 12:00:00 AM","2019","15911","NYTIMES-USCENSUS"
"5/12/2021 12:00:00 AM","Edgecombe County","North Carolina","South","South Atlantic","37065","35.917077","-77.602742 ","5575","111","6","0","5/11/2021 12:00:00 AM","2019","51472","NYTIMES-USCENSUS"
"5/12/2021 12:00:00 AM","Fayette County","Ohio","Midwest","East North Central","39047","39.555246","-83.461893 ","2825","50","3","0","5/11/2021 12:00:00 AM","2019","28525","NYTIMES-USCENSUS"
"5/12/2021 12:00:00 AM","Morrill County","Nebraska","Midwest","West North Central","31123","41.732204","-102.990594 ","511","15","1","0","5/11/2021 12:00:00 AM","2019","4642","NYTIMES-USCENSUS"
"5/12/2021 12:00:00 AM","Cass County","Indiana","Midwest","East North Central","18017","40.753799","-86.355168 ","5821","107","8","0","5/11/2021 12:00:00 AM","2019","37689","NYTIMES-USCENSUS"
"5/12/2021 12:00:00 AM","White County","Indiana","Midwest","East North Central","18181","40.75095","-86.864293 ","3146","55","2","0","5/11/2021 12:00:00 AM","2019","24102","NYTIMES-USCENSUS"
"5/12/2021 12:00:00 AM","Wayne County","Illinois","Midwest","East North Central","17191","38.431857","-88.43243 ","1773","53","3","0","5/11/2021 12:00:00 AM","2019","16215","NYTIMES-USCENSUS"
"5/12/2021 12:00:00 AM","Pike County","Ohio","Midwest","East North Central","39131","39.071341","-83.052911 ","2378","34","1","0","5/11/2021 12:00:00 AM","2019","27772","NYTIMES-USCENSUS"
"5/12/2021 12:00:00 AM","Wichita County","Texas","South","West South Central","48485","33.988212","-98.70801 ","15019","377","0","0","5/11/2021 12:00:00 AM","2019","132230","NYTIMES-USCENSUS"
"5/12/2021 12:00:00 AM","Alamosa County","Colorado","West","Mountain","08003","37.568442","-105.788041 ","1547","31","17","0","5/11/2021 12:00:00 AM","2019","16233","NYTIMES-USCENSUS"
"5/12/2021 12:00:00 AM","Williamson County","Tennessee","South","East South Central","47187","35.894807","-86.898068 ","28089","217","26","0","5/11/2021 12:00:00 AM","2019","238412","NYTIMES-USCENSUS"
"5/12/2021 12:00:00 AM","Windham County","Connecticut","Northeast","New England","09015","41.824999","-71.990702 ","10769","193","12","0","5/11/2021 12:00:00 AM","2019","116782","NYTIMES-USCENSUS"
"5/12/2021 12:00:00 AM","Sherman County","Oregon","West","Pacific","41055","45.399216","-120.678512 ","58","1","0","0","5/11/2021 12:00:00 AM","2019","1780","NYTIMES-USCENSUS"
"5/12/2021 12:00:00 AM","Montgomery County","Illinois","Midwest","East North Central","17135","39.228068","-89.478141 ","3714","80","5","1","5/11/2021 12:00:00 AM","2019","28414","NYTIMES-USCENSUS"
"5/12/2021 12:00:00 AM","Lincoln County","Maine","Northeast","New England","23015","43.994781","-69.513624 ","980","2","7","0","5/11/2021 12:00:00 AM","2019","34634","NYTIMES-USCENSUS"
"5/12/2021 12:00:00 AM","Marion County","Alabama","South","East South Central","01093","34.138219","-87.881551 ","3126","101","4","0","5/11/2021 12:00:00 AM","2019","29709","NYTIMES-USCENSUS"
"5/12/2021 12:00:00 AM","Kane County","Utah","West","Mountain","49025","37.275089","-111.815329 ","666","6","0","0","5/11/2021 12:00:00 AM","2019","7886","NYTIMES-USCENSUS"
"5/12/2021 12:00:00 AM","Gallatin County","Illinois","Midwest","East North Central","17059","37.768677","-88.227964 ","458","5","0","0","5/11/2021 12:00:00 AM","2019","4828","NYTIMES-USCENSUS"
"5/12/2021 12:00:00 AM","Grady County","Oklahoma","South","West South Central","40051","35.021058","-97.88689 ","5951","121","16","0","5/11/2021 12:00:00 AM","2019","55834","NYTIMES-USCENSUS"
"5/12/2021 12:00:00 AM","Clare County","Michigan","Midwest","East North Central","26035","43.991137","-84.838325 ","2404","77","9","0","5/11/2021 12:00:00 AM","2019","30950","NYTIMES-USCENSUS"
"5/12/2021 12:00:00 AM","Cass County","Illinois","Midwest","East North Central","17017","39.969202","-90.245704 ","1990","34","7","0","5/11/2021 12:00:00 AM","2019","12147","NYTIMES-USCENSUS"
"5/12/2021 12:00:00 AM","Texas County","Oklahoma","South","West South Central","40139","36.746317","-101.483855 ","3519","33","5","0","5/11/2021 12:00:00 AM","2019","19983","NYTIMES-USCENSUS"
"5/12/2021 12:00:00 AM","Comanche County","Kansas","Midwest","West North Central","20033","37.181442","-99.251293 ","170","9","0","0","5/11/2021 12:00:00 AM","2019","1700","NYTIMES-USCENSUS"
"5/12/2021 12:00:00 AM","Merrick County","Nebraska","Midwest","West North Central","31121","41.16979","-98.031057 ","786","15","9","0","5/11/2021 12:00:00 AM","2019","7755","NYTIMES-USCENSUS"
"5/12/2021 12:00:00 AM","Madison County","Missouri","Midwest","West North Central","29123","37.474481","-90.343413 ","1652","16","4","0","5/11/2021 12:00:00 AM","2019","12088","NYTIMES-USCENSUS"
"5/12/2021 12:00:00 AM","Christian County","Kentucky","South","East South Central","21047","36.892059","-87.492986 ","7031","104","6","0","5/11/2021 12:00:00 AM","2019","70461","NYTIMES-USCENSUS"
"5/12/2021 12:00:00 AM","Jefferson County","Montana","West","Mountain","30043","46.124232","-112.059428 ","1083","8","2","0","5/11/2021 12:00:00 AM","2019","12221","NYTIMES-USCENSUS"
"5/12/2021 12:00:00 AM","Fresno County","California","West","Pacific","06019","36.761006","-119.655019 ","101792","1686","37","4","5/11/2021 12:00:00 AM","2019","999101","NYTIMES-USCENSUS"
"5/12/2021 12:00:00 AM","Venango County","Pennsylvania","Northeast","Middle Atlantic","42121","41.400714","-79.765813 ","3891","93","5","0","5/11/2021 12:00:00 AM","2019","50668","NYTIMES-USCENSUS"
"5/12/2021 12:00:00 AM","Rapides Parish","Louisiana","South","West South Central","22079","31.193204","-92.535953 ","12195","316","43","1","5/11/2021 12:00:00 AM","2019","129648","NYTIMES-USCENSUS"
"5/12/2021 12:00:00 AM","Lane County","Kansas","Midwest","West North Central","20101","38.481286","-100.466185 ","143","7","0","0","5/11/2021 12:00:00 AM","2019","1535","NYTIMES-USCENSUS"
"5/12/2021 12:00:00 AM","Ontonagon County","Michigan","Midwest","East North Central","26131","46.835325","-89.276912 ","460","21","2","0","5/11/2021 12:00:00 AM","2019","5720","NYTIMES-USCENSUS"
"5/12/2021 12:00:00 AM","Lamar County","Mississippi","South","East South Central","28073","31.197586","-89.506369 ","6229","86","5","0","5/11/2021 12:00:00 AM","2019","63343","NYTIMES-USCENSUS"
"5/12/2021 12:00:00 AM","Wicomico County","Maryland","South","South Atlantic","24045","38.36737","-75.632083 ","7539","153","0","0","5/11/2021 12:00:00 AM","2019","103609","NYTIMES-USCENSUS"
"5/12/2021 12:00:00 AM","Roanoke city","Virginia","South","South Atlantic","51770","37.278458","-79.958174 ","8448","192","7","0","5/11/2021 12:00:00 AM","2019","99143","NYTIMES-USCENSUS"
"5/12/2021 12:00:00 AM","Assumption Parish","Louisiana","South","West South Central","22007","29.9033","-91.065219 ","2209","36","-3","0","5/11/2021 12:00:00 AM","2019","21891","NYTIMES-USCENSUS"
"5/12/2021 12:00:00 AM","Calhoun County","Georgia","South","South Atlantic","13037","31.521279","-84.62629 ","588","15","1","0","5/11/2021 12:00:00 AM","2019","6189","NYTIMES-USCENSUS"
"5/12/2021 12:00:00 AM","Scott County","Minnesota","Midwest","West North Central","27139","44.651805","-93.533731 ","17222","124","21","0","5/11/2021 12:00:00 AM","2019","149013","NYTIMES-USCENSUS"
"5/12/2021 12:00:00 AM","Dawson County","Texas","South","West South Central","48115","32.742528","-101.948771 ","1736","69","0","0","5/11/2021 12:00:00 AM","2019","12728","NYTIMES-USCENSUS"
"5/12/2021 12:00:00 AM","Polk County","Texas","South","West South Central","48373","30.784553","-94.837338 ","3282","114","0","0","5/11/2021 12:00:00 AM","2019","51353","NYTIMES-USCENSUS"
"5/12/2021 12:00:00 AM","Parker County","Texas","South","West South Central","48367","32.777096","-97.805905 ","15763","183","11","2","5/11/2021 12:00:00 AM","2019","142878","NYTIMES-USCENSUS"
"5/12/2021 12:00:00 AM","Franklin County","Idaho","West","Mountain","16041","42.173609","-111.822965 ","1197","16","2","0","5/11/2021 12:00:00 AM","2019","13876","NYTIMES-USCENSUS"
"5/12/2021 12:00:00 AM","Chambers County","Texas","South","West South Central","48071","29.696374","-94.669445 ","5005","49","4","0","5/11/2021 12:00:00 AM","2019","43837","NYTIMES-USCENSUS"
"5/12/2021 12:00:00 AM","Hampton city","Virginia","South","South Atlantic","51650","37.047961","-76.297293 ","10434","177","6","0","5/11/2021 12:00:00 AM","2019","134510","NYTIMES-USCENSUS"
"5/12/2021 12:00:00 AM","Wood County","Wisconsin","Midwest","East North Central","55141","44.461413","-90.038825 ","7567","94","10","1","5/11/2021 12:00:00 AM","2019","72999","NYTIMES-USCENSUS"
"5/12/2021 12:00:00 AM","Bradley County","Tennessee","South","East South Central","47011","35.153914","-84.859414 ","15094","151","21","0","5/11/2021 12:00:00 AM","2019","108110","NYTIMES-USCENSUS"
"5/12/2021 12:00:00 AM","Jefferson County","Idaho","West","Mountain","16051","43.796965","-112.318588 ","3003","28","1","0","5/11/2021 12:00:00 AM","2019","29871","NYTIMES-USCENSUS"
"5/12/2021 12:00:00 AM","Pershing County","Nevada","West","Mountain","32027","40.439639","-118.409477 ","954","20","0","0","5/11/2021 12:00:00 AM","2019","6725","NYTIMES-USCENSUS"
"5/12/2021 12:00:00 AM","Hillsborough County","New Hampshire","Northeast","New England","33011","42.911532","-71.723055 ","35593","632","168","5","5/11/2021 12:00:00 AM","2019","417025","NYTIMES-USCENSUS"
"5/12/2021 12:00:00 AM","Stanislaus County","California","West","Pacific","06099","37.562316","-121.002831 ","62102","1060","44","2","5/11/2021 12:00:00 AM","2019","550660","NYTIMES-USCENSUS"
"5/12/2021 12:00:00 AM","Kendall County","Texas","South","West South Central","48259","29.943525","-98.709269 ","3305","72","1","0","5/11/2021 12:00:00 AM","2019","47431","NYTIMES-USCENSUS"
"5/12/2021 12:00:00 AM","Houston County","Texas","South","West South Central","48225","31.323036","-95.4216 ","1820","53","180","1","5/11/2021 12:00:00 AM","2019","22968","NYTIMES-USCENSUS"
"5/12/2021 12:00:00 AM","DeWitt County","Texas","South","West South Central","48123","29.082346","-97.361654 ","1929","59","0","0","5/11/2021 12:00:00 AM","2019","20160","NYTIMES-USCENSUS"
