"monitor_date","county","state_name","region","subregion","fips","latitude","longitude","case_count_to_date","death_count_to_date","case_count","death_count","previous_monitor_date","population_year","population","source"
"12/14/2021 12:00:00 AM","Linn County","Missouri","Midwest","West North Central","29115","39.86444","-93.108019 ","1952","58","3","1","12/13/2021 12:00:00 AM","2019","11920","NYTIMES-USCENSUS"
"12/14/2021 12:00:00 AM","Valencia County","New Mexico","West","Mountain","35061","34.71684","-106.806582 ","12181","173","44","0","12/13/2021 12:00:00 AM","2019","76688","NYTIMES-USCENSUS"
"12/14/2021 12:00:00 AM","Tehama County","California","West","Pacific","06103","40.126157","-122.232274 ","10387","134","4","0","12/13/2021 12:00:00 AM","2019","65084","NYTIMES-USCENSUS"
"12/14/2021 12:00:00 AM","Madison County","Arkansas","South","West South Central","05087","36.012545","-93.724053 ","2776","44","10","1","12/13/2021 12:00:00 AM","2019","16576","NYTIMES-USCENSUS"
"12/14/2021 12:00:00 AM","Brown County","Wisconsin","Midwest","East North Central","55009","44.474024","-87.99613 ","55249","346","378","0","12/13/2021 12:00:00 AM","2019","264542","NYTIMES-USCENSUS"
"12/14/2021 12:00:00 AM","Owsley County","Kentucky","South","East South Central","21189","37.423622","-83.691637 ","1048","22","1","0","12/13/2021 12:00:00 AM","2019","4415","NYTIMES-USCENSUS"
"12/14/2021 12:00:00 AM","Hood County","Texas","South","West South Central","48221","32.430149","-97.831677 ","9996","214","10","0","12/13/2021 12:00:00 AM","2019","61643","NYTIMES-USCENSUS"
"12/14/2021 12:00:00 AM","Greenwood County","South Carolina","South","South Atlantic","45047","34.155796","-82.127876 ","13137","237","3","0","12/13/2021 12:00:00 AM","2019","70811","NYTIMES-USCENSUS"
"12/14/2021 12:00:00 AM","Beltrami County","Minnesota","Midwest","West North Central","27007","47.879508","-95.00505 ","8508","103","59","0","12/13/2021 12:00:00 AM","2019","47188","NYTIMES-USCENSUS"
"12/14/2021 12:00:00 AM","Sumter County","Alabama","South","East South Central","01119","32.597481","-88.200057 ","1409","42","3","0","12/13/2021 12:00:00 AM","2019","12427","NYTIMES-USCENSUS"
"12/14/2021 12:00:00 AM","Monmouth County","New Jersey","Northeast","Middle Atlantic","34025","40.287048","-74.152446 ","103450","1793","390","2","12/13/2021 12:00:00 AM","2019","618795","NYTIMES-USCENSUS"
"12/14/2021 12:00:00 AM","Fleming County","Kentucky","South","East South Central","21069","38.367848","-83.699205 ","2439","40","7","0","12/13/2021 12:00:00 AM","2019","14581","NYTIMES-USCENSUS"
"12/14/2021 12:00:00 AM","Chaves County","New Mexico","West","Mountain","35005","33.361604","-104.469837 ","14774","223","12","0","12/13/2021 12:00:00 AM","2019","64615","NYTIMES-USCENSUS"
"12/14/2021 12:00:00 AM","Norton city","Virginia","South","South Atlantic","51720","36.931549","-82.625996 ","696","17","1","0","12/13/2021 12:00:00 AM","2019","3981","NYTIMES-USCENSUS"
"12/14/2021 12:00:00 AM","Rockingham County","Virginia","South","South Atlantic","51165","38.507585","-78.885321 ","10200","174","30","0","12/13/2021 12:00:00 AM","2019","81948","NYTIMES-USCENSUS"
"12/14/2021 12:00:00 AM","Cleveland County","Arkansas","South","West South Central","05025","33.893201","-92.188714 ","1472","34","1","0","12/13/2021 12:00:00 AM","2019","7956","NYTIMES-USCENSUS"
"12/14/2021 12:00:00 AM","Suffolk County","Massachusetts","Northeast","New England","25025","42.338551","-71.018253 ","118716","1958","332","3","12/13/2021 12:00:00 AM","2019","803907","NYTIMES-USCENSUS"
"12/14/2021 12:00:00 AM","Jefferson County","Wisconsin","Midwest","East North Central","55055","43.013804","-88.773985 ","14400","175","37","0","12/13/2021 12:00:00 AM","2019","84769","NYTIMES-USCENSUS"
"12/14/2021 12:00:00 AM","Orange County","California","West","Pacific","06059","33.675687","-117.777207 ","339305","5829","199","4","12/13/2021 12:00:00 AM","2019","3175692","NYTIMES-USCENSUS"
"12/14/2021 12:00:00 AM","Charles Mix County","South Dakota","Midwest","West North Central","46023","43.206185","-98.595143 ","2065","28","4","0","12/13/2021 12:00:00 AM","2019","9292","NYTIMES-USCENSUS"
"12/14/2021 12:00:00 AM","Douglas County","Wisconsin","Midwest","East North Central","55031","46.463218","-91.892477 ","7747","70","22","0","12/13/2021 12:00:00 AM","2019","43150","NYTIMES-USCENSUS"
"12/14/2021 12:00:00 AM","Warren County","Missouri","Midwest","West North Central","29219","38.761902","-91.159306 ","5633","75","3","0","12/13/2021 12:00:00 AM","2019","35649","NYTIMES-USCENSUS"
"12/14/2021 12:00:00 AM","Waupaca County","Wisconsin","Midwest","East North Central","55135","44.478004","-88.967005 ","9873","205","54","1","12/13/2021 12:00:00 AM","2019","50990","NYTIMES-USCENSUS"
"12/14/2021 12:00:00 AM","Wayne County","Nebraska","Midwest","West North Central","31179","42.210746","-97.126243 ","1390","7","5","0","12/13/2021 12:00:00 AM","2019","9385","NYTIMES-USCENSUS"
"12/14/2021 12:00:00 AM","Stevens County","Kansas","Midwest","West North Central","20189","37.2017","-101.317268 ","1031","16","0","0","12/13/2021 12:00:00 AM","2019","5485","NYTIMES-USCENSUS"
"12/14/2021 12:00:00 AM","Perry County","Tennessee","South","East South Central","47135","35.663752","-87.869326 ","1664","35","0","0","12/13/2021 12:00:00 AM","2019","8076","NYTIMES-USCENSUS"
"12/14/2021 12:00:00 AM","Rockingham County","New Hampshire","Northeast","New England","33015","42.988664","-71.09908 ","40053","360","196","5","12/13/2021 12:00:00 AM","2019","309769","NYTIMES-USCENSUS"
"12/14/2021 12:00:00 AM","Matagorda County","Texas","South","West South Central","48321","28.77476","-96.001532 ","6167","162","3","1","12/13/2021 12:00:00 AM","2019","36643","NYTIMES-USCENSUS"
"12/14/2021 12:00:00 AM","DeKalb County","Georgia","South","South Atlantic","13089","33.770661","-84.226343 ","95529","1391","122","0","12/13/2021 12:00:00 AM","2019","759297","NYTIMES-USCENSUS"
"12/14/2021 12:00:00 AM","Calhoun County","Illinois","Midwest","East North Central","17013","39.164262","-90.666295 ","887","5","13","0","12/13/2021 12:00:00 AM","2019","4739","NYTIMES-USCENSUS"
"12/14/2021 12:00:00 AM","Laurel County","Kentucky","South","East South Central","21125","37.113268","-84.119395 ","13609","171","51","0","12/13/2021 12:00:00 AM","2019","60813","NYTIMES-USCENSUS"
"12/14/2021 12:00:00 AM","Broomfield County","Colorado","West","Mountain","08014","39.953593","-105.050787 ","7907","91","15","1","12/13/2021 12:00:00 AM","2019","70465","NYTIMES-USCENSUS"
"12/14/2021 12:00:00 AM","Coryell County","Texas","South","West South Central","48099","31.391177","-97.798022 ","10893","168","9","0","12/13/2021 12:00:00 AM","2019","75951","NYTIMES-USCENSUS"
"12/14/2021 12:00:00 AM","Montour County","Pennsylvania","Northeast","Middle Atlantic","42093","41.029284","-76.665225 ","3030","78","6","0","12/13/2021 12:00:00 AM","2019","18230","NYTIMES-USCENSUS"
"12/14/2021 12:00:00 AM","Harrison County","Missouri","Midwest","West North Central","29081","40.34562","-93.992582 ","1395","21","19","0","12/13/2021 12:00:00 AM","2019","8352","NYTIMES-USCENSUS"
"12/14/2021 12:00:00 AM","Yalobusha County","Mississippi","South","East South Central","28161","34.030666","-89.703807 ","2492","47","4","0","12/13/2021 12:00:00 AM","2019","12108","NYTIMES-USCENSUS"
"12/14/2021 12:00:00 AM","Adair County","Missouri","Midwest","West North Central","29001","40.190666","-92.603592 ","4118","45","54","1","12/13/2021 12:00:00 AM","2019","25343","NYTIMES-USCENSUS"
"12/14/2021 12:00:00 AM","Adams County","Wisconsin","Midwest","East North Central","55001","43.973757","-89.767228 ","3217","38","7","0","12/13/2021 12:00:00 AM","2019","20220","NYTIMES-USCENSUS"
"12/14/2021 12:00:00 AM","Platte County","Nebraska","Midwest","West North Central","31141","41.576866","-97.513467 ","6178","50","19","0","12/13/2021 12:00:00 AM","2019","33470","NYTIMES-USCENSUS"
"12/14/2021 12:00:00 AM","Kleberg County","Texas","South","West South Central","48273","27.438735","-97.66062 ","4393","133","1","0","12/13/2021 12:00:00 AM","2019","30680","NYTIMES-USCENSUS"
"12/14/2021 12:00:00 AM","Barren County","Kentucky","South","East South Central","21009","36.962805","-85.932108 ","8901","174","20","0","12/13/2021 12:00:00 AM","2019","44249","NYTIMES-USCENSUS"
"12/14/2021 12:00:00 AM","Hancock County","Indiana","Midwest","East North Central","18059","39.822529","-85.77315 ","13787","194","36","0","12/13/2021 12:00:00 AM","2019","78168","NYTIMES-USCENSUS"
"12/14/2021 12:00:00 AM","Giles County","Tennessee","South","East South Central","47055","35.202723","-87.035319 ","6292","132","8","0","12/13/2021 12:00:00 AM","2019","29464","NYTIMES-USCENSUS"
"12/14/2021 12:00:00 AM","Poinsett County","Arkansas","South","West South Central","05111","35.56887","-90.681104 ","5254","102","10","0","12/13/2021 12:00:00 AM","2019","23528","NYTIMES-USCENSUS"
"12/14/2021 12:00:00 AM","Spink County","South Dakota","Midwest","West North Central","46115","44.923772","-98.339615 ","1102","29","5","0","12/13/2021 12:00:00 AM","2019","6376","NYTIMES-USCENSUS"
"12/14/2021 12:00:00 AM","Buffalo County","Nebraska","Midwest","West North Central","31019","40.855265","-99.074984 ","8843","57","29","0","12/13/2021 12:00:00 AM","2019","49659","NYTIMES-USCENSUS"
"12/14/2021 12:00:00 AM","Stevens County","Minnesota","Midwest","West North Central","27149","45.593461","-95.992315 ","1786","11","19","0","12/13/2021 12:00:00 AM","2019","9805","NYTIMES-USCENSUS"
"12/14/2021 12:00:00 AM","Fredericksburg city","Virginia","South","South Atlantic","51630","38.299272","-77.486658 ","3285","26","-3","0","12/13/2021 12:00:00 AM","2019","29036","NYTIMES-USCENSUS"
"12/14/2021 12:00:00 AM","Marion County","Arkansas","South","West South Central","05089","36.266664","-92.678577 ","2468","66","11","0","12/13/2021 12:00:00 AM","2019","16694","NYTIMES-USCENSUS"
"12/14/2021 12:00:00 AM","Washington County","Pennsylvania","Northeast","Middle Atlantic","42125","40.200005","-80.252132 ","32322","469","167","3","12/13/2021 12:00:00 AM","2019","206865","NYTIMES-USCENSUS"
"12/14/2021 12:00:00 AM","Crawford County","Michigan","Midwest","East North Central","26039","44.680175","-84.611343 ","1868","20","0","0","12/13/2021 12:00:00 AM","2019","14029","NYTIMES-USCENSUS"
"12/14/2021 12:00:00 AM","McLean County","Illinois","Midwest","East North Central","17113","40.494559","-88.844539 ","27068","274","86","1","12/13/2021 12:00:00 AM","2019","171517","NYTIMES-USCENSUS"
"12/14/2021 12:00:00 AM","Fremont County","Colorado","West","Mountain","08043","38.45517","-105.424958 ","10381","147","16","2","12/13/2021 12:00:00 AM","2019","47839","NYTIMES-USCENSUS"
"12/14/2021 12:00:00 AM","West Carroll Parish","Louisiana","South","West South Central","22123","32.79248","-91.451998 ","2194","52","2","0","12/13/2021 12:00:00 AM","2019","10830","NYTIMES-USCENSUS"
"12/14/2021 12:00:00 AM","Burke County","North Carolina","South","South Atlantic","37023","35.746182","-81.70618 ","16494","248","11","0","12/13/2021 12:00:00 AM","2019","90485","NYTIMES-USCENSUS"
"12/14/2021 12:00:00 AM","Carroll County","Mississippi","South","East South Central","28015","33.440795","-89.918887 ","1774","41","1","0","12/13/2021 12:00:00 AM","2019","9947","NYTIMES-USCENSUS"
"12/14/2021 12:00:00 AM","Burleson County","Texas","South","West South Central","48051","30.493487","-96.622091 ","3338","60","0","0","12/13/2021 12:00:00 AM","2019","18443","NYTIMES-USCENSUS"
"12/14/2021 12:00:00 AM","Richland County","Wisconsin","Midwest","East North Central","55103","43.376199","-90.435693 ","2648","33","5","0","12/13/2021 12:00:00 AM","2019","17252","NYTIMES-USCENSUS"
"12/14/2021 12:00:00 AM","Pontotoc County","Mississippi","South","East South Central","28115","34.227081","-89.037239 ","7147","110","20","0","12/13/2021 12:00:00 AM","2019","32174","NYTIMES-USCENSUS"
"12/14/2021 12:00:00 AM","Owyhee County","Idaho","West","Mountain","16073","42.572851","-116.18969 ","1722","41","4","0","12/13/2021 12:00:00 AM","2019","11823","NYTIMES-USCENSUS"
"12/14/2021 12:00:00 AM","Holmes County","Ohio","Midwest","East North Central","39075","40.565597","-81.930001 ","4123","145","4","2","12/13/2021 12:00:00 AM","2019","43960","NYTIMES-USCENSUS"
"12/14/2021 12:00:00 AM","Franklin County","Ohio","Midwest","East North Central","39049","39.969875","-83.009086 ","185439","1868","691","10","12/13/2021 12:00:00 AM","2019","1316756","NYTIMES-USCENSUS"
"12/14/2021 12:00:00 AM","Montgomery County","Illinois","Midwest","East North Central","17135","39.228068","-89.478141 ","5675","91","36","0","12/13/2021 12:00:00 AM","2019","28414","NYTIMES-USCENSUS"
"12/14/2021 12:00:00 AM","Toole County","Montana","West","Mountain","30101","48.645125","-111.733472 ","1004","19","0","0","12/13/2021 12:00:00 AM","2019","4736","NYTIMES-USCENSUS"
"12/14/2021 12:00:00 AM","Natchitoches Parish","Louisiana","South","West South Central","22069","31.732509","-93.082546 ","6791","137","3","0","12/13/2021 12:00:00 AM","2019","38158","NYTIMES-USCENSUS"
"12/14/2021 12:00:00 AM","Inyo County","California","West","Pacific","06027","36.56216","-117.404209 ","2627","46","0","0","12/13/2021 12:00:00 AM","2019","18039","NYTIMES-USCENSUS"
"12/14/2021 12:00:00 AM","Beaufort County","North Carolina","South","South Atlantic","37013","35.482313","-76.842014 ","7676","136","2","0","12/13/2021 12:00:00 AM","2019","46994","NYTIMES-USCENSUS"
"12/14/2021 12:00:00 AM","Anderson County","Tennessee","South","East South Central","47001","36.116731","-84.195418 ","13891","238","32","0","12/13/2021 12:00:00 AM","2019","76978","NYTIMES-USCENSUS"
"12/14/2021 12:00:00 AM","Orange County","Virginia","South","South Atlantic","51137","38.249326","-78.011092 ","4196","65","11","1","12/13/2021 12:00:00 AM","2019","37051","NYTIMES-USCENSUS"
"12/14/2021 12:00:00 AM","Hidalgo County","Texas","South","West South Central","48215","26.396384","-98.18099 ","118285","3509","311","5","12/13/2021 12:00:00 AM","2019","868707","NYTIMES-USCENSUS"
"12/14/2021 12:00:00 AM","Clark County","Wisconsin","Midwest","East North Central","55019","44.739346","-90.609953 ","5790","91","8","0","12/13/2021 12:00:00 AM","2019","34774","NYTIMES-USCENSUS"
"12/14/2021 12:00:00 AM","Leon County","Florida","South","South Atlantic","12073","30.45931","-84.2778 ","51313","528","0","2","12/13/2021 12:00:00 AM","2019","293582","NYTIMES-USCENSUS"
"12/14/2021 12:00:00 AM","Yazoo County","Mississippi","South","East South Central","28163","32.765675","-90.387928 ","4630","93","7","0","12/13/2021 12:00:00 AM","2019","29690","NYTIMES-USCENSUS"
"12/14/2021 12:00:00 AM","Holmes County","Florida","South","South Atlantic","12059","30.862007","-85.815939 ","3871","72","0","0","12/13/2021 12:00:00 AM","2019","19617","NYTIMES-USCENSUS"
"12/14/2021 12:00:00 AM","Tucker County","West Virginia","South","South Atlantic","54093","39.111175","-79.559968 ","1267","31","2","0","12/13/2021 12:00:00 AM","2019","6839","NYTIMES-USCENSUS"
"12/14/2021 12:00:00 AM","Swisher County","Texas","South","West South Central","48437","34.526319","-101.743865 ","1519","25","0","0","12/13/2021 12:00:00 AM","2019","7397","NYTIMES-USCENSUS"
"12/14/2021 12:00:00 AM","Washington County","Oregon","West","Pacific","41067","45.553542","-123.097615 ","43267","426","82","8","12/13/2021 12:00:00 AM","2019","601592","NYTIMES-USCENSUS"
"12/14/2021 12:00:00 AM","Lemhi County","Idaho","West","Mountain","16059","44.928506","-113.887042 ","990","21","3","0","12/13/2021 12:00:00 AM","2019","8027","NYTIMES-USCENSUS"
"12/14/2021 12:00:00 AM","Barrow County","Georgia","South","South Atlantic","13013","33.992009","-83.712303 ","15257","202","13","0","12/13/2021 12:00:00 AM","2019","83240","NYTIMES-USCENSUS"
"12/14/2021 12:00:00 AM","Emmons County","North Dakota","Midwest","West North Central","38029","46.284255","-100.237842 ","601","16","2","0","12/13/2021 12:00:00 AM","2019","3241","NYTIMES-USCENSUS"
"12/14/2021 12:00:00 AM","Whitley County","Indiana","Midwest","East North Central","18183","41.136426","-85.501892 ","6934","66","22","3","12/13/2021 12:00:00 AM","2019","33964","NYTIMES-USCENSUS"
"12/14/2021 12:00:00 AM","Chippewa County","Michigan","Midwest","East North Central","26033","46.321819","-84.52063 ","7937","78","0","0","12/13/2021 12:00:00 AM","2019","37349","NYTIMES-USCENSUS"
"12/14/2021 12:00:00 AM","Adams County","Idaho","West","Mountain","16003","44.877004","-116.461624 ","556","14","0","0","12/13/2021 12:00:00 AM","2019","4294","NYTIMES-USCENSUS"
"12/14/2021 12:00:00 AM","Door County","Wisconsin","Midwest","East North Central","55029","45.093417","-87.048683 ","4419","46","23","1","12/13/2021 12:00:00 AM","2019","27668","NYTIMES-USCENSUS"
"12/14/2021 12:00:00 AM","Fayette County","Tennessee","South","East South Central","47047","35.196993","-89.413803 ","7592","110","4","0","12/13/2021 12:00:00 AM","2019","41133","NYTIMES-USCENSUS"
"12/14/2021 12:00:00 AM","Ste. Genevieve County","Missouri","Midwest","West North Central","29186","37.885845","-90.161531 ","2616","34","7","0","12/13/2021 12:00:00 AM","2019","17894","NYTIMES-USCENSUS"
"12/14/2021 12:00:00 AM","Prowers County","Colorado","West","Mountain","08099","37.958181","-102.392161 ","2003","42","3","1","12/13/2021 12:00:00 AM","2019","12172","NYTIMES-USCENSUS"
"12/14/2021 12:00:00 AM","Beckham County","Oklahoma","South","West South Central","40009","35.270601","-99.690057 ","3966","81","0","0","12/13/2021 12:00:00 AM","2019","21859","NYTIMES-USCENSUS"
"12/14/2021 12:00:00 AM","Sedgwick County","Kansas","Midwest","West North Central","20173","37.681045","-97.461054 ","90651","1094","0","0","12/13/2021 12:00:00 AM","2019","516042","NYTIMES-USCENSUS"
"12/14/2021 12:00:00 AM","Morgan County","Ohio","Midwest","East North Central","39115","39.624946","-81.861697 ","2265","39","5","0","12/13/2021 12:00:00 AM","2019","14508","NYTIMES-USCENSUS"
"12/14/2021 12:00:00 AM","Willacy County","Texas","South","West South Central","48489","26.481861","-97.594731 ","4965","114","5","0","12/13/2021 12:00:00 AM","2019","21358","NYTIMES-USCENSUS"
"12/14/2021 12:00:00 AM","Lincoln County","Colorado","West","Mountain","08073","38.99374","-103.507555 ","1413","8","-1","0","12/13/2021 12:00:00 AM","2019","5701","NYTIMES-USCENSUS"
"12/14/2021 12:00:00 AM","McPherson County","Kansas","Midwest","West North Central","20113","38.395812","-97.647489 ","5240","99","102","0","12/13/2021 12:00:00 AM","2019","28542","NYTIMES-USCENSUS"
"12/14/2021 12:00:00 AM","Glascock County","Georgia","South","South Atlantic","13125","33.227491","-82.606913 ","417","21","0","0","12/13/2021 12:00:00 AM","2019","2971","NYTIMES-USCENSUS"
"12/14/2021 12:00:00 AM","Duplin County","North Carolina","South","South Atlantic","37061","34.934403","-77.933543 ","10467","199","6","0","12/13/2021 12:00:00 AM","2019","58741","NYTIMES-USCENSUS"
"12/14/2021 12:00:00 AM","Milwaukee County","Wisconsin","Midwest","East North Central","55079","42.912643","-87.862312 ","168798","1742","655","16","12/13/2021 12:00:00 AM","2019","945726","NYTIMES-USCENSUS"
"12/14/2021 12:00:00 AM","Chesterfield County","South Carolina","South","South Atlantic","45025","34.637018","-80.159227 ","7724","152","16","1","12/13/2021 12:00:00 AM","2019","45650","NYTIMES-USCENSUS"
"12/14/2021 12:00:00 AM","Chesapeake city","Virginia","South","South Atlantic","51550","36.679376","-76.301788 ","30526","375","61","0","12/13/2021 12:00:00 AM","2019","244835","NYTIMES-USCENSUS"
"12/14/2021 12:00:00 AM","Tillman County","Oklahoma","South","West South Central","40141","34.371085","-98.931701 ","1056","26","0","0","12/13/2021 12:00:00 AM","2019","7250","NYTIMES-USCENSUS"
"12/14/2021 12:00:00 AM","Manatee County","Florida","South","South Atlantic","12081","27.475556","-82.393144 ","65814","1220","0","1","12/13/2021 12:00:00 AM","2019","403253","NYTIMES-USCENSUS"
"12/14/2021 12:00:00 AM","Winneshiek County","Iowa","Midwest","West North Central","19191","43.292989","-91.850788 ","2791","44","0","0","12/13/2021 12:00:00 AM","2019","19991","NYTIMES-USCENSUS"
"12/14/2021 12:00:00 AM","Pulaski County","Arkansas","South","West South Central","05119","34.770311","-92.312996 ","61074","945","69","1","12/13/2021 12:00:00 AM","2019","391911","NYTIMES-USCENSUS"
"12/14/2021 12:00:00 AM","Person County","North Carolina","South","South Atlantic","37145","36.38635","-78.965623 ","5603","89","6","0","12/13/2021 12:00:00 AM","2019","39490","NYTIMES-USCENSUS"
"12/14/2021 12:00:00 AM","Westmoreland County","Virginia","South","South Atlantic","51193","38.109311","-76.803933 ","2064","39","6","0","12/13/2021 12:00:00 AM","2019","18015","NYTIMES-USCENSUS"
"12/14/2021 12:00:00 AM","Matanuska-Susitna Borough","Alaska","West","Pacific","02170","62.265626","-149.503993 ","24658","144","0","0","12/13/2021 12:00:00 AM","2019","108317","NYTIMES-USCENSUS"
"12/14/2021 12:00:00 AM","Putnam County","West Virginia","South","South Atlantic","54079","38.510518","-81.906109 ","10124","144","30","0","12/13/2021 12:00:00 AM","2019","56450","NYTIMES-USCENSUS"
"12/14/2021 12:00:00 AM","Napa County","California","West","Pacific","06055","38.5071","-122.325904 ","13642","107","10","0","12/13/2021 12:00:00 AM","2019","137744","NYTIMES-USCENSUS"
"12/14/2021 12:00:00 AM","Taylor County","Georgia","South","South Atlantic","13269","32.554667","-84.251426 ","1307","40","3","0","12/13/2021 12:00:00 AM","2019","8020","NYTIMES-USCENSUS"
"12/14/2021 12:00:00 AM","McDonald County","Missouri","Midwest","West North Central","29119","36.627955","-94.343716 ","4208","64","11","0","12/13/2021 12:00:00 AM","2019","22837","NYTIMES-USCENSUS"
"12/14/2021 12:00:00 AM","Slope County","North Dakota","Midwest","West North Central","38087","46.445834","-103.462462 ","55","0","-1","0","12/13/2021 12:00:00 AM","2019","750","NYTIMES-USCENSUS"
"12/14/2021 12:00:00 AM","Ochiltree County","Texas","South","West South Central","48357","36.278744","-100.815864 ","1635","38","0","0","12/13/2021 12:00:00 AM","2019","9836","NYTIMES-USCENSUS"
"12/14/2021 12:00:00 AM","Montgomery County","Missouri","Midwest","West North Central","29139","38.935184","-91.465427 ","1699","34","3","0","12/13/2021 12:00:00 AM","2019","11551","NYTIMES-USCENSUS"
"12/14/2021 12:00:00 AM","Stanislaus County","California","West","Pacific","06099","37.562316","-121.002831 ","93074","1455","101","3","12/13/2021 12:00:00 AM","2019","550660","NYTIMES-USCENSUS"
"12/14/2021 12:00:00 AM","Marinette County","Wisconsin","Midwest","East North Central","55075","45.346899","-87.991198 ","8512","87","36","0","12/13/2021 12:00:00 AM","2019","40350","NYTIMES-USCENSUS"
"12/14/2021 12:00:00 AM","San Joaquin County","California","West","Pacific","06077","37.934982","-121.272244 ","109312","1846","44","0","12/13/2021 12:00:00 AM","2019","762148","NYTIMES-USCENSUS"
"12/14/2021 12:00:00 AM","Logan County","West Virginia","South","South Atlantic","54045","37.830591","-81.940853 ","5958","150","15","1","12/13/2021 12:00:00 AM","2019","32019","NYTIMES-USCENSUS"
"12/14/2021 12:00:00 AM","Jasper County","Illinois","Midwest","East North Central","17079","39.004886","-88.150725 ","1815","23","8","0","12/13/2021 12:00:00 AM","2019","9610","NYTIMES-USCENSUS"
"12/14/2021 12:00:00 AM","Ripley County","Missouri","Midwest","West North Central","29181","36.65017","-90.874834 ","2099","51","2","0","12/13/2021 12:00:00 AM","2019","13288","NYTIMES-USCENSUS"
"12/14/2021 12:00:00 AM","Beaverhead County","Montana","West","Mountain","30001","45.133863","-112.892869 ","1592","22","0","0","12/13/2021 12:00:00 AM","2019","9453","NYTIMES-USCENSUS"
"12/14/2021 12:00:00 AM","Glasscock County","Texas","South","West South Central","48173","31.868006","-101.521494 ","159","3","0","0","12/13/2021 12:00:00 AM","2019","1409","NYTIMES-USCENSUS"
"12/14/2021 12:00:00 AM","Early County","Georgia","South","South Atlantic","13099","31.324191","-84.906723 ","1911","58","2","0","12/13/2021 12:00:00 AM","2019","10190","NYTIMES-USCENSUS"
"12/14/2021 12:00:00 AM","Iroquois County","Illinois","Midwest","East North Central","17075","40.748867","-87.833601 ","5004","88","22","0","12/13/2021 12:00:00 AM","2019","27114","NYTIMES-USCENSUS"
"12/14/2021 12:00:00 AM","Mahoning County","Ohio","Midwest","East North Central","39099","41.01088","-80.770396 ","37360","805","161","6","12/13/2021 12:00:00 AM","2019","228683","NYTIMES-USCENSUS"
"12/14/2021 12:00:00 AM","Brewster County","Texas","South","West South Central","48043","29.808997","-103.252458 ","1107","23","0","0","12/13/2021 12:00:00 AM","2019","9203","NYTIMES-USCENSUS"
"12/14/2021 12:00:00 AM","Roscommon County","Michigan","Midwest","East North Central","26143","44.339517","-84.611271 ","3507","94","0","0","12/13/2021 12:00:00 AM","2019","24019","NYTIMES-USCENSUS"
"12/14/2021 12:00:00 AM","Morrison County","Minnesota","Midwest","West North Central","27097","46.020484","-94.266619 ","6976","83","34","0","12/13/2021 12:00:00 AM","2019","33386","NYTIMES-USCENSUS"
"12/14/2021 12:00:00 AM","New Haven County","Connecticut","Northeast","New England","09009","41.349718","-72.900203 ","117516","2308","737","11","12/13/2021 12:00:00 AM","2019","854757","NYTIMES-USCENSUS"
"12/14/2021 12:00:00 AM","Kanabec County","Minnesota","Midwest","West North Central","27065","45.94776","-93.297788 ","2697","40","31","0","12/13/2021 12:00:00 AM","2019","16337","NYTIMES-USCENSUS"
"12/14/2021 12:00:00 AM","Polk County","Georgia","South","South Atlantic","13233","33.996015","-85.188338 ","8725","164","11","0","12/13/2021 12:00:00 AM","2019","42613","NYTIMES-USCENSUS"
"12/14/2021 12:00:00 AM","Marion County","Ohio","Midwest","East North Central","39101","40.588034","-83.168803 ","13946","200","51","1","12/13/2021 12:00:00 AM","2019","65093","NYTIMES-USCENSUS"
"12/14/2021 12:00:00 AM","De Witt County","Illinois","Midwest","East North Central","17039","40.181499","-88.901853 ","2659","39","21","0","12/13/2021 12:00:00 AM","2019","15638","NYTIMES-USCENSUS"
"12/14/2021 12:00:00 AM","Roanoke County","Virginia","South","South Atlantic","51161","37.330792","-80.191237 ","13231","187","67","0","12/13/2021 12:00:00 AM","2019","94186","NYTIMES-USCENSUS"
"12/14/2021 12:00:00 AM","Vinton County","Ohio","Midwest","East North Central","39163","39.252042","-82.485961 ","1953","41","4","1","12/13/2021 12:00:00 AM","2019","13085","NYTIMES-USCENSUS"
"12/14/2021 12:00:00 AM","Lake County","Minnesota","Midwest","West North Central","27075","47.517111","-91.411704 ","1436","26","26","0","12/13/2021 12:00:00 AM","2019","10641","NYTIMES-USCENSUS"
"12/14/2021 12:00:00 AM","Staunton city","Virginia","South","South Atlantic","51790","38.157978","-79.061876 ","3689","86","14","1","12/13/2021 12:00:00 AM","2019","24932","NYTIMES-USCENSUS"
"12/14/2021 12:00:00 AM","Cumberland County","Tennessee","South","East South Central","47035","35.952398","-84.994761 ","11774","237","7","0","12/13/2021 12:00:00 AM","2019","60520","NYTIMES-USCENSUS"
"12/14/2021 12:00:00 AM","Jefferson County","Colorado","West","Mountain","08059","39.579511","-105.245462 ","75824","1046","135","15","12/13/2021 12:00:00 AM","2019","582881","NYTIMES-USCENSUS"
"12/14/2021 12:00:00 AM","Houston County","Georgia","South","South Atlantic","13153","32.458287","-83.662522 ","25699","418","18","0","12/13/2021 12:00:00 AM","2019","157863","NYTIMES-USCENSUS"
"12/14/2021 12:00:00 AM","Hampshire County","West Virginia","South","South Atlantic","54027","39.312139","-78.611989 ","3894","54","8","0","12/13/2021 12:00:00 AM","2019","23175","NYTIMES-USCENSUS"
"12/14/2021 12:00:00 AM","Cloud County","Kansas","Midwest","West North Central","20029","39.487329","-97.64139 ","1750","32","0","0","12/13/2021 12:00:00 AM","2019","8786","NYTIMES-USCENSUS"
"12/14/2021 12:00:00 AM","Sumner County","Tennessee","South","East South Central","47165","36.472423","-86.458405 ","35896","456","49","2","12/13/2021 12:00:00 AM","2019","191283","NYTIMES-USCENSUS"
"12/14/2021 12:00:00 AM","Putnam County","Indiana","Midwest","East North Central","18133","39.665548","-86.853373 ","6683","90","24","0","12/13/2021 12:00:00 AM","2019","37576","NYTIMES-USCENSUS"
"12/14/2021 12:00:00 AM","Madison County","Nebraska","Midwest","West North Central","31119","41.909929","-97.606856 ","6852","44","9","0","12/13/2021 12:00:00 AM","2019","35099","NYTIMES-USCENSUS"
"12/14/2021 12:00:00 AM","Lyman County","South Dakota","Midwest","West North Central","46085","43.894812","-99.841925 ","856","11","2","0","12/13/2021 12:00:00 AM","2019","3781","NYTIMES-USCENSUS"
"12/14/2021 12:00:00 AM","Union County","Indiana","Midwest","East North Central","18161","39.623111","-84.925152 ","1332","17","11","0","12/13/2021 12:00:00 AM","2019","7054","NYTIMES-USCENSUS"
"12/14/2021 12:00:00 AM","Pierce County","Nebraska","Midwest","West North Central","31139","42.271413","-97.610992 ","974","21","8","0","12/13/2021 12:00:00 AM","2019","7148","NYTIMES-USCENSUS"
"12/14/2021 12:00:00 AM","Dawson County","Texas","South","West South Central","48115","32.742528","-101.948771 ","2242","80","10","0","12/13/2021 12:00:00 AM","2019","12728","NYTIMES-USCENSUS"
"12/14/2021 12:00:00 AM","Camas County","Idaho","West","Mountain","16025","43.502552","-114.772135 ","108","1","0","0","12/13/2021 12:00:00 AM","2019","1106","NYTIMES-USCENSUS"
"12/14/2021 12:00:00 AM","Houston County","Minnesota","Midwest","West North Central","27055","43.66699","-91.501556 ","2893","17","37","0","12/13/2021 12:00:00 AM","2019","18600","NYTIMES-USCENSUS"
"12/14/2021 12:00:00 AM","Humphreys County","Mississippi","South","East South Central","28053","33.130996","-90.523421 ","1331","39","1","0","12/13/2021 12:00:00 AM","2019","8064","NYTIMES-USCENSUS"
"12/14/2021 12:00:00 AM","Morgan County","Utah","West","Mountain","49029","41.091027","-111.577885 ","2029","13","3","0","12/13/2021 12:00:00 AM","2019","12124","NYTIMES-USCENSUS"
"12/14/2021 12:00:00 AM","Baraga County","Michigan","Midwest","East North Central","26013","46.695859","-88.36181 ","1610","47","0","0","12/13/2021 12:00:00 AM","2019","8209","NYTIMES-USCENSUS"
"12/14/2021 12:00:00 AM","Wichita County","Kansas","Midwest","West North Central","20203","38.481922","-101.347434 ","338","8","0","0","12/13/2021 12:00:00 AM","2019","2119","NYTIMES-USCENSUS"
"12/14/2021 12:00:00 AM","Copiah County","Mississippi","South","East South Central","28029","31.866915","-90.448758 ","4632","95","3","0","12/13/2021 12:00:00 AM","2019","28065","NYTIMES-USCENSUS"
"12/14/2021 12:00:00 AM","Wright County","Iowa","Midwest","West North Central","19197","42.733007","-93.734735 ","2740","52","0","0","12/13/2021 12:00:00 AM","2019","12562","NYTIMES-USCENSUS"
"12/14/2021 12:00:00 AM","Lincoln County","Georgia","South","South Atlantic","13181","33.792151","-82.448299 ","1234","33","2","0","12/13/2021 12:00:00 AM","2019","7921","NYTIMES-USCENSUS"
"12/14/2021 12:00:00 AM","Ritchie County","West Virginia","South","South Atlantic","54085","39.177112","-81.066317 ","1622","24","1","0","12/13/2021 12:00:00 AM","2019","9554","NYTIMES-USCENSUS"
"12/14/2021 12:00:00 AM","Worth County","Iowa","Midwest","West North Central","19195","43.373491","-93.248533 ","1271","10","0","0","12/13/2021 12:00:00 AM","2019","7381","NYTIMES-USCENSUS"
"12/14/2021 12:00:00 AM","Elk County","Kansas","Midwest","West North Central","20049","37.456026","-96.244642 ","378","6","0","0","12/13/2021 12:00:00 AM","2019","2530","NYTIMES-USCENSUS"
"12/14/2021 12:00:00 AM","Calcasieu Parish","Louisiana","South","West South Central","22019","30.229559","-93.358015 ","35203","635","21","2","12/13/2021 12:00:00 AM","2019","203436","NYTIMES-USCENSUS"
"12/14/2021 12:00:00 AM","Alachua County","Florida","South","South Atlantic","12001","29.67574","-82.357221 ","40321","537","0","1","12/13/2021 12:00:00 AM","2019","269043","NYTIMES-USCENSUS"
"12/14/2021 12:00:00 AM","Lake County","California","West","Pacific","06033","39.094802","-122.746757 ","7116","115","3","0","12/13/2021 12:00:00 AM","2019","64386","NYTIMES-USCENSUS"
"12/14/2021 12:00:00 AM","Sierra County","New Mexico","West","Mountain","35051","33.119468","-107.188161 ","1420","61","2","0","12/13/2021 12:00:00 AM","2019","10791","NYTIMES-USCENSUS"
"12/14/2021 12:00:00 AM","Henderson County","Texas","South","West South Central","48213","32.211633","-95.853418 ","10064","352","4","0","12/13/2021 12:00:00 AM","2019","82737","NYTIMES-USCENSUS"
"12/14/2021 12:00:00 AM","Orange County","Indiana","Midwest","East North Central","18117","38.547381","-86.489257 ","3484","79","16","0","12/13/2021 12:00:00 AM","2019","19646","NYTIMES-USCENSUS"
"12/14/2021 12:00:00 AM","Sherman County","Nebraska","Midwest","West North Central","31163","41.218743","-98.972849 ","445","4","1","0","12/13/2021 12:00:00 AM","2019","3001","NYTIMES-USCENSUS"
"12/14/2021 12:00:00 AM","Jasper County","Indiana","Midwest","East North Central","18073","41.017688","-87.118814 ","6494","101","17","0","12/13/2021 12:00:00 AM","2019","33562","NYTIMES-USCENSUS"
"12/14/2021 12:00:00 AM","Oscoda County","Michigan","Midwest","East North Central","26135","44.687257","-84.126905 ","1146","49","0","0","12/13/2021 12:00:00 AM","2019","8241","NYTIMES-USCENSUS"
"12/14/2021 12:00:00 AM","Aransas County","Texas","South","West South Central","48007","28.122621","-96.967501 ","2658","67","1","0","12/13/2021 12:00:00 AM","2019","23510","NYTIMES-USCENSUS"
"12/14/2021 12:00:00 AM","Scotts Bluff County","Nebraska","Midwest","West North Central","31157","41.850331","-103.701549 ","7151","102","15","0","12/13/2021 12:00:00 AM","2019","35618","NYTIMES-USCENSUS"
"12/14/2021 12:00:00 AM","Ross County","Ohio","Midwest","East North Central","39141","39.323895","-83.059538 ","12232","231","35","1","12/13/2021 12:00:00 AM","2019","76666","NYTIMES-USCENSUS"
"12/14/2021 12:00:00 AM","Wilkin County","Minnesota","Midwest","West North Central","27167","46.362335","-96.476657 ","1256","16","9","0","12/13/2021 12:00:00 AM","2019","6207","NYTIMES-USCENSUS"
"12/14/2021 12:00:00 AM","Parmer County","Texas","South","West South Central","48369","34.532163","-102.784853 ","1618","42","2","0","12/13/2021 12:00:00 AM","2019","9605","NYTIMES-USCENSUS"
"12/14/2021 12:00:00 AM","Sandusky County","Ohio","Midwest","East North Central","39143","41.355319","-83.142776 ","9823","176","45","0","12/13/2021 12:00:00 AM","2019","58518","NYTIMES-USCENSUS"
"12/14/2021 12:00:00 AM","Bexar County","Texas","South","West South Central","48029","29.448671","-98.520147 ","331322","5302","251","3","12/13/2021 12:00:00 AM","2019","2003554","NYTIMES-USCENSUS"
"12/14/2021 12:00:00 AM","Plymouth County","Massachusetts","Northeast","New England","25023","41.987196","-70.741942 ","70088","1616","442","6","12/13/2021 12:00:00 AM","2019","521202","NYTIMES-USCENSUS"
"12/14/2021 12:00:00 AM","Fayette County","Alabama","South","East South Central","01057","33.716157","-87.764292 ","3345","86","2","1","12/13/2021 12:00:00 AM","2019","16302","NYTIMES-USCENSUS"
"12/14/2021 12:00:00 AM","Abbeville County","South Carolina","South","South Atlantic","45001","34.229041","-82.454058 ","4074","53","4","0","12/13/2021 12:00:00 AM","2019","24527","NYTIMES-USCENSUS"
"12/14/2021 12:00:00 AM","Loudon County","Tennessee","South","East South Central","47105","35.735085","-84.314085 ","9631","108","10","0","12/13/2021 12:00:00 AM","2019","54068","NYTIMES-USCENSUS"
"12/14/2021 12:00:00 AM","Valdez-Cordova Census Area","Alaska","West","Pacific","02261","61.4","-144.5","1918","9","0","0","12/13/2021 12:00:00 AM","2019","9202","NYTIMES-USCENSUS"
"12/14/2021 12:00:00 AM","Nelson County","Virginia","South","South Atlantic","51125","37.789079","-78.88344 ","1559","23","3","0","12/13/2021 12:00:00 AM","2019","14930","NYTIMES-USCENSUS"
"12/14/2021 12:00:00 AM","Mesa County","Colorado","West","Mountain","08077","39.019524","-108.460571 ","29116","430","68","3","12/13/2021 12:00:00 AM","2019","154210","NYTIMES-USCENSUS"
"12/14/2021 12:00:00 AM","McCormick County","South Carolina","South","South Atlantic","45065","33.897599","-82.316196 ","1435","30","1","0","12/13/2021 12:00:00 AM","2019","9463","NYTIMES-USCENSUS"
"12/14/2021 12:00:00 AM","Riley County","Kansas","Midwest","West North Central","20161","39.291211","-96.727489 ","8591","65","0","0","12/13/2021 12:00:00 AM","2019","74232","NYTIMES-USCENSUS"
"12/14/2021 12:00:00 AM","Switzerland County","Indiana","Midwest","East North Central","18155","38.825854","-85.029681 ","1532","14","5","0","12/13/2021 12:00:00 AM","2019","10751","NYTIMES-USCENSUS"
"12/14/2021 12:00:00 AM","Garrett County","Maryland","South","South Atlantic","24023","39.547299","-79.274619 ","3910","86","0","0","12/13/2021 12:00:00 AM","2019","29014","NYTIMES-USCENSUS"
"12/14/2021 12:00:00 AM","Lewis County","Missouri","Midwest","West North Central","29111","40.084559","-91.728803 ","1887","30","3","0","12/13/2021 12:00:00 AM","2019","9776","NYTIMES-USCENSUS"
"12/14/2021 12:00:00 AM","Covington city","Virginia","South","South Atlantic","51580","37.78106","-79.985434 ","795","19","3","0","12/13/2021 12:00:00 AM","2019","5538","NYTIMES-USCENSUS"
"12/14/2021 12:00:00 AM","Pawnee County","Oklahoma","South","West South Central","40117","36.313704","-96.696669 ","2794","69","0","0","12/13/2021 12:00:00 AM","2019","16376","NYTIMES-USCENSUS"
"12/14/2021 12:00:00 AM","Hardin County","Texas","South","West South Central","48199","30.329648","-94.393178 ","10554","214","2","0","12/13/2021 12:00:00 AM","2019","57602","NYTIMES-USCENSUS"
"12/14/2021 12:00:00 AM","Dickey County","North Dakota","Midwest","West North Central","38021","46.107756","-98.496518 ","1160","38","3","0","12/13/2021 12:00:00 AM","2019","4872","NYTIMES-USCENSUS"
"12/14/2021 12:00:00 AM","Oktibbeha County","Mississippi","South","East South Central","28105","33.422313","-88.876151 ","7276","139","6","0","12/13/2021 12:00:00 AM","2019","49587","NYTIMES-USCENSUS"
"12/14/2021 12:00:00 AM","Montgomery County","Pennsylvania","Northeast","Middle Atlantic","42091","40.209999","-75.370201 ","98316","1938","320","1","12/13/2021 12:00:00 AM","2019","830915","NYTIMES-USCENSUS"
"12/14/2021 12:00:00 AM","Bacon County","Georgia","South","South Atlantic","13005","31.55021","-82.451433 ","2670","64","3","0","12/13/2021 12:00:00 AM","2019","11164","NYTIMES-USCENSUS"
"12/14/2021 12:00:00 AM","Bulloch County","Georgia","South","South Atlantic","13031","32.394481","-81.741618 ","11337","223","6","0","12/13/2021 12:00:00 AM","2019","79608","NYTIMES-USCENSUS"
"12/14/2021 12:00:00 AM","Peach County","Georgia","South","South Atlantic","13225","32.571324","-83.831978 ","4213","115","1","0","12/13/2021 12:00:00 AM","2019","27546","NYTIMES-USCENSUS"
"12/14/2021 12:00:00 AM","Pueblo County","Colorado","West","Mountain","08101","38.162765","-104.484668 ","30460","629","39","4","12/13/2021 12:00:00 AM","2019","168424","NYTIMES-USCENSUS"
"12/14/2021 12:00:00 AM","Sacramento County","California","West","Pacific","06067","38.450136","-121.344329 ","171745","2490","148","7","12/13/2021 12:00:00 AM","2019","1552058","NYTIMES-USCENSUS"
"12/14/2021 12:00:00 AM","Wyandotte County","Kansas","Midwest","West North Central","20209","39.115384","-94.763087 ","30177","396","0","0","12/13/2021 12:00:00 AM","2019","165429","NYTIMES-USCENSUS"
"12/14/2021 12:00:00 AM","Warren County","Ohio","Midwest","East North Central","39165","39.425663","-84.16994 ","37547","425","356","2","12/13/2021 12:00:00 AM","2019","234602","NYTIMES-USCENSUS"
"12/14/2021 12:00:00 AM","Garfield County","Nebraska","Midwest","West North Central","31071","41.906868","-98.951231 ","307","1","1","0","12/13/2021 12:00:00 AM","2019","1969","NYTIMES-USCENSUS"
"12/14/2021 12:00:00 AM","Price County","Wisconsin","Midwest","East North Central","55099","45.679072","-90.35965 ","2358","16","6","0","12/13/2021 12:00:00 AM","2019","13351","NYTIMES-USCENSUS"
"12/14/2021 12:00:00 AM","Jones County","Texas","South","West South Central","48253","32.743709","-99.87443 ","3315","78","3","0","12/13/2021 12:00:00 AM","2019","20083","NYTIMES-USCENSUS"
"12/14/2021 12:00:00 AM","Marion County","Georgia","South","South Atlantic","13197","32.359312","-84.528735 ","993","41","0","0","12/13/2021 12:00:00 AM","2019","8359","NYTIMES-USCENSUS"
"12/14/2021 12:00:00 AM","Schley County","Georgia","South","South Atlantic","13249","32.263444","-84.322708 ","722","8","2","0","12/13/2021 12:00:00 AM","2019","5257","NYTIMES-USCENSUS"
"12/14/2021 12:00:00 AM","Graham County","Arizona","West","Mountain","04009","32.931828","-109.87831 ","8799","143","6","0","12/13/2021 12:00:00 AM","2019","38837","NYTIMES-USCENSUS"
"12/14/2021 12:00:00 AM","Fayette County","Georgia","South","South Atlantic","13113","33.412717","-84.493941 ","13807","247","31","0","12/13/2021 12:00:00 AM","2019","114421","NYTIMES-USCENSUS"
"12/14/2021 12:00:00 AM","Gibson County","Tennessee","South","East South Central","47053","35.991632","-88.933812 ","10933","195","16","0","12/13/2021 12:00:00 AM","2019","49133","NYTIMES-USCENSUS"
"12/14/2021 12:00:00 AM","Hot Spring County","Arkansas","South","West South Central","05059","34.315177","-92.944147 ","7866","112","17","0","12/13/2021 12:00:00 AM","2019","33771","NYTIMES-USCENSUS"
"12/14/2021 12:00:00 AM","Comanche County","Oklahoma","South","West South Central","40031","34.662625","-98.476586 ","21627","329","0","0","12/13/2021 12:00:00 AM","2019","120749","NYTIMES-USCENSUS"
"12/14/2021 12:00:00 AM","Hardeman County","Tennessee","South","East South Central","47069","35.218785","-88.988697 ","5235","89","2","0","12/13/2021 12:00:00 AM","2019","25050","NYTIMES-USCENSUS"
"12/14/2021 12:00:00 AM","Bourbon County","Kansas","Midwest","West North Central","20011","37.8561","-94.850928 ","2769","44","0","0","12/13/2021 12:00:00 AM","2019","14534","NYTIMES-USCENSUS"
"12/14/2021 12:00:00 AM","Marquette County","Wisconsin","Midwest","East North Central","55077","43.826053","-89.409095 ","2773","38","2","0","12/13/2021 12:00:00 AM","2019","15574","NYTIMES-USCENSUS"
"12/14/2021 12:00:00 AM","Acadia Parish","Louisiana","South","West South Central","22001","30.291497","-92.411037 ","10742","252","9","1","12/13/2021 12:00:00 AM","2019","62045","NYTIMES-USCENSUS"
"12/14/2021 12:00:00 AM","Fairfield County","Connecticut","Northeast","New England","09001","41.227413","-73.367061 ","122075","2336","618","4","12/13/2021 12:00:00 AM","2019","943332","NYTIMES-USCENSUS"
"12/14/2021 12:00:00 AM","Franklin County","Mississippi","South","East South Central","28037","31.477773","-90.895457 ","1278","31","3","1","12/13/2021 12:00:00 AM","2019","7713","NYTIMES-USCENSUS"
"12/14/2021 12:00:00 AM","Cherokee County","Georgia","South","South Atlantic","13057","34.244317","-84.475057 ","45370","488","64","0","12/13/2021 12:00:00 AM","2019","258773","NYTIMES-USCENSUS"
"12/14/2021 12:00:00 AM","Northumberland County","Pennsylvania","Northeast","Middle Atlantic","42097","40.851524","-76.709877 ","15963","441","83","1","12/13/2021 12:00:00 AM","2019","90843","NYTIMES-USCENSUS"
"12/14/2021 12:00:00 AM","Madison County","Montana","West","Mountain","30057","45.32529","-111.913791 ","1410","20","0","0","12/13/2021 12:00:00 AM","2019","8600","NYTIMES-USCENSUS"
"12/14/2021 12:00:00 AM","Boone County","Kentucky","South","East South Central","21015","38.9589","-84.736371 ","23903","226","61","1","12/13/2021 12:00:00 AM","2019","133581","NYTIMES-USCENSUS"
"12/14/2021 12:00:00 AM","Gage County","Nebraska","Midwest","West North Central","31067","40.255234","-96.683453 ","2773","20","5","0","12/13/2021 12:00:00 AM","2019","21513","NYTIMES-USCENSUS"
"12/14/2021 12:00:00 AM","Fayette County","Ohio","Midwest","East North Central","39047","39.555246","-83.461893 ","5186","72","39","0","12/13/2021 12:00:00 AM","2019","28525","NYTIMES-USCENSUS"
"12/14/2021 12:00:00 AM","Grant County","New Mexico","West","Mountain","35017","32.732087","-108.381504 ","3959","57","1","0","12/13/2021 12:00:00 AM","2019","26998","NYTIMES-USCENSUS"
"12/14/2021 12:00:00 AM","Woods County","Oklahoma","South","West South Central","40151","36.726984","-98.863649 ","1723","29","0","0","12/13/2021 12:00:00 AM","2019","8793","NYTIMES-USCENSUS"
"12/14/2021 12:00:00 AM","Whiteside County","Illinois","Midwest","East North Central","17195","41.750673","-89.911005 ","9798","235","0","1","12/13/2021 12:00:00 AM","2019","55175","NYTIMES-USCENSUS"
"12/14/2021 12:00:00 AM","Whitley County","Kentucky","South","East South Central","21235","36.758024","-84.144648 ","9496","138","20","0","12/13/2021 12:00:00 AM","2019","36264","NYTIMES-USCENSUS"
"12/14/2021 12:00:00 AM","Bastrop County","Texas","South","West South Central","48021","30.100772","-97.310639 ","14631","187","12","0","12/13/2021 12:00:00 AM","2019","88723","NYTIMES-USCENSUS"
"12/14/2021 12:00:00 AM","Pike County","Ohio","Midwest","East North Central","39131","39.071341","-83.052911 ","4790","79","6","1","12/13/2021 12:00:00 AM","2019","27772","NYTIMES-USCENSUS"
"12/14/2021 12:00:00 AM","Waller County","Texas","South","West South Central","48473","30.01359","-95.982149 ","6680","87","8","0","12/13/2021 12:00:00 AM","2019","55246","NYTIMES-USCENSUS"
"12/14/2021 12:00:00 AM","Becker County","Minnesota","Midwest","West North Central","27005","46.937629","-95.741757 ","6477","78","35","1","12/13/2021 12:00:00 AM","2019","34423","NYTIMES-USCENSUS"
"12/14/2021 12:00:00 AM","McMinn County","Tennessee","South","East South Central","47107","35.424472","-84.619949 ","10924","148","13","1","12/13/2021 12:00:00 AM","2019","53794","NYTIMES-USCENSUS"
"12/14/2021 12:00:00 AM","Menominee County","Michigan","Midwest","East North Central","26109","45.535568","-87.501457 ","4052","58","0","0","12/13/2021 12:00:00 AM","2019","22780","NYTIMES-USCENSUS"
"12/14/2021 12:00:00 AM","Newaygo County","Michigan","Midwest","East North Central","26123","43.562712","-85.791372 ","8439","118","0","0","12/13/2021 12:00:00 AM","2019","48980","NYTIMES-USCENSUS"
"12/14/2021 12:00:00 AM","Ellis County","Texas","South","West South Central","48139","32.346878","-96.79694 ","34484","486","32","0","12/13/2021 12:00:00 AM","2019","184826","NYTIMES-USCENSUS"
"12/14/2021 12:00:00 AM","Ulster County","New York","Northeast","Middle Atlantic","36111","41.947212","-74.265458 ","20254","302","53","3","12/13/2021 12:00:00 AM","2019","177573","NYTIMES-USCENSUS"
"12/14/2021 12:00:00 AM","Union County","Iowa","Midwest","West North Central","19175","41.02855","-94.245091 ","2042","41","0","0","12/13/2021 12:00:00 AM","2019","12241","NYTIMES-USCENSUS"
"12/14/2021 12:00:00 AM","Harford County","Maryland","South","South Atlantic","24025","39.537429","-76.299789 ","22682","372","0","0","12/13/2021 12:00:00 AM","2019","255441","NYTIMES-USCENSUS"
"12/14/2021 12:00:00 AM","Toombs County","Georgia","South","South Atlantic","13279","32.117753","-82.330597 ","5519","177","0","0","12/13/2021 12:00:00 AM","2019","26830","NYTIMES-USCENSUS"
"12/14/2021 12:00:00 AM","Chaffee County","Colorado","West","Mountain","08015","38.734599","-106.300025 ","2767","38","3","0","12/13/2021 12:00:00 AM","2019","20356","NYTIMES-USCENSUS"
"12/14/2021 12:00:00 AM","McDowell County","North Carolina","South","South Atlantic","37111","35.682271","-82.048044 ","9004","138","8","0","12/13/2021 12:00:00 AM","2019","45756","NYTIMES-USCENSUS"
"12/14/2021 12:00:00 AM","Wilkes County","North Carolina","South","South Atlantic","37193","36.208883","-81.166095 ","11465","196","14","0","12/13/2021 12:00:00 AM","2019","68412","NYTIMES-USCENSUS"
"12/14/2021 12:00:00 AM","Buffalo County","Wisconsin","Midwest","East North Central","55011","44.385633","-91.761294 ","2375","9","13","0","12/13/2021 12:00:00 AM","2019","13031","NYTIMES-USCENSUS"
"12/14/2021 12:00:00 AM","Wilson County","Tennessee","South","East South Central","47189","36.149527","-86.291242 ","28274","359","32","0","12/13/2021 12:00:00 AM","2019","144657","NYTIMES-USCENSUS"
"12/14/2021 12:00:00 AM","Lander County","Nevada","West","Mountain","32015","39.90021","-117.04724 ","868","16","3","0","12/13/2021 12:00:00 AM","2019","5532","NYTIMES-USCENSUS"
"12/14/2021 12:00:00 AM","Val Verde County","Texas","South","West South Central","48465","29.875285","-101.143324 ","10791","258","1","2","12/13/2021 12:00:00 AM","2019","49025","NYTIMES-USCENSUS"
"12/14/2021 12:00:00 AM","Todd County","South Dakota","Midwest","West North Central","46121","43.208794","-100.707664 ","1892","40","5","0","12/13/2021 12:00:00 AM","2019","10177","NYTIMES-USCENSUS"
"12/14/2021 12:00:00 AM","Harrison County","Iowa","Midwest","West North Central","19085","41.688584","-95.827149 ","2506","80","0","0","12/13/2021 12:00:00 AM","2019","14049","NYTIMES-USCENSUS"
"12/14/2021 12:00:00 AM","Park County","Wyoming","West","Mountain","56029","44.492387","-109.593597 ","5601","111","7","3","12/13/2021 12:00:00 AM","2019","29194","NYTIMES-USCENSUS"
"12/14/2021 12:00:00 AM","Torrance County","New Mexico","West","Mountain","35057","34.554978","-105.890557 ","2145","26","6","0","12/13/2021 12:00:00 AM","2019","15461","NYTIMES-USCENSUS"
"12/14/2021 12:00:00 AM","Van Buren County","Michigan","Midwest","East North Central","26159","42.28215","-86.306076 ","11979","193","0","0","12/13/2021 12:00:00 AM","2019","75677","NYTIMES-USCENSUS"
"12/14/2021 12:00:00 AM","Jenkins County","Georgia","South","South Atlantic","13165","32.794563","-81.971524 ","1198","60","0","0","12/13/2021 12:00:00 AM","2019","8676","NYTIMES-USCENSUS"
"12/14/2021 12:00:00 AM","Steele County","North Dakota","Midwest","West North Central","38091","47.451062","-97.71892 ","295","2","0","0","12/13/2021 12:00:00 AM","2019","1890","NYTIMES-USCENSUS"
"12/14/2021 12:00:00 AM","Limestone County","Alabama","South","East South Central","01083","34.810239","-86.981399 ","16352","223","45","1","12/13/2021 12:00:00 AM","2019","98915","NYTIMES-USCENSUS"
"12/14/2021 12:00:00 AM","Clark County","Nevada","West","Mountain","32003","36.21413","-115.014398 ","360675","6334","640","15","12/13/2021 12:00:00 AM","2019","2266715","NYTIMES-USCENSUS"
"12/14/2021 12:00:00 AM","Jackson County","Missouri","Midwest","West North Central","29095","39.005364","-94.343211 ","62512","852","288","8","12/13/2021 12:00:00 AM","2019","703011","NYTIMES-USCENSUS"
"12/14/2021 12:00:00 AM","Calhoun County","Georgia","South","South Atlantic","13037","31.521279","-84.62629 ","862","21","0","0","12/13/2021 12:00:00 AM","2019","6189","NYTIMES-USCENSUS"
"12/14/2021 12:00:00 AM","Ford County","Illinois","Midwest","East North Central","17053","40.596539","-88.224588 ","2844","67","19","0","12/13/2021 12:00:00 AM","2019","12961","NYTIMES-USCENSUS"
"12/14/2021 12:00:00 AM","Penobscot County","Maine","Northeast","New England","23019","45.409284","-68.666616 ","15380","207","185","1","12/13/2021 12:00:00 AM","2019","152148","NYTIMES-USCENSUS"
"12/14/2021 12:00:00 AM","Wetzel County","West Virginia","South","South Atlantic","54103","39.59818","-80.635399 ","2883","66","3","0","12/13/2021 12:00:00 AM","2019","15065","NYTIMES-USCENSUS"
"12/14/2021 12:00:00 AM","Susquehanna County","Pennsylvania","Northeast","Middle Atlantic","42115","41.819665","-75.800969 ","5177","79","48","0","12/13/2021 12:00:00 AM","2019","40328","NYTIMES-USCENSUS"
"12/14/2021 12:00:00 AM","Logan County","Nebraska","Midwest","West North Central","31113","41.542155","-100.443665 ","118","0","0","0","12/13/2021 12:00:00 AM","2019","748","NYTIMES-USCENSUS"
"12/14/2021 12:00:00 AM","Trego County","Kansas","Midwest","West North Central","20195","38.921302","-99.865423 ","543","9","0","0","12/13/2021 12:00:00 AM","2019","2803","NYTIMES-USCENSUS"
"12/14/2021 12:00:00 AM","Carroll County","Kentucky","South","East South Central","21041","38.668394","-85.124024 ","2217","32","10","0","12/13/2021 12:00:00 AM","2019","10631","NYTIMES-USCENSUS"
"12/14/2021 12:00:00 AM","Oneida County","New York","Northeast","Middle Atlantic","36065","43.242727","-75.434282 ","35571","669","121","1","12/13/2021 12:00:00 AM","2019","228671","NYTIMES-USCENSUS"
"12/14/2021 12:00:00 AM","Rio Blanco County","Colorado","West","Mountain","08103","39.972622","-108.200716 ","1249","11","5","0","12/13/2021 12:00:00 AM","2019","6324","NYTIMES-USCENSUS"
"12/14/2021 12:00:00 AM","Oconee County","Georgia","South","South Atlantic","13219","33.834125","-83.437728 ","5943","82","7","0","12/13/2021 12:00:00 AM","2019","40280","NYTIMES-USCENSUS"
"12/14/2021 12:00:00 AM","Wyoming County","Pennsylvania","Northeast","Middle Atlantic","42131","41.525173","-76.008731 ","3521","73","15","0","12/13/2021 12:00:00 AM","2019","26794","NYTIMES-USCENSUS"
"12/14/2021 12:00:00 AM","Quay County","New Mexico","West","Mountain","35037","35.107018","-103.548071 ","1491","26","9","0","12/13/2021 12:00:00 AM","2019","8253","NYTIMES-USCENSUS"
"12/14/2021 12:00:00 AM","Licking County","Ohio","Midwest","East North Central","39089","40.091505","-82.483435 ","27762","353","91","2","12/13/2021 12:00:00 AM","2019","176862","NYTIMES-USCENSUS"
"12/14/2021 12:00:00 AM","Steele County","Minnesota","Midwest","West North Central","27147","44.015261","-93.220453 ","7251","37","57","0","12/13/2021 12:00:00 AM","2019","36649","NYTIMES-USCENSUS"
"12/14/2021 12:00:00 AM","Leon County","Texas","South","West South Central","48289","31.300493","-95.995622 ","2517","71","1","0","12/13/2021 12:00:00 AM","2019","17404","NYTIMES-USCENSUS"
"12/14/2021 12:00:00 AM","East Baton Rouge Parish","Louisiana","South","West South Central","22033","30.54393","-91.093131 ","65039","1174","35","0","12/13/2021 12:00:00 AM","2019","440059","NYTIMES-USCENSUS"
"12/14/2021 12:00:00 AM","Custer County","Colorado","West","Mountain","08027","38.101996","-105.373512 ","482","13","2","0","12/13/2021 12:00:00 AM","2019","5068","NYTIMES-USCENSUS"
"12/14/2021 12:00:00 AM","Nemaha County","Nebraska","Midwest","West North Central","31127","40.387389","-95.852721 ","1090","13","8","0","12/13/2021 12:00:00 AM","2019","6972","NYTIMES-USCENSUS"
"12/14/2021 12:00:00 AM","Fluvanna County","Virginia","South","South Atlantic","51065","37.830584","-78.283494 ","3066","29","0","0","12/13/2021 12:00:00 AM","2019","27270","NYTIMES-USCENSUS"
"12/14/2021 12:00:00 AM","Sibley County","Minnesota","Midwest","West North Central","27143","44.575734","-94.230123 ","2702","19","20","0","12/13/2021 12:00:00 AM","2019","14865","NYTIMES-USCENSUS"
"12/14/2021 12:00:00 AM","Gibson County","Indiana","Midwest","East North Central","18051","38.317398","-87.580523 ","7413","124","34","1","12/13/2021 12:00:00 AM","2019","33659","NYTIMES-USCENSUS"
"12/14/2021 12:00:00 AM","Washington County","Maryland","South","South Atlantic","24043","39.603621","-77.814671 ","22032","429","0","0","12/13/2021 12:00:00 AM","2019","151049","NYTIMES-USCENSUS"
"12/14/2021 12:00:00 AM","Mercer County","North Dakota","Midwest","West North Central","38057","47.307147","-101.833328 ","1940","21","2","1","12/13/2021 12:00:00 AM","2019","8187","NYTIMES-USCENSUS"
"12/14/2021 12:00:00 AM","Boone County","Missouri","Midwest","West North Central","29019","38.989861","-92.310202 ","27528","194","89","3","12/13/2021 12:00:00 AM","2019","180463","NYTIMES-USCENSUS"
"12/14/2021 12:00:00 AM","Sharp County","Arkansas","South","West South Central","05135","36.173399","-91.471069 ","3223","75","3","0","12/13/2021 12:00:00 AM","2019","17442","NYTIMES-USCENSUS"
"12/14/2021 12:00:00 AM","McClain County","Oklahoma","South","West South Central","40087","35.016436","-97.449803 ","7775","107","0","0","12/13/2021 12:00:00 AM","2019","40474","NYTIMES-USCENSUS"
"12/14/2021 12:00:00 AM","Santa Rosa County","Florida","South","South Atlantic","12113","30.675348","-87.018919 ","32816","523","0","0","12/13/2021 12:00:00 AM","2019","184313","NYTIMES-USCENSUS"
"12/14/2021 12:00:00 AM","Albemarle County","Virginia","South","South Atlantic","51003","38.024184","-78.553506 ","8775","113","9","0","12/13/2021 12:00:00 AM","2019","109330","NYTIMES-USCENSUS"
"12/14/2021 12:00:00 AM","Seward County","Nebraska","Midwest","West North Central","31159","40.871944","-97.140383 ","2497","38","5","0","12/13/2021 12:00:00 AM","2019","17284","NYTIMES-USCENSUS"
"12/14/2021 12:00:00 AM","Pope County","Illinois","Midwest","East North Central","17151","37.417169","-88.542374 ","634","6","7","0","12/13/2021 12:00:00 AM","2019","4177","NYTIMES-USCENSUS"
"12/14/2021 12:00:00 AM","Kingsbury County","South Dakota","Midwest","West North Central","46077","44.362969","-97.499313 ","998","19","7","0","12/13/2021 12:00:00 AM","2019","4939","NYTIMES-USCENSUS"
"12/14/2021 12:00:00 AM","Alexandria city","Virginia","South","South Atlantic","51510","38.819251","-77.08367 ","15332","155","32","0","12/13/2021 12:00:00 AM","2019","159428","NYTIMES-USCENSUS"
"12/14/2021 12:00:00 AM","Moffat County","Colorado","West","Mountain","08081","40.610864","-108.217154 ","2225","48","7","1","12/13/2021 12:00:00 AM","2019","13283","NYTIMES-USCENSUS"
"12/14/2021 12:00:00 AM","Clinton County","Michigan","Midwest","East North Central","26037","42.950455","-84.591695 ","13321","145","0","0","12/13/2021 12:00:00 AM","2019","79595","NYTIMES-USCENSUS"
"12/14/2021 12:00:00 AM","Allegan County","Michigan","Midwest","East North Central","26005","42.421251","-86.261403 ","19328","246","0","0","12/13/2021 12:00:00 AM","2019","118081","NYTIMES-USCENSUS"
"12/14/2021 12:00:00 AM","Winnebago County","Iowa","Midwest","West North Central","19189","43.378124","-93.743488 ","2320","40","0","0","12/13/2021 12:00:00 AM","2019","10354","NYTIMES-USCENSUS"
"12/14/2021 12:00:00 AM","Jefferson Davis County","Mississippi","South","East South Central","28065","31.564808","-89.827086 ","1757","43","2","0","12/13/2021 12:00:00 AM","2019","11128","NYTIMES-USCENSUS"
"12/14/2021 12:00:00 AM","Platte County","Missouri","Midwest","West North Central","29165","39.37869","-94.761477 ","6859","71","19","0","12/13/2021 12:00:00 AM","2019","104418","NYTIMES-USCENSUS"
"12/14/2021 12:00:00 AM","Meriwether County","Georgia","South","South Atlantic","13199","33.029267","-84.667058 ","3069","121","2","1","12/13/2021 12:00:00 AM","2019","21167","NYTIMES-USCENSUS"
"12/14/2021 12:00:00 AM","Dewey County","Oklahoma","South","West South Central","40043","35.97796","-99.014385 ","747","22","0","0","12/13/2021 12:00:00 AM","2019","4891","NYTIMES-USCENSUS"
"12/14/2021 12:00:00 AM","Gasconade County","Missouri","Midwest","West North Central","29073","38.441183","-91.50578 ","2476","86","7","5","12/13/2021 12:00:00 AM","2019","14706","NYTIMES-USCENSUS"
"12/14/2021 12:00:00 AM","Montgomery County","Maryland","South","South Atlantic","24031","39.137381","-77.203063 ","86063","1737","0","0","12/13/2021 12:00:00 AM","2019","1050688","NYTIMES-USCENSUS"
"12/14/2021 12:00:00 AM","Burleigh County","North Dakota","Midwest","West North Central","38015","46.978829","-100.469533 ","24664","274","52","2","12/13/2021 12:00:00 AM","2019","95626","NYTIMES-USCENSUS"
"12/14/2021 12:00:00 AM","Union County","Illinois","Midwest","East North Central","17181","37.485652","-89.244639 ","3417","56","9","0","12/13/2021 12:00:00 AM","2019","16653","NYTIMES-USCENSUS"
"12/14/2021 12:00:00 AM","Bartholomew County","Indiana","Midwest","East North Central","18005","39.205843","-85.897999 ","13668","201","60","0","12/13/2021 12:00:00 AM","2019","83779","NYTIMES-USCENSUS"
"12/14/2021 12:00:00 AM","Pasco County","Florida","South","South Atlantic","12101","28.309823","-82.511006 ","80464","1608","0","11","12/13/2021 12:00:00 AM","2019","553947","NYTIMES-USCENSUS"
"12/14/2021 12:00:00 AM","Miner County","South Dakota","Midwest","West North Central","46097","44.021541","-97.608122 ","373","11","1","0","12/13/2021 12:00:00 AM","2019","2216","NYTIMES-USCENSUS"
"12/14/2021 12:00:00 AM","De Baca County","New Mexico","West","Mountain","35011","34.359273","-104.368696 ","374","3","1","0","12/13/2021 12:00:00 AM","2019","1748","NYTIMES-USCENSUS"
"12/14/2021 12:00:00 AM","Perry County","Illinois","Midwest","East North Central","17145","38.084381","-89.368525 ","4666","89","3","1","12/13/2021 12:00:00 AM","2019","20916","NYTIMES-USCENSUS"
"12/14/2021 12:00:00 AM","Lipscomb County","Texas","South","West South Central","48295","36.2802","-100.272683 ","462","12","0","0","12/13/2021 12:00:00 AM","2019","3233","NYTIMES-USCENSUS"
"12/14/2021 12:00:00 AM","Charlottesville city","Virginia","South","South Atlantic","51540","38.037658","-78.485381 ","5689","62","12","0","12/13/2021 12:00:00 AM","2019","47266","NYTIMES-USCENSUS"
"12/14/2021 12:00:00 AM","Drew County","Arkansas","South","West South Central","05043","33.587242","-91.722778 ","2998","56","4","0","12/13/2021 12:00:00 AM","2019","18219","NYTIMES-USCENSUS"
"12/14/2021 12:00:00 AM","Crawford County","Pennsylvania","Northeast","Middle Atlantic","42039","41.687876","-80.107795 ","14326","235","41","1","12/13/2021 12:00:00 AM","2019","84629","NYTIMES-USCENSUS"
"12/14/2021 12:00:00 AM","Lyon County","Kentucky","South","East South Central","21143","37.023976","-88.083391 ","2065","29","0","0","12/13/2021 12:00:00 AM","2019","8210","NYTIMES-USCENSUS"
"12/14/2021 12:00:00 AM","Dale County","Alabama","South","East South Central","01045","31.430654","-85.609476 ","9101","193","18","0","12/13/2021 12:00:00 AM","2019","49172","NYTIMES-USCENSUS"
"12/14/2021 12:00:00 AM","Colusa County","California","West","Pacific","06011","39.177739","-122.237563 ","3322","21","0","0","12/13/2021 12:00:00 AM","2019","21547","NYTIMES-USCENSUS"
"12/14/2021 12:00:00 AM","Lincoln County","New Mexico","West","Mountain","35027","33.740841","-105.449805 ","3564","42","7","0","12/13/2021 12:00:00 AM","2019","19572","NYTIMES-USCENSUS"
"12/14/2021 12:00:00 AM","McCurtain County","Oklahoma","South","West South Central","40089","34.117073","-94.766086 ","5895","138","0","0","12/13/2021 12:00:00 AM","2019","32832","NYTIMES-USCENSUS"
"12/14/2021 12:00:00 AM","Hanover County","Virginia","South","South Atlantic","51085","37.760215","-77.491317 ","13060","202","51","0","12/13/2021 12:00:00 AM","2019","107766","NYTIMES-USCENSUS"
"12/14/2021 12:00:00 AM","Jackson County","West Virginia","South","South Atlantic","54035","38.834234","-81.677717 ","4396","99","4","0","12/13/2021 12:00:00 AM","2019","28576","NYTIMES-USCENSUS"
"12/14/2021 12:00:00 AM","Yadkin County","North Carolina","South","South Atlantic","37197","36.158765","-80.665164 ","6728","76","19","0","12/13/2021 12:00:00 AM","2019","37667","NYTIMES-USCENSUS"
"12/14/2021 12:00:00 AM","Rolette County","North Dakota","Midwest","West North Central","38079","48.768271","-99.840463 ","3460","36","10","0","12/13/2021 12:00:00 AM","2019","14176","NYTIMES-USCENSUS"
"12/14/2021 12:00:00 AM","Manassas Park city","Virginia","South","South Atlantic","51685","38.769398","-77.442323 ","1296","15","0","0","12/13/2021 12:00:00 AM","2019","17478","NYTIMES-USCENSUS"
"12/14/2021 12:00:00 AM","LaSalle Parish","Louisiana","South","West South Central","22059","31.680083","-92.161596 ","2797","46","0","0","12/13/2021 12:00:00 AM","2019","14892","NYTIMES-USCENSUS"
"12/14/2021 12:00:00 AM","Boulder County","Colorado","West","Mountain","08013","40.094962","-105.397704 ","36203","320","68","2","12/13/2021 12:00:00 AM","2019","326196","NYTIMES-USCENSUS"
"12/14/2021 12:00:00 AM","Strafford County","New Hampshire","Northeast","New England","33017","43.293272","-71.035589 ","17605","150","61","0","12/13/2021 12:00:00 AM","2019","130633","NYTIMES-USCENSUS"
"12/14/2021 12:00:00 AM","Park County","Montana","West","Mountain","30067","45.463081","-110.53493 ","2763","30","8","0","12/13/2021 12:00:00 AM","2019","16606","NYTIMES-USCENSUS"
"12/14/2021 12:00:00 AM","Carroll County","Virginia","South","South Atlantic","51035","36.731963","-80.727831 ","4518","106","5","1","12/13/2021 12:00:00 AM","2019","29791","NYTIMES-USCENSUS"
"12/14/2021 12:00:00 AM","Concordia Parish","Louisiana","South","West South Central","22029","31.469805","-91.626315 ","3303","80","1","0","12/13/2021 12:00:00 AM","2019","19259","NYTIMES-USCENSUS"
"12/14/2021 12:00:00 AM","Lincoln County","Maine","Northeast","New England","23015","43.994781","-69.513624 ","2410","10","20","0","12/13/2021 12:00:00 AM","2019","34634","NYTIMES-USCENSUS"
"12/14/2021 12:00:00 AM","Madison County","Mississippi","South","East South Central","28089","32.63437","-90.03416 ","15077","283","11","0","12/13/2021 12:00:00 AM","2019","106272","NYTIMES-USCENSUS"
"12/14/2021 12:00:00 AM","Butts County","Georgia","South","South Atlantic","13035","33.290355","-83.958221 ","4811","123","1","0","12/13/2021 12:00:00 AM","2019","24936","NYTIMES-USCENSUS"
"12/14/2021 12:00:00 AM","Towns County","Georgia","South","South Atlantic","13281","34.902529","-83.732264 ","1833","84","2","0","12/13/2021 12:00:00 AM","2019","12037","NYTIMES-USCENSUS"
"12/14/2021 12:00:00 AM","Gentry County","Missouri","Midwest","West North Central","29075","40.208127","-94.405321 ","1605","28","3","0","12/13/2021 12:00:00 AM","2019","6571","NYTIMES-USCENSUS"
"12/14/2021 12:00:00 AM","Houston County","Texas","South","West South Central","48225","31.323036","-95.4216 ","2914","88","8","0","12/13/2021 12:00:00 AM","2019","22968","NYTIMES-USCENSUS"
"12/14/2021 12:00:00 AM","Alameda County","California","West","Pacific","06001","37.647139","-121.912488 ","127364","1523","99","5","12/13/2021 12:00:00 AM","2019","1671329","NYTIMES-USCENSUS"
"12/14/2021 12:00:00 AM","Seminole County","Florida","South","South Atlantic","12117","28.690065","-81.131975 ","63663","896","0","5","12/13/2021 12:00:00 AM","2019","471826","NYTIMES-USCENSUS"
"12/14/2021 12:00:00 AM","Barron County","Wisconsin","Midwest","East North Central","55005","45.437192","-91.852892 ","10129","108","12","0","12/13/2021 12:00:00 AM","2019","45244","NYTIMES-USCENSUS"
"12/14/2021 12:00:00 AM","Orleans County","New York","Northeast","Middle Atlantic","36073","43.339906","-78.207028 ","6055","100","16","0","12/13/2021 12:00:00 AM","2019","40352","NYTIMES-USCENSUS"
"12/14/2021 12:00:00 AM","Osceola County","Florida","South","South Atlantic","12097","28.059027","-81.139312 ","73093","918","0","-1","12/13/2021 12:00:00 AM","2019","375751","NYTIMES-USCENSUS"
"12/14/2021 12:00:00 AM","Randolph County","Indiana","Midwest","East North Central","18135","40.164079","-85.00579 ","4239","113","17","2","12/13/2021 12:00:00 AM","2019","24665","NYTIMES-USCENSUS"
"12/14/2021 12:00:00 AM","Wexford County","Michigan","Midwest","East North Central","26165","44.331375","-85.570046 ","4855","80","0","0","12/13/2021 12:00:00 AM","2019","33631","NYTIMES-USCENSUS"
"12/14/2021 12:00:00 AM","Osceola County","Michigan","Midwest","East North Central","26133","43.997552","-85.322283 ","3751","53","0","0","12/13/2021 12:00:00 AM","2019","23460","NYTIMES-USCENSUS"
"12/14/2021 12:00:00 AM","Gaines County","Texas","South","West South Central","48165","32.743942","-102.631561 ","2198","66","1","0","12/13/2021 12:00:00 AM","2019","21492","NYTIMES-USCENSUS"
"12/14/2021 12:00:00 AM","Marshall County","West Virginia","South","South Atlantic","54051","39.854426","-80.671794 ","5893","129","17","0","12/13/2021 12:00:00 AM","2019","30531","NYTIMES-USCENSUS"
"12/14/2021 12:00:00 AM","Douglas County","Washington","West","Pacific","53017","47.741763","-119.694622 ","6805","51","0","0","12/13/2021 12:00:00 AM","2019","43429","NYTIMES-USCENSUS"
"12/14/2021 12:00:00 AM","Elko County","Nevada","West","Mountain","32007","41.141133","-115.351424 ","9683","123","21","1","12/13/2021 12:00:00 AM","2019","52778","NYTIMES-USCENSUS"
"12/14/2021 12:00:00 AM","Lampasas County","Texas","South","West South Central","48281","31.196731","-98.240889 ","3643","70","2","0","12/13/2021 12:00:00 AM","2019","21428","NYTIMES-USCENSUS"
"12/14/2021 12:00:00 AM","Sac County","Iowa","Midwest","West North Central","19161","42.387526","-95.105224 ","1797","26","0","0","12/13/2021 12:00:00 AM","2019","9721","NYTIMES-USCENSUS"
"12/14/2021 12:00:00 AM","Fayette County","Pennsylvania","Northeast","Middle Atlantic","42051","39.918907","-79.640119 ","21796","500","119","7","12/13/2021 12:00:00 AM","2019","129274","NYTIMES-USCENSUS"
"12/14/2021 12:00:00 AM","Johnson County","Kentucky","South","East South Central","21115","37.847756","-82.830121 ","4053","75","13","0","12/13/2021 12:00:00 AM","2019","22188","NYTIMES-USCENSUS"
"12/14/2021 12:00:00 AM","Jefferson County","Indiana","Midwest","East North Central","18077","38.783604","-85.44009 ","6276","110","29","0","12/13/2021 12:00:00 AM","2019","32308","NYTIMES-USCENSUS"
"12/14/2021 12:00:00 AM","Middlesex County","New Jersey","Northeast","Middle Atlantic","34023","40.439621","-74.40743 ","115163","2516","394","6","12/13/2021 12:00:00 AM","2019","825062","NYTIMES-USCENSUS"
"12/14/2021 12:00:00 AM","Taney County","Missouri","Midwest","West North Central","29213","36.649827","-93.042819 ","9603","173","15","0","12/13/2021 12:00:00 AM","2019","55928","NYTIMES-USCENSUS"
"12/14/2021 12:00:00 AM","Clay County","Florida","South","South Atlantic","12019","29.986584","-81.865036 ","34204","703","0","-1","12/13/2021 12:00:00 AM","2019","219252","NYTIMES-USCENSUS"
"12/14/2021 12:00:00 AM","Gaston County","North Carolina","South","South Atlantic","37071","35.293344","-81.177256 ","43031","640","104","1","12/13/2021 12:00:00 AM","2019","224529","NYTIMES-USCENSUS"
"12/14/2021 12:00:00 AM","Jackson County","Oklahoma","South","West South Central","40065","34.594006","-99.412235 ","4287","89","0","0","12/13/2021 12:00:00 AM","2019","24530","NYTIMES-USCENSUS"
"12/14/2021 12:00:00 AM","Ottawa County","Ohio","Midwest","East North Central","39123","41.545495","-83.012613 ","5889","104","25","0","12/13/2021 12:00:00 AM","2019","40525","NYTIMES-USCENSUS"
"12/14/2021 12:00:00 AM","Jackson County","Mississippi","South","East South Central","28059","30.456005","-88.625101 ","25017","392","8","0","12/13/2021 12:00:00 AM","2019","143617","NYTIMES-USCENSUS"
"12/14/2021 12:00:00 AM","Elkhart County","Indiana","Midwest","East North Central","18039","41.600693","-85.863986 ","41766","585","133","1","12/13/2021 12:00:00 AM","2019","206341","NYTIMES-USCENSUS"
"12/14/2021 12:00:00 AM","Edmonson County","Kentucky","South","East South Central","21061","37.227514","-86.218015 ","1686","34","5","0","12/13/2021 12:00:00 AM","2019","12150","NYTIMES-USCENSUS"
"12/14/2021 12:00:00 AM","Hunt County","Texas","South","West South Central","48231","33.123308","-96.08423 ","11295","312","15","0","12/13/2021 12:00:00 AM","2019","98594","NYTIMES-USCENSUS"
"12/14/2021 12:00:00 AM","Morgan County","Tennessee","South","East South Central","47129","36.138697","-84.639262 ","3992","51","0","0","12/13/2021 12:00:00 AM","2019","21403","NYTIMES-USCENSUS"
"12/14/2021 12:00:00 AM","Hudson County","New Jersey","Northeast","Middle Atlantic","34017","40.731375","-74.078601 ","102974","2414","238","1","12/13/2021 12:00:00 AM","2019","672391","NYTIMES-USCENSUS"
"12/14/2021 12:00:00 AM","Perry County","Arkansas","South","West South Central","05105","34.946363","-92.926877 ","1632","23","2","0","12/13/2021 12:00:00 AM","2019","10455","NYTIMES-USCENSUS"
"12/14/2021 12:00:00 AM","Pennington County","Minnesota","Midwest","West North Central","27113","48.069247","-96.037725 ","2612","30","6","0","12/13/2021 12:00:00 AM","2019","14119","NYTIMES-USCENSUS"
"12/14/2021 12:00:00 AM","Columbia County","Wisconsin","Midwest","East North Central","55021","43.471882","-89.330472 ","9529","98","26","1","12/13/2021 12:00:00 AM","2019","57532","NYTIMES-USCENSUS"
"12/14/2021 12:00:00 AM","Nez Perce County","Idaho","West","Mountain","16069","46.333791","-116.760909 ","6499","108","8","1","12/13/2021 12:00:00 AM","2019","40408","NYTIMES-USCENSUS"
"12/14/2021 12:00:00 AM","Lawrence County","Arkansas","South","West South Central","05075","36.041098","-91.101153 ","3546","62","13","0","12/13/2021 12:00:00 AM","2019","16406","NYTIMES-USCENSUS"
"12/14/2021 12:00:00 AM","Eau Claire County","Wisconsin","Midwest","East North Central","55035","44.726355","-91.286414 ","19581","155","62","0","12/13/2021 12:00:00 AM","2019","104646","NYTIMES-USCENSUS"
"12/14/2021 12:00:00 AM","Keokuk County","Iowa","Midwest","West North Central","19107","41.331182","-92.167721 ","1562","40","0","0","12/13/2021 12:00:00 AM","2019","10246","NYTIMES-USCENSUS"
"12/14/2021 12:00:00 AM","Anderson County","South Carolina","South","South Atlantic","45007","34.521235","-82.638603 ","38442","802","36","1","12/13/2021 12:00:00 AM","2019","202558","NYTIMES-USCENSUS"
"12/14/2021 12:00:00 AM","Palo Alto County","Iowa","Midwest","West North Central","19147","43.075337","-94.669055 ","1554","32","0","0","12/13/2021 12:00:00 AM","2019","8886","NYTIMES-USCENSUS"
"12/14/2021 12:00:00 AM","Clinton County","Iowa","Midwest","West North Central","19045","41.898073","-90.534243 ","8421","116","0","0","12/13/2021 12:00:00 AM","2019","46429","NYTIMES-USCENSUS"
"12/14/2021 12:00:00 AM","Coos County","New Hampshire","Northeast","New England","33007","44.652548","-71.289431 ","4444","78","12","1","12/13/2021 12:00:00 AM","2019","31563","NYTIMES-USCENSUS"
"12/14/2021 12:00:00 AM","Nicollet County","Minnesota","Midwest","West North Central","27103","44.35882","-94.245684 ","5533","61","44","0","12/13/2021 12:00:00 AM","2019","34274","NYTIMES-USCENSUS"
"12/14/2021 12:00:00 AM","Mercer County","Ohio","Midwest","East North Central","39107","40.535333","-84.632059 ","7153","100","29","0","12/13/2021 12:00:00 AM","2019","41172","NYTIMES-USCENSUS"
"12/14/2021 12:00:00 AM","Texas County","Missouri","Midwest","West North Central","29215","37.314257","-91.964478 ","3422","68","12","2","12/13/2021 12:00:00 AM","2019","25398","NYTIMES-USCENSUS"
"12/14/2021 12:00:00 AM","Levy County","Florida","South","South Atlantic","12075","29.271854","-82.831233 ","7095","114","0","1","12/13/2021 12:00:00 AM","2019","41503","NYTIMES-USCENSUS"
"12/14/2021 12:00:00 AM","Indiana County","Pennsylvania","Northeast","Middle Atlantic","42063","40.651432","-79.087545 ","11743","277","62","0","12/13/2021 12:00:00 AM","2019","84073","NYTIMES-USCENSUS"
"12/14/2021 12:00:00 AM","Searcy County","Arkansas","South","West South Central","05129","35.896387","-92.695888 ","1362","26","3","0","12/13/2021 12:00:00 AM","2019","7881","NYTIMES-USCENSUS"
"12/14/2021 12:00:00 AM","Niagara County","New York","Northeast","Middle Atlantic","36063","43.272672","-78.812943 ","31253","442","135","0","12/13/2021 12:00:00 AM","2019","209281","NYTIMES-USCENSUS"
"12/14/2021 12:00:00 AM","Dallas County","Iowa","Midwest","West North Central","19049","41.68532","-94.040706 ","15941","117","0","0","12/13/2021 12:00:00 AM","2019","93453","NYTIMES-USCENSUS"
"12/14/2021 12:00:00 AM","Coshocton County","Ohio","Midwest","East North Central","39031","40.29671","-81.930109 ","5856","115","14","1","12/13/2021 12:00:00 AM","2019","36600","NYTIMES-USCENSUS"
"12/14/2021 12:00:00 AM","Hamlin County","South Dakota","Midwest","West North Central","46057","44.680619","-97.178598 ","1140","40","11","0","12/13/2021 12:00:00 AM","2019","6164","NYTIMES-USCENSUS"
"12/14/2021 12:00:00 AM","Pamlico County","North Carolina","South","South Atlantic","37137","35.147575","-76.665268 ","1780","26","1","0","12/13/2021 12:00:00 AM","2019","12726","NYTIMES-USCENSUS"
"12/14/2021 12:00:00 AM","Gilmer County","West Virginia","South","South Atlantic","54021","38.915867","-80.849413 ","1501","14","0","0","12/13/2021 12:00:00 AM","2019","7823","NYTIMES-USCENSUS"
"12/14/2021 12:00:00 AM","Campbell County","Kentucky","South","East South Central","21037","38.946981","-84.379583 ","14722","118","38","0","12/13/2021 12:00:00 AM","2019","93584","NYTIMES-USCENSUS"
"12/14/2021 12:00:00 AM","Howard County","Texas","South","West South Central","48227","32.30343","-101.438721 ","5912","145","5","0","12/13/2021 12:00:00 AM","2019","36664","NYTIMES-USCENSUS"
"12/14/2021 12:00:00 AM","Gwinnett County","Georgia","South","South Atlantic","13135","33.958756","-84.025735 ","138321","1544","177","2","12/13/2021 12:00:00 AM","2019","936250","NYTIMES-USCENSUS"
"12/14/2021 12:00:00 AM","Obion County","Tennessee","South","East South Central","47131","36.361892","-89.148078 ","7059","122","9","1","12/13/2021 12:00:00 AM","2019","30069","NYTIMES-USCENSUS"
"12/14/2021 12:00:00 AM","Fairfield County","Ohio","Midwest","East North Central","39045","39.747694","-82.626685 ","25653","296","101","4","12/13/2021 12:00:00 AM","2019","157574","NYTIMES-USCENSUS"
"12/14/2021 12:00:00 AM","Wapello County","Iowa","Midwest","West North Central","19179","41.031275","-92.409466 ","6748","146","0","0","12/13/2021 12:00:00 AM","2019","34969","NYTIMES-USCENSUS"
"12/14/2021 12:00:00 AM","Allen County","Ohio","Midwest","East North Central","39003","40.771627","-84.106103 ","19831","336","79","7","12/13/2021 12:00:00 AM","2019","102351","NYTIMES-USCENSUS"
"12/14/2021 12:00:00 AM","Marshall County","Indiana","Midwest","East North Central","18099","41.325003","-86.269036 ","9576","156","26","0","12/13/2021 12:00:00 AM","2019","46258","NYTIMES-USCENSUS"
"12/14/2021 12:00:00 AM","Washington County","Arkansas","South","West South Central","05143","35.978001","-94.217269 ","46393","504","30","0","12/13/2021 12:00:00 AM","2019","239187","NYTIMES-USCENSUS"
"12/14/2021 12:00:00 AM","Benton County","Missouri","Midwest","West North Central","29015","38.301036","-93.287942 ","2868","70","20","0","12/13/2021 12:00:00 AM","2019","19443","NYTIMES-USCENSUS"
"12/14/2021 12:00:00 AM","Adams County","Nebraska","Midwest","West North Central","31001","40.520632","-98.500044 ","4662","54","25","0","12/13/2021 12:00:00 AM","2019","31363","NYTIMES-USCENSUS"
"12/14/2021 12:00:00 AM","Denton County","Texas","South","West South Central","48121","33.205132","-97.12114 ","112941","1074","191","0","12/13/2021 12:00:00 AM","2019","887207","NYTIMES-USCENSUS"
"12/14/2021 12:00:00 AM","Northumberland County","Virginia","South","South Atlantic","51133","37.856974","-76.379687 ","1288","37","4","0","12/13/2021 12:00:00 AM","2019","12095","NYTIMES-USCENSUS"
"12/14/2021 12:00:00 AM","Carroll County","Iowa","Midwest","West North Central","19027","42.039502","-94.86765 ","3779","56","0","0","12/13/2021 12:00:00 AM","2019","20165","NYTIMES-USCENSUS"
"12/14/2021 12:00:00 AM","Coffee County","Tennessee","South","East South Central","47031","35.488765","-86.078202 ","11056","174","5","0","12/13/2021 12:00:00 AM","2019","56520","NYTIMES-USCENSUS"
"12/14/2021 12:00:00 AM","Knox County","Indiana","Midwest","East North Central","18083","38.688391","-87.420354 ","7189","119","19","0","12/13/2021 12:00:00 AM","2019","36594","NYTIMES-USCENSUS"
"12/14/2021 12:00:00 AM","Fulton County","Kentucky","South","East South Central","21075","36.552511","-89.187659 ","855","22","0","0","12/13/2021 12:00:00 AM","2019","5969","NYTIMES-USCENSUS"
"12/14/2021 12:00:00 AM","Ashtabula County","Ohio","Midwest","East North Central","39007","41.906637","-80.745592 ","13718","265","79","13","12/13/2021 12:00:00 AM","2019","97241","NYTIMES-USCENSUS"
"12/14/2021 12:00:00 AM","Isle of Wight County","Virginia","South","South Atlantic","51093","36.901418","-76.707569 ","4726","93","4","0","12/13/2021 12:00:00 AM","2019","37109","NYTIMES-USCENSUS"
"12/14/2021 12:00:00 AM","Jackson County","Kentucky","South","East South Central","21109","37.403458","-84.020576 ","2969","55","18","0","12/13/2021 12:00:00 AM","2019","13329","NYTIMES-USCENSUS"
"12/14/2021 12:00:00 AM","Decatur County","Indiana","Midwest","East North Central","18031","39.30598","-85.499831 ","4878","117","14","0","12/13/2021 12:00:00 AM","2019","26559","NYTIMES-USCENSUS"
"12/14/2021 12:00:00 AM","Smith County","Kansas","Midwest","West North Central","20183","39.78466","-98.785429 ","486","3","0","0","12/13/2021 12:00:00 AM","2019","3583","NYTIMES-USCENSUS"
"12/14/2021 12:00:00 AM","Rhea County","Tennessee","South","East South Central","47143","35.60059","-84.949548 ","7261","101","8","0","12/13/2021 12:00:00 AM","2019","33167","NYTIMES-USCENSUS"
"12/14/2021 12:00:00 AM","Vernon County","Missouri","Midwest","West North Central","29217","37.850196","-94.341597 ","3406","83","2","1","12/13/2021 12:00:00 AM","2019","20563","NYTIMES-USCENSUS"
"12/14/2021 12:00:00 AM","St. Croix County","Wisconsin","Midwest","East North Central","55109","45.028959","-92.447284 ","17136","102","97","2","12/13/2021 12:00:00 AM","2019","90687","NYTIMES-USCENSUS"
"12/14/2021 12:00:00 AM","Bayfield County","Wisconsin","Midwest","East North Central","55007","46.634199","-91.177282 ","2158","30","10","0","12/13/2021 12:00:00 AM","2019","15036","NYTIMES-USCENSUS"
"12/14/2021 12:00:00 AM","Moniteau County","Missouri","Midwest","West North Central","29135","38.633037","-92.583642 ","2862","46","5","0","12/13/2021 12:00:00 AM","2019","16132","NYTIMES-USCENSUS"
"12/14/2021 12:00:00 AM","Waushara County","Wisconsin","Midwest","East North Central","55137","44.112823","-89.239786 ","4323","66","43","5","12/13/2021 12:00:00 AM","2019","24443","NYTIMES-USCENSUS"
"12/14/2021 12:00:00 AM","Gogebic County","Michigan","Midwest","East North Central","26053","46.488054","-89.788314 ","2238","59","0","0","12/13/2021 12:00:00 AM","2019","13975","NYTIMES-USCENSUS"
"12/14/2021 12:00:00 AM","Kanawha County","West Virginia","South","South Atlantic","54039","38.328068","-81.523516 ","27634","559","50","0","12/13/2021 12:00:00 AM","2019","178124","NYTIMES-USCENSUS"
"12/14/2021 12:00:00 AM","Sitka City and Borough","Alaska","West","Pacific","02220","57.193204","-135.367396 ","1249","4","0","0","12/13/2021 12:00:00 AM","2019","8493","NYTIMES-USCENSUS"
"12/14/2021 12:00:00 AM","Eaton County","Michigan","Midwest","East North Central","26045","42.58953","-84.84645 ","17272","298","0","0","12/13/2021 12:00:00 AM","2019","110268","NYTIMES-USCENSUS"
"12/14/2021 12:00:00 AM","Miami-Dade County","Florida","South","South Atlantic","12086","25.616009","-80.50375 ","683842","9208","0","21","12/13/2021 12:00:00 AM","2019","2716940","NYTIMES-USCENSUS"
"12/14/2021 12:00:00 AM","Floyd County","Texas","South","West South Central","48153","34.07373","-101.303274 ","1275","40","4","0","12/13/2021 12:00:00 AM","2019","5712","NYTIMES-USCENSUS"
"12/14/2021 12:00:00 AM","Nuckolls County","Nebraska","Midwest","West North Central","31129","40.176492","-98.046842 ","714","12","2","0","12/13/2021 12:00:00 AM","2019","4148","NYTIMES-USCENSUS"
"12/14/2021 12:00:00 AM","Tyrrell County","North Carolina","South","South Atlantic","37177","35.87042","-76.165345 ","600","7","1","0","12/13/2021 12:00:00 AM","2019","4016","NYTIMES-USCENSUS"
"12/14/2021 12:00:00 AM","Madison Parish","Louisiana","South","West South Central","22065","32.346878","-91.231932 ","2294","55","1","0","12/13/2021 12:00:00 AM","2019","10951","NYTIMES-USCENSUS"
"12/14/2021 12:00:00 AM","Nelson County","North Dakota","Midwest","West North Central","38063","47.918667","-98.204428 ","612","16","0","0","12/13/2021 12:00:00 AM","2019","2879","NYTIMES-USCENSUS"
"12/14/2021 12:00:00 AM","Wabash County","Illinois","Midwest","East North Central","17185","38.445821","-87.839167 ","2309","22","7","0","12/13/2021 12:00:00 AM","2019","11520","NYTIMES-USCENSUS"
"12/14/2021 12:00:00 AM","Lewis County","Washington","West","Pacific","53041","46.580071","-122.377444 ","11326","184","3","0","12/13/2021 12:00:00 AM","2019","80707","NYTIMES-USCENSUS"
"12/14/2021 12:00:00 AM","Aiken County","South Carolina","South","South Atlantic","45003","33.550013","-81.632983 ","27828","358","10","1","12/13/2021 12:00:00 AM","2019","170872","NYTIMES-USCENSUS"
"12/14/2021 12:00:00 AM","Gosper County","Nebraska","Midwest","West North Central","31073","40.509095","-99.823206 ","277","5","0","0","12/13/2021 12:00:00 AM","2019","1990","NYTIMES-USCENSUS"
"12/14/2021 12:00:00 AM","Dearborn County","Indiana","Midwest","East North Central","18029","39.140897","-84.975868 ","9284","110","22","0","12/13/2021 12:00:00 AM","2019","49458","NYTIMES-USCENSUS"
"12/14/2021 12:00:00 AM","Hamilton County","Kansas","Midwest","West North Central","20075","37.995244","-101.793689 ","341","3","0","0","12/13/2021 12:00:00 AM","2019","2539","NYTIMES-USCENSUS"
"12/14/2021 12:00:00 AM","Merced County","California","West","Pacific","06047","37.194806","-120.722802 ","46234","687","23","2","12/13/2021 12:00:00 AM","2019","277680","NYTIMES-USCENSUS"
"12/14/2021 12:00:00 AM","McHenry County","Illinois","Midwest","East North Central","17111","42.324298","-88.452245 ","42153","375","191","0","12/13/2021 12:00:00 AM","2019","307774","NYTIMES-USCENSUS"
"12/14/2021 12:00:00 AM","Wayne County","Tennessee","South","East South Central","47181","35.242847","-87.819843 ","4206","41","10","0","12/13/2021 12:00:00 AM","2019","16673","NYTIMES-USCENSUS"
"12/14/2021 12:00:00 AM","McKean County","Pennsylvania","Northeast","Middle Atlantic","42083","41.81459","-78.572463 ","6120","109","18","1","12/13/2021 12:00:00 AM","2019","40625","NYTIMES-USCENSUS"
"12/14/2021 12:00:00 AM","Miller County","Arkansas","South","West South Central","05091","33.305505","-93.901502 ","6755","151","1","0","12/13/2021 12:00:00 AM","2019","43257","NYTIMES-USCENSUS"
"12/14/2021 12:00:00 AM","Cass County","Illinois","Midwest","East North Central","17017","39.969202","-90.245704 ","2900","40","23","0","12/13/2021 12:00:00 AM","2019","12147","NYTIMES-USCENSUS"
"12/14/2021 12:00:00 AM","Mohave County","Arizona","West","Mountain","04015","35.717705","-113.749689 ","37367","1099","121","3","12/13/2021 12:00:00 AM","2019","212181","NYTIMES-USCENSUS"
"12/14/2021 12:00:00 AM","Lee County","Alabama","South","East South Central","01081","32.604064","-85.353048 ","25820","266","37","1","12/13/2021 12:00:00 AM","2019","164542","NYTIMES-USCENSUS"
"12/14/2021 12:00:00 AM","Jackson County","Kansas","Midwest","West North Central","20085","39.411145","-95.794485 ","2508","20","0","0","12/13/2021 12:00:00 AM","2019","13171","NYTIMES-USCENSUS"
"12/14/2021 12:00:00 AM","Lee County","Texas","South","West South Central","48287","30.321498","-96.976823 ","3007","54","0","0","12/13/2021 12:00:00 AM","2019","17239","NYTIMES-USCENSUS"
"12/14/2021 12:00:00 AM","Pendleton County","West Virginia","South","South Atlantic","54071","38.67445","-79.340617 ","1284","16","0","0","12/13/2021 12:00:00 AM","2019","6969","NYTIMES-USCENSUS"
"12/14/2021 12:00:00 AM","Lafayette Parish","Louisiana","South","West South Central","22055","30.206507","-92.06417 ","39926","410","32","0","12/13/2021 12:00:00 AM","2019","244390","NYTIMES-USCENSUS"
"12/14/2021 12:00:00 AM","Laurens County","Georgia","South","South Atlantic","13175","32.39322","-82.926317 ","9322","257","11","0","12/13/2021 12:00:00 AM","2019","47546","NYTIMES-USCENSUS"
"12/14/2021 12:00:00 AM","Franklin County","Iowa","Midwest","West North Central","19069","42.736545","-93.271415 ","1926","32","0","0","12/13/2021 12:00:00 AM","2019","10070","NYTIMES-USCENSUS"
"12/14/2021 12:00:00 AM","Collin County","Texas","South","West South Central","48085","33.194494","-96.579428 ","135411","1192","141","2","12/13/2021 12:00:00 AM","2019","1034730","NYTIMES-USCENSUS"
"12/14/2021 12:00:00 AM","Nelson County","Kentucky","South","East South Central","21179","37.80312","-85.465931 ","9210","107","42","0","12/13/2021 12:00:00 AM","2019","46233","NYTIMES-USCENSUS"
"12/14/2021 12:00:00 AM","Hancock County","Mississippi","South","East South Central","28045","30.391641","-89.482791 ","7870","132","1","0","12/13/2021 12:00:00 AM","2019","47632","NYTIMES-USCENSUS"
"12/14/2021 12:00:00 AM","New Kent County","Virginia","South","South Atlantic","51127","37.51016","-76.999331 ","2709","27","25","0","12/13/2021 12:00:00 AM","2019","23091","NYTIMES-USCENSUS"
"12/14/2021 12:00:00 AM","St. Mary's County","Maryland","South","South Atlantic","24037","38.223077","-76.534487 ","10514","176","0","0","12/13/2021 12:00:00 AM","2019","113510","NYTIMES-USCENSUS"
"12/14/2021 12:00:00 AM","Cherokee County","Texas","South","West South Central","48073","31.843881","-95.156343 ","6904","228","1","0","12/13/2021 12:00:00 AM","2019","52646","NYTIMES-USCENSUS"
"12/14/2021 12:00:00 AM","Monroe County","Ohio","Midwest","East North Central","39111","39.726253","-81.090983 ","2447","62","13","0","12/13/2021 12:00:00 AM","2019","13654","NYTIMES-USCENSUS"
"12/14/2021 12:00:00 AM","Lincoln County","Washington","West","Pacific","53043","47.582743","-118.417692 ","1517","25","2","0","12/13/2021 12:00:00 AM","2019","10939","NYTIMES-USCENSUS"
"12/14/2021 12:00:00 AM","Scott County","Arkansas","South","West South Central","05127","34.858869","-94.063641 ","1781","32","0","0","12/13/2021 12:00:00 AM","2019","10281","NYTIMES-USCENSUS"
"12/14/2021 12:00:00 AM","Atlantic County","New Jersey","Northeast","Middle Atlantic","34001","39.469355","-74.633759 ","43199","809","170","1","12/13/2021 12:00:00 AM","2019","263670","NYTIMES-USCENSUS"
"12/14/2021 12:00:00 AM","Lonoke County","Arkansas","South","West South Central","05085","34.755114","-91.894132 ","12680","177","11","0","12/13/2021 12:00:00 AM","2019","73309","NYTIMES-USCENSUS"
"12/14/2021 12:00:00 AM","Summers County","West Virginia","South","South Atlantic","54089","37.655999","-80.856325 ","1607","35","5","0","12/13/2021 12:00:00 AM","2019","12573","NYTIMES-USCENSUS"
"12/14/2021 12:00:00 AM","White County","Indiana","Midwest","East North Central","18181","40.75095","-86.864293 ","5032","73","27","1","12/13/2021 12:00:00 AM","2019","24102","NYTIMES-USCENSUS"
"12/14/2021 12:00:00 AM","Spartanburg County","South Carolina","South","South Atlantic","45083","34.932014","-81.991624 ","64012","1255","33","0","12/13/2021 12:00:00 AM","2019","319785","NYTIMES-USCENSUS"
"12/14/2021 12:00:00 AM","San Luis Obispo County","California","West","Pacific","06079","35.388189","-120.448897 ","32119","367","27","1","12/13/2021 12:00:00 AM","2019","283111","NYTIMES-USCENSUS"
"12/14/2021 12:00:00 AM","Linn County","Iowa","Midwest","West North Central","19113","42.077951","-91.597674 ","33975","433","0","0","12/13/2021 12:00:00 AM","2019","226706","NYTIMES-USCENSUS"
"12/14/2021 12:00:00 AM","Hickman County","Kentucky","South","East South Central","21105","36.675896","-88.972084 ","593","22","0","0","12/13/2021 12:00:00 AM","2019","4380","NYTIMES-USCENSUS"
"12/14/2021 12:00:00 AM","Flathead County","Montana","West","Mountain","30029","48.295422","-114.052059 ","21109","217","10","0","12/13/2021 12:00:00 AM","2019","103806","NYTIMES-USCENSUS"
"12/14/2021 12:00:00 AM","Doniphan County","Kansas","Midwest","West North Central","20043","39.788502","-95.147225 ","1643","29","0","0","12/13/2021 12:00:00 AM","2019","7600","NYTIMES-USCENSUS"
"12/14/2021 12:00:00 AM","Fentress County","Tennessee","South","East South Central","47049","36.369892","-84.937764 ","3912","72","10","0","12/13/2021 12:00:00 AM","2019","18523","NYTIMES-USCENSUS"
"12/14/2021 12:00:00 AM","Rush County","Indiana","Midwest","East North Central","18139","39.622362","-85.466529 ","3346","33","19","0","12/13/2021 12:00:00 AM","2019","16581","NYTIMES-USCENSUS"
"12/14/2021 12:00:00 AM","Brown County","Kansas","Midwest","West North Central","20013","39.825931","-95.569905 ","1924","41","0","0","12/13/2021 12:00:00 AM","2019","9564","NYTIMES-USCENSUS"
"12/14/2021 12:00:00 AM","Clarke County","Alabama","South","East South Central","01025","31.685521","-87.818624 ","4870","87","5","1","12/13/2021 12:00:00 AM","2019","23622","NYTIMES-USCENSUS"
"12/14/2021 12:00:00 AM","Paulding County","Georgia","South","South Atlantic","13223","33.92103","-84.867169 ","26251","350","37","0","12/13/2021 12:00:00 AM","2019","168667","NYTIMES-USCENSUS"
"12/14/2021 12:00:00 AM","Johnson County","Iowa","Midwest","West North Central","19103","41.670668","-91.590529 ","20664","108","0","0","12/13/2021 12:00:00 AM","2019","151140","NYTIMES-USCENSUS"
"12/14/2021 12:00:00 AM","Steuben County","New York","Northeast","Middle Atlantic","36101","42.266725","-77.385525 ","13710","204","26","1","12/13/2021 12:00:00 AM","2019","95379","NYTIMES-USCENSUS"
"12/14/2021 12:00:00 AM","Clay County","Kentucky","South","East South Central","21051","37.164273","-83.715473 ","5263","65","7","0","12/13/2021 12:00:00 AM","2019","19901","NYTIMES-USCENSUS"
"12/14/2021 12:00:00 AM","Zavala County","Texas","South","West South Central","48507","28.864652","-99.75983 ","2576","56","1","0","12/13/2021 12:00:00 AM","2019","11840","NYTIMES-USCENSUS"
"12/14/2021 12:00:00 AM","Luce County","Michigan","Midwest","East North Central","26095","46.510988","-85.517552 ","1817","6","0","0","12/13/2021 12:00:00 AM","2019","6229","NYTIMES-USCENSUS"
"12/14/2021 12:00:00 AM","Lewis County","Idaho","West","Mountain","16061","46.236328","-116.42376 ","848","23","1","0","12/13/2021 12:00:00 AM","2019","3838","NYTIMES-USCENSUS"
"12/14/2021 12:00:00 AM","Greene County","Tennessee","South","East South Central","47059","36.179487","-82.847523 ","14767","250","39","0","12/13/2021 12:00:00 AM","2019","69069","NYTIMES-USCENSUS"
"12/14/2021 12:00:00 AM","Greene County","Georgia","South","South Atlantic","13133","33.576704","-83.166625 ","2789","74","1","0","12/13/2021 12:00:00 AM","2019","18324","NYTIMES-USCENSUS"
"12/14/2021 12:00:00 AM","Cass County","North Dakota","Midwest","West North Central","38017","46.927003","-97.252375 ","37635","278","232","4","12/13/2021 12:00:00 AM","2019","181923","NYTIMES-USCENSUS"
"12/14/2021 12:00:00 AM","Sampson County","North Carolina","South","South Atlantic","37163","34.989298","-78.371261 ","11784","141","10","0","12/13/2021 12:00:00 AM","2019","63531","NYTIMES-USCENSUS"
"12/14/2021 12:00:00 AM","Allegany County","Maryland","South","South Atlantic","24001","39.612313","-78.703104 ","10728","272","0","0","12/13/2021 12:00:00 AM","2019","70416","NYTIMES-USCENSUS"
"12/14/2021 12:00:00 AM","Clay County","Georgia","South","South Atlantic","13061","31.619831","-84.992583 ","317","4","0","0","12/13/2021 12:00:00 AM","2019","2834","NYTIMES-USCENSUS"
"12/14/2021 12:00:00 AM","Fayette County","Texas","South","West South Central","48149","29.877886","-96.921231 ","3666","93","0","0","12/13/2021 12:00:00 AM","2019","25346","NYTIMES-USCENSUS"
"12/14/2021 12:00:00 AM","Dent County","Missouri","Midwest","West North Central","29065","37.603072","-91.489717 ","2208","63","3","1","12/13/2021 12:00:00 AM","2019","15573","NYTIMES-USCENSUS"
"12/14/2021 12:00:00 AM","Lake County","Montana","West","Mountain","30047","47.642901","-114.083687 ","4749","83","5","0","12/13/2021 12:00:00 AM","2019","30458","NYTIMES-USCENSUS"
"12/14/2021 12:00:00 AM","Concho County","Texas","South","West South Central","48095","31.318883","-99.863649 ","747","10","3","0","12/13/2021 12:00:00 AM","2019","2726","NYTIMES-USCENSUS"
"12/14/2021 12:00:00 AM","Tioga County","Pennsylvania","Northeast","Middle Atlantic","42117","41.766859","-77.257288 ","5890","162","23","1","12/13/2021 12:00:00 AM","2019","40591","NYTIMES-USCENSUS"
"12/14/2021 12:00:00 AM","Charlotte County","Florida","South","South Atlantic","12015","26.906396","-82.003657 ","23758","672","0","0","12/13/2021 12:00:00 AM","2019","188910","NYTIMES-USCENSUS"
"12/14/2021 12:00:00 AM","Hudspeth County","Texas","South","West South Central","48229","31.450868","-105.377549 ","616","14","1","0","12/13/2021 12:00:00 AM","2019","4886","NYTIMES-USCENSUS"
"12/14/2021 12:00:00 AM","Lafayette County","Wisconsin","Midwest","East North Central","55065","42.655578","-90.130292 ","2559","16","9","1","12/13/2021 12:00:00 AM","2019","16665","NYTIMES-USCENSUS"
"12/14/2021 12:00:00 AM","Grant County","Oregon","West","Pacific","41023","44.496326","-119.014057 ","1096","17","0","0","12/13/2021 12:00:00 AM","2019","7199","NYTIMES-USCENSUS"
"12/14/2021 12:00:00 AM","Larue County","Kentucky","South","East South Central","21123","37.544462","-85.696841 ","2549","54","3","0","12/13/2021 12:00:00 AM","2019","14398","NYTIMES-USCENSUS"
"12/14/2021 12:00:00 AM","Lassen County","California","West","Pacific","06035","40.715287","-120.621223 ","8039","61","10","0","12/13/2021 12:00:00 AM","2019","30573","NYTIMES-USCENSUS"
"12/14/2021 12:00:00 AM","York County","Maine","Northeast","New England","23031","43.426019","-70.668425 ","21371","173","193","0","12/13/2021 12:00:00 AM","2019","207641","NYTIMES-USCENSUS"
"12/14/2021 12:00:00 AM","Beaufort County","South Carolina","South","South Atlantic","45013","32.358112","-80.689422 ","27923","319","17","0","12/13/2021 12:00:00 AM","2019","192122","NYTIMES-USCENSUS"
"12/14/2021 12:00:00 AM","Henry County","Illinois","Midwest","East North Central","17073","41.350021","-90.130838 ","7845","114","56","0","12/13/2021 12:00:00 AM","2019","48913","NYTIMES-USCENSUS"
"12/14/2021 12:00:00 AM","Bienville Parish","Louisiana","South","West South Central","22013","32.340952","-93.041151 ","2536","99","2","0","12/13/2021 12:00:00 AM","2019","13241","NYTIMES-USCENSUS"
"12/14/2021 12:00:00 AM","Kimble County","Texas","South","West South Central","48267","30.479472","-99.746396 ","454","11","0","0","12/13/2021 12:00:00 AM","2019","4337","NYTIMES-USCENSUS"
"12/14/2021 12:00:00 AM","Grundy County","Iowa","Midwest","West North Central","19075","42.403339","-92.790244 ","1914","37","0","0","12/13/2021 12:00:00 AM","2019","12232","NYTIMES-USCENSUS"
"12/14/2021 12:00:00 AM","Perry County","Kentucky","South","East South Central","21193","37.241282","-83.217772 ","6623","127","24","0","12/13/2021 12:00:00 AM","2019","25758","NYTIMES-USCENSUS"
"12/14/2021 12:00:00 AM","Hancock County","Maine","Northeast","New England","23009","44.564906","-68.370703 ","3936","56","63","0","12/13/2021 12:00:00 AM","2019","54987","NYTIMES-USCENSUS"
"12/14/2021 12:00:00 AM","Rockland County","New York","Northeast","Middle Atlantic","36087","41.154628","-74.024662 ","57095","786","120","1","12/13/2021 12:00:00 AM","2019","325789","NYTIMES-USCENSUS"
"12/14/2021 12:00:00 AM","Saline County","Missouri","Midwest","West North Central","29195","39.13584","-93.204164 ","4499","84","10","0","12/13/2021 12:00:00 AM","2019","22761","NYTIMES-USCENSUS"
"12/14/2021 12:00:00 AM","Marquette County","Michigan","Midwest","East North Central","26103","46.656596","-87.584028 ","9610","94","0","0","12/13/2021 12:00:00 AM","2019","66699","NYTIMES-USCENSUS"
"12/14/2021 12:00:00 AM","Nye County","Nevada","West","Mountain","32023","37.965864","-116.459011 ","5132","173","19","0","12/13/2021 12:00:00 AM","2019","46523","NYTIMES-USCENSUS"
"12/14/2021 12:00:00 AM","Hennepin County","Minnesota","Midwest","West North Central","27053","45.006121","-93.475228 ","189196","2094","1900","8","12/13/2021 12:00:00 AM","2019","1265843","NYTIMES-USCENSUS"
"12/14/2021 12:00:00 AM","Newton County","Texas","South","West South Central","48351","30.786718","-93.73925 ","967","54","1","0","12/13/2021 12:00:00 AM","2019","13595","NYTIMES-USCENSUS"
"12/14/2021 12:00:00 AM","Blanco County","Texas","South","West South Central","48031","30.266456","-98.399217 ","1327","28","4","0","12/13/2021 12:00:00 AM","2019","11931","NYTIMES-USCENSUS"
"12/14/2021 12:00:00 AM","Lamar County","Mississippi","South","East South Central","28073","31.197586","-89.506369 ","10754","140","2","0","12/13/2021 12:00:00 AM","2019","63343","NYTIMES-USCENSUS"
"12/14/2021 12:00:00 AM","Marion County","Oregon","West","Pacific","41047","44.900898","-122.57626 ","40803","531","101","3","12/13/2021 12:00:00 AM","2019","347818","NYTIMES-USCENSUS"
"12/14/2021 12:00:00 AM","Santa Clara County","California","West","Pacific","06085","37.221614","-121.68954 ","155362","1945","220","-1","12/13/2021 12:00:00 AM","2019","1927852","NYTIMES-USCENSUS"
"12/14/2021 12:00:00 AM","Tulsa County","Oklahoma","South","West South Central","40143","36.120318","-95.941813 ","113212","1788","0","0","12/13/2021 12:00:00 AM","2019","651552","NYTIMES-USCENSUS"
"12/14/2021 12:00:00 AM","Ness County","Kansas","Midwest","West North Central","20135","38.480437","-99.908745 ","557","17","0","0","12/13/2021 12:00:00 AM","2019","2750","NYTIMES-USCENSUS"
"12/14/2021 12:00:00 AM","Renville County","Minnesota","Midwest","West North Central","27129","44.723697","-94.955617 ","2791","51","13","0","12/13/2021 12:00:00 AM","2019","14548","NYTIMES-USCENSUS"
