"monitor_date","county","state_name","region","subregion","fips","latitude","longitude","case_count_to_date","death_count_to_date","case_count","death_count","previous_monitor_date","population_year","population","source"
"8/31/2021 12:00:00 AM","Goodhue County","Minnesota","Midwest","West North Central","27049","44.406178","-92.716 ","5238","76","40","0","8/30/2021 12:00:00 AM","2019","46340","NYTIMES-USCENSUS"
"8/31/2021 12:00:00 AM","King County","Washington","West","Pacific","53033","47.490552","-121.833977 ","135633","1769","527","10","8/30/2021 12:00:00 AM","2019","2252782","NYTIMES-USCENSUS"
"8/31/2021 12:00:00 AM","Hawaii County","Hawaii","West","Pacific","15001","19.597764","-155.502443 ","7634","59","65","0","8/30/2021 12:00:00 AM","2019","201513","NYTIMES-USCENSUS"
"8/31/2021 12:00:00 AM","Kiowa County","Kansas","Midwest","West North Central","20097","37.561231","-99.286539 ","272","5","0","0","8/30/2021 12:00:00 AM","2019","2475","NYTIMES-USCENSUS"
"8/31/2021 12:00:00 AM","Burke County","North Dakota","Midwest","West North Central","38013","48.786453","-102.520087 ","260","3","1","0","8/30/2021 12:00:00 AM","2019","2115","NYTIMES-USCENSUS"
"8/31/2021 12:00:00 AM","Henry County","Alabama","South","East South Central","01067","31.516978","-85.239971 ","2644","46","28","1","8/30/2021 12:00:00 AM","2019","17205","NYTIMES-USCENSUS"
"8/31/2021 12:00:00 AM","Otero County","Colorado","West","Mountain","08089","37.88417","-103.72126 ","2157","69","10","1","8/30/2021 12:00:00 AM","2019","18278","NYTIMES-USCENSUS"
"8/31/2021 12:00:00 AM","Pike County","Indiana","Midwest","East North Central","18125","38.397961","-87.232547 ","1732","35","9","0","8/30/2021 12:00:00 AM","2019","12389","NYTIMES-USCENSUS"
"8/31/2021 12:00:00 AM","Rusk County","Wisconsin","Midwest","East North Central","55107","45.472734","-91.136745 ","1570","25","2","0","8/30/2021 12:00:00 AM","2019","14178","NYTIMES-USCENSUS"
"8/31/2021 12:00:00 AM","Lincoln County","Nevada","West","Mountain","32017","37.634605","-114.863037 ","436","3","0","0","8/30/2021 12:00:00 AM","2019","5183","NYTIMES-USCENSUS"
"8/31/2021 12:00:00 AM","Crawford County","Georgia","South","South Atlantic","13079","32.709428","-83.979187 ","911","23","10","0","8/30/2021 12:00:00 AM","2019","12404","NYTIMES-USCENSUS"
"8/31/2021 12:00:00 AM","Henry County","Iowa","Midwest","West North Central","19087","40.984802","-91.547259 ","3208","39","0","0","8/30/2021 12:00:00 AM","2019","19954","NYTIMES-USCENSUS"
"8/31/2021 12:00:00 AM","Monroe County","Mississippi","South","East South Central","28095","33.89003","-88.485038 ","5776","150","16","0","8/30/2021 12:00:00 AM","2019","35252","NYTIMES-USCENSUS"
"8/31/2021 12:00:00 AM","Collingsworth County","Texas","South","West South Central","48087","34.963358","-100.272135 ","349","9","0","0","8/30/2021 12:00:00 AM","2019","2920","NYTIMES-USCENSUS"
"8/31/2021 12:00:00 AM","Coffee County","Alabama","South","East South Central","01031","31.402258","-85.989602 ","7999","145","74","0","8/30/2021 12:00:00 AM","2019","52342","NYTIMES-USCENSUS"
"8/31/2021 12:00:00 AM","Garvin County","Oklahoma","South","West South Central","40049","34.70935","-97.312723 ","4115","82","0","0","8/30/2021 12:00:00 AM","2019","27711","NYTIMES-USCENSUS"
"8/31/2021 12:00:00 AM","Gove County","Kansas","Midwest","West North Central","20063","38.917239","-100.48736 ","397","21","0","0","8/30/2021 12:00:00 AM","2019","2636","NYTIMES-USCENSUS"
"8/31/2021 12:00:00 AM","Adair County","Oklahoma","South","West South Central","40001","35.898043","-94.651026 ","4131","48","0","0","8/30/2021 12:00:00 AM","2019","22194","NYTIMES-USCENSUS"
"8/31/2021 12:00:00 AM","Gibson County","Tennessee","South","East South Central","47053","35.991632","-88.933812 ","8873","159","133","0","8/30/2021 12:00:00 AM","2019","49133","NYTIMES-USCENSUS"
"8/31/2021 12:00:00 AM","Washington County","Texas","South","West South Central","48477","30.215075","-96.410272 ","4912","104","3","0","8/30/2021 12:00:00 AM","2019","35882","NYTIMES-USCENSUS"
"8/31/2021 12:00:00 AM","Westmoreland County","Pennsylvania","Northeast","Middle Atlantic","42129","40.311068","-79.466688 ","36717","795","91","2","8/30/2021 12:00:00 AM","2019","348899","NYTIMES-USCENSUS"
"8/31/2021 12:00:00 AM","Rooks County","Kansas","Midwest","West North Central","20163","39.346006","-99.324492 ","679","11","0","0","8/30/2021 12:00:00 AM","2019","4920","NYTIMES-USCENSUS"
"8/31/2021 12:00:00 AM","Hill County","Texas","South","West South Central","48217","31.982681","-97.130668 ","5146","121","9","2","8/30/2021 12:00:00 AM","2019","36649","NYTIMES-USCENSUS"
"8/31/2021 12:00:00 AM","Howard County","Missouri","Midwest","West North Central","29089","39.143365","-92.695926 ","1259","10","1","0","8/30/2021 12:00:00 AM","2019","10001","NYTIMES-USCENSUS"
"8/31/2021 12:00:00 AM","Willacy County","Texas","South","West South Central","48489","26.481861","-97.594731 ","4108","96","21","0","8/30/2021 12:00:00 AM","2019","21358","NYTIMES-USCENSUS"
"8/31/2021 12:00:00 AM","Cotton County","Oklahoma","South","West South Central","40033","34.290676","-98.373438 ","766","16","0","0","8/30/2021 12:00:00 AM","2019","5666","NYTIMES-USCENSUS"
"8/31/2021 12:00:00 AM","Mills County","Iowa","Midwest","West North Central","19129","41.033703","-95.619101 ","1747","24","0","0","8/30/2021 12:00:00 AM","2019","15109","NYTIMES-USCENSUS"
"8/31/2021 12:00:00 AM","Duval County","Texas","South","West South Central","48131","27.681123","-98.497393 ","1675","46","3","0","8/30/2021 12:00:00 AM","2019","11157","NYTIMES-USCENSUS"
"8/31/2021 12:00:00 AM","Middlesex County","Massachusetts","Northeast","New England","25017","42.481718","-71.394916 ","144407","3814","292","3","8/30/2021 12:00:00 AM","2019","1611699","NYTIMES-USCENSUS"
"8/31/2021 12:00:00 AM","Petersburg Borough","Alaska","West","Pacific","02195","57.112458","-133.008598 ","203","1","0","0","8/30/2021 12:00:00 AM","2019","3266","NYTIMES-USCENSUS"
"8/31/2021 12:00:00 AM","Richland County","Illinois","Midwest","East North Central","17159","38.712187","-88.085452 ","2227","58","44","0","8/30/2021 12:00:00 AM","2019","15513","NYTIMES-USCENSUS"
"8/31/2021 12:00:00 AM","Butler County","Alabama","South","East South Central","01013","31.751667","-86.681969 ","2814","75","21","1","8/30/2021 12:00:00 AM","2019","19448","NYTIMES-USCENSUS"
"8/31/2021 12:00:00 AM","Butler County","Iowa","Midwest","West North Central","19023","42.734757","-92.780153 ","1827","36","0","0","8/30/2021 12:00:00 AM","2019","14439","NYTIMES-USCENSUS"
"8/31/2021 12:00:00 AM","Mecklenburg County","North Carolina","South","South Atlantic","37119","35.246862","-80.833832 ","135931","1050","509","6","8/30/2021 12:00:00 AM","2019","1110356","NYTIMES-USCENSUS"
"8/31/2021 12:00:00 AM","Washington County","Oregon","West","Pacific","41067","45.553542","-123.097615 ","31833","266","140","0","8/30/2021 12:00:00 AM","2019","601592","NYTIMES-USCENSUS"
"8/31/2021 12:00:00 AM","Woodward County","Oklahoma","South","West South Central","40153","36.425619","-99.273661 ","3287","38","0","0","8/30/2021 12:00:00 AM","2019","20211","NYTIMES-USCENSUS"
"8/31/2021 12:00:00 AM","Cook County","Georgia","South","South Atlantic","13075","31.152516","-83.429445 ","3205","47","74","0","8/30/2021 12:00:00 AM","2019","17270","NYTIMES-USCENSUS"
"8/31/2021 12:00:00 AM","Jones County","Iowa","Midwest","West North Central","19105","42.125118","-91.116914 ","3143","57","0","0","8/30/2021 12:00:00 AM","2019","20681","NYTIMES-USCENSUS"
"8/31/2021 12:00:00 AM","Calvert County","Maryland","South","South Atlantic","24009","38.522719","-76.529762 ","4685","88","21","0","8/30/2021 12:00:00 AM","2019","92525","NYTIMES-USCENSUS"
"8/31/2021 12:00:00 AM","Wolfe County","Kentucky","South","East South Central","21237","37.743893","-83.49511 ","807","8","12","0","8/30/2021 12:00:00 AM","2019","7157","NYTIMES-USCENSUS"
"8/31/2021 12:00:00 AM","Carroll County","Missouri","Midwest","West North Central","29033","39.427375","-93.500227 ","1253","25","0","0","8/30/2021 12:00:00 AM","2019","8679","NYTIMES-USCENSUS"
"8/31/2021 12:00:00 AM","Yamhill County","Oregon","West","Pacific","41071","45.247827","-123.316399 ","6425","90","99","3","8/30/2021 12:00:00 AM","2019","107100","NYTIMES-USCENSUS"
"8/31/2021 12:00:00 AM","Guadalupe County","New Mexico","West","Mountain","35019","34.869782","-104.784968 ","795","15","1","0","8/30/2021 12:00:00 AM","2019","4300","NYTIMES-USCENSUS"
"8/31/2021 12:00:00 AM","Clark County","Kansas","Midwest","West North Central","20025","37.233831","-99.813869 ","282","7","0","0","8/30/2021 12:00:00 AM","2019","1994","NYTIMES-USCENSUS"
"8/31/2021 12:00:00 AM","Saunders County","Nebraska","Midwest","West North Central","31155","41.223388","-96.642097 ","2575","20","0","0","8/30/2021 12:00:00 AM","2019","21578","NYTIMES-USCENSUS"
"8/31/2021 12:00:00 AM","Kanabec County","Minnesota","Midwest","West North Central","27065","45.94776","-93.297788 ","1567","29","7","0","8/30/2021 12:00:00 AM","2019","16337","NYTIMES-USCENSUS"
"8/31/2021 12:00:00 AM","Lewis County","West Virginia","South","South Atlantic","54041","38.988877","-80.495477 ","1743","24","16","0","8/30/2021 12:00:00 AM","2019","15907","NYTIMES-USCENSUS"
"8/31/2021 12:00:00 AM","Bamberg County","South Carolina","South","South Atlantic","45009","33.203021","-81.053161 ","1810","55","14","0","8/30/2021 12:00:00 AM","2019","14066","NYTIMES-USCENSUS"
"8/31/2021 12:00:00 AM","Livingston County","Kentucky","South","East South Central","21139","37.209517","-88.363426 ","1089","27","2","0","8/30/2021 12:00:00 AM","2019","9194","NYTIMES-USCENSUS"
"8/31/2021 12:00:00 AM","Churchill County","Nevada","West","Mountain","32001","39.53771","-118.264166 ","2488","50","5","1","8/30/2021 12:00:00 AM","2019","24909","NYTIMES-USCENSUS"
"8/31/2021 12:00:00 AM","Sussex County","New Jersey","Northeast","Middle Atlantic","34037","41.137461","-74.691914 ","14986","313","21","0","8/30/2021 12:00:00 AM","2019","140488","NYTIMES-USCENSUS"
"8/31/2021 12:00:00 AM","Catawba County","North Carolina","South","South Atlantic","37035","35.661883","-81.214906 ","23306","330","107","5","8/30/2021 12:00:00 AM","2019","159551","NYTIMES-USCENSUS"
"8/31/2021 12:00:00 AM","Cayuga County","New York","Northeast","Middle Atlantic","36011","43.008546","-76.574587 ","7140","95","25","0","8/30/2021 12:00:00 AM","2019","76576","NYTIMES-USCENSUS"
"8/31/2021 12:00:00 AM","Hodgeman County","Kansas","Midwest","West North Central","20083","38.087493","-99.898407 ","223","10","0","0","8/30/2021 12:00:00 AM","2019","1794","NYTIMES-USCENSUS"
"8/31/2021 12:00:00 AM","Independence County","Arkansas","South","West South Central","05063","35.737499","-91.559942 ","5298","142","30","0","8/30/2021 12:00:00 AM","2019","37825","NYTIMES-USCENSUS"
"8/31/2021 12:00:00 AM","DeKalb County","Tennessee","South","East South Central","47041","35.982219","-85.833596 ","3445","59","53","0","8/30/2021 12:00:00 AM","2019","20490","NYTIMES-USCENSUS"
"8/31/2021 12:00:00 AM","Wayne County","West Virginia","South","South Atlantic","54099","38.143642","-82.422666 ","3760","48","29","0","8/30/2021 12:00:00 AM","2019","39402","NYTIMES-USCENSUS"
"8/31/2021 12:00:00 AM","Lamoille County","Vermont","Northeast","New England","50015","44.611192","-72.632659 ","981","3","4","0","8/30/2021 12:00:00 AM","2019","25362","NYTIMES-USCENSUS"
"8/31/2021 12:00:00 AM","Marion County","Tennessee","South","East South Central","47115","35.133422","-85.618399 ","4516","51","122","0","8/30/2021 12:00:00 AM","2019","28907","NYTIMES-USCENSUS"
"8/31/2021 12:00:00 AM","Dickinson County","Iowa","Midwest","West North Central","19059","43.389611","-95.196057 ","2584","46","0","0","8/30/2021 12:00:00 AM","2019","17258","NYTIMES-USCENSUS"
"8/31/2021 12:00:00 AM","Northampton County","Pennsylvania","Northeast","Middle Atlantic","42095","40.752791","-75.307447 ","38707","733","68","0","8/30/2021 12:00:00 AM","2019","305285","NYTIMES-USCENSUS"
"8/31/2021 12:00:00 AM","Nodaway County","Missouri","Midwest","West North Central","29147","40.361136","-94.883146 ","3087","31","12","0","8/30/2021 12:00:00 AM","2019","22092","NYTIMES-USCENSUS"
"8/31/2021 12:00:00 AM","Sherman County","Texas","South","West South Central","48421","36.278593","-101.899265 ","270","12","0","0","8/30/2021 12:00:00 AM","2019","3022","NYTIMES-USCENSUS"
"8/31/2021 12:00:00 AM","Chippewa County","Michigan","Midwest","East North Central","26033","46.321819","-84.52063 ","5805","50","0","0","8/30/2021 12:00:00 AM","2019","37349","NYTIMES-USCENSUS"
"8/31/2021 12:00:00 AM","Otsego County","New York","Northeast","Middle Atlantic","36077","42.629776","-75.028841 ","3825","49","14","0","8/30/2021 12:00:00 AM","2019","59493","NYTIMES-USCENSUS"
"8/31/2021 12:00:00 AM","Butler County","Ohio","Midwest","East North Central","39017","39.439747","-84.565734 ","42931","635","219","5","8/30/2021 12:00:00 AM","2019","383134","NYTIMES-USCENSUS"
"8/31/2021 12:00:00 AM","Lauderdale County","Alabama","South","East South Central","01077","34.904122","-87.650997 ","11982","258","61","0","8/30/2021 12:00:00 AM","2019","92729","NYTIMES-USCENSUS"
"8/31/2021 12:00:00 AM","Palo Alto County","Iowa","Midwest","West North Central","19147","43.075337","-94.669055 ","1189","24","0","0","8/30/2021 12:00:00 AM","2019","8886","NYTIMES-USCENSUS"
"8/31/2021 12:00:00 AM","Lyon County","Kansas","Midwest","West North Central","20111","38.455403","-96.161641 ","4794","88","0","0","8/30/2021 12:00:00 AM","2019","33195","NYTIMES-USCENSUS"
"8/31/2021 12:00:00 AM","Clare County","Michigan","Midwest","East North Central","26035","43.991137","-84.838325 ","2667","88","0","0","8/30/2021 12:00:00 AM","2019","30950","NYTIMES-USCENSUS"
"8/31/2021 12:00:00 AM","White County","Indiana","Midwest","East North Central","18181","40.75095","-86.864293 ","3650","57","5","1","8/30/2021 12:00:00 AM","2019","24102","NYTIMES-USCENSUS"
"8/31/2021 12:00:00 AM","Jackson County","Ohio","Midwest","East North Central","39079","39.013477","-82.614142 ","3520","55","19","0","8/30/2021 12:00:00 AM","2019","32413","NYTIMES-USCENSUS"
"8/31/2021 12:00:00 AM","Johnson County","Kentucky","South","East South Central","21115","37.847756","-82.830121 ","2765","38","21","0","8/30/2021 12:00:00 AM","2019","22188","NYTIMES-USCENSUS"
"8/31/2021 12:00:00 AM","Polk County","Minnesota","Midwest","West North Central","27119","47.774254","-96.400027 ","4089","75","16","0","8/30/2021 12:00:00 AM","2019","31364","NYTIMES-USCENSUS"
"8/31/2021 12:00:00 AM","Crittenden County","Kentucky","South","East South Central","21055","37.358149","-88.10501 ","852","27","3","0","8/30/2021 12:00:00 AM","2019","8806","NYTIMES-USCENSUS"
"8/31/2021 12:00:00 AM","Holmes County","Mississippi","South","East South Central","28051","33.125942","-90.091197 ","2410","81","4","1","8/30/2021 12:00:00 AM","2019","17010","NYTIMES-USCENSUS"
"8/31/2021 12:00:00 AM","Marshall County","South Dakota","Midwest","West North Central","46091","45.737044","-97.58087 ","389","6","0","0","8/30/2021 12:00:00 AM","2019","4935","NYTIMES-USCENSUS"
"8/31/2021 12:00:00 AM","Montgomery County","Georgia","South","South Atlantic","13209","32.172108","-82.533349 ","1281","25","20","0","8/30/2021 12:00:00 AM","2019","9172","NYTIMES-USCENSUS"
"8/31/2021 12:00:00 AM","Curry County","Oregon","West","Pacific","41015","42.466439","-124.210929 ","1468","16","14","0","8/30/2021 12:00:00 AM","2019","22925","NYTIMES-USCENSUS"
"8/31/2021 12:00:00 AM","Cumberland County","Illinois","Midwest","East North Central","17035","39.273121","-88.240619 ","1486","33","26","0","8/30/2021 12:00:00 AM","2019","10766","NYTIMES-USCENSUS"
"8/31/2021 12:00:00 AM","Coahoma County","Mississippi","South","East South Central","28027","34.230316","-90.60401 ","3586","90","6","0","8/30/2021 12:00:00 AM","2019","22124","NYTIMES-USCENSUS"
"8/31/2021 12:00:00 AM","Logan County","Kentucky","South","East South Central","21141","36.859607","-86.881288 ","3968","77","35","0","8/30/2021 12:00:00 AM","2019","27102","NYTIMES-USCENSUS"
"8/31/2021 12:00:00 AM","Alamance County","North Carolina","South","South Atlantic","37001","36.043954","-79.400573 ","21733","294","53","0","8/30/2021 12:00:00 AM","2019","169509","NYTIMES-USCENSUS"
"8/31/2021 12:00:00 AM","Grundy County","Tennessee","South","East South Central","47061","35.393386","-85.710379 ","2157","36","21","0","8/30/2021 12:00:00 AM","2019","13427","NYTIMES-USCENSUS"
"8/31/2021 12:00:00 AM","Monroe County","Florida","South","South Atlantic","12087","25.58612","-81.022603 ","9111","52","0","0","8/30/2021 12:00:00 AM","2019","74228","NYTIMES-USCENSUS"
"8/31/2021 12:00:00 AM","Dodge County","Nebraska","Midwest","West North Central","31053","41.577008","-96.645852 ","5023","83","0","0","8/30/2021 12:00:00 AM","2019","36565","NYTIMES-USCENSUS"
"8/31/2021 12:00:00 AM","Shelby County","Illinois","Midwest","East North Central","17173","39.384926","-88.798862 ","2652","43","16","0","8/30/2021 12:00:00 AM","2019","21634","NYTIMES-USCENSUS"
"8/31/2021 12:00:00 AM","Leelanau County","Michigan","Midwest","East North Central","26089","45.146182","-86.051574 ","1355","21","0","0","8/30/2021 12:00:00 AM","2019","21761","NYTIMES-USCENSUS"
"8/31/2021 12:00:00 AM","Scott County","Kentucky","South","East South Central","21209","38.28571","-84.57834 ","6391","37","38","0","8/30/2021 12:00:00 AM","2019","57004","NYTIMES-USCENSUS"
"8/31/2021 12:00:00 AM","Roosevelt County","Montana","West","Mountain","30085","48.282747","-104.99517 ","1742","55","4","0","8/30/2021 12:00:00 AM","2019","11004","NYTIMES-USCENSUS"
"8/31/2021 12:00:00 AM","New Hanover County","North Carolina","South","South Atlantic","37129","34.183445","-77.864204 ","24041","199","144","4","8/30/2021 12:00:00 AM","2019","234473","NYTIMES-USCENSUS"
"8/31/2021 12:00:00 AM","Montour County","Pennsylvania","Northeast","Middle Atlantic","42093","41.029284","-76.665225 ","2088","67","6","0","8/30/2021 12:00:00 AM","2019","18230","NYTIMES-USCENSUS"
"8/31/2021 12:00:00 AM","Marshall County","Kentucky","South","East South Central","21157","36.882017","-88.332752 ","4104","68","16","0","8/30/2021 12:00:00 AM","2019","31100","NYTIMES-USCENSUS"
"8/31/2021 12:00:00 AM","Washington County","Mississippi","South","East South Central","28151","33.273174","-90.944446 ","6269","143","4","1","8/30/2021 12:00:00 AM","2019","43909","NYTIMES-USCENSUS"
"8/31/2021 12:00:00 AM","Davie County","North Carolina","South","South Atlantic","37059","35.929355","-80.542552 ","5043","49","21","0","8/30/2021 12:00:00 AM","2019","42846","NYTIMES-USCENSUS"
"8/31/2021 12:00:00 AM","Hickman County","Tennessee","South","East South Central","47081","35.802327","-87.467116 ","3735","50","72","0","8/30/2021 12:00:00 AM","2019","25178","NYTIMES-USCENSUS"
"8/31/2021 12:00:00 AM","Ochiltree County","Texas","South","West South Central","48357","36.278744","-100.815864 ","1285","29","0","0","8/30/2021 12:00:00 AM","2019","9836","NYTIMES-USCENSUS"
"8/31/2021 12:00:00 AM","Jackson County","Alabama","South","East South Central","01071","34.764114","-85.980056 ","8236","124","58","1","8/30/2021 12:00:00 AM","2019","51626","NYTIMES-USCENSUS"
"8/31/2021 12:00:00 AM","Seward County","Nebraska","Midwest","West North Central","31159","40.871944","-97.140383 ","2055","34","0","0","8/30/2021 12:00:00 AM","2019","17284","NYTIMES-USCENSUS"
"8/31/2021 12:00:00 AM","Jasper County","Indiana","Midwest","East North Central","18073","41.017688","-87.118814 ","4336","61","15","0","8/30/2021 12:00:00 AM","2019","33562","NYTIMES-USCENSUS"
"8/31/2021 12:00:00 AM","Hawkins County","Tennessee","South","East South Central","47073","36.452089","-82.931485 ","7791","130","74","0","8/30/2021 12:00:00 AM","2019","56786","NYTIMES-USCENSUS"
"8/31/2021 12:00:00 AM","Bristol city","Virginia","South","South Atlantic","51520","36.616954","-82.157564 ","1846","40","11","0","8/30/2021 12:00:00 AM","2019","16762","NYTIMES-USCENSUS"
"8/31/2021 12:00:00 AM","Madison County","Arkansas","South","West South Central","05087","36.012545","-93.724053 ","2123","32","23","0","8/30/2021 12:00:00 AM","2019","16576","NYTIMES-USCENSUS"
"8/31/2021 12:00:00 AM","Traverse County","Minnesota","Midwest","West North Central","27155","45.769935","-96.474832 ","401","5","2","0","8/30/2021 12:00:00 AM","2019","3259","NYTIMES-USCENSUS"
"8/31/2021 12:00:00 AM","Barnstable County","Massachusetts","Northeast","New England","25001","41.706123","-70.164823 ","15524","488","42","0","8/30/2021 12:00:00 AM","2019","212990","NYTIMES-USCENSUS"
"8/31/2021 12:00:00 AM","Lamb County","Texas","South","West South Central","48279","34.068861","-102.348018 ","2740","86","0","0","8/30/2021 12:00:00 AM","2019","12893","NYTIMES-USCENSUS"
"8/31/2021 12:00:00 AM","San Jacinto County","Texas","South","West South Central","48407","30.574388","-95.163136 ","2130","42","11","0","8/30/2021 12:00:00 AM","2019","28859","NYTIMES-USCENSUS"
"8/31/2021 12:00:00 AM","Lincoln County","South Dakota","Midwest","West North Central","46083","43.27942","-96.722286 ","9126","78","48","0","8/30/2021 12:00:00 AM","2019","61128","NYTIMES-USCENSUS"
"8/31/2021 12:00:00 AM","Lincoln County","Tennessee","South","East South Central","47103","35.142784","-86.593403 ","5464","72","43","1","8/30/2021 12:00:00 AM","2019","34366","NYTIMES-USCENSUS"
"8/31/2021 12:00:00 AM","Owyhee County","Idaho","West","Mountain","16073","42.572851","-116.18969 ","1210","31","6","0","8/30/2021 12:00:00 AM","2019","11823","NYTIMES-USCENSUS"
"8/31/2021 12:00:00 AM","Shelby County","Kentucky","South","East South Central","21211","38.239011","-85.228247 ","5801","86","25","0","8/30/2021 12:00:00 AM","2019","49024","NYTIMES-USCENSUS"
"8/31/2021 12:00:00 AM","Walker County","Georgia","South","South Atlantic","13295","34.735802","-85.305456 ","9428","95","66","0","8/30/2021 12:00:00 AM","2019","69761","NYTIMES-USCENSUS"
"8/31/2021 12:00:00 AM","Jasper County","Illinois","Midwest","East North Central","17079","39.004886","-88.150725 ","1337","20","11","0","8/30/2021 12:00:00 AM","2019","9610","NYTIMES-USCENSUS"
"8/31/2021 12:00:00 AM","Douglas County","Oregon","West","Pacific","41019","43.286328","-123.154476 ","8746","136","176","2","8/30/2021 12:00:00 AM","2019","110980","NYTIMES-USCENSUS"
"8/31/2021 12:00:00 AM","Nicollet County","Minnesota","Midwest","West North Central","27103","44.35882","-94.245684 ","3541","46","17","0","8/30/2021 12:00:00 AM","2019","34274","NYTIMES-USCENSUS"
"8/31/2021 12:00:00 AM","Orange County","Texas","South","West South Central","48361","30.122323","-93.8941 ","11635","175","225","1","8/30/2021 12:00:00 AM","2019","83396","NYTIMES-USCENSUS"
"8/31/2021 12:00:00 AM","Warren County","Ohio","Midwest","East North Central","39165","39.425663","-84.16994 ","27037","317","147","1","8/30/2021 12:00:00 AM","2019","234602","NYTIMES-USCENSUS"
"8/31/2021 12:00:00 AM","Winn Parish","Louisiana","South","West South Central","22127","31.941187","-92.641269 ","2222","52","0","0","8/30/2021 12:00:00 AM","2019","13904","NYTIMES-USCENSUS"
"8/31/2021 12:00:00 AM","Wabasha County","Minnesota","Midwest","West North Central","27157","44.289634","-92.233454 ","2270","4","26","0","8/30/2021 12:00:00 AM","2019","21627","NYTIMES-USCENSUS"
"8/31/2021 12:00:00 AM","Brookings County","South Dakota","Midwest","West North Central","46011","44.376675","-96.797797 ","4480","37","24","0","8/30/2021 12:00:00 AM","2019","35077","NYTIMES-USCENSUS"
"8/31/2021 12:00:00 AM","Carbon County","Utah","West","Mountain","49007","39.673284","-110.588484 ","2046","20","17","0","8/30/2021 12:00:00 AM","2019","20463","NYTIMES-USCENSUS"
"8/31/2021 12:00:00 AM","Houston County","Georgia","South","South Atlantic","13153","32.458287","-83.662522 ","20273","281","118","0","8/30/2021 12:00:00 AM","2019","157863","NYTIMES-USCENSUS"
"8/31/2021 12:00:00 AM","Abbeville County","South Carolina","South","South Atlantic","45001","34.229041","-82.454058 ","3010","42","33","0","8/30/2021 12:00:00 AM","2019","24527","NYTIMES-USCENSUS"
"8/31/2021 12:00:00 AM","Boyd County","Nebraska","Midwest","West North Central","31015","42.894448","-98.773022 ","207","3","0","0","8/30/2021 12:00:00 AM","2019","1919","NYTIMES-USCENSUS"
"8/31/2021 12:00:00 AM","Genesee County","New York","Northeast","Middle Atlantic","36037","43.00091","-78.192778 ","5713","124","7","0","8/30/2021 12:00:00 AM","2019","57280","NYTIMES-USCENSUS"
"8/31/2021 12:00:00 AM","Johnson County","Texas","South","West South Central","48251","32.379821","-97.364959 ","23048","416","272","3","8/30/2021 12:00:00 AM","2019","175817","NYTIMES-USCENSUS"
"8/31/2021 12:00:00 AM","Gilchrist County","Florida","South","South Atlantic","12041","29.723456","-82.795801 ","2539","44","0","0","8/30/2021 12:00:00 AM","2019","18582","NYTIMES-USCENSUS"
"8/31/2021 12:00:00 AM","Webster County","Kentucky","South","East South Central","21233","37.51946","-87.68479 ","1940","26","6","0","8/30/2021 12:00:00 AM","2019","12942","NYTIMES-USCENSUS"
"8/31/2021 12:00:00 AM","Bedford County","Pennsylvania","Northeast","Middle Atlantic","42009","39.998634","-78.494747 ","5008","144","11","0","8/30/2021 12:00:00 AM","2019","47888","NYTIMES-USCENSUS"
"8/31/2021 12:00:00 AM","Howard County","Iowa","Midwest","West North Central","19089","43.365312","-92.321908 ","1089","22","0","0","8/30/2021 12:00:00 AM","2019","9158","NYTIMES-USCENSUS"
"8/31/2021 12:00:00 AM","Vinton County","Ohio","Midwest","East North Central","39163","39.252042","-82.485961 ","1059","17","12","0","8/30/2021 12:00:00 AM","2019","13085","NYTIMES-USCENSUS"
"8/31/2021 12:00:00 AM","Mathews County","Virginia","South","South Atlantic","51115","37.425348","-76.268808 ","722","14","6","0","8/30/2021 12:00:00 AM","2019","8834","NYTIMES-USCENSUS"
"8/31/2021 12:00:00 AM","Caldwell County","Missouri","Midwest","West North Central","29025","39.658998","-93.979179 ","1044","18","3","0","8/30/2021 12:00:00 AM","2019","9020","NYTIMES-USCENSUS"
"8/31/2021 12:00:00 AM","Christian County","Missouri","Midwest","West North Central","29043","36.969739","-93.187614 ","12567","142","0","3","8/30/2021 12:00:00 AM","2019","88595","NYTIMES-USCENSUS"
"8/31/2021 12:00:00 AM","Lancaster County","Virginia","South","South Atlantic","51103","37.704843","-76.412663 ","873","19","2","0","8/30/2021 12:00:00 AM","2019","10603","NYTIMES-USCENSUS"
"8/31/2021 12:00:00 AM","Deaf Smith County","Texas","South","West South Central","48117","34.940766","-102.607564 ","3129","68","0","0","8/30/2021 12:00:00 AM","2019","18546","NYTIMES-USCENSUS"
"8/31/2021 12:00:00 AM","Blanco County","Texas","South","West South Central","48031","30.266456","-98.399217 ","971","23","9","0","8/30/2021 12:00:00 AM","2019","11931","NYTIMES-USCENSUS"
"8/31/2021 12:00:00 AM","Hampton city","Virginia","South","South Atlantic","51650","37.047961","-76.297293 ","12561","190","91","1","8/30/2021 12:00:00 AM","2019","134510","NYTIMES-USCENSUS"
"8/31/2021 12:00:00 AM","Washington County","Georgia","South","South Atlantic","13303","32.971843","-82.798112 ","2745","92","-69","0","8/30/2021 12:00:00 AM","2019","20374","NYTIMES-USCENSUS"
"8/31/2021 12:00:00 AM","Navarro County","Texas","South","West South Central","48349","32.048448","-96.476909 ","7341","154","88","0","8/30/2021 12:00:00 AM","2019","50113","NYTIMES-USCENSUS"
"8/31/2021 12:00:00 AM","Pike County","Arkansas","South","West South Central","05109","34.158191","-93.658659 ","1412","29","14","0","8/30/2021 12:00:00 AM","2019","10718","NYTIMES-USCENSUS"
"8/31/2021 12:00:00 AM","St. Helena Parish","Louisiana","South","West South Central","22091","30.822539","-90.708307 ","1226","12","0","0","8/30/2021 12:00:00 AM","2019","10132","NYTIMES-USCENSUS"
"8/31/2021 12:00:00 AM","Allegan County","Michigan","Midwest","East North Central","26005","42.421251","-86.261403 ","12019","165","0","0","8/30/2021 12:00:00 AM","2019","118081","NYTIMES-USCENSUS"
"8/31/2021 12:00:00 AM","St. Joseph County","Michigan","Midwest","East North Central","26149","41.911488","-85.52287 ","6688","104","0","0","8/30/2021 12:00:00 AM","2019","60964","NYTIMES-USCENSUS"
"8/31/2021 12:00:00 AM","Fillmore County","Nebraska","Midwest","West North Central","31059","40.52504","-97.596705 ","507","13","0","0","8/30/2021 12:00:00 AM","2019","5462","NYTIMES-USCENSUS"
"8/31/2021 12:00:00 AM","Mineral County","Colorado","West","Mountain","08079","37.549067","-107.003236 ","100","1","0","0","8/30/2021 12:00:00 AM","2019","769","NYTIMES-USCENSUS"
"8/31/2021 12:00:00 AM","Nemaha County","Nebraska","Midwest","West North Central","31127","40.387389","-95.852721 ","804","13","0","0","8/30/2021 12:00:00 AM","2019","6972","NYTIMES-USCENSUS"
"8/31/2021 12:00:00 AM","Miller County","Missouri","Midwest","West North Central","29131","38.21668","-92.429876 ","3555","68","4","1","8/30/2021 12:00:00 AM","2019","25619","NYTIMES-USCENSUS"
"8/31/2021 12:00:00 AM","Lee County","South Carolina","South","South Atlantic","45061","34.15864","-80.251209 ","2196","66","6","0","8/30/2021 12:00:00 AM","2019","16828","NYTIMES-USCENSUS"
"8/31/2021 12:00:00 AM","George County","Mississippi","South","East South Central","28039","30.855431","-88.642268 ","4014","60","16","0","8/30/2021 12:00:00 AM","2019","24500","NYTIMES-USCENSUS"
"8/31/2021 12:00:00 AM","Hillsborough County","Florida","South","South Atlantic","12057","27.88761","-82.374417 ","205706","1832","0","0","8/30/2021 12:00:00 AM","2019","1471968","NYTIMES-USCENSUS"
"8/31/2021 12:00:00 AM","Richland County","Ohio","Midwest","East North Central","39139","40.774159","-82.542781 ","13557","219","135","1","8/30/2021 12:00:00 AM","2019","121154","NYTIMES-USCENSUS"
"8/31/2021 12:00:00 AM","Eastland County","Texas","South","West South Central","48133","32.324645","-98.83656 ","1675","55","42","0","8/30/2021 12:00:00 AM","2019","18360","NYTIMES-USCENSUS"
"8/31/2021 12:00:00 AM","Poinsett County","Arkansas","South","West South Central","05111","35.56887","-90.681104 ","4222","92","57","1","8/30/2021 12:00:00 AM","2019","23528","NYTIMES-USCENSUS"
"8/31/2021 12:00:00 AM","White Pine County","Nevada","West","Mountain","32033","39.418176","-114.900565 ","722","8","0","0","8/30/2021 12:00:00 AM","2019","9580","NYTIMES-USCENSUS"
"8/31/2021 12:00:00 AM","Goshen County","Wyoming","West","Mountain","56015","42.089455","-104.35354 ","1497","25","8","0","8/30/2021 12:00:00 AM","2019","13211","NYTIMES-USCENSUS"
"8/31/2021 12:00:00 AM","Treutlen County","Georgia","South","South Atlantic","13283","32.409586","-82.570882 ","1109","37","6","0","8/30/2021 12:00:00 AM","2019","6901","NYTIMES-USCENSUS"
"8/31/2021 12:00:00 AM","Hughes County","Oklahoma","South","West South Central","40063","35.052934","-96.251183 ","1410","30","0","0","8/30/2021 12:00:00 AM","2019","13279","NYTIMES-USCENSUS"
"8/31/2021 12:00:00 AM","New Castle County","Delaware","South","South Atlantic","10003","39.575915","-75.644132 ","69966","933","89","1","8/30/2021 12:00:00 AM","2019","558753","NYTIMES-USCENSUS"
"8/31/2021 12:00:00 AM","Macon County","Georgia","South","South Atlantic","13193","32.362686","-84.051231 ","1122","38","7","0","8/30/2021 12:00:00 AM","2019","12947","NYTIMES-USCENSUS"
"8/31/2021 12:00:00 AM","Robeson County","North Carolina","South","South Atlantic","37155","34.63921","-79.100881 ","21563","315","95","-1","8/30/2021 12:00:00 AM","2019","130625","NYTIMES-USCENSUS"
"8/31/2021 12:00:00 AM","Dimmit County","Texas","South","West South Central","48127","28.423587","-99.765871 ","3496","38","17","0","8/30/2021 12:00:00 AM","2019","10124","NYTIMES-USCENSUS"
"8/31/2021 12:00:00 AM","Dade County","Georgia","South","South Atlantic","13083","34.852424","-85.506201 ","1845","15","11","0","8/30/2021 12:00:00 AM","2019","16116","NYTIMES-USCENSUS"
"8/31/2021 12:00:00 AM","Sevier County","Utah","West","Mountain","49041","38.746824","-111.81193 ","2688","15","26","0","8/30/2021 12:00:00 AM","2019","21620","NYTIMES-USCENSUS"
"8/31/2021 12:00:00 AM","Pitkin County","Colorado","West","Mountain","08097","39.217541","-106.916162 ","2824","4","11","0","8/30/2021 12:00:00 AM","2019","17767","NYTIMES-USCENSUS"
"8/31/2021 12:00:00 AM","Jefferson County","Tennessee","South","East South Central","47089","36.048338","-83.441143 ","7812","132","85","0","8/30/2021 12:00:00 AM","2019","54495","NYTIMES-USCENSUS"
"8/31/2021 12:00:00 AM","Jackson County","Illinois","Midwest","East North Central","17077","37.786096","-89.381212 ","6821","83","48","1","8/30/2021 12:00:00 AM","2019","56750","NYTIMES-USCENSUS"
"8/31/2021 12:00:00 AM","Sandusky County","Ohio","Midwest","East North Central","39143","41.355319","-83.142776 ","6037","131","44","0","8/30/2021 12:00:00 AM","2019","58518","NYTIMES-USCENSUS"
"8/31/2021 12:00:00 AM","Warren County","Illinois","Midwest","East North Central","17187","40.850441","-90.620223 ","2019","54","14","0","8/30/2021 12:00:00 AM","2019","16844","NYTIMES-USCENSUS"
"8/31/2021 12:00:00 AM","Tattnall County","Georgia","South","South Atlantic","13267","32.043768","-82.059208 ","3385","83","46","2","8/30/2021 12:00:00 AM","2019","25286","NYTIMES-USCENSUS"
"8/31/2021 12:00:00 AM","Box Butte County","Nebraska","Midwest","West North Central","31013","42.21038","-103.081779 ","982","11","0","0","8/30/2021 12:00:00 AM","2019","10783","NYTIMES-USCENSUS"
"8/31/2021 12:00:00 AM","Wells County","North Dakota","Midwest","West North Central","38103","47.580851","-99.682213 ","470","8","1","0","8/30/2021 12:00:00 AM","2019","3834","NYTIMES-USCENSUS"
"8/31/2021 12:00:00 AM","Buffalo County","Wisconsin","Midwest","East North Central","55011","44.385633","-91.761294 ","1533","7","10","0","8/30/2021 12:00:00 AM","2019","13031","NYTIMES-USCENSUS"
"8/31/2021 12:00:00 AM","Cherokee County","Georgia","South","South Atlantic","13057","34.244317","-84.475057 ","38169","354","306","2","8/30/2021 12:00:00 AM","2019","258773","NYTIMES-USCENSUS"
"8/31/2021 12:00:00 AM","Bacon County","Georgia","South","South Atlantic","13005","31.55021","-82.451433 ","2188","45","9","0","8/30/2021 12:00:00 AM","2019","11164","NYTIMES-USCENSUS"
"8/31/2021 12:00:00 AM","Lamar County","Alabama","South","East South Central","01075","33.787085","-88.087431 ","1710","38","5","0","8/30/2021 12:00:00 AM","2019","13805","NYTIMES-USCENSUS"
"8/31/2021 12:00:00 AM","Tippecanoe County","Indiana","Midwest","East North Central","18157","40.389133","-86.893554 ","25453","240","61","0","8/30/2021 12:00:00 AM","2019","195732","NYTIMES-USCENSUS"
"8/31/2021 12:00:00 AM","Gray County","Kansas","Midwest","West North Central","20069","37.744513","-100.451716 ","677","14","0","0","8/30/2021 12:00:00 AM","2019","5988","NYTIMES-USCENSUS"
"8/31/2021 12:00:00 AM","Ford County","Illinois","Midwest","East North Central","17053","40.596539","-88.224588 ","2171","60","20","0","8/30/2021 12:00:00 AM","2019","12961","NYTIMES-USCENSUS"
"8/31/2021 12:00:00 AM","Norfolk city","Virginia","South","South Atlantic","51710","36.923015","-76.244641 ","20730","284","109","0","8/30/2021 12:00:00 AM","2019","242742","NYTIMES-USCENSUS"
"8/31/2021 12:00:00 AM","Humboldt County","Nevada","West","Mountain","32013","41.407914","-118.127591 ","1405","15","25","0","8/30/2021 12:00:00 AM","2019","16831","NYTIMES-USCENSUS"
"8/31/2021 12:00:00 AM","Edwards County","Illinois","Midwest","East North Central","17047","38.417095","-88.047941 ","841","14","8","0","8/30/2021 12:00:00 AM","2019","6395","NYTIMES-USCENSUS"
"8/31/2021 12:00:00 AM","Winneshiek County","Iowa","Midwest","West North Central","19191","43.292989","-91.850788 ","2060","37","0","0","8/30/2021 12:00:00 AM","2019","19991","NYTIMES-USCENSUS"
"8/31/2021 12:00:00 AM","Sabine Parish","Louisiana","South","West South Central","22085","31.560402","-93.559579 ","3770","67","0","0","8/30/2021 12:00:00 AM","2019","23884","NYTIMES-USCENSUS"
"8/31/2021 12:00:00 AM","Steele County","North Dakota","Midwest","West North Central","38091","47.451062","-97.71892 ","201","2","0","0","8/30/2021 12:00:00 AM","2019","1890","NYTIMES-USCENSUS"
"8/31/2021 12:00:00 AM","Scott County","Tennessee","South","East South Central","47151","36.435234","-84.50352 ","3745","50","33","0","8/30/2021 12:00:00 AM","2019","22068","NYTIMES-USCENSUS"
"8/31/2021 12:00:00 AM","Watonwan County","Minnesota","Midwest","West North Central","27165","43.978109","-94.613798 ","1459","10","12","0","8/30/2021 12:00:00 AM","2019","10897","NYTIMES-USCENSUS"
"8/31/2021 12:00:00 AM","Liberty County","Texas","South","West South Central","48291","30.158508","-94.844061 ","10204","238","0","2","8/30/2021 12:00:00 AM","2019","88219","NYTIMES-USCENSUS"
"8/31/2021 12:00:00 AM","Sullivan County","New York","Northeast","Middle Atlantic","36105","41.719993","-74.771577 ","7321","77","19","0","8/30/2021 12:00:00 AM","2019","75432","NYTIMES-USCENSUS"
"8/31/2021 12:00:00 AM","Stanislaus County","California","West","Pacific","06099","37.562316","-121.002831 ","75063","1142","900","3","8/30/2021 12:00:00 AM","2019","550660","NYTIMES-USCENSUS"
"8/31/2021 12:00:00 AM","Atlantic County","New Jersey","Northeast","Middle Atlantic","34001","39.469355","-74.633759 ","34329","710","107","5","8/30/2021 12:00:00 AM","2019","263670","NYTIMES-USCENSUS"
"8/31/2021 12:00:00 AM","Elkhart County","Indiana","Midwest","East North Central","18039","41.600693","-85.863986 ","31311","495","87","0","8/30/2021 12:00:00 AM","2019","206341","NYTIMES-USCENSUS"
"8/31/2021 12:00:00 AM","Montgomery County","Texas","South","West South Central","48339","30.298801","-95.50295 ","72636","702","1131","6","8/30/2021 12:00:00 AM","2019","607391","NYTIMES-USCENSUS"
"8/31/2021 12:00:00 AM","Waldo County","Maine","Northeast","New England","23027","44.505822","-69.138961 ","1511","22","35","0","8/30/2021 12:00:00 AM","2019","39715","NYTIMES-USCENSUS"
"8/31/2021 12:00:00 AM","Glenn County","California","West","Pacific","06021","39.602546","-122.4017 ","3509","28","26","0","8/30/2021 12:00:00 AM","2019","28393","NYTIMES-USCENSUS"
"8/31/2021 12:00:00 AM","Norfolk County","Massachusetts","Northeast","New England","25021","42.171738","-71.18111 ","58718","1821","158","0","8/30/2021 12:00:00 AM","2019","706775","NYTIMES-USCENSUS"
"8/31/2021 12:00:00 AM","Grant County","Kentucky","South","East South Central","21081","38.649167","-84.625924 ","3207","27","22","0","8/30/2021 12:00:00 AM","2019","25069","NYTIMES-USCENSUS"
"8/31/2021 12:00:00 AM","Hamilton County","New York","Northeast","Middle Atlantic","36041","43.657879","-74.502456 ","358","3","0","0","8/30/2021 12:00:00 AM","2019","4416","NYTIMES-USCENSUS"
"8/31/2021 12:00:00 AM","McLeod County","Minnesota","Midwest","West North Central","27085","44.821657","-94.272323 ","4662","61","32","0","8/30/2021 12:00:00 AM","2019","35893","NYTIMES-USCENSUS"
"8/31/2021 12:00:00 AM","Delta County","Colorado","West","Mountain","08029","38.861595","-107.864892 ","3237","76","1","0","8/30/2021 12:00:00 AM","2019","31162","NYTIMES-USCENSUS"
"8/31/2021 12:00:00 AM","Walworth County","Wisconsin","Midwest","East North Central","55127","42.66811","-88.541731 ","13628","173","163","1","8/30/2021 12:00:00 AM","2019","103868","NYTIMES-USCENSUS"
"8/31/2021 12:00:00 AM","Oceana County","Michigan","Midwest","East North Central","26127","43.603954","-86.467177 ","2891","61","0","0","8/30/2021 12:00:00 AM","2019","26467","NYTIMES-USCENSUS"
"8/31/2021 12:00:00 AM","Beltrami County","Minnesota","Midwest","West North Central","27007","47.879508","-95.00505 ","4579","68","30","0","8/30/2021 12:00:00 AM","2019","47188","NYTIMES-USCENSUS"
"8/31/2021 12:00:00 AM","Breckinridge County","Kentucky","South","East South Central","21027","37.777988","-86.432919 ","1973","20","0","0","8/30/2021 12:00:00 AM","2019","20477","NYTIMES-USCENSUS"
"8/31/2021 12:00:00 AM","Salem city","Virginia","South","South Atlantic","51775","37.285333","-80.055241 ","2545","51","18","1","8/30/2021 12:00:00 AM","2019","25301","NYTIMES-USCENSUS"
"8/31/2021 12:00:00 AM","Cloud County","Kansas","Midwest","West North Central","20029","39.487329","-97.64139 ","1130","25","0","0","8/30/2021 12:00:00 AM","2019","8786","NYTIMES-USCENSUS"
"8/31/2021 12:00:00 AM","St. Lucie County","Florida","South","South Atlantic","12111","27.379814","-80.443536 ","40193","657","0","0","8/30/2021 12:00:00 AM","2019","328297","NYTIMES-USCENSUS"
"8/31/2021 12:00:00 AM","Randolph County","Alabama","South","East South Central","01111","33.296461","-85.464064 ","2511","54","34","1","8/30/2021 12:00:00 AM","2019","22722","NYTIMES-USCENSUS"
"8/31/2021 12:00:00 AM","Walla Walla County","Washington","West","Pacific","53071","46.254606","-118.48037 ","7160","78","0","0","8/30/2021 12:00:00 AM","2019","60760","NYTIMES-USCENSUS"
"8/31/2021 12:00:00 AM","St. Johns County","Florida","South","South Atlantic","12109","29.890487","-81.40004 ","33917","221","0","0","8/30/2021 12:00:00 AM","2019","264672","NYTIMES-USCENSUS"
"8/31/2021 12:00:00 AM","Maury County","Tennessee","South","East South Central","47119","35.615696","-87.077763 ","16270","188","158","0","8/30/2021 12:00:00 AM","2019","96387","NYTIMES-USCENSUS"
"8/31/2021 12:00:00 AM","Marshall County","Tennessee","South","East South Central","47117","35.468343","-86.765865 ","5588","68","78","0","8/30/2021 12:00:00 AM","2019","34375","NYTIMES-USCENSUS"
"8/31/2021 12:00:00 AM","Rice County","Kansas","Midwest","West North Central","20159","38.347178","-98.201415 ","1173","13","0","0","8/30/2021 12:00:00 AM","2019","9537","NYTIMES-USCENSUS"
"8/31/2021 12:00:00 AM","Roane County","Tennessee","South","East South Central","47145","35.84725","-84.523929 ","7906","124","76","3","8/30/2021 12:00:00 AM","2019","53382","NYTIMES-USCENSUS"
"8/31/2021 12:00:00 AM","Ector County","Texas","South","West South Central","48135","31.865301","-102.542507 ","21602","408","0","1","8/30/2021 12:00:00 AM","2019","166223","NYTIMES-USCENSUS"
"8/31/2021 12:00:00 AM","Logan County","Nebraska","Midwest","West North Central","31113","41.542155","-100.443665 ","81","0","0","0","8/30/2021 12:00:00 AM","2019","748","NYTIMES-USCENSUS"
"8/31/2021 12:00:00 AM","Telfair County","Georgia","South","South Atlantic","13271","31.913641","-82.931063 ","1904","61","19","0","8/30/2021 12:00:00 AM","2019","15860","NYTIMES-USCENSUS"
"8/31/2021 12:00:00 AM","Yazoo County","Mississippi","South","East South Central","28163","32.765675","-90.387928 ","3949","83","4","0","8/30/2021 12:00:00 AM","2019","29690","NYTIMES-USCENSUS"
"8/31/2021 12:00:00 AM","Bradford County","Florida","South","South Atlantic","12007","29.952386","-82.166698 ","4664","58","0","0","8/30/2021 12:00:00 AM","2019","28201","NYTIMES-USCENSUS"
"8/31/2021 12:00:00 AM","Bradford County","Pennsylvania","Northeast","Middle Atlantic","42015","41.791504","-76.502123 ","6324","100","8","0","8/30/2021 12:00:00 AM","2019","60323","NYTIMES-USCENSUS"
"8/31/2021 12:00:00 AM","Catron County","New Mexico","West","Mountain","35003","33.901621","-108.391928 ","124","6","0","0","8/30/2021 12:00:00 AM","2019","3527","NYTIMES-USCENSUS"
"8/31/2021 12:00:00 AM","Fayette County","Kentucky","South","East South Central","21067","38.040678","-84.458272 ","43010","328","382","0","8/30/2021 12:00:00 AM","2019","323152","NYTIMES-USCENSUS"
"8/31/2021 12:00:00 AM","Montgomery County","Tennessee","South","East South Central","47125","36.500354","-87.380887 ","25686","241","320","1","8/30/2021 12:00:00 AM","2019","208993","NYTIMES-USCENSUS"
"8/31/2021 12:00:00 AM","Caldwell County","Texas","South","West South Central","48055","29.832399","-97.628141 ","7026","113","8","1","8/30/2021 12:00:00 AM","2019","43664","NYTIMES-USCENSUS"
"8/31/2021 12:00:00 AM","Holmes County","Florida","South","South Atlantic","12059","30.862007","-85.815939 ","3143","49","0","0","8/30/2021 12:00:00 AM","2019","19617","NYTIMES-USCENSUS"
"8/31/2021 12:00:00 AM","Meeker County","Minnesota","Midwest","West North Central","27093","45.123155","-94.527346 ","2885","46","28","0","8/30/2021 12:00:00 AM","2019","23222","NYTIMES-USCENSUS"
"8/31/2021 12:00:00 AM","Lawrence County","Tennessee","South","East South Central","47099","35.220476","-87.396546 ","7492","103","103","0","8/30/2021 12:00:00 AM","2019","44142","NYTIMES-USCENSUS"
"8/31/2021 12:00:00 AM","Craven County","North Carolina","South","South Atlantic","37049","35.116829","-77.08132 ","11157","134","38","0","8/30/2021 12:00:00 AM","2019","102139","NYTIMES-USCENSUS"
"8/31/2021 12:00:00 AM","Yuba County","California","West","Pacific","06115","39.27013","-121.344259 ","8551","54","0","0","8/30/2021 12:00:00 AM","2019","78668","NYTIMES-USCENSUS"
"8/31/2021 12:00:00 AM","Knox County","Kentucky","South","East South Central","21121","36.8885","-83.855551 ","5100","49","72","0","8/30/2021 12:00:00 AM","2019","31145","NYTIMES-USCENSUS"
"8/31/2021 12:00:00 AM","Drew County","Arkansas","South","West South Central","05043","33.587242","-91.722778 ","2535","52","14","0","8/30/2021 12:00:00 AM","2019","18219","NYTIMES-USCENSUS"
"8/31/2021 12:00:00 AM","Kane County","Illinois","Midwest","East North Central","17089","41.939594","-88.42804 ","63399","881","163","1","8/30/2021 12:00:00 AM","2019","532403","NYTIMES-USCENSUS"
"8/31/2021 12:00:00 AM","Pamlico County","North Carolina","South","South Atlantic","37137","35.147575","-76.665268 ","1297","14","9","0","8/30/2021 12:00:00 AM","2019","12726","NYTIMES-USCENSUS"
"8/31/2021 12:00:00 AM","Accomack County","Virginia","South","South Atlantic","51001","37.765944","-75.757807 ","3340","53","18","3","8/30/2021 12:00:00 AM","2019","32316","NYTIMES-USCENSUS"
"8/31/2021 12:00:00 AM","Geauga County","Ohio","Midwest","East North Central","39055","41.499322","-81.173505 ","7525","155","33","0","8/30/2021 12:00:00 AM","2019","93649","NYTIMES-USCENSUS"
"8/31/2021 12:00:00 AM","Boyd County","Kentucky","South","East South Central","21019","38.360003","-82.681406 ","6413","84","57","0","8/30/2021 12:00:00 AM","2019","46718","NYTIMES-USCENSUS"
"8/31/2021 12:00:00 AM","Clinton County","Missouri","Midwest","West North Central","29049","39.608723","-94.395803 ","2475","71","4","1","8/30/2021 12:00:00 AM","2019","20387","NYTIMES-USCENSUS"
"8/31/2021 12:00:00 AM","Emmet County","Michigan","Midwest","East North Central","26047","45.590094","-84.986822 ","2603","45","22","0","8/30/2021 12:00:00 AM","2019","33415","NYTIMES-USCENSUS"
"8/31/2021 12:00:00 AM","Cleburne County","Arkansas","South","West South Central","05023","35.566315","-92.05995 ","3141","81","29","0","8/30/2021 12:00:00 AM","2019","24919","NYTIMES-USCENSUS"
"8/31/2021 12:00:00 AM","Thurston County","Washington","West","Pacific","53067","46.935822","-122.830152 ","14994","151","124","2","8/30/2021 12:00:00 AM","2019","290536","NYTIMES-USCENSUS"
"8/31/2021 12:00:00 AM","Morgan County","Georgia","South","South Atlantic","13211","33.598696","-83.499435 ","2833","31","8","0","8/30/2021 12:00:00 AM","2019","19276","NYTIMES-USCENSUS"
"8/31/2021 12:00:00 AM","Huerfano County","Colorado","West","Mountain","08055","37.687815","-104.959928 ","487","17","0","0","8/30/2021 12:00:00 AM","2019","6897","NYTIMES-USCENSUS"
"8/31/2021 12:00:00 AM","Larimer County","Colorado","West","Mountain","08069","40.658093","-105.486764 ","31620","260","108","1","8/30/2021 12:00:00 AM","2019","356899","NYTIMES-USCENSUS"
"8/31/2021 12:00:00 AM","Okeechobee County","Florida","South","South Atlantic","12093","27.385592","-80.887388 ","5935","89","0","0","8/30/2021 12:00:00 AM","2019","42168","NYTIMES-USCENSUS"
"8/31/2021 12:00:00 AM","Calhoun County","West Virginia","South","South Atlantic","54013","38.844159","-81.115478 ","499","1","23","0","8/30/2021 12:00:00 AM","2019","7109","NYTIMES-USCENSUS"
"8/31/2021 12:00:00 AM","Monroe County","Tennessee","South","East South Central","47123","35.447818","-84.249705 ","7570","102","78","0","8/30/2021 12:00:00 AM","2019","46545","NYTIMES-USCENSUS"
"8/31/2021 12:00:00 AM","Walthall County","Mississippi","South","East South Central","28147","31.164492","-90.103431 ","1881","53","9","0","8/30/2021 12:00:00 AM","2019","14286","NYTIMES-USCENSUS"
"8/31/2021 12:00:00 AM","Henry County","Missouri","Midwest","West North Central","29083","38.386491","-93.792628 ","2783","42","9","0","8/30/2021 12:00:00 AM","2019","21824","NYTIMES-USCENSUS"
"8/31/2021 12:00:00 AM","Montgomery County","Virginia","South","South Atlantic","51121","37.175538","-80.387794 ","10070","83","32","0","8/30/2021 12:00:00 AM","2019","98535","NYTIMES-USCENSUS"
"8/31/2021 12:00:00 AM","Morgan County","Illinois","Midwest","East North Central","17137","39.717668","-90.205005 ","4746","117","22","0","8/30/2021 12:00:00 AM","2019","33658","NYTIMES-USCENSUS"
"8/31/2021 12:00:00 AM","Pembina County","North Dakota","Midwest","West North Central","38067","48.766896","-97.545405 ","878","11","11","0","8/30/2021 12:00:00 AM","2019","6801","NYTIMES-USCENSUS"
"8/31/2021 12:00:00 AM","Catahoula Parish","Louisiana","South","West South Central","22025","31.666517","-91.846703 ","1567","41","0","0","8/30/2021 12:00:00 AM","2019","9494","NYTIMES-USCENSUS"
"8/31/2021 12:00:00 AM","Uinta County","Wyoming","West","Mountain","56041","41.284726","-110.558947 ","2971","15","22","1","8/30/2021 12:00:00 AM","2019","20226","NYTIMES-USCENSUS"
"8/31/2021 12:00:00 AM","Ouray County","Colorado","West","Mountain","08091","38.154731","-107.78848 ","352","5","1","0","8/30/2021 12:00:00 AM","2019","4952","NYTIMES-USCENSUS"
"8/31/2021 12:00:00 AM","Lycoming County","Pennsylvania","Northeast","Middle Atlantic","42081","41.343882","-77.055262 ","12658","303","31","0","8/30/2021 12:00:00 AM","2019","113299","NYTIMES-USCENSUS"
"8/31/2021 12:00:00 AM","Orange County","Virginia","South","South Atlantic","51137","38.249326","-78.011092 ","2665","42","34","0","8/30/2021 12:00:00 AM","2019","37051","NYTIMES-USCENSUS"
"8/31/2021 12:00:00 AM","Pipestone County","Minnesota","Midwest","West North Central","27117","44.015361","-96.257015 ","1199","26","4","0","8/30/2021 12:00:00 AM","2019","9126","NYTIMES-USCENSUS"
"8/31/2021 12:00:00 AM","Warren County","Virginia","South","South Atlantic","51187","38.908221","-78.207594 ","3622","65","12","0","8/30/2021 12:00:00 AM","2019","40164","NYTIMES-USCENSUS"
"8/31/2021 12:00:00 AM","Warren County","New York","Northeast","Middle Atlantic","36113","43.555105","-73.838139 ","4207","72","17","0","8/30/2021 12:00:00 AM","2019","63944","NYTIMES-USCENSUS"
"8/31/2021 12:00:00 AM","Rock County","Wisconsin","Midwest","East North Central","55105","42.66988","-89.075284 ","19739","216","41","0","8/30/2021 12:00:00 AM","2019","163354","NYTIMES-USCENSUS"
"8/31/2021 12:00:00 AM","Houston County","Tennessee","South","East South Central","47083","36.285782","-87.705598 ","1477","36","18","1","8/30/2021 12:00:00 AM","2019","8201","NYTIMES-USCENSUS"
"8/31/2021 12:00:00 AM","Benton County","Washington","West","Pacific","53005","46.228125","-119.516659 ","24628","265","201","0","8/30/2021 12:00:00 AM","2019","204390","NYTIMES-USCENSUS"
"8/31/2021 12:00:00 AM","Bureau County","Illinois","Midwest","East North Central","17011","41.401304","-89.528377 ","4056","99","10","0","8/30/2021 12:00:00 AM","2019","32628","NYTIMES-USCENSUS"
"8/31/2021 12:00:00 AM","Alleghany County","Virginia","South","South Atlantic","51005","37.787905","-80.008669 ","1565","52","12","0","8/30/2021 12:00:00 AM","2019","14860","NYTIMES-USCENSUS"
"8/31/2021 12:00:00 AM","Laurens County","South Carolina","South","South Atlantic","45059","34.483676","-82.005498 ","8642","175","56","0","8/30/2021 12:00:00 AM","2019","67493","NYTIMES-USCENSUS"
"8/31/2021 12:00:00 AM","Owen County","Kentucky","South","East South Central","21187","38.499395","-84.84159 ","1037","13","10","0","8/30/2021 12:00:00 AM","2019","10901","NYTIMES-USCENSUS"
"8/31/2021 12:00:00 AM","Pendleton County","Kentucky","South","East South Central","21191","38.696284","-84.351943 ","1395","5","7","0","8/30/2021 12:00:00 AM","2019","14590","NYTIMES-USCENSUS"
"8/31/2021 12:00:00 AM","Crawford County","Missouri","Midwest","West North Central","29055","37.966559","-91.313936 ","3190","45","7","2","8/30/2021 12:00:00 AM","2019","23920","NYTIMES-USCENSUS"
"8/31/2021 12:00:00 AM","Washington County","Tennessee","South","East South Central","47179","36.295665","-82.495037 ","17807","269","180","1","8/30/2021 12:00:00 AM","2019","129375","NYTIMES-USCENSUS"
"8/31/2021 12:00:00 AM","Clarke County","Virginia","South","South Atlantic","51043","39.115307","-77.990748 ","1084","21","2","0","8/30/2021 12:00:00 AM","2019","14619","NYTIMES-USCENSUS"
"8/31/2021 12:00:00 AM","Kent County","Michigan","Midwest","East North Central","26081","43.032497","-85.547446 ","77834","889","0","0","8/30/2021 12:00:00 AM","2019","656955","NYTIMES-USCENSUS"
"8/31/2021 12:00:00 AM","Madison County","Georgia","South","South Atlantic","13195","34.128526","-83.203737 ","4059","57","45","0","8/30/2021 12:00:00 AM","2019","29880","NYTIMES-USCENSUS"
"8/31/2021 12:00:00 AM","Union County","New Jersey","Northeast","Middle Atlantic","34039","40.659871","-74.308696 ","75548","2001","122","0","8/30/2021 12:00:00 AM","2019","556341","NYTIMES-USCENSUS"
"8/31/2021 12:00:00 AM","Sussex County","Virginia","South","South Atlantic","51183","36.926645","-77.259732 ","1324","23","5","0","8/30/2021 12:00:00 AM","2019","11159","NYTIMES-USCENSUS"
"8/31/2021 12:00:00 AM","Atascosa County","Texas","South","West South Central","48013","28.891478","-98.535381 ","7247","164","131","3","8/30/2021 12:00:00 AM","2019","51153","NYTIMES-USCENSUS"
"8/31/2021 12:00:00 AM","Hardee County","Florida","South","South Atlantic","12049","27.492846","-81.82158 ","4894","45","0","0","8/30/2021 12:00:00 AM","2019","26937","NYTIMES-USCENSUS"
"8/31/2021 12:00:00 AM","San Juan County","New Mexico","West","Mountain","35045","36.511624","-108.324578 ","17116","510","48","0","8/30/2021 12:00:00 AM","2019","123958","NYTIMES-USCENSUS"
"8/31/2021 12:00:00 AM","St. Joseph County","Indiana","Midwest","East North Central","18141","41.617723","-86.288048 ","39447","595","130","3","8/30/2021 12:00:00 AM","2019","271826","NYTIMES-USCENSUS"
"8/31/2021 12:00:00 AM","Highland County","Virginia","South","South Atlantic","51091","38.366243","-79.564472 ","126","1","0","0","8/30/2021 12:00:00 AM","2019","2190","NYTIMES-USCENSUS"
"8/31/2021 12:00:00 AM","Hudspeth County","Texas","South","West South Central","48229","31.450868","-105.377549 ","557","12","0","0","8/30/2021 12:00:00 AM","2019","4886","NYTIMES-USCENSUS"
"8/31/2021 12:00:00 AM","Sitka City and Borough","Alaska","West","Pacific","02220","57.193204","-135.367396 ","977","2","0","0","8/30/2021 12:00:00 AM","2019","8493","NYTIMES-USCENSUS"
"8/31/2021 12:00:00 AM","Johnson County","Nebraska","Midwest","West North Central","31097","40.394955","-96.265264 ","656","10","0","0","8/30/2021 12:00:00 AM","2019","5071","NYTIMES-USCENSUS"
"8/31/2021 12:00:00 AM","Ellis County","Kansas","Midwest","West North Central","20051","38.914597","-99.317313 ","4020","74","0","0","8/30/2021 12:00:00 AM","2019","28553","NYTIMES-USCENSUS"
"8/31/2021 12:00:00 AM","Laclede County","Missouri","Midwest","West North Central","29105","37.659698","-92.594843 ","4913","114","11","3","8/30/2021 12:00:00 AM","2019","35723","NYTIMES-USCENSUS"
"8/31/2021 12:00:00 AM","Ashtabula County","Ohio","Midwest","East North Central","39007","41.906637","-80.745592 ","7596","182","15","0","8/30/2021 12:00:00 AM","2019","97241","NYTIMES-USCENSUS"
"8/31/2021 12:00:00 AM","Muscogee County","Georgia","South","South Atlantic","13215","32.510197","-84.874946 ","20773","521","151","1","8/30/2021 12:00:00 AM","2019","195769","NYTIMES-USCENSUS"
"8/31/2021 12:00:00 AM","Marengo County","Alabama","South","East South Central","01091","32.247591","-87.791091 ","2997","70","24","1","8/30/2021 12:00:00 AM","2019","18863","NYTIMES-USCENSUS"
"8/31/2021 12:00:00 AM","Somerset County","Pennsylvania","Northeast","Middle Atlantic","42111","39.981297","-79.028486 ","8513","220","17","0","8/30/2021 12:00:00 AM","2019","73447","NYTIMES-USCENSUS"
"8/31/2021 12:00:00 AM","Stanton County","Kansas","Midwest","West North Central","20187","37.565932","-101.789383 ","230","6","0","0","8/30/2021 12:00:00 AM","2019","2006","NYTIMES-USCENSUS"
"8/31/2021 12:00:00 AM","Onslow County","North Carolina","South","South Atlantic","37133","34.763109","-77.499469 ","22143","176","129","0","8/30/2021 12:00:00 AM","2019","197938","NYTIMES-USCENSUS"
"8/31/2021 12:00:00 AM","Fleming County","Kentucky","South","East South Central","21069","38.367848","-83.699205 ","1652","27","23","0","8/30/2021 12:00:00 AM","2019","14581","NYTIMES-USCENSUS"
"8/31/2021 12:00:00 AM","Ritchie County","West Virginia","South","South Atlantic","54085","39.177112","-81.066317 ","875","11","4","0","8/30/2021 12:00:00 AM","2019","9554","NYTIMES-USCENSUS"
"8/31/2021 12:00:00 AM","Burlington County","New Jersey","Northeast","Middle Atlantic","34005","39.875786","-74.663006 ","48430","901","104","1","8/30/2021 12:00:00 AM","2019","445349","NYTIMES-USCENSUS"
"8/31/2021 12:00:00 AM","Hampden County","Massachusetts","Northeast","New England","25013","42.136198","-72.635648 ","57126","1562","158","2","8/30/2021 12:00:00 AM","2019","466372","NYTIMES-USCENSUS"
"8/31/2021 12:00:00 AM","Reagan County","Texas","South","West South Central","48383","31.375191","-101.514395 ","454","8","0","0","8/30/2021 12:00:00 AM","2019","3849","NYTIMES-USCENSUS"
"8/31/2021 12:00:00 AM","Screven County","Georgia","South","South Atlantic","13251","32.744751","-81.617585 ","1557","36","23","0","8/30/2021 12:00:00 AM","2019","13966","NYTIMES-USCENSUS"
"8/31/2021 12:00:00 AM","Barry County","Missouri","Midwest","West North Central","29009","36.699376","-93.834334 ","3888","56","6","1","8/30/2021 12:00:00 AM","2019","35789","NYTIMES-USCENSUS"
"8/31/2021 12:00:00 AM","Lunenburg County","Virginia","South","South Atlantic","51111","36.945555","-78.240528 ","879","18","7","0","8/30/2021 12:00:00 AM","2019","12196","NYTIMES-USCENSUS"
"8/31/2021 12:00:00 AM","Transylvania County","North Carolina","South","South Atlantic","37175","35.210103","-82.816666 ","3052","36","6","0","8/30/2021 12:00:00 AM","2019","34385","NYTIMES-USCENSUS"
"8/31/2021 12:00:00 AM","Lake County","Tennessee","South","East South Central","47095","36.333905","-89.485536 ","1840","31","4","0","8/30/2021 12:00:00 AM","2019","7016","NYTIMES-USCENSUS"
"8/31/2021 12:00:00 AM","Russell County","Virginia","South","South Atlantic","51167","36.93342","-82.095934 ","2626","41","19","0","8/30/2021 12:00:00 AM","2019","26586","NYTIMES-USCENSUS"
"8/31/2021 12:00:00 AM","Androscoggin County","Maine","Northeast","New England","23001","44.167681","-70.207435 ","8774","89","17","0","8/30/2021 12:00:00 AM","2019","108277","NYTIMES-USCENSUS"
"8/31/2021 12:00:00 AM","Garland County","Arkansas","South","West South Central","05051","34.578852","-93.146932 ","14479","328","63","1","8/30/2021 12:00:00 AM","2019","99386","NYTIMES-USCENSUS"
"8/31/2021 12:00:00 AM","Hand County","South Dakota","Midwest","West North Central","46059","44.546713","-99.004575 ","367","6","0","0","8/30/2021 12:00:00 AM","2019","3191","NYTIMES-USCENSUS"
"8/31/2021 12:00:00 AM","Parke County","Indiana","Midwest","East North Central","18121","39.77425","-87.19695 ","1909","18","13","0","8/30/2021 12:00:00 AM","2019","16937","NYTIMES-USCENSUS"
"8/31/2021 12:00:00 AM","Fayette County","Indiana","Midwest","East North Central","18041","39.639655","-85.185032 ","3371","69","56","0","8/30/2021 12:00:00 AM","2019","23102","NYTIMES-USCENSUS"
"8/31/2021 12:00:00 AM","Knox County","Ohio","Midwest","East North Central","39083","40.40362","-82.422393 ","5486","117","68","1","8/30/2021 12:00:00 AM","2019","62322","NYTIMES-USCENSUS"
"8/31/2021 12:00:00 AM","Craighead County","Arkansas","South","West South Central","05031","35.827729","-90.631421 ","18470","210","104","3","8/30/2021 12:00:00 AM","2019","110332","NYTIMES-USCENSUS"
"8/31/2021 12:00:00 AM","Spencer County","Kentucky","South","East South Central","21215","38.025411","-85.317174 ","2223","26","20","0","8/30/2021 12:00:00 AM","2019","19351","NYTIMES-USCENSUS"
"8/31/2021 12:00:00 AM","Saline County","Arkansas","South","West South Central","05125","34.648525","-92.674463 ","16807","210","95","0","8/30/2021 12:00:00 AM","2019","122437","NYTIMES-USCENSUS"
"8/31/2021 12:00:00 AM","Spencer County","Indiana","Midwest","East North Central","18147","38.009697","-87.010375 ","2859","32","27","0","8/30/2021 12:00:00 AM","2019","20277","NYTIMES-USCENSUS"
"8/31/2021 12:00:00 AM","Osage County","Oklahoma","South","West South Central","40113","36.624299","-96.408112 ","5714","92","0","0","8/30/2021 12:00:00 AM","2019","46963","NYTIMES-USCENSUS"
"8/31/2021 12:00:00 AM","Coos County","New Hampshire","Northeast","New England","33007","44.652548","-71.289431 ","2272","45","7","0","8/30/2021 12:00:00 AM","2019","31563","NYTIMES-USCENSUS"
"8/31/2021 12:00:00 AM","Marion County","Iowa","Midwest","West North Central","19125","41.331433","-93.093868 ","4048","80","0","0","8/30/2021 12:00:00 AM","2019","33253","NYTIMES-USCENSUS"
"8/31/2021 12:00:00 AM","Carroll County","Kentucky","South","East South Central","21041","38.668394","-85.124024 ","1368","21","9","0","8/30/2021 12:00:00 AM","2019","10631","NYTIMES-USCENSUS"
"8/31/2021 12:00:00 AM","Major County","Oklahoma","South","West South Central","40093","36.313119","-98.542015 ","1043","24","0","0","8/30/2021 12:00:00 AM","2019","7629","NYTIMES-USCENSUS"
"8/31/2021 12:00:00 AM","Deuel County","South Dakota","Midwest","West North Central","46039","44.75629","-96.690239 ","595","10","4","0","8/30/2021 12:00:00 AM","2019","4351","NYTIMES-USCENSUS"
"8/31/2021 12:00:00 AM","Appanoose County","Iowa","Midwest","West North Central","19007","40.744249","-92.873065 ","1351","49","0","0","8/30/2021 12:00:00 AM","2019","12426","NYTIMES-USCENSUS"
"8/31/2021 12:00:00 AM","Campbell County","Tennessee","South","East South Central","47013","36.401592","-84.159249 ","4973","66","21","0","8/30/2021 12:00:00 AM","2019","39842","NYTIMES-USCENSUS"
"8/31/2021 12:00:00 AM","Archuleta County","Colorado","West","Mountain","08007","37.202395","-107.050863 ","1255","2","4","0","8/30/2021 12:00:00 AM","2019","14029","NYTIMES-USCENSUS"
"8/31/2021 12:00:00 AM","Stone County","Mississippi","South","East South Central","28131","30.790184","-89.112297 ","3181","46","5","0","8/30/2021 12:00:00 AM","2019","18336","NYTIMES-USCENSUS"
"8/31/2021 12:00:00 AM","Wayne County","Ohio","Midwest","East North Central","39169","40.829661","-81.887194 ","10312","230","76","0","8/30/2021 12:00:00 AM","2019","115710","NYTIMES-USCENSUS"
"8/31/2021 12:00:00 AM","Isabella County","Michigan","Midwest","East North Central","26073","43.645233","-84.839424 ","6626","102","0","0","8/30/2021 12:00:00 AM","2019","69872","NYTIMES-USCENSUS"
"8/31/2021 12:00:00 AM","Iosco County","Michigan","Midwest","East North Central","26069","44.386912","-83.380141 ","2173","78","0","0","8/30/2021 12:00:00 AM","2019","25127","NYTIMES-USCENSUS"
"8/31/2021 12:00:00 AM","Chester County","Pennsylvania","Northeast","Middle Atlantic","42029","39.974029","-75.749751 ","43860","837","152","0","8/30/2021 12:00:00 AM","2019","524989","NYTIMES-USCENSUS"
"8/31/2021 12:00:00 AM","Wayne County","New York","Northeast","Middle Atlantic","36117","43.218114","-77.049402 ","6335","75","10","0","8/30/2021 12:00:00 AM","2019","89918","NYTIMES-USCENSUS"
"8/31/2021 12:00:00 AM","Fulton County","Arkansas","South","West South Central","05049","36.381322","-91.819285 ","1512","51","9","0","8/30/2021 12:00:00 AM","2019","12477","NYTIMES-USCENSUS"
"8/31/2021 12:00:00 AM","Franklin County","Massachusetts","Northeast","New England","25011","42.584504","-72.591792 ","2815","115","5","0","8/30/2021 12:00:00 AM","2019","70180","NYTIMES-USCENSUS"
"8/31/2021 12:00:00 AM","Lee County","Virginia","South","South Atlantic","51105","36.701721","-83.130112 ","2733","48","15","0","8/30/2021 12:00:00 AM","2019","23423","NYTIMES-USCENSUS"
"8/31/2021 12:00:00 AM","Pierce County","Washington","West","Pacific","53053","47.051413","-122.15324 ","71473","704","459","2","8/30/2021 12:00:00 AM","2019","904980","NYTIMES-USCENSUS"
"8/31/2021 12:00:00 AM","Mercer County","North Dakota","Midwest","West North Central","38057","47.307147","-101.833328 ","1226","11","4","0","8/30/2021 12:00:00 AM","2019","8187","NYTIMES-USCENSUS"
"8/31/2021 12:00:00 AM","Mercer County","Missouri","Midwest","West North Central","29129","40.421413","-93.567631 ","372","2","5","0","8/30/2021 12:00:00 AM","2019","3617","NYTIMES-USCENSUS"
"8/31/2021 12:00:00 AM","DeKalb County","Missouri","Midwest","West North Central","29063","39.894665","-94.40719 ","1330","33","0","0","8/30/2021 12:00:00 AM","2019","12547","NYTIMES-USCENSUS"
"8/31/2021 12:00:00 AM","San Juan County","Washington","West","Pacific","53055","48.50719","-123.103769 ","254","0","5","0","8/30/2021 12:00:00 AM","2019","17582","NYTIMES-USCENSUS"
"8/31/2021 12:00:00 AM","San Joaquin County","California","West","Pacific","06077","37.934982","-121.272244 ","90792","1528","281","0","8/30/2021 12:00:00 AM","2019","762148","NYTIMES-USCENSUS"
"8/31/2021 12:00:00 AM","Webster County","Missouri","Midwest","West North Central","29225","37.280804","-92.87608 ","5199","82","7","1","8/30/2021 12:00:00 AM","2019","39592","NYTIMES-USCENSUS"
"8/31/2021 12:00:00 AM","Cass County","Minnesota","Midwest","West North Central","27021","46.951745","-94.333705 ","3135","34","44","0","8/30/2021 12:00:00 AM","2019","29779","NYTIMES-USCENSUS"
"8/31/2021 12:00:00 AM","Grand Forks County","North Dakota","Midwest","West North Central","38035","47.926003","-97.450851 ","11142","80","35","0","8/30/2021 12:00:00 AM","2019","69451","NYTIMES-USCENSUS"
"8/31/2021 12:00:00 AM","Bourbon County","Kansas","Midwest","West North Central","20011","37.8561","-94.850928 ","2111","34","0","0","8/30/2021 12:00:00 AM","2019","14534","NYTIMES-USCENSUS"
"8/31/2021 12:00:00 AM","Clinton County","Indiana","Midwest","East North Central","18023","40.305944","-86.477567 ","5012","65","5","0","8/30/2021 12:00:00 AM","2019","32399","NYTIMES-USCENSUS"
"8/31/2021 12:00:00 AM","Pickaway County","Ohio","Midwest","East North Central","39129","39.648947","-83.052827 ","9487","126","50","1","8/30/2021 12:00:00 AM","2019","58457","NYTIMES-USCENSUS"
"8/31/2021 12:00:00 AM","Millard County","Utah","West","Mountain","49027","38.956744","-113.133092 ","1742","19","9","0","8/30/2021 12:00:00 AM","2019","13188","NYTIMES-USCENSUS"
"8/31/2021 12:00:00 AM","Botetourt County","Virginia","South","South Atlantic","51023","37.565482","-79.797546 ","2955","39","10","0","8/30/2021 12:00:00 AM","2019","33419","NYTIMES-USCENSUS"
"8/31/2021 12:00:00 AM","Chaves County","New Mexico","West","Mountain","35005","33.361604","-104.469837 ","10879","176","44","1","8/30/2021 12:00:00 AM","2019","64615","NYTIMES-USCENSUS"
"8/31/2021 12:00:00 AM","Gloucester County","Virginia","South","South Atlantic","51073","37.403541","-76.523505 ","2922","53","32","0","8/30/2021 12:00:00 AM","2019","37348","NYTIMES-USCENSUS"
"8/31/2021 12:00:00 AM","Lucas County","Ohio","Midwest","East North Central","39095","41.682321","-83.468903 ","46487","844","134","3","8/30/2021 12:00:00 AM","2019","428348","NYTIMES-USCENSUS"
"8/31/2021 12:00:00 AM","Jefferson County","Washington","West","Pacific","53031","47.805708","-123.527057 ","697","4","11","0","8/30/2021 12:00:00 AM","2019","32221","NYTIMES-USCENSUS"
"8/31/2021 12:00:00 AM","Idaho County","Idaho","West","Mountain","16049","45.849644","-115.467337 ","1643","18","9","0","8/30/2021 12:00:00 AM","2019","16667","NYTIMES-USCENSUS"
"8/31/2021 12:00:00 AM","Slope County","North Dakota","Midwest","West North Central","38087","46.445834","-103.462462 ","32","0","0","0","8/30/2021 12:00:00 AM","2019","750","NYTIMES-USCENSUS"
"8/31/2021 12:00:00 AM","Orleans County","New York","Northeast","Middle Atlantic","36073","43.339906","-78.207028 ","3321","83","8","0","8/30/2021 12:00:00 AM","2019","40352","NYTIMES-USCENSUS"
"8/31/2021 12:00:00 AM","Jackson County","South Dakota","Midwest","West North Central","46071","43.677506","-101.626323 ","321","15","3","0","8/30/2021 12:00:00 AM","2019","3344","NYTIMES-USCENSUS"
"8/31/2021 12:00:00 AM","Rains County","Texas","South","West South Central","48379","32.870457","-95.795613 ","1071","30","17","0","8/30/2021 12:00:00 AM","2019","12514","NYTIMES-USCENSUS"
"8/31/2021 12:00:00 AM","Towns County","Georgia","South","South Atlantic","13281","34.902529","-83.732264 ","1543","65","13","0","8/30/2021 12:00:00 AM","2019","12037","NYTIMES-USCENSUS"
"8/31/2021 12:00:00 AM","Ohio County","West Virginia","South","South Atlantic","54069","40.100323","-80.6199 ","4883","89","8","0","8/30/2021 12:00:00 AM","2019","41411","NYTIMES-USCENSUS"
"8/31/2021 12:00:00 AM","Jefferson County","Georgia","South","South Atlantic","13163","33.058176","-82.420004 ","2347","70","16","1","8/30/2021 12:00:00 AM","2019","15362","NYTIMES-USCENSUS"
"8/31/2021 12:00:00 AM","Bon Homme County","South Dakota","Midwest","West North Central","46009","42.985799","-97.884199 ","1571","29","3","0","8/30/2021 12:00:00 AM","2019","6901","NYTIMES-USCENSUS"
"8/31/2021 12:00:00 AM","Arkansas County","Arkansas","South","West South Central","05001","34.28957","-91.376547 ","3094","52","19","1","8/30/2021 12:00:00 AM","2019","17486","NYTIMES-USCENSUS"
"8/31/2021 12:00:00 AM","Berkeley County","West Virginia","South","South Atlantic","54003","39.447938","-78.037754 ","14502","146","71","1","8/30/2021 12:00:00 AM","2019","119171","NYTIMES-USCENSUS"
"8/31/2021 12:00:00 AM","Adams County","Indiana","Midwest","East North Central","18001","40.745733","-84.93613 ","4143","64","20","2","8/30/2021 12:00:00 AM","2019","35777","NYTIMES-USCENSUS"
"8/31/2021 12:00:00 AM","Hardin County","Tennessee","South","East South Central","47071","35.201893","-88.185696 ","4544","71","54","0","8/30/2021 12:00:00 AM","2019","25652","NYTIMES-USCENSUS"
"8/31/2021 12:00:00 AM","Park County","Montana","West","Mountain","30067","45.463081","-110.53493 ","1639","24","5","1","8/30/2021 12:00:00 AM","2019","16606","NYTIMES-USCENSUS"
"8/31/2021 12:00:00 AM","Caswell County","North Carolina","South","South Atlantic","37033","36.394298","-79.339609 ","2504","31","11","0","8/30/2021 12:00:00 AM","2019","22604","NYTIMES-USCENSUS"
"8/31/2021 12:00:00 AM","Huron County","Ohio","Midwest","East North Central","39077","41.14508","-82.594641 ","6359","123","45","0","8/30/2021 12:00:00 AM","2019","58266","NYTIMES-USCENSUS"
"8/31/2021 12:00:00 AM","Greene County","Mississippi","South","East South Central","28041","31.212845","-88.634811 ","1870","41","5","1","8/30/2021 12:00:00 AM","2019","13586","NYTIMES-USCENSUS"
"8/31/2021 12:00:00 AM","Jefferson County","New York","Northeast","Middle Atlantic","36045","43.996389","-76.052968 ","6671","70","25","0","8/30/2021 12:00:00 AM","2019","109834","NYTIMES-USCENSUS"
"8/31/2021 12:00:00 AM","Washington County","Maine","Northeast","New England","23029","44.967009","-67.609354 ","1060","19","13","0","8/30/2021 12:00:00 AM","2019","31379","NYTIMES-USCENSUS"
"8/31/2021 12:00:00 AM","Huntington County","Indiana","Midwest","East North Central","18069","40.826394","-85.478597 ","5471","89","22","1","8/30/2021 12:00:00 AM","2019","36520","NYTIMES-USCENSUS"
"8/31/2021 12:00:00 AM","Rappahannock County","Virginia","South","South Atlantic","51157","38.684522","-78.168824 ","446","2","7","0","8/30/2021 12:00:00 AM","2019","7370","NYTIMES-USCENSUS"
"8/31/2021 12:00:00 AM","Turner County","Georgia","South","South Atlantic","13287","31.7248","-83.620319 ","1479","42","33","0","8/30/2021 12:00:00 AM","2019","7985","NYTIMES-USCENSUS"
"8/31/2021 12:00:00 AM","Montgomery County","Kansas","Midwest","West North Central","20125","37.189537","-95.742403 ","4474","90","0","0","8/30/2021 12:00:00 AM","2019","31829","NYTIMES-USCENSUS"
"8/31/2021 12:00:00 AM","Lincoln County","West Virginia","South","South Atlantic","54043","38.17177","-82.077623 ","1876","27","22","0","8/30/2021 12:00:00 AM","2019","20409","NYTIMES-USCENSUS"
"8/31/2021 12:00:00 AM","Meigs County","Tennessee","South","East South Central","47121","35.512203","-84.816102 ","1768","24","19","0","8/30/2021 12:00:00 AM","2019","12422","NYTIMES-USCENSUS"
"8/31/2021 12:00:00 AM","Kauai County","Hawaii","West","Pacific","15007","22.012038","-159.705965 ","1290","3","13","0","8/30/2021 12:00:00 AM","2019","72293","NYTIMES-USCENSUS"
"8/31/2021 12:00:00 AM","Angelina County","Texas","South","West South Central","48005","31.251896","-94.611134 ","11155","307","0","3","8/30/2021 12:00:00 AM","2019","86715","NYTIMES-USCENSUS"
"8/31/2021 12:00:00 AM","Kewaunee County","Wisconsin","Midwest","East North Central","55061","44.605677","-87.448008 ","2902","37","17","0","8/30/2021 12:00:00 AM","2019","20434","NYTIMES-USCENSUS"
"8/31/2021 12:00:00 AM","Schuyler County","New York","Northeast","Middle Atlantic","36097","42.419776","-76.938603 ","1146","15","2","0","8/30/2021 12:00:00 AM","2019","17807","NYTIMES-USCENSUS"
"8/31/2021 12:00:00 AM","Randall County","Texas","South","West South Central","48381","34.962529","-101.895547 ","20318","330","205","2","8/30/2021 12:00:00 AM","2019","137713","NYTIMES-USCENSUS"
"8/31/2021 12:00:00 AM","Summit County","Ohio","Midwest","East North Central","39153","41.121847","-81.534928 ","52099","1033","169","4","8/30/2021 12:00:00 AM","2019","541013","NYTIMES-USCENSUS"
"8/31/2021 12:00:00 AM","Richland County","North Dakota","Midwest","West North Central","38077","46.265219","-96.93796 ","2109","18","10","0","8/30/2021 12:00:00 AM","2019","16177","NYTIMES-USCENSUS"
"8/31/2021 12:00:00 AM","Pope County","Arkansas","South","West South Central","05115","35.456557","-93.026818 ","10592","132","88","0","8/30/2021 12:00:00 AM","2019","64072","NYTIMES-USCENSUS"
"8/31/2021 12:00:00 AM","Cuyahoga County","Ohio","Midwest","East North Central","39035","41.555037","-81.604957 ","124761","2291","308","2","8/30/2021 12:00:00 AM","2019","1235072","NYTIMES-USCENSUS"
"8/31/2021 12:00:00 AM","Maries County","Missouri","Midwest","West North Central","29125","38.162615","-91.923601 ","873","15","4","0","8/30/2021 12:00:00 AM","2019","8697","NYTIMES-USCENSUS"
"8/31/2021 12:00:00 AM","Newton County","Texas","South","West South Central","48351","30.786718","-93.73925 ","800","43","31","0","8/30/2021 12:00:00 AM","2019","13595","NYTIMES-USCENSUS"
"8/31/2021 12:00:00 AM","Clallam County","Washington","West","Pacific","53009","48.110903","-123.88986 ","2668","20","59","0","8/30/2021 12:00:00 AM","2019","77331","NYTIMES-USCENSUS"
"8/31/2021 12:00:00 AM","Stoddard County","Missouri","Midwest","West North Central","29207","36.851557","-89.947481 ","3513","55","19","0","8/30/2021 12:00:00 AM","2019","29025","NYTIMES-USCENSUS"
"8/31/2021 12:00:00 AM","Fentress County","Tennessee","South","East South Central","47049","36.369892","-84.937764 ","2848","50","34","0","8/30/2021 12:00:00 AM","2019","18523","NYTIMES-USCENSUS"
"8/31/2021 12:00:00 AM","Burnett County","Wisconsin","Midwest","East North Central","55013","45.866897","-92.37573 ","1702","29","20","0","8/30/2021 12:00:00 AM","2019","15414","NYTIMES-USCENSUS"
"8/31/2021 12:00:00 AM","Pasquotank County","North Carolina","South","South Atlantic","37139","36.265199","-76.260691 ","3920","89","13","1","8/30/2021 12:00:00 AM","2019","39824","NYTIMES-USCENSUS"
"8/31/2021 12:00:00 AM","Dinwiddie County","Virginia","South","South Atlantic","51053","37.073498","-77.635492 ","2512","46","12","0","8/30/2021 12:00:00 AM","2019","28544","NYTIMES-USCENSUS"
"8/31/2021 12:00:00 AM","Cook County","Illinois","Midwest","East North Central","17031","41.894294","-87.645455 ","592050","11304","1225","10","8/30/2021 12:00:00 AM","2019","5150233","NYTIMES-USCENSUS"
"8/31/2021 12:00:00 AM","Owen County","Indiana","Midwest","East North Central","18119","39.317339","-86.838845 ","2568","63","9","0","8/30/2021 12:00:00 AM","2019","20799","NYTIMES-USCENSUS"
"8/31/2021 12:00:00 AM","Clark County","Illinois","Midwest","East North Central","17023","39.332334","-87.791683 ","2183","44","14","0","8/30/2021 12:00:00 AM","2019","15441","NYTIMES-USCENSUS"
"8/31/2021 12:00:00 AM","La Paz County","Arizona","West","Mountain","04012","33.72761","-114.038806 ","2682","81","3","0","8/30/2021 12:00:00 AM","2019","21108","NYTIMES-USCENSUS"
"8/31/2021 12:00:00 AM","Okfuskee County","Oklahoma","South","West South Central","40107","35.466804","-96.327762 ","2043","32","0","0","8/30/2021 12:00:00 AM","2019","11993","NYTIMES-USCENSUS"
"8/31/2021 12:00:00 AM","Park County","Colorado","West","Mountain","08093","39.118914","-105.717648 ","1018","7","4","1","8/30/2021 12:00:00 AM","2019","18845","NYTIMES-USCENSUS"
"8/31/2021 12:00:00 AM","Warren County","Tennessee","South","East South Central","47177","35.67825","-85.777343 ","6651","92","110","1","8/30/2021 12:00:00 AM","2019","41277","NYTIMES-USCENSUS"
"8/31/2021 12:00:00 AM","Luzerne County","Pennsylvania","Northeast","Middle Atlantic","42079","41.173078","-75.976053 ","34022","842","48","0","8/30/2021 12:00:00 AM","2019","317417","NYTIMES-USCENSUS"
"8/31/2021 12:00:00 AM","Phelps County","Missouri","Midwest","West North Central","29161","37.866326","-91.790349 ","5554","164","17","1","8/30/2021 12:00:00 AM","2019","44573","NYTIMES-USCENSUS"
"8/31/2021 12:00:00 AM","Covington County","Mississippi","South","East South Central","28031","31.633331","-89.548897 ","3825","88","6","0","8/30/2021 12:00:00 AM","2019","18636","NYTIMES-USCENSUS"
"8/31/2021 12:00:00 AM","Breathitt County","Kentucky","South","East South Central","21025","37.517807","-83.317158 ","1400","13","20","0","8/30/2021 12:00:00 AM","2019","12630","NYTIMES-USCENSUS"
"8/31/2021 12:00:00 AM","Jim Wells County","Texas","South","West South Central","48249","27.733516","-98.090814 ","6083","126","48","1","8/30/2021 12:00:00 AM","2019","40482","NYTIMES-USCENSUS"
"8/31/2021 12:00:00 AM","Bernalillo County","New Mexico","West","Mountain","35001","35.053628","-106.66908 ","66140","1006","178","3","8/30/2021 12:00:00 AM","2019","679121","NYTIMES-USCENSUS"
"8/31/2021 12:00:00 AM","Neosho County","Kansas","Midwest","West North Central","20133","37.564283","-95.315682 ","2251","43","0","0","8/30/2021 12:00:00 AM","2019","16007","NYTIMES-USCENSUS"
"8/31/2021 12:00:00 AM","Sonoma County","California","West","Pacific","06097","38.525182","-122.92611 ","37212","353","114","0","8/30/2021 12:00:00 AM","2019","494336","NYTIMES-USCENSUS"
"8/31/2021 12:00:00 AM","Fountain County","Indiana","Midwest","East North Central","18045","40.121237","-87.234872 ","2720","54","19","0","8/30/2021 12:00:00 AM","2019","16346","NYTIMES-USCENSUS"
"8/31/2021 12:00:00 AM","Winona County","Minnesota","Midwest","West North Central","27169","43.981353","-91.777044 ","5192","52","105","0","8/30/2021 12:00:00 AM","2019","50484","NYTIMES-USCENSUS"
"8/31/2021 12:00:00 AM","Allen County","Ohio","Midwest","East North Central","39003","40.771627","-84.106103 ","12814","249","37","1","8/30/2021 12:00:00 AM","2019","102351","NYTIMES-USCENSUS"
"8/31/2021 12:00:00 AM","Jackson County","West Virginia","South","South Atlantic","54035","38.834234","-81.677717 ","2555","64","9","0","8/30/2021 12:00:00 AM","2019","28576","NYTIMES-USCENSUS"
"8/31/2021 12:00:00 AM","McCreary County","Kentucky","South","East South Central","21147","36.731136","-84.491052 ","2547","34","19","0","8/30/2021 12:00:00 AM","2019","17231","NYTIMES-USCENSUS"
"8/31/2021 12:00:00 AM","Ouachita County","Arkansas","South","West South Central","05103","33.591168","-92.878413 ","3102","68","32","0","8/30/2021 12:00:00 AM","2019","23382","NYTIMES-USCENSUS"
"8/31/2021 12:00:00 AM","St. Mary Parish","Louisiana","South","West South Central","22101","29.629349","-91.463804 ","7782","187","0","0","8/30/2021 12:00:00 AM","2019","49348","NYTIMES-USCENSUS"
"8/31/2021 12:00:00 AM","Calhoun County","South Carolina","South","South Atlantic","45017","33.67478","-80.780347 ","1561","43","10","0","8/30/2021 12:00:00 AM","2019","14553","NYTIMES-USCENSUS"
"8/31/2021 12:00:00 AM","Champaign County","Illinois","Midwest","East North Central","17019","40.138985","-88.196975 ","24149","180","112","0","8/30/2021 12:00:00 AM","2019","209689","NYTIMES-USCENSUS"
"8/31/2021 12:00:00 AM","Quay County","New Mexico","West","Mountain","35037","35.107018","-103.548071 ","744","12","8","0","8/30/2021 12:00:00 AM","2019","8253","NYTIMES-USCENSUS"
"8/31/2021 12:00:00 AM","Howard County","Texas","South","West South Central","48227","32.30343","-101.438721 ","5162","107","10","0","8/30/2021 12:00:00 AM","2019","36664","NYTIMES-USCENSUS"
"8/31/2021 12:00:00 AM","Monroe County","Indiana","Midwest","East North Central","18105","39.160729","-86.52331 ","13592","190","38","2","8/30/2021 12:00:00 AM","2019","148431","NYTIMES-USCENSUS"
"8/31/2021 12:00:00 AM","Martin County","Indiana","Midwest","East North Central","18101","38.705322","-86.801847 ","1102","15","4","0","8/30/2021 12:00:00 AM","2019","10255","NYTIMES-USCENSUS"
"8/31/2021 12:00:00 AM","Bristol County","Rhode Island","Northeast","New England","44001","41.70684","-71.286687 ","5421","147","0","0","8/30/2021 12:00:00 AM","2019","48479","NYTIMES-USCENSUS"
"8/31/2021 12:00:00 AM","Hamilton County","Kansas","Midwest","West North Central","20075","37.995244","-101.793689 ","222","1","0","0","8/30/2021 12:00:00 AM","2019","2539","NYTIMES-USCENSUS"
"8/31/2021 12:00:00 AM","Franklin County","Alabama","South","East South Central","01059","34.441989","-87.842814 ","5229","89","30","0","8/30/2021 12:00:00 AM","2019","31362","NYTIMES-USCENSUS"
"8/31/2021 12:00:00 AM","Danville city","Virginia","South","South Atlantic","51590","36.583334","-79.408071 ","5078","155","20","1","8/30/2021 12:00:00 AM","2019","40044","NYTIMES-USCENSUS"
"8/31/2021 12:00:00 AM","Simpson County","Kentucky","South","East South Central","21213","36.740937","-86.581793 ","2514","45","9","0","8/30/2021 12:00:00 AM","2019","18572","NYTIMES-USCENSUS"
"8/31/2021 12:00:00 AM","Walworth County","South Dakota","Midwest","West North Central","46129","45.427605","-100.027856 ","792","15","1","0","8/30/2021 12:00:00 AM","2019","5435","NYTIMES-USCENSUS"
"8/31/2021 12:00:00 AM","Orange County","North Carolina","South","South Atlantic","37135","36.062526","-79.120034 ","9964","102","78","0","8/30/2021 12:00:00 AM","2019","148476","NYTIMES-USCENSUS"
"8/31/2021 12:00:00 AM","Scott County","Missouri","Midwest","West North Central","29201","37.047793","-89.568098 ","5841","94","27","2","8/30/2021 12:00:00 AM","2019","38280","NYTIMES-USCENSUS"
"8/31/2021 12:00:00 AM","Lake County","Colorado","West","Mountain","08065","39.205341","-106.350079 ","916","1","3","0","8/30/2021 12:00:00 AM","2019","8127","NYTIMES-USCENSUS"
"8/31/2021 12:00:00 AM","DeKalb County","Indiana","Midwest","East North Central","18033","41.39676","-85.002697 ","5150","92","10","0","8/30/2021 12:00:00 AM","2019","43475","NYTIMES-USCENSUS"
"8/31/2021 12:00:00 AM","Crittenden County","Arkansas","South","West South Central","05035","35.197559","-90.30512 ","7567","109","53","0","8/30/2021 12:00:00 AM","2019","47955","NYTIMES-USCENSUS"
"8/31/2021 12:00:00 AM","Surry County","Virginia","South","South Atlantic","51181","37.119761","-76.880172 ","504","9","11","0","8/30/2021 12:00:00 AM","2019","6422","NYTIMES-USCENSUS"
"8/31/2021 12:00:00 AM","Lebanon County","Pennsylvania","Northeast","Middle Atlantic","42075","40.371448","-76.464819 ","17181","304","48","1","8/30/2021 12:00:00 AM","2019","141793","NYTIMES-USCENSUS"
"8/31/2021 12:00:00 AM","Eagle County","Colorado","West","Mountain","08037","39.626992","-106.695169 ","7220","28","60","0","8/30/2021 12:00:00 AM","2019","55127","NYTIMES-USCENSUS"
"8/31/2021 12:00:00 AM","Wayne County","Mississippi","South","East South Central","28153","31.642503","-88.678214 ","3786","58","3","0","8/30/2021 12:00:00 AM","2019","20183","NYTIMES-USCENSUS"
"8/31/2021 12:00:00 AM","Adams County","Ohio","Midwest","East North Central","39001","38.834468","-83.478082 ","2937","61","23","1","8/30/2021 12:00:00 AM","2019","27698","NYTIMES-USCENSUS"
"8/31/2021 12:00:00 AM","Mills County","Texas","South","West South Central","48333","31.494888","-98.594623 ","740","24","1","0","8/30/2021 12:00:00 AM","2019","4873","NYTIMES-USCENSUS"
"8/31/2021 12:00:00 AM","Linn County","Oregon","West","Pacific","41043","44.488898","-122.537208 ","8437","83","170","0","8/30/2021 12:00:00 AM","2019","129749","NYTIMES-USCENSUS"
"8/31/2021 12:00:00 AM","Winchester city","Virginia","South","South Atlantic","51840","39.173869","-78.176356 ","3193","49","10","0","8/30/2021 12:00:00 AM","2019","28078","NYTIMES-USCENSUS"
"8/31/2021 12:00:00 AM","Lafayette County","Wisconsin","Midwest","East North Central","55065","42.655578","-90.130292 ","1787","10","0","0","8/30/2021 12:00:00 AM","2019","16665","NYTIMES-USCENSUS"
"8/31/2021 12:00:00 AM","Norton city","Virginia","South","South Atlantic","51720","36.931549","-82.625996 ","373","8","1","0","8/30/2021 12:00:00 AM","2019","3981","NYTIMES-USCENSUS"
"8/31/2021 12:00:00 AM","Clark County","Kentucky","South","East South Central","21049","37.970314","-84.145115 ","3931","32","46","0","8/30/2021 12:00:00 AM","2019","36263","NYTIMES-USCENSUS"
"8/31/2021 12:00:00 AM","Chattahoochee County","Georgia","South","South Atlantic","13053","32.347445","-84.788021 ","5087","17","5","0","8/30/2021 12:00:00 AM","2019","10907","NYTIMES-USCENSUS"
"8/31/2021 12:00:00 AM","Evangeline Parish","Louisiana","South","West South Central","22039","30.720693","-92.404086 ","5044","109","0","0","8/30/2021 12:00:00 AM","2019","33395","NYTIMES-USCENSUS"
"8/31/2021 12:00:00 AM","Hubbard County","Minnesota","Midwest","West North Central","27057","47.095551","-94.91329 ","2122","41","12","0","8/30/2021 12:00:00 AM","2019","21491","NYTIMES-USCENSUS"
"8/31/2021 12:00:00 AM","Hamblen County","Tennessee","South","East South Central","47063","36.218397","-83.266071 ","10793","181","94","0","8/30/2021 12:00:00 AM","2019","64934","NYTIMES-USCENSUS"
"8/31/2021 12:00:00 AM","Westmoreland County","Virginia","South","South Atlantic","51193","38.109311","-76.803933 ","1447","29","7","0","8/30/2021 12:00:00 AM","2019","18015","NYTIMES-USCENSUS"
"8/31/2021 12:00:00 AM","Tipton County","Tennessee","South","East South Central","47167","35.498763","-89.747145 ","9521","111","87","1","8/30/2021 12:00:00 AM","2019","61599","NYTIMES-USCENSUS"
"8/31/2021 12:00:00 AM","Livingston County","Missouri","Midwest","West North Central","29117","39.778587","-93.548201 ","2426","58","2","2","8/30/2021 12:00:00 AM","2019","15227","NYTIMES-USCENSUS"
"8/31/2021 12:00:00 AM","Marshall County","Alabama","South","East South Central","01095","34.309564","-86.321668 ","15572","249","125","1","8/30/2021 12:00:00 AM","2019","96774","NYTIMES-USCENSUS"
"8/31/2021 12:00:00 AM","Lee County","Texas","South","West South Central","48287","30.321498","-96.976823 ","2611","43","15","0","8/30/2021 12:00:00 AM","2019","17239","NYTIMES-USCENSUS"
"8/31/2021 12:00:00 AM","Brunswick County","Virginia","South","South Atlantic","51025","36.764204","-77.861483 ","1520","27","9","0","8/30/2021 12:00:00 AM","2019","16231","NYTIMES-USCENSUS"
"8/31/2021 12:00:00 AM","Terrell County","Georgia","South","South Atlantic","13273","31.777191","-84.439446 ","1015","50","17","0","8/30/2021 12:00:00 AM","2019","8531","NYTIMES-USCENSUS"
"8/31/2021 12:00:00 AM","Lyon County","Nevada","West","Mountain","32019","39.022213","-119.197425 ","4547","76","135","0","8/30/2021 12:00:00 AM","2019","57510","NYTIMES-USCENSUS"
"8/31/2021 12:00:00 AM","Carroll County","Virginia","South","South Atlantic","51035","36.731963","-80.727831 ","3070","81","13","0","8/30/2021 12:00:00 AM","2019","29791","NYTIMES-USCENSUS"
"8/31/2021 12:00:00 AM","Seminole County","Georgia","South","South Atlantic","13253","30.93396","-84.867685 ","1375","20","17","0","8/30/2021 12:00:00 AM","2019","8090","NYTIMES-USCENSUS"
"8/31/2021 12:00:00 AM","Oklahoma County","Oklahoma","South","West South Central","40109","35.554611","-97.409401 ","99695","1356","0","0","8/30/2021 12:00:00 AM","2019","797434","NYTIMES-USCENSUS"
"8/31/2021 12:00:00 AM","Marion County","Ohio","Midwest","East North Central","39101","40.588034","-83.168803 ","9577","141","47","1","8/30/2021 12:00:00 AM","2019","65093","NYTIMES-USCENSUS"
"8/31/2021 12:00:00 AM","Athens County","Ohio","Midwest","East North Central","39009","39.332755","-82.045885 ","5823","60","70","0","8/30/2021 12:00:00 AM","2019","65327","NYTIMES-USCENSUS"
"8/31/2021 12:00:00 AM","Macon County","North Carolina","South","South Atlantic","37113","35.152959","-83.421901 ","3782","43","25","0","8/30/2021 12:00:00 AM","2019","35858","NYTIMES-USCENSUS"
"8/31/2021 12:00:00 AM","Meade County","Kentucky","South","East South Central","21163","37.967476","-86.200863 ","2649","29","12","0","8/30/2021 12:00:00 AM","2019","28572","NYTIMES-USCENSUS"
"8/31/2021 12:00:00 AM","Jefferson Parish","Louisiana","South","West South Central","22051","29.5033","-90.036231 ","65340","1018","0","0","8/30/2021 12:00:00 AM","2019","432493","NYTIMES-USCENSUS"
"8/31/2021 12:00:00 AM","Pike County","Kentucky","South","East South Central","21195","37.486031","-82.410912 ","8020","126","82","0","8/30/2021 12:00:00 AM","2019","57876","NYTIMES-USCENSUS"
"8/31/2021 12:00:00 AM","Stearns County","Minnesota","Midwest","West North Central","27145","45.555235","-94.610482 ","23853","232","136","1","8/30/2021 12:00:00 AM","2019","161075","NYTIMES-USCENSUS"
"8/31/2021 12:00:00 AM","Ware County","Georgia","South","South Atlantic","13299","31.050881","-82.421507 ","6626","200","55","1","8/30/2021 12:00:00 AM","2019","35734","NYTIMES-USCENSUS"
"8/31/2021 12:00:00 AM","Carroll County","Mississippi","South","East South Central","28015","33.440795","-89.918887 ","1485","35","4","0","8/30/2021 12:00:00 AM","2019","9947","NYTIMES-USCENSUS"
"8/31/2021 12:00:00 AM","Kershaw County","South Carolina","South","South Atlantic","45055","34.338356","-80.590885 ","9812","159","40","3","8/30/2021 12:00:00 AM","2019","66551","NYTIMES-USCENSUS"
"8/31/2021 12:00:00 AM","Tom Green County","Texas","South","West South Central","48451","31.398823","-100.463788 ","21715","307","159","5","8/30/2021 12:00:00 AM","2019","119200","NYTIMES-USCENSUS"
"8/31/2021 12:00:00 AM","Branch County","Michigan","Midwest","East North Central","26023","41.918455","-85.066885 ","6378","125","0","0","8/30/2021 12:00:00 AM","2019","43517","NYTIMES-USCENSUS"
"8/31/2021 12:00:00 AM","Chippewa County","Wisconsin","Midwest","East North Central","55017","45.069092","-91.283505 ","8458","100","45","0","8/30/2021 12:00:00 AM","2019","64658","NYTIMES-USCENSUS"
"8/31/2021 12:00:00 AM","Mono County","California","West","Pacific","06051","37.915836","-118.875167 ","1433","5","0","0","8/30/2021 12:00:00 AM","2019","14444","NYTIMES-USCENSUS"
"8/31/2021 12:00:00 AM","Oglala Lakota County","South Dakota","Midwest","West North Central","46102","43.333393","-102.561486 ","2172","51","5","0","8/30/2021 12:00:00 AM","2019","14177","NYTIMES-USCENSUS"
"8/31/2021 12:00:00 AM","Kankakee County","Illinois","Midwest","East North Central","17091","41.13951","-87.861117 ","15680","235","45","0","8/30/2021 12:00:00 AM","2019","109862","NYTIMES-USCENSUS"
"8/31/2021 12:00:00 AM","Chariton County","Missouri","Midwest","West North Central","29041","39.517968","-92.96162 ","928","8","4","0","8/30/2021 12:00:00 AM","2019","7426","NYTIMES-USCENSUS"
"8/31/2021 12:00:00 AM","Overton County","Tennessee","South","East South Central","47133","36.34485","-85.283076 ","3707","63","42","0","8/30/2021 12:00:00 AM","2019","22241","NYTIMES-USCENSUS"
"8/31/2021 12:00:00 AM","Knott County","Kentucky","South","East South Central","21119","37.354368","-82.952546 ","1636","25","13","0","8/30/2021 12:00:00 AM","2019","14806","NYTIMES-USCENSUS"
"8/31/2021 12:00:00 AM","Somerset County","New Jersey","Northeast","Middle Atlantic","34035","40.565527","-74.619938 ","32238","851","71","1","8/30/2021 12:00:00 AM","2019","328934","NYTIMES-USCENSUS"
"8/31/2021 12:00:00 AM","Georgetown County","South Carolina","South","South Atlantic","45043","33.417531","-79.296333 ","8104","151","48","0","8/30/2021 12:00:00 AM","2019","62680","NYTIMES-USCENSUS"
"8/31/2021 12:00:00 AM","Allen Parish","Louisiana","South","West South Central","22003","30.652744","-92.819605 ","4145","95","0","0","8/30/2021 12:00:00 AM","2019","25627","NYTIMES-USCENSUS"
"8/31/2021 12:00:00 AM","Ouachita Parish","Louisiana","South","West South Central","22073","32.480932","-92.151581 ","26682","502","0","0","8/30/2021 12:00:00 AM","2019","153279","NYTIMES-USCENSUS"
"8/31/2021 12:00:00 AM","Madison County","Ohio","Midwest","East North Central","39097","39.896607","-83.400885 ","4858","65","30","0","8/30/2021 12:00:00 AM","2019","44731","NYTIMES-USCENSUS"
"8/31/2021 12:00:00 AM","Johnson County","Tennessee","South","East South Central","47091","36.453203","-81.861247 ","2807","40","22","0","8/30/2021 12:00:00 AM","2019","17788","NYTIMES-USCENSUS"
"8/31/2021 12:00:00 AM","Jim Hogg County","Texas","South","West South Central","48247","27.053231","-98.747572 ","759","17","2","0","8/30/2021 12:00:00 AM","2019","5200","NYTIMES-USCENSUS"
"8/31/2021 12:00:00 AM","Kearny County","Kansas","Midwest","West North Central","20093","37.994461","-101.308136 ","634","10","0","0","8/30/2021 12:00:00 AM","2019","3838","NYTIMES-USCENSUS"
"8/31/2021 12:00:00 AM","Grant County","Kansas","Midwest","West North Central","20067","37.547537","-101.299362 ","1093","22","4","0","8/30/2021 12:00:00 AM","2019","7150","NYTIMES-USCENSUS"
"8/31/2021 12:00:00 AM","Gray County","Texas","South","West South Central","48179","35.402542","-100.812374 ","2823","62","0","0","8/30/2021 12:00:00 AM","2019","21886","NYTIMES-USCENSUS"
"8/31/2021 12:00:00 AM","Santa Fe County","New Mexico","West","Mountain","35049","35.514531","-105.963972 ","11890","156","35","0","8/30/2021 12:00:00 AM","2019","150358","NYTIMES-USCENSUS"
"8/31/2021 12:00:00 AM","Victoria County","Texas","South","West South Central","48469","28.79637","-96.971198 ","11598","256","135","0","8/30/2021 12:00:00 AM","2019","92084","NYTIMES-USCENSUS"
"8/31/2021 12:00:00 AM","Malheur County","Oregon","West","Pacific","41045","43.188625","-117.603191 ","4151","66","73","0","8/30/2021 12:00:00 AM","2019","30571","NYTIMES-USCENSUS"
"8/31/2021 12:00:00 AM","Wayne County","Nebraska","Midwest","West North Central","31179","42.210746","-97.126243 ","1178","7","0","0","8/30/2021 12:00:00 AM","2019","9385","NYTIMES-USCENSUS"
"8/31/2021 12:00:00 AM","Muscatine County","Iowa","Midwest","West North Central","19139","41.483776","-91.118699 ","5225","107","0","0","8/30/2021 12:00:00 AM","2019","42664","NYTIMES-USCENSUS"
"8/31/2021 12:00:00 AM","Carroll County","Georgia","South","South Atlantic","13045","33.582237","-85.080527 ","14389","257","143","2","8/30/2021 12:00:00 AM","2019","119992","NYTIMES-USCENSUS"
"8/31/2021 12:00:00 AM","Washington County","Virginia","South","South Atlantic","51191","36.747814","-81.950322 ","5779","115","44","0","8/30/2021 12:00:00 AM","2019","53740","NYTIMES-USCENSUS"
"8/31/2021 12:00:00 AM","Union County","Oregon","West","Pacific","41061","45.304081","-117.999149 ","2323","32","11","1","8/30/2021 12:00:00 AM","2019","26835","NYTIMES-USCENSUS"
"8/31/2021 12:00:00 AM","Chautauqua County","New York","Northeast","Middle Atlantic","36013","42.304216","-79.407595 ","9692","151","35","0","8/30/2021 12:00:00 AM","2019","126903","NYTIMES-USCENSUS"
"8/31/2021 12:00:00 AM","Rock Island County","Illinois","Midwest","East North Central","17161","41.468421","-90.572125 ","16771","377","58","2","8/30/2021 12:00:00 AM","2019","141879","NYTIMES-USCENSUS"
"8/31/2021 12:00:00 AM","Coweta County","Georgia","South","South Atlantic","13077","33.352897","-84.762138 ","17902","249","151","1","8/30/2021 12:00:00 AM","2019","148509","NYTIMES-USCENSUS"
"8/31/2021 12:00:00 AM","Izard County","Arkansas","South","West South Central","05065","36.094879","-91.913625 ","2204","51","9","0","8/30/2021 12:00:00 AM","2019","13629","NYTIMES-USCENSUS"
"8/31/2021 12:00:00 AM","Chesterfield County","South Carolina","South","South Atlantic","45025","34.637018","-80.159227 ","5764","118","21","0","8/30/2021 12:00:00 AM","2019","45650","NYTIMES-USCENSUS"
"8/31/2021 12:00:00 AM","Lincoln County","Wisconsin","Midwest","East North Central","55069","45.333148","-89.73224 ","3506","101","10","1","8/30/2021 12:00:00 AM","2019","27593","NYTIMES-USCENSUS"
"8/31/2021 12:00:00 AM","Scott County","Iowa","Midwest","West North Central","19163","41.642079","-90.622289 ","21668","252","0","0","8/30/2021 12:00:00 AM","2019","172943","NYTIMES-USCENSUS"
"8/31/2021 12:00:00 AM","Chesapeake city","Virginia","South","South Atlantic","51550","36.679376","-76.301788 ","24539","314","132","1","8/30/2021 12:00:00 AM","2019","244835","NYTIMES-USCENSUS"
"8/31/2021 12:00:00 AM","Audubon County","Iowa","Midwest","West North Central","19009","41.679178","-94.904312 ","561","14","0","0","8/30/2021 12:00:00 AM","2019","5496","NYTIMES-USCENSUS"
"8/31/2021 12:00:00 AM","Gwinnett County","Georgia","South","South Atlantic","13135","33.958756","-84.025735 ","115842","1254","498","7","8/30/2021 12:00:00 AM","2019","936250","NYTIMES-USCENSUS"
"8/31/2021 12:00:00 AM","Clarke County","Mississippi","South","East South Central","28023","32.045374","-88.687976 ","2519","81","2","0","8/30/2021 12:00:00 AM","2019","15541","NYTIMES-USCENSUS"
"8/31/2021 12:00:00 AM","Boone County","Indiana","Midwest","East North Central","18011","40.050892","-86.469014 ","7821","114","20","2","8/30/2021 12:00:00 AM","2019","67843","NYTIMES-USCENSUS"
"8/31/2021 12:00:00 AM","Henderson County","North Carolina","South","South Atlantic","37089","35.336415","-82.479741 ","12497","166","28","0","8/30/2021 12:00:00 AM","2019","117417","NYTIMES-USCENSUS"
"8/31/2021 12:00:00 AM","Knox County","Tennessee","South","East South Central","47093","35.992726","-83.937721 ","61842","707","521","9","8/30/2021 12:00:00 AM","2019","470313","NYTIMES-USCENSUS"
"8/31/2021 12:00:00 AM","Franklin County","Idaho","West","Mountain","16041","42.173609","-111.822965 ","1338","19","8","0","8/30/2021 12:00:00 AM","2019","13876","NYTIMES-USCENSUS"
"8/31/2021 12:00:00 AM","Hamilton County","Iowa","Midwest","West North Central","19079","42.390789","-93.70913 ","1989","52","0","0","8/30/2021 12:00:00 AM","2019","14773","NYTIMES-USCENSUS"
"8/31/2021 12:00:00 AM","Pinellas County","Florida","South","South Atlantic","12103","27.905342","-82.798066 ","114284","1671","0","0","8/30/2021 12:00:00 AM","2019","974996","NYTIMES-USCENSUS"
"8/31/2021 12:00:00 AM","Chesterfield County","Virginia","South","South Atlantic","51041","37.378434","-77.585847 ","32685","465","161","0","8/30/2021 12:00:00 AM","2019","352802","NYTIMES-USCENSUS"
"8/31/2021 12:00:00 AM","Benton County","Minnesota","Midwest","West North Central","27009","45.701225","-94.00144 ","6123","98","34","0","8/30/2021 12:00:00 AM","2019","40889","NYTIMES-USCENSUS"
"8/31/2021 12:00:00 AM","Ross County","Ohio","Midwest","East North Central","39141","39.323895","-83.059538 ","7896","168","75","1","8/30/2021 12:00:00 AM","2019","76666","NYTIMES-USCENSUS"
"8/31/2021 12:00:00 AM","Mille Lacs County","Minnesota","Midwest","West North Central","27095","45.929043","-93.632996 ","3374","58","25","0","8/30/2021 12:00:00 AM","2019","26277","NYTIMES-USCENSUS"
"8/31/2021 12:00:00 AM","Brewster County","Texas","South","West South Central","48043","29.808997","-103.252458 ","992","18","0","0","8/30/2021 12:00:00 AM","2019","9203","NYTIMES-USCENSUS"
"8/31/2021 12:00:00 AM","DeSoto County","Florida","South","South Atlantic","12027","27.190581","-81.806253 ","5610","97","0","0","8/30/2021 12:00:00 AM","2019","38001","NYTIMES-USCENSUS"
"8/31/2021 12:00:00 AM","Jones County","Mississippi","South","East South Central","28067","31.616601","-89.168532 ","12024","191","46","0","8/30/2021 12:00:00 AM","2019","68098","NYTIMES-USCENSUS"
